Date	Latitude(deg) 	Longitude(deg)	hamsl(m)	hafl(m)	climbrate(cm/s)	GroundSpeed(m/s)	Airspeed(m/s)	Mav_Link(%)	Rssi_Link(%)	Throttle	Roll(deg)	Pitch(deg)	Yaw(deg)
18:19:48:12	47.03817	-121.6157	1243.379	0	0	25.14	0	23	0	0	0	0	0	
18:19:48:91	47.03817	-121.6157	1243.379	0	0	25.14	0	24	0	0	0.005158481	-0.002473964	-0.02185369	
18:19:48:292	47.03817	-121.6157	1243.379	0	0	25.14	0	25	0	0	0.005158481	-0.002473964	-0.02185369	
18:19:48:492	47.03817	-121.6157	1243.379	0	0	25.14	0	27	0	0	0.005158481	-0.002473964	-0.02185369	
18:19:48:693	47.03817	-121.6157	1243.379	1242.453	0.347852	25.14	22.46454	28	0	50	0.005158481	-0.002473964	-0.02185369	
18:19:48:894	47.03817	-121.6157	1243.379	1242.453	0.347852	25.14	22.46454	29	0	50	0.005158481	-0.002473964	-0.02185369	
18:19:49:95	47.03817	-121.6157	1243.379	1242.453	0.347852	25.14	22.46454	30	0	50	0.005158481	-0.002473964	-0.02185369	
18:19:49:290	47.03817	-121.6157	1243.379	1242.453	0.347852	25.14	22.46454	31	0	50	0.005158481	-0.002473964	-0.02185369	
18:19:49:496	47.03817	-121.6157	1243.379	1242.453	0.347852	25.14	22.46454	32	0	50	0.005158481	-0.002473964	-0.02185369	
18:19:49:696	47.03817	-121.6157	1243.379	1242.453	0.4605574	25.14	22.46454	33	0	50	0.005158481	-0.002473964	-0.02185369	
18:19:49:901	47.03817	-121.6157	1243.379	1242.453	0.4605574	25.14	22.46454	34	0	50	0.005158481	-0.002473964	-0.02185369	
18:19:50:97	47.03817	-121.6157	1243.379	1242.453	0.4605574	25.14	22.46454	35	0	50	0.005158481	-0.002473964	-0.02185369	
18:19:50:294	47.03817	-121.6157	1243.379	1242.453	0.4605574	25.14	22.46454	36	0	50	0.005158481	-0.002473964	-0.02185369	
18:19:50:499	47.03817	-121.6157	1243.379	1242.453	0.4605574	25.14	22.46454	37	0	50	0.005158481	-0.002473964	-0.02185369	
18:19:50:700	47.03817	-121.6157	1243.379	1242.453	0.5416583	25.14	22.46454	37	0	50	0.005158481	-0.002473964	-0.02185369	
18:19:50:901	47.03817	-121.6157	1243.379	1242.453	0.5416583	25.14	22.46454	38	0	50	0.005158481	-0.002473964	-0.02185369	
18:19:51:101	47.03817	-121.6157	1243.379	1242.453	0.5416583	25.14	22.46454	39	0	50	0.005158481	-0.002473964	-0.02185369	
18:19:51:302	47.03817	-121.6157	1243.379	1242.453	0.5416583	25.14	22.46454	40	0	50	0.005158481	-0.002473964	-0.02185369	
18:19:51:503	47.03817	-121.6157	1243.379	1242.453	0.5416583	25.14	22.46454	41	0	50	0.005158481	-0.002473964	-0.02185369	
18:19:51:731	47.03817	-121.6157	1243.379	1242.453	0.6505558	25.14	22.46454	42	0	50	0.005416455	-0.002597559	-0.02294639	
18:19:51:903	47.03817	-121.6157	1243.379	1242.453	0.6505558	25.14	22.46454	42	0	50	0.005158481	-0.002473964	-0.02185369	
18:19:52:105	47.03817	-121.6157	1243.379	1242.453	0.6505558	25.14	22.46454	43	0	50	0.005158481	-0.002473964	-0.02185369	
18:19:52:307	47.03817	-121.6157	1243.379	1242.453	0.6505558	25.14	22.46454	44	0	50	0.005158481	-0.002473964	-0.02185369	
18:19:52:507	47.03817	-121.6157	1243.379	1242.453	0.6505558	25.14	22.46454	45	0	50	0.005158481	-0.002473964	-0.02185369	
18:19:52:707	47.03817	-121.6157	1243.379	1242.453	0.728445	25.14	22.46454	46	0	50	0.005158481	-0.002473964	-0.02185369	
18:19:52:907	47.03817	-121.6157	1243.379	1242.453	0.728445	25.14	22.46454	47	0	50	0.005158481	-0.002473964	-0.02185369	
18:19:53:141	47.03817	-121.6157	1243.379	1242.453	0.728445	25.14	22.46454	47	0	50	0.005158481	-0.002473964	-0.02185369	
18:19:53:309	47.03817	-121.6157	1243.379	1242.453	0.728445	25.14	22.46454	48	0	50	0.005158481	-0.002473964	-0.02185369	
18:19:53:506	47.03817	-121.6157	1243.379	1242.453	0.728445	25.14	22.46454	49	0	50	0.005158481	-0.002473964	-0.02185369	
18:19:53:707	47.03817	-121.6157	1243.379	1242.453	0.8643569	25.14	22.46454	50	0	50	0.005158481	-0.002473964	-0.02185369	
18:19:53:907	47.03817	-121.6157	1243.379	1242.453	0.8643569	25.14	22.46454	50	0	50	0.005158481	-0.002473964	-0.02185369	
18:19:54:107	47.03817	-121.6157	1243.379	1242.453	0.8643569	25.14	22.46454	51	0	50	0.005158481	-0.002473964	-0.02185369	
18:19:54:345	47.03817	-121.6157	1243.379	1242.453	0.8643569	25.14	22.46454	52	0	50	0.005158481	-0.002473964	-0.02185369	
18:19:54:509	47.03817	-121.6157	1243.379	1242.453	0.8643569	25.14	22.46454	52	0	50	0.005158481	-0.002473964	-0.02185369	
18:19:54:710	47.03817	-121.6157	1243.379	1242.453	0.9613219	25.14	22.46454	53	0	50	0.005158481	-0.002473964	-0.02185369	
18:19:54:910	47.03817	-121.6157	1243.379	1242.453	0.9613219	25.14	22.46454	53	0	50	0.005158481	-0.002473964	-0.02185369	
18:19:55:112	47.03817	-121.6157	1243.379	1242.453	0.9613219	25.14	22.46454	54	0	50	0.005158481	-0.002473964	-0.02185369	
18:19:55:311	47.03817	-121.6157	1243.379	1242.453	0.9613219	25.14	22.46454	54	0	50	0.005158481	-0.002473964	-0.02185369	
18:19:55:518	47.03817	-121.6157	1243.379	1242.453	0.9613219	25.14	22.46454	55	0	50	0.005158481	-0.002473964	-0.02185369	
18:19:55:738	47.03817	-121.6157	1243.379	1242.453	1.061301	25.14	22.46454	56	0	50	0.005158481	-0.002473964	-0.02185369	
18:19:55:915	47.03817	-121.6157	1243.379	1242.453	1.061301	25.14	22.46454	56	0	50	0.005158481	-0.002473964	-0.02185369	
18:19:56:116	47.03817	-121.6157	1243.379	1242.453	1.061301	25.14	22.46454	57	0	50	0.005158481	-0.002473964	-0.02185369	
18:19:56:316	47.03817	-121.6157	1243.379	1242.453	1.061301	25.14	22.46454	57	0	50	0.005158481	-0.002473964	-0.02185369	
18:19:56:515	47.03817	-121.6157	1243.379	1242.453	1.061301	25.14	22.46454	58	0	50	0.005158481	-0.002473964	-0.02185369	
18:19:56:718	47.03817	-121.6157	1243.379	1242.453	1.165681	25.14	22.46454	58	0	50	0.005158481	-0.002473964	-0.02185369	
18:19:56:917	47.03817	-121.6157	1243.379	1242.453	1.165681	25.14	22.46454	59	0	50	0.005158481	-0.002473964	-0.02185369	
18:19:57:118	47.03817	-121.6157	1243.379	1242.453	1.165681	25.14	22.46454	59	0	50	0.005158481	-0.002473964	-0.02185369	
18:19:57:319	47.03817	-121.6157	1243.379	1242.453	1.165681	25.14	22.46454	60	0	50	0.005158481	-0.002473964	-0.02185369	
18:19:57:515	47.03817	-121.6157	1243.379	1242.453	1.165681	25.14	22.46454	60	0	50	0.005158481	-0.002473964	-0.02185369	
18:19:57:720	47.03817	-121.6157	1243.379	1242.453	1.269661	25.14	22.46454	61	0	50	0.005158481	-0.002473964	-0.02185369	
18:19:57:922	47.03817	-121.6157	1243.379	1242.453	1.269661	25.14	22.46454	61	0	50	0.005158481	-0.002473964	-0.02185369	
18:19:58:122	47.03817	-121.6157	1243.379	1242.453	1.269661	25.14	22.46454	62	0	50	0.005158481	-0.002473964	-0.02185369	
18:19:58:322	47.03817	-121.6157	1243.379	1242.453	1.269661	25.14	22.46454	62	0	50	0.005158481	-0.002473964	-0.02185369	
18:19:58:522	47.03817	-121.6157	1243.379	1242.453	1.269661	25.14	22.46454	63	0	50	0.005158481	-0.002473964	-0.02185369	
18:19:58:723	47.03817	-121.6157	1243.379	1242.453	1.361855	25.14	22.46454	63	0	50	0.005158481	-0.002473964	-0.02185369	
18:19:58:924	47.03817	-121.6157	1243.379	1242.453	1.361855	25.14	22.46454	64	0	50	0.005158481	-0.002473964	-0.02185369	
18:19:59:125	47.03817	-121.6157	1243.379	1242.453	1.361855	25.14	22.46454	64	0	50	0.005158481	-0.002473964	-0.02185369	
18:19:59:327	47.03817	-121.6157	1243.379	1242.453	1.361855	25.14	22.46454	65	0	50	0.005158481	-0.002473964	-0.02185369	
18:19:59:526	47.03817	-121.6157	1243.379	1242.453	1.361855	25.14	22.46454	65	0	50	0.005158481	-0.002473964	-0.02185369	
18:19:59:726	47.03817	-121.6157	1243.379	1242.453	1.394723	25.14	22.46454	65	0	50	0.005158481	-0.002473964	-0.02185369	
18:19:59:928	47.03817	-121.6157	1243.379	1242.453	1.394723	25.14	22.46454	66	0	50	0.005158481	-0.002473964	-0.02185369	
18:20:00:129	47.03817	-121.6157	1243.379	1242.453	1.394723	25.14	22.46454	66	0	50	0.005158481	-0.002473964	-0.02185369	
18:20:00:329	47.03817	-121.6157	1243.379	1242.453	1.394723	25.14	22.46454	67	0	50	0.005158481	-0.002473964	-0.02185369	
18:20:00:530	47.03817	-121.6157	1243.379	1242.453	1.394723	25.14	22.46454	67	0	50	0.005158481	-0.002473964	-0.02185369	
18:20:00:731	47.03817	-121.6157	1243.379	1242.453	1.563573	25.14	22.46454	67	0	50	0.005158481	-0.002473964	-0.02185369	
18:20:00:936	47.03817	-121.6157	1243.379	1242.453	1.563573	25.14	22.46454	68	0	50	0.005158481	-0.002473964	-0.02185369	
18:20:01:131	47.03817	-121.6157	1243.379	1242.453	1.563573	25.14	22.46454	68	0	50	0.005158481	-0.002473964	-0.02185369	
18:20:01:335	47.03817	-121.6157	1243.379	1242.453	1.563573	25.14	22.46454	68	0	50	0.005158481	-0.002473964	-0.02185369	
18:20:01:534	47.03817	-121.6157	1243.379	1242.453	1.563573	25.14	22.46454	69	0	50	0.005158481	-0.002473964	-0.02185369	
18:20:01:730	47.03817	-121.6157	1243.379	1242.453	1.585887	25.14	22.46454	69	0	50	0.005158481	-0.002473964	-0.02185369	
18:20:01:931	47.03817	-121.6157	1243.379	1242.453	1.585887	25.14	22.46454	69	0	50	0.005158481	-0.002473964	-0.02185369	
18:20:02:131	47.03817	-121.6157	1243.379	1242.453	1.585887	25.14	22.46454	70	0	50	0.005158481	-0.002473964	-0.02185369	
18:20:02:332	47.03817	-121.6157	1243.379	1242.453	1.585887	25.14	22.46454	70	0	50	0.005158481	-0.002473964	-0.02185369	
18:20:02:533	47.03817	-121.6157	1243.379	1242.453	1.585887	25.14	22.46454	71	0	50	0.005158481	-0.002473964	-0.02185369	
18:20:02:733	47.03817	-121.6157	1243.379	1242.453	1.73405	25.14	22.46454	71	0	50	0.005158481	-0.002473964	-0.02185369	
18:20:02:933	47.03817	-121.6157	1243.379	1242.453	1.73405	25.14	22.46454	71	0	50	0.005158481	-0.002473964	-0.02185369	
18:20:03:135	47.03817	-121.6157	1243.379	1242.453	1.73405	25.14	22.46454	72	0	50	0.005158481	-0.002473964	-0.02185369	
18:20:03:337	47.03817	-121.6157	1243.379	1242.453	1.73405	25.14	22.46454	72	0	50	0.005158481	-0.002473964	-0.02185369	
18:20:03:540	47.03817	-121.6157	1243.379	1242.453	1.73405	25.14	22.46454	72	0	50	0.005158481	-0.002473964	-0.02185369	
18:20:03:741	47.03817	-121.6157	1243.379	1242.453	1.774196	25.14	22.46454	73	0	50	0.005158481	-0.002473964	-0.02185369	
18:20:03:938	47.03817	-121.6157	1243.379	1242.453	1.774196	25.14	22.46454	73	0	50	0.005158481	-0.002473964	-0.02185369	
18:20:04:139	47.03817	-121.6157	1243.379	1242.453	1.774196	25.14	22.46454	73	0	50	0.005158481	-0.002473964	-0.02185369	
18:20:04:344	47.03817	-121.6157	1243.379	1242.453	1.774196	25.14	22.46454	73	0	50	0.005158481	-0.002473964	-0.02185369	
18:20:04:544	47.03817	-121.6157	1243.379	1242.453	1.774196	25.14	22.46454	74	0	50	0.005158481	-0.002473964	-0.02185369	
18:20:04:741	47.03817	-121.6157	1243.379	1242.453	1.96127	25.14	22.46454	74	0	50	0.005158481	-0.002473964	-0.02185369	
18:20:04:945	47.03817	-121.6157	1243.379	1242.453	1.96127	25.14	22.46454	74	0	50	0.005158481	-0.002473964	-0.02185369	
18:20:05:145	47.03817	-121.6157	1243.379	1242.453	1.96127	25.14	22.46454	75	0	50	0.005158481	-0.002473964	-0.02185369	
18:20:05:348	47.03817	-121.6157	1243.379	1242.453	1.96127	25.14	22.46454	75	0	50	0.005158481	-0.002473964	-0.02185369	
18:20:05:547	47.03817	-121.6157	1243.379	1242.453	1.96127	25.14	22.46454	75	0	50	0.005416455	-0.002597559	-0.02294639	
18:20:05:747	47.03817	-121.6157	1243.379	1242.453	1.964246	25.14	22.46454	75	0	50	0.005158481	-0.002473964	-0.02185369	
18:20:05:949	47.03817	-121.6157	1243.379	1242.453	1.964246	25.14	22.46454	76	0	50	0.005158481	-0.002473964	-0.02185369	
18:20:06:149	47.03817	-121.6157	1243.379	1242.453	1.964246	25.14	22.46454	76	0	50	0.005158481	-0.002473964	-0.02185369	
18:20:06:350	47.03817	-121.6157	1243.379	1242.453	1.964246	25.14	22.46454	76	0	50	0.005158481	-0.002473964	-0.02185369	
18:20:06:551	47.03817	-121.6157	1243.379	1242.453	1.964246	25.14	22.46454	76	0	50	0.005158481	-0.002473964	-0.02185369	
18:20:06:751	47.03817	-121.6157	1243.379	1242.453	2.149444	25.14	22.46454	77	0	50	0.005158481	-0.002473964	-0.02185369	
18:20:06:952	47.03817	-121.6157	1243.379	1242.453	2.149444	25.14	22.46454	77	0	50	0.005158481	-0.002473964	-0.02185369	
18:20:07:152	47.03817	-121.6157	1243.379	1242.453	2.149444	25.14	22.46454	77	0	50	0.005158481	-0.002473964	-0.02185369	
18:20:07:354	47.03817	-121.6157	1243.379	1242.453	2.149444	25.14	22.46454	77	0	50	0.005158481	-0.002473964	-0.02185369	
18:20:07:555	47.03817	-121.6157	1243.379	1242.453	2.149444	25.14	22.46454	78	0	50	0.005416455	-0.002597559	-0.02294639	
18:20:07:755	47.03817	-121.6157	1243.379	1242.453	2.155896	25.14	22.46454	78	0	50	0.005158481	-0.002473964	-0.02185369	
18:20:07:955	47.03817	-121.6157	1243.379	1242.453	2.155896	25.14	22.46454	78	0	50	0.005158481	-0.002473964	-0.02185369	
18:20:08:156	47.03817	-121.6157	1243.379	1242.453	2.155896	25.14	22.46454	78	0	50	0.005158481	-0.002473964	-0.02185369	
18:20:08:358	47.03817	-121.6157	1243.379	1242.453	2.155896	25.14	22.46454	79	0	50	0.005158481	-0.002473964	-0.02185369	
18:20:08:558	47.03817	-121.6157	1243.379	1242.453	2.155896	25.14	22.46454	79	0	50	0.005158481	-0.002473964	-0.02185369	
18:20:08:758	47.03817	-121.6157	1243.379	1242.453	2.362148	25.14	22.46454	79	0	50	0.005158481	-0.002473964	-0.02185369	
18:20:08:963	47.03817	-121.6157	1243.379	1242.453	2.362148	25.14	22.46454	79	0	50	0.005158481	-0.002473964	-0.02185369	
18:20:09:159	47.03817	-121.6157	1243.379	1242.453	2.362148	25.14	22.46454	80	0	50	0.005158481	-0.002473964	-0.02185369	
18:20:09:360	47.03817	-121.6157	1243.379	1242.453	2.362148	25.14	22.46454	80	0	50	0.005158481	-0.002473964	-0.02185369	
18:20:09:565	47.03817	-121.6157	1243.379	1242.453	2.362148	25.14	22.46454	80	0	50	0.005416455	-0.002597559	-0.02294639	
18:20:09:765	47.03817	-121.6157	1243.379	1242.453	2.346641	25.14	22.46454	80	0	50	0.005158481	-0.002473964	-0.02185369	
18:20:09:963	47.03817	-121.6157	1243.379	1242.453	2.346641	25.14	22.46454	80	0	50	0.005158481	-0.002473964	-0.02185369	
18:20:10:162	47.03817	-121.6157	1243.379	1242.453	2.346641	25.14	22.46454	81	0	50	0.005158481	-0.002473964	-0.02185369	
18:20:10:368	47.03817	-121.6157	1243.379	1242.453	2.346641	25.14	22.46454	81	0	50	0.005158481	-0.002473964	-0.02185369	
18:20:10:568	47.03817	-121.6157	1243.379	1242.453	2.346641	25.14	22.46454	81	0	50	0.005158481	-0.002473964	-0.02185369	
18:20:10:766	47.03817	-121.6157	1243.379	1242.453	2.56091	25.14	22.46454	81	0	50	0.005158481	-0.002473964	-0.02185369	
18:20:10:975	47.03817	-121.6157	1243.379	1242.453	2.56091	25.14	22.46454	81	0	50	0.005158481	-0.002473964	-0.02185369	
18:20:11:171	47.03817	-121.6157	1243.379	1242.453	2.56091	25.14	22.46454	81	0	50	0.005158481	-0.002473964	-0.02185369	
18:20:11:371	47.03817	-121.6157	1243.379	1242.453	2.56091	25.14	22.46454	82	0	50	0.005158481	-0.002473964	-0.02185369	
18:20:11:571	47.03817	-121.6157	1243.379	1242.453	2.56091	25.14	22.46454	82	0	50	0.005158481	-0.002473964	-0.02185369	
18:20:11:772	47.03817	-121.6157	1243.379	1242.453	2.538559	25.14	22.46454	82	0	50	0.005158481	-0.002473964	-0.02185369	
18:20:11:973	47.03817	-121.6157	1243.379	1242.453	2.538559	25.14	22.46454	82	0	50	0.005158481	-0.002473964	-0.02185369	
18:20:12:175	47.03817	-121.6157	1243.379	1242.453	2.538559	25.14	22.46454	82	0	50	0.005158481	-0.002473964	-0.02185369	
18:20:12:374	47.03817	-121.6157	1243.379	1242.453	2.538559	25.14	22.46454	83	0	50	0.005158481	-0.002473964	-0.02185369	
18:20:12:575	47.03817	-121.6157	1243.379	1242.453	2.538559	25.14	22.46454	83	0	50	0.005158481	-0.002473964	-0.02185369	
18:20:12:776	47.03817	-121.6157	1243.379	1242.453	2.757868	25.14	22.46454	83	0	50	0.005158481	-0.002473964	-0.02185369	
18:20:12:977	47.03817	-121.6157	1243.379	1242.453	2.757868	25.14	22.46454	83	0	50	0.005158481	-0.002473964	-0.02185369	
18:20:13:177	47.03817	-121.6157	1243.379	1242.453	2.757868	25.14	22.46454	83	0	50	0.005158481	-0.002473964	-0.02185369	
18:20:13:377	47.03817	-121.6157	1243.379	1242.453	2.757868	25.14	22.46454	84	0	50	0.005158481	-0.002473964	-0.02185369	
18:20:13:580	47.03817	-121.6157	1243.379	1242.453	2.757868	25.14	22.46454	84	0	50	0.005158481	-0.002473964	-0.02185369	
18:20:13:780	47.03817	-121.6157	1243.379	1242.453	2.788181	25.14	22.46454	84	0	50	0.005158481	-0.002473964	-0.02185369	
18:20:13:981	47.03817	-121.6157	1243.379	1242.453	2.788181	25.14	22.46454	84	0	50	0.005158481	-0.002473964	-0.02185369	
18:20:14:181	47.03817	-121.6157	1243.379	1242.453	2.788181	25.14	22.46454	84	0	50	0.005158481	-0.002473964	-0.02185369	
18:20:14:381	47.03817	-121.6157	1243.379	1242.453	2.788181	25.14	22.46454	84	0	50	0.005158481	-0.002473964	-0.02185369	
18:20:14:585	47.03817	-121.6157	1243.379	1242.453	2.788181	25.14	22.46454	84	0	50	0.005158481	-0.002473964	-0.02185369	
18:20:14:784	47.03817	-121.6157	1243.379	1242.453	2.960783	25.14	22.46454	85	0	50	0.005158481	-0.002473964	-0.02185369	
18:20:14:983	47.03817	-121.6157	1243.379	1242.453	2.960783	25.14	22.46454	85	0	50	0.005158481	-0.002473964	-0.02185369	
18:20:15:184	47.03817	-121.6157	1243.379	1242.453	2.960783	25.14	22.46454	85	0	50	0.005158481	-0.002473964	-0.02185369	
18:20:15:384	47.03817	-121.6157	1243.379	1242.453	2.960783	25.14	22.46454	85	0	50	0.005158481	-0.002473964	-0.02185369	
18:20:15:585	47.03817	-121.6157	1243.379	1242.453	2.960783	25.14	22.46454	85	0	50	0.005158481	-0.002473964	-0.02185369	
18:20:15:786	47.03817	-121.6157	1243.379	1242.453	2.995387	25.14	22.46454	85	0	50	0.005158481	-0.002473964	-0.02185369	
18:20:15:983	47.03817	-121.6157	1243.379	1242.453	2.995387	25.14	22.46454	85	0	50	0.005158481	-0.002473964	-0.02185369	
18:20:16:187	47.03817	-121.6157	1243.379	1242.453	2.995387	25.14	22.46454	86	0	50	0.005158481	-0.002473964	-0.02185369	
18:20:16:385	47.03817	-121.6157	1243.379	1242.453	2.995387	25.14	22.46454	86	0	50	0.005158481	-0.002473964	-0.02185369	
18:20:16:585	47.03817	-121.6157	1243.379	1242.453	2.995387	25.14	22.46454	86	0	50	0.005158481	-0.002473964	-0.02185369	
18:20:16:785	47.03817	-121.6157	1243.379	1242.453	3.20996	25.14	22.46454	86	0	50	0.005158481	-0.002473964	-0.02185369	
18:20:16:986	47.03817	-121.6157	1243.379	1242.453	3.20996	25.14	22.46454	86	0	50	0.005158481	-0.002473964	-0.02185369	
18:20:17:187	47.03817	-121.6157	1243.379	1242.453	3.20996	25.14	22.46454	86	0	50	0.005158481	-0.002473964	-0.02185369	
18:20:17:388	47.03817	-121.6157	1243.379	1242.453	3.20996	25.14	22.46454	86	0	50	0.005158481	-0.002473964	-0.02185369	
