Date	Latitude(deg) 	Longitude(deg)	hamsl(m)	hafl(m)	climbrate(cm/s)	GroundSpeed(m/s)	Airspeed(m/s)	Mav_Link(%)	Rssi_Link(%)	Throttle	Roll(deg)	Pitch(deg)	Yaw(deg)
17:51:37:602	0	0	0	0	0	0	0	100	0	0	0	0	0	
17:51:37:791	0	0	0	0	0	0	0	100	0	0	0.09076816	0.2432555	54.30001	
17:51:37:992	0	0	0	0	0	0	0	100	0	0	0.07936881	0.2365154	54.29975	
17:51:38:193	0	0	0	0	0	0	0	100	0	0	0.07577076	0.2325211	54.2948	
17:51:38:392	0	0	0	0.3693946	-35.58065	0	3	100	0	6453	0.06536781	0.2239592	54.28007	
17:51:38:594	0	0	0	0.3693946	-35.58065	0	3	100	0	6453	0.06444687	0.214959	54.28252	
17:51:38:795	0	0	0	0.3693946	-35.58065	0	3	100	0	6453	0.05419706	0.2013007	54.2816	
17:51:38:994	0	0	0	0.3693946	-35.58065	0	3	100	0	6453	0.05681993	0.1935861	54.27461	
17:51:39:195	0	0	0	0.3693946	-35.58065	0	3	100	0	6453	0.051482	0.1815816	54.27203	
17:51:39:434	0	0	0	1.556704	47.24434	0	3	100	0	6453	0.05696955	0.1644951	54.27548	
17:51:39:597	0	0	0	1.556704	47.24434	0	3	100	0	6453	0.04919681	0.1560284	54.28173	
17:51:39:797	0	0	0	1.556704	47.24434	0	3	100	0	6453	0.04419881	0.1404462	54.28394	
17:51:39:998	0	0	0	1.556704	47.24434	0	3	100	0	6453	0.04164582	0.1236168	54.28514	
17:51:40:199	0	0	0	1.556704	47.24434	0	3	100	0	6453	0.04577731	0.09201474	54.28403	
17:51:40:398	0	0	0	1.934498	59.31419	0	3	100	0	6453	0.05131458	0.08948304	54.28946	
17:51:40:600	0	0	0	1.934498	59.31419	0	3	100	0	6453	0.05408164	0.09738653	54.30441	
17:51:40:801	0	0	0	1.934498	59.31419	0	3	100	0	6453	0.04803951	0.09901746	54.31615	
17:51:41:1	0	0	0	1.934498	59.31419	0	3	100	0	6453	0.06850951	0.1009995	54.31446	
17:51:41:204	0	0	0	1.934498	59.31419	0	3	100	0	6453	0.07069074	0.1032115	54.319	
17:51:41:399	0	0	0	1.92054	50.77103	0	3	100	0	6453	0.0672393	0.102023	54.31556	
17:51:41:600	0	0	0	1.92054	50.77103	0	3	100	0	6453	0.07439689	0.1034812	54.32186	
17:51:41:801	0	0	0	1.92054	50.77103	0	3	100	0	6453	0.07280573	0.1003007	54.3195	
17:51:42:1	0	0	0	1.92054	50.77103	0	3	100	0	6453	0.0678747	0.110633	54.32812	
17:51:42:202	0	0	0	1.92054	50.77103	0	3	100	0	6453	0.07063742	0.1225	54.32551	
17:51:42:402	0	0	0	1.854738	40.90959	0	3	100	0	6453	0.07066897	0.1094484	54.31786	
17:51:42:603	0	0	0	1.854738	40.90959	0	3	100	0	6453	0.07706007	0.1085931	54.32724	
17:51:42:803	0	0	0	1.854738	40.90959	0	3	100	0	6453	0.07820256	0.1117649	54.35065	
17:51:43:4	0	0	0	1.854738	40.90959	0	3	100	0	6453	0.08389265	0.1193923	54.35534	
17:51:43:205	0	0	0	1.854738	40.90959	0	3	100	0	6453	0.08588497	0.1062175	54.36002	
17:51:43:405	0	0	0	1.542455	23.46058	0	3	100	0	6453	0.0779363	0.1028319	54.35846	
17:51:43:606	0	0	0	1.542455	23.46058	0	3	100	0	6453	0.08808175	0.1038466	54.34287	
17:51:43:807	0	0	0	1.542455	23.46058	0	3	100	0	6453	0.08927357	0.09269756	54.34818	
17:51:44:7	0	0	0	1.542455	23.46058	0	3	100	0	6453	0.08978891	0.08029395	54.34989	
17:51:44:208	0	0	0	1.542455	23.46058	0	3	100	0	6453	0.07999786	0.07411526	54.34057	
17:51:44:409	0	0	0	1.496696	24.70942	0	3	100	0	6453	0.07307953	0.05556529	54.34055	
17:51:44:628	0	0	0	1.496696	24.70942	0	3	100	0	6453	0.06582429	0.03274775	54.33051	
17:51:44:810	0	0	0	1.496696	24.70942	0	3	100	0	6453	0.06286823	0.01772147	54.3218	
17:51:45:12	0	0	0	1.496696	24.70942	0	3	100	0	6453	0.06299772	0.02030046	54.32486	
17:51:45:213	0	0	0	1.496696	24.70942	0	3	100	0	6453	0.05725144	0.007942469	54.33673	
17:51:45:413	0	0	0	1.543225	26.64225	0	3	100	0	6453	0.04637872	0.02495027	54.32735	
17:51:45:613	0	0	0	1.543225	26.64225	0	3	100	0	6453	0.0458784	0.01112464	54.34614	
17:51:45:814	0	0	0	1.543225	26.64225	0	3	100	0	6453	0.04254777	0.01193179	54.3458	
17:51:46:14	0	0	0	1.543225	26.64225	0	3	100	0	6453	0.04864914	0.02163021	54.33981	
17:51:46:216	0	0	0	1.543225	26.64225	0	3	100	0	6453	0.04981495	0.02168969	54.35084	
17:51:46:416	0	0	0	1.304997	16.38601	0	3	100	0	6453	0.04905478	0.04565543	54.36403	
17:51:46:616	0	0	0	1.304997	16.38601	0	3	100	0	6453	0.05130061	0.04492416	54.36706	
17:51:46:817	0	0	0	1.304997	16.38601	0	3	100	0	6453	0.04899313	0.02996456	54.38227	
17:51:47:18	0	0	0	1.304997	16.38601	0	3	100	0	6453	0.04756106	0.03940021	54.39764	
17:51:47:218	0	0	0	1.304997	16.38601	0	3	100	0	6453	0.03746594	0.0379327	54.40522	
17:51:47:425	0	0	0	1.37059	23.67036	0	3	100	0	6453	0.04155418	0.03463612	54.39776	
17:51:47:620	0	0	0	1.37059	23.67036	0	3	100	0	6453	0.05294384	0.03046235	54.39449	
17:51:47:820	0	0	0	1.37059	23.67036	0	3	100	0	6453	0.0491812	0.01954342	54.40078	
17:51:48:22	0	0	0	1.37059	23.67036	0	3	100	0	6453	0.05081723	0.025331	54.39989	
17:51:48:223	0	0	0	1.37059	23.67036	0	3	100	0	6453	0.045064	0.03355781	54.40227	
17:51:48:424	0	0	0	1.483235	28.14467	0	3	100	0	6453	0.03588749	0.03171486	54.40331	
17:51:48:656	0	0	0	1.483235	28.14467	0	3	100	0	6453	0.03370095	0.008936105	54.40922	
17:51:48:824	0	0	0	1.483235	28.14467	0	3	100	0	6453	0.03146641	-0.005664609	54.40979	
17:51:49:25	0	0	0	1.483235	28.14467	0	3	100	0	6453	0.0316339	-0.004072692	54.40738	
17:51:49:225	0	0	0	1.483235	28.14467	0	3	100	0	6453	0.03670095	0.004054474	54.40597	
17:51:49:427	0	0	0	1.617401	31.70236	0	3	100	0	6453	0.03448495	0.00870926	54.4014	
17:51:49:627	0	0	0	1.617401	31.70236	0	3	100	0	6453	0.04290902	0.02861152	54.4003	
17:51:49:827	0	0	0	1.617401	31.70236	0	3	100	0	6453	0.05078459	0.0288274	54.40842	
17:51:50:29	0	0	0	1.617401	31.70236	0	3	100	0	6453	0.04529566	0.01133099	54.41868	
17:51:50:228	0	0	0	1.617401	31.70236	0	3	100	0	6453	0.05258395	0.002906968	54.41768	
17:51:50:430	0	0	0	1.513425	22.90669	0	3	100	0	6453	0.04876878	0.006024516	54.42665	
17:51:50:631	0	0	0	1.513425	22.90669	0	3	100	0	6453	0.04610828	0.007101967	54.43413	
17:51:50:831	0	0	0	1.513425	22.90669	0	3	100	0	6453	0.05148083	0.03433828	54.44204	
17:51:51:33	0	0	0	1.513425	22.90669	0	3	100	0	6453	0.04868798	0.03903986	54.45295	
17:51:51:232	0	0	0	1.513425	22.90669	0	3	100	0	6453	0.04838515	0.01512217	54.45079	
17:51:51:434	0	0	0	1.782914	33.55603	0	3	100	0	6453	0.05450519	0.0230479	54.47486	
17:51:51:634	0	0	0	1.782914	33.55603	0	3	100	0	6453	0.0518061	0.03714098	54.48658	
17:51:51:835	0	0	0	1.782914	33.55603	0	3	100	0	6453	0.05276328	0.05044508	54.48565	
17:51:52:36	0	0	0	1.782914	33.55603	0	3	100	0	6453	0.05118456	0.04957525	54.48577	
17:51:52:236	0	0	0	1.782914	33.55603	0	3	100	0	6453	0.05407989	0.05513872	54.4964	
17:51:52:437	0	0	0	1.711274	22.16382	0	3	100	0	6453	0.05521049	0.06099259	54.49593	
17:51:52:637	0	0	0	1.711274	22.16382	0	3	100	0	6453	0.06166662	0.07793719	54.49079	
17:51:52:842	0	0	0	1.711274	22.16382	0	3	100	0	6453	0.0548075	0.06340905	54.49599	
17:51:53:38	0	0	0	1.711274	22.16382	0	3	100	0	6453	0.0485561	0.0578803	54.49773	
17:51:53:239	0	0	0	1.711274	22.16382	0	3	100	0	6453	0.04593514	0.08029309	54.49207	
17:51:53:440	0	0	0	1.606951	15.45942	0	3	100	0	6453	0.0405449	0.06467402	54.50123	
17:51:53:641	0	0	0	1.606951	15.45942	0	3	100	0	6453	0.03659669	0.04780626	54.48864	
17:51:53:843	0	0	0	1.606951	15.45942	0	3	100	0	6453	0.03248626	0.06730522	54.47781	
17:51:54:43	0	0	0	1.606951	15.45942	0	3	100	0	6453	0.03851837	0.07262309	54.48323	
17:51:54:242	0	0	0	1.606951	15.45942	0	3	100	0	6453	0.03489315	0.07634058	54.48709	
17:51:54:444	0	0	0	1.633276	17.19764	0	3	100	0	6453	0.04179872	0.07501036	54.49387	
17:51:54:646	0	0	0	1.633276	17.19764	0	3	100	0	6453	0.04646183	0.08463509	54.49389	
17:51:54:845	0	0	0	1.633276	17.19764	0	3	100	0	6453	0.05082747	0.1143605	54.50271	
17:51:55:50	0	0	0	1.633276	17.19764	0	3	100	0	6453	0.06087447	0.1347514	54.49869	
17:51:55:246	0	0	0	1.633276	17.19764	0	3	100	0	6453	0.05816932	0.1204492	54.49971	
17:51:55:450	0	0	0	1.659138	17.0148	0	3	100	0	6453	0.05483416	0.1183081	54.50917	
17:51:55:651	0	0	0	1.659138	17.0148	0	3	100	0	6453	0.05432383	0.1192792	54.5089	
17:51:55:849	0	0	0	1.659138	17.0148	0	3	100	0	6453	0.05452954	0.1260709	54.49796	
17:51:56:53	0	0	0	1.659138	17.0148	0	3	100	0	6453	0.046985	0.1282976	54.49624	
17:51:56:250	0	0	0	1.659138	17.0148	0	3	100	0	6453	0.04555696	0.1133056	54.50079	
17:51:56:454	0	0	0	1.689716	15.51066	0	3	100	0	6453	0.04336072	0.1013331	54.499	
17:51:56:655	0	0	0	1.689716	15.51066	0	3	100	0	6453	0.04266211	0.106804	54.4962	
17:51:56:857	0	0	0	1.689716	15.51066	0	3	100	0	6453	0.03768902	0.09366117	54.49131	
17:51:57:58	0	0	0	1.689716	15.51066	0	3	100	0	6453	0.03649654	0.09331644	54.48685	
17:51:57:257	0	0	0	1.689716	15.51066	0	3	100	0	6453	0.03477911	0.09948375	54.489	
17:51:57:458	0	0	0	1.613539	12.82158	0	3	100	0	6453	0.02781451	0.09884934	54.49606	
17:51:57:659	0	0	0	1.613539	12.82158	0	3	100	0	6453	0.03102239	0.1054836	54.50834	
17:51:57:855	0	0	0	1.613539	12.82158	0	3	100	0	6453	0.02750914	0.1155626	54.5094	
17:51:58:56	0	0	0	1.613539	12.82158	0	3	100	0	6453	0.03076604	0.1207973	54.50964	
17:51:58:257	0	0	0	1.613539	12.82158	0	3	100	0	6453	0.04219688	0.1409608	54.51077	
17:51:58:458	0	0	0	1.485267	5.696309	0	3	100	0	6453	0.04346014	0.1482334	54.50879	
17:51:58:658	0	0	0	1.485267	5.696309	0	3	100	0	6453	0.04272565	0.1693095	54.49874	
17:51:58:858	0	0	0	1.485267	5.696309	0	3	100	0	6453	0.04345198	0.1709765	54.50159	
17:51:59:60	0	0	0	1.485267	5.696309	0	3	100	0	6453	0.05769703	0.1636411	54.50336	
17:51:59:260	0	0	0	1.485267	5.696309	0	3	100	0	6453	0.0593031	0.1791835	54.51259	
17:51:59:461	0	0	0	1.242179	-3.880457	0	3	100	0	6453	0.05767292	0.1773378	54.50862	
17:51:59:661	0	0	0	1.242179	-3.880457	0	3	100	0	6453	0.05743591	0.1799084	54.5075	
17:51:59:858	0	0	0	1.242179	-3.880457	0	3	100	0	6453	0.05755676	0.2079503	54.5039	
17:52:00:58	0	0	0	1.242179	-3.880457	0	3	100	0	6453	0.05994017	0.2056933	54.48697	
17:52:00:260	0	0	0	1.242179	-3.880457	0	3	100	0	6453	0.07261626	0.2166936	54.47874	
17:52:00:461	0	0	0	1.490815	12.31292	0	3	100	0	6453	0.07438362	0.2104168	54.48208	
17:52:00:661	0	0	0	1.490815	12.31292	0	3	100	0	6453	0.07857592	0.2254948	54.48096	
17:52:00:861	0	0	0	1.490815	12.31292	0	3	100	0	6453	0.08537766	0.2237542	54.47737	
17:52:01:62	0	0	0	1.490815	12.31292	0	3	100	0	6453	0.09491084	0.24277	54.47879	
17:52:01:266	0	0	0	1.490815	12.31292	0	3	100	0	6453	0.08618641	0.2352715	54.47906	
17:52:01:465	0	0	0	1.444843	8.739463	0	3	100	0	6453	0.08381481	0.2378414	54.46909	
17:52:01:666	0	0	0	1.444843	8.739463	0	3	100	0	6453	0.08581965	0.2386766	54.45989	
17:52:01:864	0	0	0	1.444843	8.739463	0	3	100	0	6453	0.08677093	0.2474766	54.46729	
17:52:02:66	0	0	0	1.444843	8.739463	0	3	100	0	6453	0.09169476	0.2484578	54.45427	
17:52:02:266	0	0	0	1.444843	8.739463	0	3	100	0	6453	0.09197924	0.2438077	54.45118	
17:52:02:467	0	0	0	1.4833	10.07389	0	3	100	0	6453	0.1006449	0.240234	54.4636	
17:52:02:668	0	0	0	1.4833	10.07389	0	3	100	0	6453	0.1007002	0.2329961	54.47097	
17:52:02:872	0	0	0	1.4833	10.07389	0	3	100	0	6453	0.09213429	0.2296523	54.48349	
17:52:03:69	0	0	0	1.4833	10.07389	0	3	100	0	6453	0.0622026	0.2353635	54.47647	
17:52:03:274	0	0	0	1.4833	10.07389	0	3	100	0	6453	0.05593749	0.228407	54.45757	
17:52:03:475	0	0	0	1.446474	8.682379	0	3	100	0	6453	0.03664334	0.2384582	54.46804	
17:52:03:676	0	0	0	1.446474	8.682379	0	3	100	0	6453	0.07815479	0.2603763	54.45459	
17:52:03:876	0	0	0	1.446474	8.682379	0	3	100	0	6453	0.07471234	0.2717816	54.44911	
17:52:04:77	0	0	0	1.446474	8.682379	0	3	100	0	6453	0.06606741	0.2652279	54.43752	
17:52:04:277	0	0	0	1.446474	8.682379	0	3	100	0	6453	0.06295943	0.2420147	54.41986	
17:52:04:478	0	0	0	1.601847	16.52696	0	3	100	0	6453	0.07770351	0.2555528	54.41539	
17:52:04:679	0	0	0	1.601847	16.52696	0	3	100	0	6453	0.09218403	0.2779309	54.41183	
17:52:04:879	0	0	0	1.601847	16.52696	0	3	100	0	6453	0.0906552	0.2843843	54.40338	
17:52:05:80	0	0	0	1.601847	16.52696	0	3	100	0	6453	0.08662499	0.2660936	54.4035	
17:52:05:281	0	0	0	1.601847	16.52696	0	3	100	0	6453	0.0921137	0.2651516	54.39472	
17:52:05:482	0	0	0	1.813782	22.74998	0	3	100	0	6453	0.09438764	0.2639733	54.37329	
17:52:05:682	0	0	0	1.813782	22.74998	0	3	100	0	6453	0.09668916	0.2809441	54.36144	
17:52:05:883	0	0	0	1.813782	22.74998	0	3	100	0	6453	0.09925666	0.2689582	54.3545	
17:52:06:80	0	0	0	1.813782	22.74998	0	3	100	0	6453	0.09923492	0.2683616	54.34633	
17:52:06:281	0	0	0	1.813782	22.74998	0	3	100	0	6453	0.09996157	0.2832586	54.33419	
17:52:06:482	0	0	0	1.896789	18.60907	0	3	100	0	6453	0.1057549	0.2704955	54.31733	
17:52:06:687	0	0	0	1.896789	18.60907	0	3	100	0	6453	0.1082891	0.2865598	54.31037	
17:52:06:887	0	0	0	1.896789	18.60907	0	3	100	0	6453	0.1041361	0.2894321	54.29437	
17:52:07:83	0	0	0	1.896789	18.60907	0	3	100	0	6453	0.09734367	0.3006823	54.2948	
17:52:07:289	0	0	0	1.896789	18.60907	0	3	100	0	6453	0.09867395	0.2967772	54.28172	
17:52:07:486	0	0	0	1.813826	10.32355	0	3	100	0	6453	0.1058379	0.3073657	54.27317	
17:52:07:689	0	0	0	1.813826	10.32355	0	3	100	0	6453	0.1057078	0.3042781	54.26905	
17:52:07:890	0	0	0	1.813826	10.32355	0	3	100	0	6453	0.1151414	0.3122915	54.27283	
17:52:08:87	0	0	0	1.813826	10.32355	0	3	100	0	6453	0.1207026	0.348997	54.27092	
17:52:08:292	0	0	0	1.813826	10.32355	0	3	100	0	6453	0.1238771	0.3425316	54.25819	
17:52:08:492	0	0	0	1.705197	3.39707	0	3	100	0	6453	0.109459	0.3472088	54.2599	
17:52:08:693	0	0	0	1.705197	3.39707	0	3	100	0	6453	0.1210315	0.3764537	54.25345	
17:52:08:895	0	0	0	1.705197	3.39707	0	3	100	0	6453	0.1269839	0.384422	54.24498	
17:52:09:95	0	0	0	1.705197	3.39707	0	3	100	0	6453	0.1334912	0.3870234	54.23738	
17:52:09:295	0	0	0	1.705197	3.39707	0	3	100	0	6453	0.1305237	0.3831329	54.22554	
17:52:09:495	0	0	0	1.665301	1.378517	0	3	100	0	6453	0.1301505	0.3862938	54.22567	
17:52:09:697	0	0	0	1.665301	1.378517	0	3	100	0	6453	0.1403458	0.3896101	54.22447	
17:52:09:897	0	0	0	1.665301	1.378517	0	3	100	0	6453	0.1451261	0.3898349	54.21563	
17:52:10:98	0	0	0	1.665301	1.378517	0	3	100	0	6453	0.1433948	0.3851045	54.2113	
17:52:10:301	0	0	0	1.665301	1.378517	0	3	100	0	6453	0.1436717	0.3941003	54.21198	
17:52:10:615	0	0	0	1.560969	-1.527466	0	3	100	0	6453	0.1519357	0.3843952	54.19764	
17:52:10:716	0	0	0	1.560969	-1.527466	0	3	100	0	6453	0.1640566	0.4056967	54.18362	
17:52:10:917	0	0	0	1.560969	-1.527466	0	3	100	0	6453	0.1664684	0.4187237	54.17525	
17:52:11:104	0	0	0	1.560969	-1.527466	0	3	100	0	6453	0.1807409	0.4324879	54.17668	
17:52:11:305	0	0	0	1.560969	-1.527466	0	3	100	0	6453	0.171431	0.4215602	54.18222	
17:52:11:506	0	0	0	1.369008	-8.92631	0	3	100	0	6453	0.1620338	0.4173846	54.17844	
17:52:11:707	0	0	0	1.369008	-8.92631	0	3	100	0	6453	0.1667581	0.4057212	54.18995	
17:52:11:950	0	0	0	1.369008	-8.92631	0	3	100	0	6453	0.1639135	0.4177804	54.19883	
17:52:12:109	0	0	0	1.369008	-8.92631	0	3	100	0	6453	0.1752782	0.4276258	54.18943	
17:52:12:311	0	0	0	1.369008	-8.92631	0	3	100	0	6453	0.1799881	0.4323486	54.17587	
17:52:12:510	0	0	0	1.548979	4.484147	0	3	100	0	6453	0.1689496	0.4251102	54.16278	
17:52:12:711	0	0	0	1.548979	4.484147	0	3	100	0	6453	0.1709359	0.4153244	54.15658	
17:52:12:912	0	0	0	1.548979	4.484147	0	3	100	0	6453	0.1730745	0.4082847	54.1456	
17:52:13:112	0	0	0	1.548979	4.484147	0	3	100	0	6453	0.6865112	0.576427	53.3481	
17:52:13:313	0	0	0	1.548979	4.484147	0	3	100	0	6453	6.677911	0.6328422	56.80794	
17:52:13:513	0	0	0	1.478474	0.7883671	0	3	100	0	6453	0.04664833	0.587148	54.99879	
17:52:13:715	0	0	0	1.478474	0.7883671	0	3	100	0	6453	0.1154607	0.6366776	46.88539	
17:52:13:914	0	0	0	1.478474	0.7883671	0	3	100	0	6453	0.2349017	0.6134893	47.06689	
17:52:14:120	0	0	0	1.478474	0.7883671	0	3	100	0	6453	0.2763645	0.6296464	47.13499	
17:52:14:321	0	0	0	1.478474	0.7883671	0	3	100	0	6453	0.2743393	0.6697961	47.18174	
17:52:14:521	0	0	0	1.489304	-1.17817	0	3	100	0	6453	0.2932466	0.6953406	47.24346	
17:52:14:722	0	0	0	1.489304	-1.17817	0	3	100	0	6453	0.2979061	0.694699	47.28059	
17:52:14:923	0	0	0	1.489304	-1.17817	0	3	100	0	6453	0.3030687	0.6939899	47.33614	
17:52:15:123	0	0	0	1.489304	-1.17817	0	3	100	0	6453	0.3068144	0.6861534	47.37518	
17:52:15:324	0	0	0	1.489304	-1.17817	0	3	100	0	6453	0.2958822	0.6634368	47.40235	
17:52:15:525	0	0	0	1.408301	-3.43115	0	3	100	0	6453	0.2932869	0.6568257	47.42579	
17:52:15:725	0	0	0	1.408301	-3.43115	0	3	100	0	6453	0.2816088	0.6120061	47.46818	
17:52:15:927	0	0	0	1.408301	-3.43115	0	3	100	0	6453	0.272833	0.5854964	47.50881	
17:52:16:127	0	0	0	1.408301	-3.43115	0	3	100	0	6453	0.2745143	0.5921099	47.54731	
17:52:16:329	0	0	0	1.408301	-3.43115	0	3	100	0	6453	0.3081827	0.5950778	47.55991	
17:52:16:527	0	0	0	1.57746	11.68337	0	3	100	0	6453	-7.809464	0.8026469	46.14548	
17:52:16:728	0	0	0	1.57746	11.68337	0	3	100	0	6453	-1.506841	-0.892449	49.41212	
17:52:16:926	0	0	0	1.57746	11.68337	0	3	100	0	6453	2.220278	0.4251085	49.92794	
17:52:17:126	0	0	0	1.57746	11.68337	0	3	100	0	6453	-5.28276	-0.005313038	47.21165	
17:52:17:328	0	0	0	1.57746	11.68337	0	3	100	0	6453	0.03460924	0.600179	48.74073	
17:52:17:526	0	0	0	1.701013	10.16721	0	3	100	0	6453	0.1055855	0.5635973	48.42373	
17:52:17:728	0	0	0	1.701013	10.16721	0	3	100	0	6453	0.1125203	0.568171	48.41254	
17:52:17:928	0	0	0	1.701013	10.16721	0	3	100	0	6453	0.112873	0.539125	48.39127	
17:52:18:131	0	0	0	1.701013	10.16721	0	3	100	0	6453	0.1334669	0.5039577	48.37278	
17:52:18:332	0	0	0	1.701013	10.16721	0	3	100	0	6453	0.1664292	0.5219254	48.36158	
17:52:18:531	0	0	0	1.696418	6.359174	0	3	100	0	6453	0.1844492	0.5241621	48.35347	
17:52:18:736	0	0	0	1.696418	6.359174	0	3	100	0	6453	0.1950036	0.5459149	48.33494	
17:52:18:933	0	0	0	1.696418	6.359174	0	3	100	0	6453	0.1991097	0.5437372	48.3246	
17:52:19:133	0	0	0	1.696418	6.359174	0	3	100	0	6453	0.2147973	0.5516384	48.31184	
17:52:19:338	0	0	0	1.696418	6.359174	0	3	100	0	6453	0.2207266	0.5495289	48.29909	
17:52:19:539	0	0	0	1.637565	2.792691	0	3	100	0	6453	0.2210443	0.5413133	48.28044	
17:52:19:735	0	0	0	1.637565	2.792691	0	3	100	0	6453	0.2209371	0.5258301	48.27002	
17:52:19:981	0	0	0	1.637565	2.792691	0	3	100	0	6453	0.2164081	0.533807	48.25206	
17:52:20:140	0	0	0	1.637565	2.792691	0	3	100	0	6453	0.2170824	0.5430912	48.25814	
17:52:20:341	0	0	0	1.637565	2.792691	0	3	100	0	6453	0.2190575	0.5184672	48.25348	
17:52:20:546	0	0	0	1.739465	6.691751	0	3	100	0	6453	0.2182991	0.5242102	48.24091	
17:52:20:745	0	0	0	1.739465	6.691751	0	3	100	0	6453	0.2328879	0.5120471	48.2313	
17:52:20:955	0	0	0	1.739465	6.691751	0	3	100	0	6453	0.2388622	0.5114954	48.24276	
17:52:21:140	0	0	0	1.739465	6.691751	0	3	100	0	6453	0.229894	0.5030015	48.24028	
17:52:21:345	0	0	0	1.739465	6.691751	0	3	100	0	6453	0.2353068	0.4886563	48.23579	
17:52:21:545	0	0	0	1.745387	5.435627	0	3	100	0	6453	0.2390718	0.5041451	48.21899	
17:52:21:753	0	0	0	1.745387	5.435627	0	3	100	0	6453	0.2338736	0.5050004	48.2274	
17:52:21:947	0	0	0	1.745387	5.435627	0	3	100	0	6453	0.2402279	0.5094871	48.21873	
17:52:22:147	0	0	0	1.745387	5.435627	0	3	100	0	6453	0.2420783	0.5193515	48.20768	
17:52:22:348	0	0	0	1.745387	5.435627	0	3	100	0	6453	0.2456472	0.5285105	48.20214	
17:52:22:559	0	0	0	2.010665	17.37247	0	3	100	0	6453	0.2417707	0.5240785	48.19189	
17:52:22:750	0	0	0	2.010665	17.37247	0	3	100	0	6453	0.2516897	0.5345744	48.18949	
17:52:22:946	0	0	0	2.010665	17.37247	0	3	100	0	6453	0.2634116	0.5621984	48.19019	
17:52:23:147	0	0	0	2.010665	17.37247	0	3	100	0	6453	0.2660463	0.542388	48.1829	
17:52:23:348	0	0	0	2.010665	17.37247	0	3	100	0	6453	0.2624213	0.5374576	48.17446	
17:52:23:552	0	0	0	1.811537	2.390576	0	3	100	0	6453	0.2682749	0.5372967	48.1759	
17:52:23:753	0	0	0	1.811537	2.390576	0	3	100	0	6453	0.2709293	0.5490472	48.18451	
17:52:23:953	0	0	0	1.811537	2.390576	0	3	100	0	6453	0.2607704	0.5656191	48.184	
17:52:24:155	0	0	0	1.811537	2.390576	0	3	100	0	6453	0.2752753	0.5907772	48.18703	
17:52:24:355	0	0	0	1.811537	2.390576	0	3	100	0	6453	0.2792587	0.5958011	48.19503	
17:52:24:556	0	0	0	1.682285	-3.384055	0	3	100	0	6453	0.2794612	0.6051512	48.18233	
17:52:24:756	0	0	0	1.682285	-3.384055	0	3	100	0	6453	0.281726	0.5791677	48.16923	
17:52:24:953	0	0	0	1.682285	-3.384055	0	3	100	0	6453	0.285522	0.5660588	48.16278	
17:52:25:153	0	0	0	1.682285	-3.384055	0	3	100	0	6453	0.2894879	0.5640238	48.16713	
17:52:25:354	0	0	0	1.682285	-3.384055	0	3	100	0	6453	0.2833294	0.5501074	48.15702	
17:52:25:554	0	0	0	1.689797	-1.438006	0	3	100	0	6453	0.2778629	0.5418622	48.15523	
17:52:25:757	0	0	0	1.689797	-1.438006	0	3	100	0	6453	0.2805316	0.5378283	48.13539	
17:52:25:956	0	0	0	1.689797	-1.438006	0	3	100	0	6453	0.2805572	0.5161935	48.12089	
17:52:26:157	0	0	0	1.689797	-1.438006	0	3	100	0	6453	0.2906944	0.505408	48.11346	
17:52:26:357	0	0	0	1.689797	-1.438006	0	3	100	0	6453	0.2864633	0.5056844	48.1221	
17:52:26:558	0	0	0	1.435817	-12.05644	0	3	100	0	6453	0.2842682	0.5328207	48.11453	
17:52:26:764	0	0	0	1.435817	-12.05644	0	3	100	0	6453	0.2864542	0.5339007	48.1138	
17:52:26:955	0	0	0	1.435817	-12.05644	0	3	100	0	6453	0.2883305	0.5182948	48.1204	
17:52:27:161	0	0	0	1.435817	-12.05644	0	3	100	0	6453	0.2905844	0.5021281	48.12315	
17:52:27:358	0	0	0	1.435817	-12.05644	0	3	100	0	6453	0.2863275	0.4894537	48.11638	
17:52:27:558	0	0	0	1.222524	-14.85351	0	3	100	0	6453	0.2814075	0.4797549	48.11426	
17:52:27:758	0	0	0	1.222524	-14.85351	0	3	100	0	6453	0.2832893	0.4739401	48.11264	
17:52:27:959	0	0	0	1.222524	-14.85351	0	3	100	0	6453	0.2813759	0.4610103	48.10616	
17:52:28:159	0	0	0	1.222524	-14.85351	0	3	100	0	6453	0.2751264	0.4430336	48.11764	
17:52:28:361	0	0	0	1.222524	-14.85351	0	3	100	0	6453	0.2669764	0.4363448	48.12656	
17:52:28:562	0	0	0	1.327243	-4.238729	0	3	100	0	6453	0.2676865	0.4321364	48.13364	
17:52:28:762	0	0	0	1.327243	-4.238729	0	3	100	0	6453	0.2710285	0.4361624	48.13153	
17:52:28:959	0	0	0	1.327243	-4.238729	0	3	100	0	6453	0.282304	0.4251114	48.13577	
17:52:29:162	0	0	0	1.327243	-4.238729	0	3	100	0	6453	0.2963599	0.415859	48.13146	
17:52:29:361	0	0	0	1.327243	-4.238729	0	3	100	0	6453	0.3032722	0.4024784	48.12451	
17:52:29:560	0	0	0	1.344395	-1.517541	0	3	100	0	6453	0.3079791	0.4172386	48.11285	
17:52:29:781	0	0	0	1.344395	-1.517541	0	3	100	0	6453	0.303787	0.411407	48.12174	
17:52:29:962	0	0	0	1.344395	-1.517541	0	3	100	0	6453	0.2950627	0.4260799	48.13129	
17:52:30:163	0	0	0	1.344395	-1.517541	0	3	100	0	6453	0.2889261	0.4154619	48.12956	
17:52:30:364	0	0	0	1.344395	-1.517541	0	3	100	0	6453	0.2793578	0.4147742	48.1405	
17:52:30:564	0	0	0	1.393691	2.515661	0	3	100	0	6453	0.2761658	0.3970396	48.14376	
17:52:30:765	0	0	0	1.393691	2.515661	0	3	100	0	6453	0.2686246	0.3750466	48.14748	
17:52:30:965	0	0	0	1.393691	2.515661	0	3	100	0	6453	0.2682329	0.3770303	48.16691	
17:52:31:166	0	0	0	1.393691	2.515661	0	3	100	0	6453	0.2693234	0.3770829	48.16932	
17:52:31:367	0	0	0	1.393691	2.515661	0	3	100	0	6453	0.2757697	0.3546724	48.17096	
17:52:31:567	0	0	0	1.568344	9.241025	0	3	100	0	6453	0.2799323	0.3547146	48.16293	
17:52:31:769	0	0	0	1.568344	9.241025	0	3	100	0	6453	0.264876	0.3474078	48.17171	
17:52:31:971	0	0	0	1.568344	9.241025	0	3	100	0	6453	0.2616462	0.3339524	48.17447	
17:52:32:171	0	0	0	1.568344	9.241025	0	3	100	0	6453	0.2670551	0.3436509	48.17299	
17:52:32:371	0	0	0	1.568344	9.241025	0	3	100	0	6453	0.2666252	0.3175215	48.17258	
17:52:32:571	0	0	0	1.717571	13.36489	0	3	100	0	6453	0.273768	0.3144821	48.17979	
17:52:32:773	0	0	0	1.717571	13.36489	0	3	100	0	6453	0.2727524	0.2988098	48.18016	
17:52:32:982	0	0	0	1.717571	13.36489	0	3	100	0	6453	0.2665591	0.2940802	48.18874	
17:52:33:191	0	0	0	1.717571	13.36489	0	3	100	0	6453	0.270507	0.3023532	48.19611	
17:52:33:374	0	0	0	1.717571	13.36489	0	3	100	0	6453	0.2765262	0.3048531	48.20182	
17:52:33:599	0	0	0	1.979702	19.81466	0	3	100	0	6453	0.2756137	0.2994319	48.19963	
17:52:33:794	0	0	0	1.979702	19.81466	0	3	100	0	6453	0.2851772	0.3102514	48.20104	
17:52:33:975	0	0	0	1.979702	19.81466	0	3	100	0	6453	0.2808352	0.3139212	48.19903	
17:52:34:184	0	0	0	1.979702	19.81466	0	3	100	0	6453	0.2785878	0.3123	48.19904	
17:52:34:433	0	0	0	1.979702	19.81466	0	3	100	0	6453	0.2810748	0.2915286	48.19418	
17:52:34:578	0	0	0	2.053195	15.60637	0	3	100	0	6453	0.2792287	0.280868	48.20325	
17:52:34:775	0	0	0	2.053195	15.60637	0	3	100	0	6453	0.2747304	0.2669388	48.20345	
17:52:35:40	0	0	0	2.053195	15.60637	0	3	100	0	6453	0.2729625	0.2594447	48.21152	
17:52:35:184	0	0	0	2.053195	15.60637	0	3	100	0	6453	0.2639108	0.2642112	48.21614	
17:52:35:390	0	0	0	2.053195	15.60637	0	3	100	0	6453	0.255506	0.2556941	48.2331	
17:52:35:633	0	0	0	2.149096	13.9135	0	3	100	0	6453	0.2599304	0.2743268	48.23451	
17:52:35:823	0	0	0	2.149096	13.9135	0	3	100	0	6453	0.2604775	0.2653649	48.24026	
17:52:35:983	0	0	0	2.149096	13.9135	0	3	100	0	6453	0.2603891	0.2657497	48.25007	
17:52:36:194	0	0	0	2.149096	13.9135	0	3	100	0	6453	0.264974	0.2560564	48.24358	
17:52:36:459	0	0	0	2.149096	13.9135	0	3	100	0	6453	0.2661107	0.2760468	48.25158	
17:52:36:586	0	0	0	2.000499	1.472644	0	3	100	0	6453	0.2534142	0.2611924	48.25037	
17:52:36:782	0	0	0	2.000499	1.472644	0	3	100	0	6453	0.2458226	0.2653982	48.258	
17:52:36:983	0	0	0	2.000499	1.472644	0	3	100	0	6453	0.2379538	0.2723841	48.24469	
17:52:37:184	0	0	0	2.000499	1.472644	0	3	100	0	6453	0.2349973	0.2674963	48.25562	
17:52:37:387	0	0	0	2.000499	1.472644	0	3	100	0	6453	0.2418045	0.2618505	48.25629	
17:52:37:593	0	0	0	1.767022	-9.079966	0	3	100	0	6453	0.2590193	0.2628852	48.25877	
17:52:37:843	0	0	0	1.767022	-9.079966	0	3	100	0	6453	0.2597955	0.2618986	48.2762	
17:52:37:996	0	0	0	1.767022	-9.079966	0	3	100	0	6453	0.2572988	0.2784736	48.27894	
17:52:38:192	0	0	0	1.767022	-9.079966	0	3	100	0	6453	0.2506129	0.2766804	48.27627	
17:52:38:391	0	0	0	1.767022	-9.079966	0	3	100	0	6453	0.2465953	0.251938	48.27435	
17:52:38:591	0	0	0	1.508198	-16.90689	0	3	100	0	6453	0.2461387	0.2489635	48.28603	
17:52:38:800	0	0	0	1.508198	-16.90689	0	3	100	0	6453	0.2502231	0.2607647	48.27846	
17:52:39:91	0	0	0	1.508198	-16.90689	0	3	100	0	6453	0.2529082	0.2735872	48.29204	
17:52:39:216	0	0	0	1.508198	-16.90689	0	3	100	0	6453	0.2507695	0.2815929	48.30797	
17:52:39:401	0	0	0	1.508198	-16.90689	0	3	100	0	6453	0.2479953	0.2999984	48.31718	
17:52:39:593	0	0	0	1.411653	-14.63616	0	3	100	0	6453	0.2334156	0.3143653	48.32553	
17:52:39:795	0	0	0	1.411653	-14.63616	0	3	100	0	6453	0.2296263	0.3033867	48.32905	
17:52:39:993	0	0	0	1.411653	-14.63616	0	3	100	0	6453	0.2346205	0.2919164	48.341	
17:52:40:194	0	0	0	1.411653	-14.63616	0	3	100	0	6453	0.2314603	0.2766905	48.35233	
17:52:40:553	0	0	0	1.411653	-14.63616	0	3	100	0	6453	0.2350514	0.2838628	48.35062	
17:52:40:708	0	0	0	1.470799	-6.15053	0	3	100	0	6453	0.235763	0.2640319	48.36054	
17:52:40:797	0	0	0	1.470799	-6.15053	0	3	100	0	6453	0.2360501	0.2814373	48.36134	
17:52:41:24	0	0	0	1.470799	-6.15053	0	3	100	0	6453	0.2408355	0.2863174	48.36838	
17:52:41:205	0	0	0	1.470799	-6.15053	0	3	100	0	6453	0.2400621	0.2843952	48.36343	
17:52:41:406	0	0	0	1.470799	-6.15053	0	3	100	0	6453	0.2445	0.317394	48.36182	
17:52:41:672	0	0	0	1.682168	4.593204	0	3	100	0	6453	0.2452341	0.3186368	48.35889	
17:52:42:22	0	0	0	1.682168	4.593204	0	3	100	0	6453	0.2460093	0.3137622	48.35589	
17:52:42:181	0	0	0	1.682168	4.593204	0	3	100	0	6453	0.2462629	0.3250275	48.37789	
17:52:42:225	0	0	0	1.682168	4.593204	0	3	100	0	6453	0.2550352	0.3361068	48.37773	
17:52:42:405	0	0	0	1.682168	4.593204	0	3	100	0	6453	0.2650882	0.3482987	48.38221	
17:52:42:609	0	0	0	1.916646	12.78892	0	3	100	0	6453	0.2628484	0.3450566	48.38569	
17:52:42:818	0	0	0	1.916646	12.78892	0	3	100	0	6453	0.2566649	0.3344584	48.38342	
17:52:43:15	0	0	0	1.916646	12.78892	0	3	100	0	6453	0.2584509	0.3371176	48.37751	
17:52:43:204	0	0	0	1.916646	12.78892	0	3	100	0	6453	0.2521052	0.3376671	48.3745	
17:52:43:405	0	0	0	1.916646	12.78892	0	3	100	0	6453	0.2475908	0.3406918	48.37296	
17:52:43:605	0	0	0	1.878499	6.315969	0	3	100	0	6453	0.2421257	0.3464041	48.3634	
17:52:43:805	0	0	0	1.878499	6.315969	0	3	100	0	6453	0.2425622	0.354769	48.35442	
17:52:44:6	0	0	0	1.878499	6.315969	0	3	100	0	6453	0.2402291	0.3576932	48.34933	
17:52:44:206	0	0	0	1.878499	6.315969	0	3	100	0	6453	0.2563587	0.3715825	48.35239	
17:52:44:408	0	0	0	1.878499	6.315969	0	3	100	0	6453	0.2506847	0.3818236	48.35249	
17:52:44:608	0	0	0	1.424816	-16.17518	0	3	100	0	6453	0.2484259	0.3891603	48.34892	
17:52:44:809	0	0	0	1.424816	-16.17518	0	3	100	0	6453	0.2427934	0.379577	48.35019	
17:52:45:12	0	0	0	1.424816	-16.17518	0	3	100	0	6453	0.2498576	0.384319	48.34882	
17:52:45:211	0	0	0	1.424816	-16.17518	0	3	100	0	6453	0.2487273	0.3813768	48.36596	
17:52:45:412	0	0	0	1.424816	-16.17518	0	3	100	0	6453	0.2565266	0.3670434	48.37067	
17:52:45:613	0	0	0	1.496135	-7.559615	0	3	100	0	6453	0.2576286	0.3648417	48.37395	
17:52:45:813	0	0	0	1.496135	-7.559615	0	3	100	0	6453	0.256581	0.3635831	48.35415	
17:52:46:12	0	0	0	1.496135	-7.559615	0	3	100	0	6453	0.2574037	0.3444828	48.34831	
17:52:46:219	0	0	0	1.496135	-7.559615	0	3	100	0	6453	0.2476358	0.3136735	48.34327	
17:52:46:416	0	0	0	1.496135	-7.559615	0	3	100	0	6453	0.2379892	0.2857497	48.34689	
17:52:46:620	0	0	0	1.33244	-11.22473	0	3	100	0	6453	0.242943	0.2964789	48.34403	
17:52:46:820	0	0	0	1.33244	-11.22473	0	3	100	0	6453	0.2313483	0.2960818	48.32944	
17:52:47:22	0	0	0	1.33244	-11.22473	0	3	100	0	6453	0.2269569	0.2761805	48.32131	
17:52:47:221	0	0	0	1.33244	-11.22473	0	3	100	0	6453	0.2311489	0.2770712	48.32121	
17:52:47:422	0	0	0	1.33244	-11.22473	0	3	100	0	6453	0.2168557	0.2854897	48.3229	
17:52:47:622	0	0	0	1.188528	-13.78261	0	3	100	0	6453	0.2064551	0.2570718	48.3223	
17:52:47:823	0	0	0	1.188528	-13.78261	0	3	100	0	6453	0.1964297	0.2539461	48.3292	
17:52:48:24	0	0	0	1.188528	-13.78261	0	3	100	0	6453	0.1929837	0.2760309	48.33344	
17:52:48:226	0	0	0	1.188528	-13.78261	0	3	100	0	6453	0.2008525	0.2808357	48.34452	
17:52:48:425	0	0	0	1.188528	-13.78261	0	3	100	0	6453	0.2127658	0.2980545	48.36311	
17:52:48:626	0	0	0	1.329783	-1.312198	0	3	100	0	6453	0.2157278	0.2825768	48.37519	
17:52:48:827	0	0	0	1.329783	-1.312198	0	3	100	0	6453	0.2084499	0.283722	48.37254	
17:52:49:27	0	0	0	1.329783	-1.312198	0	3	100	0	6453	0.1984491	0.2965496	48.37685	
17:52:49:228	0	0	0	1.329783	-1.312198	0	3	100	0	6453	0.1970393	0.3148197	48.37562	
17:52:49:429	0	0	0	1.329783	-1.312198	0	3	100	0	6453	0.1932973	0.3082989	48.36804	
17:52:49:629	0	0	0	1.637616	11.02082	0	3	100	0	6453	0.1868936	0.3185283	48.35551	
17:52:49:830	0	0	0	1.637616	11.02082	0	3	100	0	6453	0.184049	0.3234652	48.35284	
17:52:50:40	0	0	0	1.637616	11.02082	0	3	100	0	6453	0.1885319	0.3049832	48.3411	
17:52:50:232	0	0	0	1.637616	11.02082	0	3	100	0	6453	0.1902432	0.3143273	48.35779	
17:52:50:432	0	0	0	1.637616	11.02082	0	3	100	0	6453	0.2004782	0.320483	48.36583	
17:52:50:633	0	0	0	1.567438	3.180334	0	3	100	0	6453	0.2070612	0.3270674	48.34697	
17:52:50:833	0	0	0	1.567438	3.180334	0	3	100	0	6453	0.2045965	0.3271792	48.34457	
17:52:51:36	0	0	0	1.567438	3.180334	0	3	100	0	6453	0.2052685	0.3323005	48.33339	
17:52:51:236	0	0	0	1.567438	3.180334	0	3	100	0	6453	0.1938225	0.32749	48.31954	
17:52:51:436	0	0	0	1.567438	3.180334	0	3	100	0	6453	0.204317	0.3224217	48.31063	
17:52:51:637	0	0	0	1.590729	3.903786	0	3	100	0	6453	0.207272	0.3335966	48.30711	
17:52:51:837	0	0	0	1.590729	3.903786	0	3	100	0	6453	0.2197251	0.3485915	48.29802	
17:52:52:39	0	0	0	1.590729	3.903786	0	3	100	0	6453	0.2171626	0.3475824	48.27565	
17:52:52:239	0	0	0	1.590729	3.903786	0	3	100	0	6453	0.2316566	0.3477968	48.29576	
17:52:52:439	0	0	0	1.590729	3.903786	0	3	100	0	6453	0.234482	0.3465439	48.30114	
17:52:52:640	0	0	0	1.45489	-3.850686	0	3	100	0	6453	0.2442713	0.3444501	48.30537	
17:52:52:913	0	0	0	1.45489	-3.850686	0	3	100	0	6453	0.2448165	0.3369339	48.2947	
17:52:53:42	0	0	0	1.45489	-3.850686	0	3	100	0	6453	0.2319019	0.3206877	48.29622	
17:52:53:243	0	0	0	1.45489	-3.850686	0	3	100	0	6453	0.23868	0.3324665	48.30947	
17:52:53:443	0	0	0	1.45489	-3.850686	0	3	100	0	6453	0.2340475	0.3490208	48.32003	
17:52:53:645	0	0	0	1.328124	-7.903383	0	3	100	0	6453	0.2288691	0.3342983	48.31196	
17:52:53:845	0	0	0	1.328124	-7.903383	0	3	100	0	6453	0.2300186	0.3214827	48.30465	
17:52:54:45	0	0	0	1.328124	-7.903383	0	3	100	0	6453	0.230841	0.3218336	48.28468	
17:52:54:246	0	0	0	1.328124	-7.903383	0	3	100	0	6453	0.234864	0.3145046	48.27443	
17:52:54:451	0	0	0	1.328124	-7.903383	0	3	100	0	6453	0.2385666	0.3381675	48.28894	
17:52:54:647	0	0	0	1.449087	-0.9056973	0	3	100	0	6453	0.2353671	0.3346756	48.28625	
17:52:54:852	0	0	0	1.449087	-0.9056973	0	3	100	0	6453	0.2387181	0.3404247	48.2801	
17:52:55:53	0	0	0	1.449087	-0.9056973	0	3	100	0	6453	0.2396862	0.324539	48.27443	
17:52:55:249	0	0	0	1.449087	-0.9056973	0	3	100	0	6453	0.2417162	0.3252841	48.27119	
17:52:55:450	0	0	0	1.449087	-0.9056973	0	3	100	0	6453	0.2388714	0.3401274	48.26765	
17:52:55:650	0	0	0	1.54836	3.157306	0	3	100	0	6453	0.2321351	0.3307901	48.26514	
17:52:55:851	0	0	0	1.54836	3.157306	0	3	100	0	6453	0.2212015	0.3268811	48.2517	
17:52:56:52	0	0	0	1.54836	3.157306	0	3	100	0	6453	0.2164353	0.3382842	48.24567	
17:52:56:254	0	0	0	1.54836	3.157306	0	3	100	0	6453	0.2081844	0.3275935	48.2326	
17:52:56:453	0	0	0	1.54836	3.157306	0	3	100	0	6453	0.2122574	0.320043	48.22649	
17:52:56:654	0	0	0	1.426374	-1.861657	0	3	100	0	6453	0.2097509	0.3156993	48.22203	
17:52:56:855	0	0	0	1.426374	-1.861657	0	3	100	0	6453	0.2145644	0.3102501	48.22353	
17:52:57:55	0	0	0	1.426374	-1.861657	0	3	100	0	6453	0.2128842	0.3229004	48.22614	
17:52:57:251	0	0	0	1.426374	-1.861657	0	3	100	0	6453	0.2158317	0.3468103	48.24378	
17:52:57:452	0	0	0	1.426374	-1.861657	0	3	100	0	6453	0.2157813	0.3486175	48.24761	
17:52:57:659	0	0	0	1.421814	-2.319853	0	3	100	0	6453	0.2044267	0.336486	48.25152	
17:52:57:858	0	0	0	1.421814	-2.319853	0	3	100	0	6453	0.2025133	0.3305704	48.24877	
17:52:58:59	0	0	0	1.421814	-2.319853	0	3	100	0	6453	0.2099289	0.3271581	48.24129	
17:52:58:260	0	0	0	1.421814	-2.319853	0	3	100	0	6453	0.2136264	0.3139214	48.24511	
17:52:58:460	0	0	0	1.421814	-2.319853	0	3	100	0	6453	0.2119313	0.3110648	48.24724	
17:52:58:661	0	0	0	1.363607	-4.305592	0	3	100	0	6453	0.2052323	0.3248311	48.24728	
17:52:58:862	0	0	0	1.363607	-4.305592	0	3	100	0	6453	0.2012518	0.3261282	48.24897	
17:52:59:62	0	0	0	1.363607	-4.305592	0	3	100	0	6453	0.206355	0.3191078	48.2603	
17:52:59:263	0	0	0	1.363607	-4.305592	0	3	100	0	6453	0.2092041	0.3150897	48.25952	
17:52:59:464	0	0	0	1.363607	-4.305592	0	3	100	0	6453	0.2155807	0.3121031	48.25346	
17:52:59:665	0	0	0	1.350281	-4.843	0	3	100	0	6453	0.2133364	0.314605	48.25074	
17:52:59:869	0	0	0	1.350281	-4.843	0	3	100	0	6453	0.2157347	0.3324865	48.26013	
17:53:00:66	0	0	0	1.350281	-4.843	0	3	100	0	6453	0.2116622	0.328036	48.24653	
17:53:00:270	0	0	0	1.350281	-4.843	0	3	100	0	6453	0.219853	0.3174325	48.22601	
17:53:00:470	0	0	0	1.350281	-4.843	0	3	100	0	6453	0.2165844	0.3301801	48.22206	
17:53:00:671	0	0	0	1.313075	-3.937351	0	3	100	0	6453	0.2266832	0.3436941	48.23561	
17:53:00:873	0	0	0	1.313075	-3.937351	0	3	100	0	6453	0.2224199	0.3382616	48.22435	
17:53:01:73	0	0	0	1.313075	-3.937351	0	3	100	0	6453	0.2193407	0.3464293	48.22728	
17:53:01:274	0	0	0	1.313075	-3.937351	0	3	100	0	6453	0.2189756	0.3458076	48.22167	
17:53:01:582	0	0	0	1.313075	-3.937351	0	3	100	0	6453	0.2276897	0.3716188	48.21672	
17:53:01:675	0	0	0	1.464353	3.955607	0	3	100	0	6453	0.2268639	0.3809118	48.20788	
17:53:01:876	0	0	0	1.464353	3.955607	0	3	100	0	6453	0.2350872	0.3656094	48.1917	
17:53:02:78	0	0	0	1.464353	3.955607	0	3	100	0	6453	0.2385889	0.3807087	48.19265	
17:53:02:278	0	0	0	1.464353	3.955607	0	3	100	0	6453	0.2320611	0.3527853	48.1864	
17:53:02:478	0	0	0	1.464353	3.955607	0	3	100	0	6453	0.2369332	0.3318413	48.19504	
17:53:02:679	0	0	0	1.489315	2.360684	0	3	100	0	6453	0.2352359	0.3434935	48.20251	
17:53:02:880	0	0	0	1.489315	2.360684	0	3	100	0	6453	0.2419335	0.352033	48.21628	
17:53:03:80	0	0	0	1.489315	2.360684	0	3	100	0	6453	0.2452762	0.34289	48.22018	
17:53:03:281	0	0	0	1.489315	2.360684	0	3	100	0	6453	0.2374713	0.3532255	48.22335	
17:53:03:478	0	0	0	1.489315	2.360684	0	3	100	0	6453	0.2256306	0.3524461	48.21344	
17:53:03:679	0	0	0	1.674136	8.794749	0	3	100	0	6453	0.2199502	0.3667614	48.21599	
17:53:03:878	0	0	0	1.674136	8.794749	0	3	100	0	6453	0.2273688	0.3677499	48.21433	
17:53:04:79	0	0	0	1.674136	8.794749	0	3	100	0	6453	0.2352396	0.3523477	48.20687	
17:53:04:280	0	0	0	1.674136	8.794749	0	3	100	0	6453	0.2361265	0.353511	48.20538	
17:53:04:481	0	0	0	1.674136	8.794749	0	3	100	0	6453	0.236916	0.367242	48.18677	
17:53:04:682	0	0	0	1.483869	-3.503738	0	3	100	0	6453	0.2369816	0.3385081	48.17225	
17:53:04:887	0	0	0	1.483869	-3.503738	0	3	100	0	6453	0.2369573	0.3210047	48.15935	
17:53:05:83	0	0	0	1.483869	-3.503738	0	3	100	0	6453	0.231203	0.3245387	48.15267	
17:53:05:283	0	0	0	1.483869	-3.503738	0	3	100	0	6453	0.2276404	0.3266919	48.16172	
17:53:05:485	0	0	0	1.483869	-3.503738	0	3	100	0	6453	0.2276447	0.3315313	48.16631	
17:53:05:686	0	0	0	1.289833	-9.456528	0	3	100	0	6453	0.2250726	0.3219565	48.16109	
17:53:05:886	0	0	0	1.289833	-9.456528	0	3	100	0	6453	0.2260191	0.3261209	48.14729	
17:53:06:87	0	0	0	1.289833	-9.456528	0	3	100	0	6453	0.2182913	0.3178325	48.14185	
17:53:06:287	0	0	0	1.289833	-9.456528	0	3	100	0	6453	0.2190137	0.3051487	48.13979	
17:53:06:492	0	0	0	1.289833	-9.456528	0	3	100	0	6453	0.2114346	0.2836556	48.14851	
17:53:06:709	0	0	0	1.36741	-2.555205	0	3	100	0	6453	0.2004973	0.2791616	48.16302	
17:53:06:893	0	0	0	1.36741	-2.555205	0	3	100	0	6453	0.200669	0.2656052	48.1668	
17:53:07:94	0	0	0	1.36741	-2.555205	0	3	100	0	6453	0.2020652	0.2715795	48.17031	
17:53:07:290	0	0	0	1.36741	-2.555205	0	3	100	0	6453	0.1936011	0.2640179	48.17759	
17:53:07:492	0	0	0	1.36741	-2.555205	0	3	100	0	6453	0.1895839	0.255919	48.18726	
17:53:07:692	0	0	0	1.511516	5.46997	0	3	100	0	6453	0.1905133	0.2452741	48.18724	
17:53:07:893	0	0	0	1.511516	5.46997	0	3	100	0	6453	0.1706779	0.246921	48.18311	
17:53:08:93	0	0	0	1.511516	5.46997	0	3	100	0	6453	0.1561199	0.230646	48.17568	
17:53:08:294	0	0	0	1.511516	5.46997	0	3	100	0	6453	0.1534299	0.2227126	48.17767	
17:53:08:495	0	0	0	1.511516	5.46997	0	3	100	0	6453	0.1505615	0.2194682	48.16963	
17:53:08:695	0	0	0	1.615034	5.851784	0	3	100	0	6453	0.1537683	0.1999254	48.17701	
17:53:08:898	0	0	0	1.615034	5.851784	0	3	100	0	6453	0.1547927	0.198456	48.18363	
17:53:09:98	0	0	0	1.615034	5.851784	0	3	100	0	6453	0.1542175	0.2100852	48.18411	
17:53:09:298	0	0	0	1.615034	5.851784	0	3	100	0	6453	0.1539924	0.2056274	48.18651	
17:53:09:498	0	0	0	1.615034	5.851784	0	3	100	0	6453	0.1602595	0.2083893	48.19379	
17:53:09:699	0	0	0	1.539332	0.02407995	0	3	100	0	6453	0.1594415	0.2186016	48.19128	
17:53:09:899	0	0	0	1.539332	0.02407995	0	3	100	0	6453	0.1530991	0.204904	48.18798	
17:53:10:100	0	0	0	1.539332	0.02407995	0	3	100	0	6453	0.1549719	0.2231853	48.19324	
17:53:10:301	0	0	0	1.539332	0.02407995	0	3	100	0	6453	0.1533698	0.2394977	48.21307	
17:53:10:501	0	0	0	1.539332	0.02407995	0	3	100	0	6453	0.1569865	0.2467247	48.20951	
17:53:10:703	0	0	0	1.35388	-9.364328	0	3	100	0	6453	0.1708338	0.2441133	48.20898	
17:53:10:904	0	0	0	1.35388	-9.364328	0	3	100	0	6453	0.1707291	0.2443703	48.21011	
17:53:11:104	0	0	0	1.35388	-9.364328	0	3	100	0	6453	0.1665348	0.2619281	48.20524	
17:53:11:305	0	0	0	1.35388	-9.364328	0	3	100	0	6453	0.1749593	0.2629793	48.20116	
17:53:11:507	0	0	0	1.35388	-9.364328	0	3	100	0	6453	0.172802	0.258445	48.20223	
17:53:11:707	0	0	0	1.317789	-7.429056	0	3	100	0	6453	0.176711	0.2533722	48.2027	
17:53:11:906	0	0	0	1.317789	-7.429056	0	3	100	0	6453	0.1762022	0.2546371	48.1948	
17:53:12:109	0	0	0	1.317789	-7.429056	0	3	100	0	6453	0.1818835	0.2681166	48.18353	
17:53:12:308	0	0	0	1.317789	-7.429056	0	3	100	0	6453	0.1822336	0.2765718	48.16965	
17:53:12:509	0	0	0	1.317789	-7.429056	0	3	100	0	6453	0.1959567	0.2759562	48.17677	
17:53:12:710	0	0	0	1.300225	-5.443123	0	3	100	0	6453	0.1974522	0.2765478	48.16721	
17:53:12:910	0	0	0	1.300225	-5.443123	0	3	100	0	6453	0.2049358	0.2935538	48.18247	
17:53:13:111	0	0	0	1.300225	-5.443123	0	3	100	0	6453	0.2064677	0.290289	48.17012	
17:53:13:341	0	0	0	1.300225	-5.443123	0	3	100	0	6453	0.2029471	0.3066103	48.17611	
17:53:13:531	0	0	0	1.300225	-5.443123	0	3	100	0	6453	0.2079293	0.3159726	48.18111	
17:53:13:713	0	0	0	1.363764	-0.6841043	0	3	100	0	6453	0.2152958	0.3185212	48.18639	
17:53:13:913	0	0	0	1.363764	-0.6841043	0	3	100	0	6453	0.2256791	0.3118315	48.19351	
17:53:14:111	0	0	0	1.363764	-0.6841043	0	3	100	0	6453	0.2226982	0.3184489	48.17447	
17:53:14:311	0	0	0	1.363764	-0.6841043	0	3	100	0	6453	0.2245971	0.3097791	48.18024	
17:53:14:512	0	0	0	1.363764	-0.6841043	0	3	100	0	6453	0.2348464	0.3019827	48.19555	
17:53:14:780	0	0	0	1.182427	-8.870777	0	3	100	0	6453	0.2320125	0.3036609	48.20139	
17:53:14:914	0	0	0	1.182427	-8.870777	0	3	100	0	6453	0.2402968	0.3197753	48.20856	
17:53:15:114	0	0	0	1.182427	-8.870777	0	3	100	0	6453	0.2347742	0.312088	48.20259	
17:53:15:315	0	0	0	1.182427	-8.870777	0	3	100	0	6453	0.2291323	0.3176141	48.21503	
17:53:15:527	0	0	0	1.182427	-8.870777	0	3	100	0	6453	0.2442137	0.2984215	48.22769	
17:53:15:750	0	0	0	1.012276	-12.00607	0	3	100	0	6453	0.2461451	0.2960324	48.22673	
17:53:15:925	0	0	0	1.012276	-12.00607	0	3	100	0	6453	0.24812	0.2982734	48.23819	
17:53:16:254	0	0	0	1.012276	-12.00607	0	3	100	0	6453	0.2421882	0.2717709	48.2523	
17:53:16:313	0	0	0	1.012276	-12.00607	0	3	100	0	6453	0.2441493	0.2627908	48.26459	
17:53:16:514	0	0	0	1.012276	-12.00607	0	3	100	0	6453	0.2300153	0.2731235	48.27854	
17:53:16:725	0	0	0	1.349717	7.546947	0	3	100	0	6453	0.233646	0.2690561	48.27186	
17:53:16:921	0	0	0	1.349717	7.546947	0	3	100	0	6453	0.2376633	0.2691955	48.2487	
17:53:17:116	0	0	0	1.349717	7.546947	0	3	100	0	6453	0.2469116	0.2567387	48.24352	
17:53:17:323	0	0	0	1.349717	7.546947	0	3	100	0	6453	0.2650959	0.2546619	48.23604	
17:53:17:566	0	0	0	1.349717	7.546947	0	3	100	0	6453	0.2636525	0.2535704	48.24136	
17:53:17:731	0	0	0	1.49682	11.04775	0	3	100	0	6453	0.2509644	0.2417002	48.24773	
17:53:17:919	0	0	0	1.49682	11.04775	0	3	100	0	6453	0.2404528	0.2587198	48.25097	
17:53:18:121	0	0	0	1.49682	11.04775	0	3	100	0	6453	0.2392284	0.262042	48.25151	
17:53:18:320	0	0	0	1.49682	11.04775	0	3	100	0	6453	0.2385498	0.2616881	48.25062	
17:53:18:552	0	0	0	1.49682	11.04775	0	3	100	0	6453	0.2325029	0.2790352	48.2593	
17:53:18:735	0	0	0	1.622282	12.04875	0	3	100	0	6453	0.2428814	0.2878744	48.27874	
17:53:18:996	0	0	0	1.622282	12.04875	0	3	100	0	6453	0.236675	0.2902772	48.27378	
17:53:19:236	0	0	0	1.622282	12.04875	0	3	100	0	6453	0.2341399	0.2928034	48.2677	
17:53:19:337	0	0	0	1.622282	12.04875	0	3	100	0	6453	0.2367034	0.2992165	48.2763	
17:53:19:525	0	0	0	1.622282	12.04875	0	3	100	0	6453	0.2287793	0.3129829	48.29492	
17:53:19:729	0	0	0	1.862882	19.16193	0	3	100	0	6453	0.232757	0.3013069	48.30862	
17:53:19:934	0	0	0	1.862882	19.16193	0	3	100	0	6453	0.2382232	0.2870111	48.30308	
17:53:20:140	0	0	0	1.862882	19.16193	0	3	100	0	6453	0.2353607	0.288867	48.31308	
17:53:20:344	0	0	0	1.862882	19.16193	0	3	100	0	6453	0.2365406	0.258472	48.31258	
17:53:20:527	0	0	0	1.862882	19.16193	0	3	100	0	6453	0.2428598	0.2537872	48.30721	
17:53:20:729	0	0	0	1.89147	11.97046	0	3	100	0	6453	0.244334	0.2576799	48.30826	
17:53:20:926	0	0	0	1.89147	11.97046	0	3	100	0	6453	0.2449494	0.2656066	48.30144	
17:53:21:127	0	0	0	1.89147	11.97046	0	3	100	0	6453	0.2367025	0.2535534	48.29361	
17:53:21:327	0	0	0	1.89147	11.97046	0	3	100	0	6453	0.2234745	0.2285076	48.28062	
17:53:21:527	0	0	0	1.89147	11.97046	0	3	100	0	6453	0.2151725	0.2233748	48.29174	
17:53:21:776	0	0	0	1.728076	-1.559158	0	3	100	0	6453	0.2126245	0.2035007	48.29025	
17:53:21:930	0	0	0	1.728076	-1.559158	0	3	100	0	6453	0.2045575	0.2112707	48.27411	
17:53:22:130	0	0	0	1.728076	-1.559158	0	3	100	0	6453	0.1982458	0.1936607	48.278	
17:53:22:330	0	0	0	1.728076	-1.559158	0	3	100	0	6453	0.1969216	0.1900928	48.27913	
17:53:22:532	0	0	0	1.728076	-1.559158	0	3	100	0	6453	0.2045793	0.1995326	48.28016	
17:53:22:735	0	0	0	1.607854	-5.612413	0	3	100	0	6453	0.2117345	0.2069902	48.26849	
17:53:22:952	0	0	0	1.607854	-5.612413	0	3	100	0	6453	0.2083265	0.2038385	48.2681	
17:53:23:137	0	0	0	1.607854	-5.612413	0	3	100	0	6453	0.1999505	0.1794266	48.26558	
17:53:23:340	0	0	0	1.607854	-5.612413	0	3	100	0	6453	0.1943788	0.1691772	48.2527	
17:53:23:548	0	0	0	1.607854	-5.612413	0	3	100	0	6453	0.1970146	0.1647765	48.26033	
17:53:23:740	0	0	0	1.655584	-1.344042	0	3	100	0	6453	0.1770434	0.1663229	48.27443	
17:53:23:936	0	0	0	1.655584	-1.344042	0	3	100	0	6453	0.1723999	0.1858896	48.28593	
17:53:24:136	0	0	0	1.655584	-1.344042	0	3	100	0	6453	0.1743181	0.1919398	48.2865	
17:53:24:352	0	0	0	1.655584	-1.344042	0	3	100	0	6453	0.1703425	0.2063383	48.30389	
17:53:24:537	0	0	0	1.655584	-1.344042	0	3	100	0	6453	0.1663005	0.1994045	48.30269	
17:53:24:739	0	0	0	1.579342	-4.145939	0	3	100	0	6453	0.1714585	0.2073642	48.30572	
17:53:24:940	0	0	0	1.579342	-4.145939	0	3	100	0	6453	0.1873337	0.2258109	48.30716	
17:53:25:140	0	0	0	1.579342	-4.145939	0	3	100	0	6453	0.1905667	0.2431788	48.29071	
17:53:25:340	0	0	0	1.579342	-4.145939	0	3	100	0	6453	0.1910244	0.2329277	48.28162	
17:53:25:540	0	0	0	1.579342	-4.145939	0	3	100	0	6453	0.1938148	0.2432397	48.27609	
17:53:25:749	0	0	0	1.566465	-1.762375	0	3	100	0	6453	0.1953902	0.2483499	48.28508	
17:53:25:943	0	0	0	1.566465	-1.762375	0	3	100	0	6453	0.1978126	0.2521812	48.2898	
17:53:26:139	0	0	0	1.566465	-1.762375	0	3	100	0	6453	0.2018592	0.2520174	48.28398	
17:53:26:341	0	0	0	1.566465	-1.762375	0	3	100	0	6453	0.1983744	0.2789589	48.27271	
17:53:26:540	0	0	0	1.566465	-1.762375	0	3	100	0	6453	0.1977857	0.2780879	48.28215	
17:53:26:742	0	0	0	1.739676	6.579844	0	3	100	0	6453	0.1968175	0.2780059	48.2895	
17:53:26:952	0	0	0	1.739676	6.579844	0	3	100	0	6453	0.1980464	0.2873743	48.28656	
17:53:27:143	0	0	0	1.739676	6.579844	0	3	100	0	6453	0.1984309	0.2836367	48.27359	
17:53:27:348	0	0	0	1.739676	6.579844	0	3	100	0	6453	0.2162026	0.3027795	48.27402	
17:53:27:547	0	0	0	1.739676	6.579844	0	3	100	0	6453	0.2096902	0.3230108	48.28299	
17:53:27:748	0	0	0	1.696494	0.4504038	0	3	100	0	6453	0.2149806	0.332965	48.29021	
17:53:27:950	0	0	0	1.696494	0.4504038	0	3	100	0	6453	0.214939	0.3511568	48.29071	
17:53:28:151	0	0	0	1.696494	0.4504038	0	3	100	0	6453	0.2116513	0.350507	48.298	
17:53:28:351	0	0	0	1.696494	0.4504038	0	3	100	0	6453	0.2214343	0.3641878	48.3049	
17:53:28:551	0	0	0	1.696494	0.4504038	0	3	100	0	6453	0.2270091	0.3711457	48.30235	
17:53:28:753	0	0	0	1.461668	-9.849284	0	3	100	0	6453	0.2267224	0.3870012	48.29721	
17:53:28:954	0	0	0	1.461668	-9.849284	0	3	100	0	6453	0.229047	0.3887969	48.30528	
17:53:29:154	0	0	0	1.461668	-9.849284	0	3	100	0	6453	0.2281641	0.3933291	48.29798	
17:53:29:360	0	0	0	1.461668	-9.849284	0	3	100	0	6453	0.2301918	0.3729965	48.29479	
17:53:29:571	0	0	0	1.461668	-9.849284	0	3	100	0	6453	0.2352294	0.3769271	48.29812	
17:53:29:764	0	0	0	1.477614	-4.385607	0	3	100	0	6453	0.2255604	0.3722644	48.28899	
17:53:29:952	0	0	0	1.477614	-4.385607	0	3	100	0	6453	0.2286826	0.3736497	48.28415	
17:53:30:159	0	0	0	1.477614	-4.385607	0	3	100	0	6453	0.2256514	0.3666686	48.28142	
17:53:30:358	0	0	0	1.477614	-4.385607	0	3	100	0	6453	0.2279605	0.3598442	48.2812	
17:53:30:558	0	0	0	1.477614	-4.385607	0	3	100	0	6453	0.2240534	0.354171	48.29301	
17:53:30:774	0	0	0	1.651593	5.016813	0	3	100	0	6453	0.2295428	0.3671904	48.30044	
17:53:30:960	0	0	0	1.651593	5.016813	0	3	100	0	6453	0.2393868	0.3728071	48.30751	
17:53:31:161	0	0	0	1.651593	5.016813	0	3	100	0	6453	0.248451	0.4079557	48.30644	
17:53:31:362	0	0	0	1.651593	5.016813	0	3	100	0	6453	0.2520533	0.4179186	48.29583	
17:53:31:562	0	0	0	1.651593	5.016813	0	3	100	0	6453	0.248185	0.416489	48.3012	
17:53:31:763	0	0	0	1.603143	0.1604846	0	3	100	0	6453	0.253359	0.4444267	48.30578	
17:53:31:963	0	0	0	1.603143	0.1604846	0	3	100	0	6453	0.2618161	0.454507	48.30828	
17:53:32:167	0	0	0	1.603143	0.1604846	0	3	100	0	6453	0.2744666	0.4620856	48.29963	
17:53:32:365	0	0	0	1.603143	0.1604846	0	3	100	0	6453	0.2674573	0.4610789	48.2902	
17:53:32:562	0	0	0	1.603143	0.1604846	0	3	100	0	6453	0.2693346	0.4630287	48.28608	
17:53:32:762	0	0	0	1.570213	-0.9866117	0	3	100	0	6453	0.2622988	0.4591853	48.2908	
17:53:32:963	0	0	0	1.570213	-0.9866117	0	3	100	0	6453	0.2628077	0.4624886	48.27857	
17:53:33:165	0	0	0	1.570213	-0.9866117	0	3	100	0	6453	0.2701899	0.4562478	48.27497	
17:53:33:366	0	0	0	1.570213	-0.9866117	0	3	100	0	6453	0.2733494	0.4504013	48.28666	
17:53:33:567	0	0	0	1.570213	-0.9866117	0	3	100	0	6453	0.2743949	0.4514963	48.27666	
17:53:33:767	0	0	0	1.446687	-6.645304	0	3	100	0	6453	0.2781934	0.4449155	48.26995	
17:53:33:967	0	0	0	1.446687	-6.645304	0	3	100	0	6453	0.2843723	0.4359859	48.26486	
17:53:34:167	0	0	0	1.446687	-6.645304	0	3	100	0	6453	0.2811024	0.4396036	48.24881	
17:53:34:369	0	0	0	1.446687	-6.645304	0	3	100	0	6453	0.2700361	0.4325826	48.24696	
17:53:34:575	0	0	0	1.446687	-6.645304	0	3	100	0	6453	0.268047	0.423131	48.24761	
17:53:34:770	0	0	0	1.149138	-16.56734	0	3	100	0	6453	0.2589643	0.4244548	48.23711	
17:53:34:969	0	0	0	1.149138	-16.56734	0	3	100	0	6453	0.2680984	0.4514045	48.23708	
17:53:35:170	0	0	0	1.149138	-16.56734	0	3	100	0	6453	0.2761125	0.4539182	48.23624	
17:53:35:370	0	0	0	1.149138	-16.56734	0	3	100	0	6453	0.2732135	0.4448175	48.23183	
17:53:35:572	0	0	0	1.149138	-16.56734	0	3	100	0	6453	0.2574905	0.4056021	48.2346	
17:53:35:774	0	0	0	1.023256	-16.34323	0	3	100	0	6453	0.2503868	0.3993199	48.23503	
17:53:35:978	0	0	0	1.023256	-16.34323	0	3	100	0	6453	0.2504144	0.3887609	48.22548	
17:53:36:174	0	0	0	1.023256	-16.34323	0	3	100	0	6453	0.2512172	0.3784173	48.21403	
17:53:36:375	0	0	0	1.023256	-16.34323	0	3	100	0	6453	0.2504311	0.3944071	48.21037	
17:53:36:576	0	0	0	1.023256	-16.34323	0	3	100	0	6453	0.2509457	0.4035655	48.20272	
17:53:36:776	0	0	0	1.070577	-6.74793	0	3	100	0	6453	0.2475489	0.3939625	48.18722	
17:53:36:977	0	0	0	1.070577	-6.74793	0	3	100	0	6453	0.2417895	0.3824463	48.18191	
17:53:37:219	0	0	0	1.070577	-6.74793	0	3	100	0	6453	0.2302514	0.393306	48.18283	
17:53:37:385	0	0	0	1.070577	-6.74793	0	3	100	0	6453	0.2420701	0.3988212	48.18544	
17:53:37:579	0	0	0	1.070577	-6.74793	0	3	100	0	6453	0.2475805	0.3899709	48.19244	
17:53:37:780	0	0	0	1.123467	-1.872984	0	3	100	0	6453	0.2461552	0.3746056	48.19853	
17:53:37:980	0	0	0	1.123467	-1.872984	0	3	100	0	6453	0.2445532	0.3621531	48.18534	
17:53:38:181	0	0	0	1.123467	-1.872984	0	3	100	0	6453	0.2441502	0.345743	48.18188	
17:53:38:424	0	0	0	1.123467	-1.872984	0	3	100	0	6453	0.2423209	0.364031	48.18672	
17:53:38:582	0	0	0	1.123467	-1.872984	0	3	100	0	6453	0.2385149	0.3537022	48.18599	
17:53:38:783	0	0	0	1.043211	-6.028937	0	3	100	0	6453	0.2423311	0.3478991	48.19831	
17:53:38:984	0	0	0	1.043211	-6.028937	0	3	100	0	6453	0.2433014	0.3564849	48.18923	
17:53:39:185	0	0	0	1.043211	-6.028937	0	3	100	0	6453	0.242308	0.3752346	48.19776	
17:53:39:385	0	0	0	1.043211	-6.028937	0	3	100	0	6453	0.2414958	0.3669918	48.20225	
17:53:39:589	0	0	0	1.043211	-6.028937	0	3	100	0	6453	0.2385065	0.3564446	48.21296	
17:53:39:792	0	0	0	1.054561	-2.979103	0	3	100	0	6453	0.2374948	0.3662856	48.22542	
17:53:39:987	0	0	0	1.054561	-2.979103	0	3	100	0	6453	0.2265202	0.3678767	48.23202	
17:53:40:188	0	0	0	1.054561	-2.979103	0	3	100	0	6453	0.2207685	0.3827793	48.2303	
17:53:40:389	0	0	0	1.054561	-2.979103	0	3	100	0	6453	0.2126875	0.3689697	48.22248	
17:53:40:591	0	0	0	1.054561	-2.979103	0	3	100	0	6453	0.213477	0.3919623	48.2287	
17:53:40:792	0	0	0	1.150394	2.198358	0	3	100	0	6453	0.2127221	0.4122339	48.23214	
17:53:40:992	0	0	0	1.150394	2.198358	0	3	100	0	6453	0.2133272	0.4132434	48.20807	
17:53:41:192	0	0	0	1.150394	2.198358	0	3	100	0	6453	0.2018248	0.4027497	48.19744	
17:53:41:392	0	0	0	1.150394	2.198358	0	3	100	0	6453	0.2010045	0.401589	48.18997	
17:53:41:593	0	0	0	1.150394	2.198358	0	3	100	0	6453	0.2062463	0.3828924	48.19143	
17:53:41:793	0	0	0	1.311483	8.535532	0	3	100	0	6453	0.1401893	0.4613871	48.13122	
17:53:41:996	0	0	0	1.311483	8.535532	0	3	100	0	6453	0.145603	0.4548658	48.09311	
17:53:42:197	0	0	0	1.311483	8.535532	0	3	100	0	6453	0.1499581	0.4544606	48.0798	
17:53:42:396	0	0	0	1.311483	8.535532	0	3	100	0	6453	0.1627805	0.4549482	48.0841	
17:53:42:607	0	0	0	1.311483	8.535532	0	3	100	0	6453	0.1722555	0.4498331	48.09046	
17:53:42:799	0	0	0	1.12237	-4.921274	0	3	100	0	6453	0.1629152	0.4356023	48.1085	
17:53:42:999	0	0	0	1.12237	-4.921274	0	3	100	0	6453	0.1497406	0.4219022	48.10496	
17:53:43:202	0	0	0	1.12237	-4.921274	0	3	100	0	6453	0.141944	0.4258607	48.10877	
17:53:43:400	0	0	0	1.12237	-4.921274	0	3	100	0	6453	0.1456939	0.4265037	48.11641	
17:53:43:599	0	0	0	1.12237	-4.921274	0	3	100	0	6453	0.1413879	0.4331962	48.13034	
17:53:43:823	0	0	0	1.032251	-6.590279	0	3	100	0	6453	0.1403951	0.4365369	48.14368	
17:53:44:1	0	0	0	1.032251	-6.590279	0	3	100	0	6453	0.1320039	0.4456849	48.15484	
17:53:44:205	0	0	0	1.032251	-6.590279	0	3	100	0	6453	0.1289757	0.4357844	48.14086	
17:53:44:402	0	0	0	1.032251	-6.590279	0	3	100	0	6453	0.1260681	0.42769	48.12957	
17:53:44:603	0	0	0	1.032251	-6.590279	0	3	100	0	6453	0.1223954	0.4313693	48.11837	
17:53:44:883	0	0	0	1.415905	14.07945	0	3	100	0	6453	0.1363259	0.4290196	48.1141	
17:53:45:10	0	0	0	1.415905	14.07945	0	3	100	0	6453	0.1365552	0.4206863	48.10532	
17:53:45:210	0	0	0	1.415905	14.07945	0	3	100	0	6453	0.1273844	0.4121171	48.09641	
17:53:45:405	0	0	0	1.415905	14.07945	0	3	100	0	6453	0.1166351	0.4098918	48.09083	
17:53:45:612	0	0	0	1.415905	14.07945	0	3	100	0	6453	0.1172723	0.4078301	48.09333	
17:53:45:811	0	0	0	1.373685	5.324541	0	3	100	0	6453	0.1140487	0.3865166	48.08067	
17:53:46:11	0	0	0	1.373685	5.324541	0	3	100	0	6453	0.1077909	0.3930299	48.07328	
17:53:46:215	0	0	0	1.373685	5.324541	0	3	100	0	6453	0.1116733	0.3900372	48.07352	
17:53:46:413	0	0	0	1.373685	5.324541	0	3	100	0	6453	0.1156972	0.4001079	48.08455	
17:53:46:610	0	0	0	1.373685	5.324541	0	3	100	0	6453	0.1216885	0.385387	48.09768	
17:53:46:810	0	0	0	1.277995	-1.125057	0	3	100	0	6453	0.1095238	0.3818735	48.10455	
17:53:47:12	0	0	0	1.277995	-1.125057	0	3	100	0	6453	0.1130941	0.3994224	48.10706	
17:53:47:211	0	0	0	1.277995	-1.125057	0	3	100	0	6453	0.1132943	0.4005502	48.11444	
17:53:47:434	0	0	0	1.277995	-1.125057	0	3	100	0	6453	0.1150158	0.4021834	48.11063	
17:53:47:613	0	0	0	1.277995	-1.125057	0	3	100	0	6453	0.1125947	0.3980953	48.12058	
17:53:47:814	0	0	0	1.371289	3.247109	0	3	100	0	6453	0.1080454	0.3802784	48.1264	
17:53:48:15	0	0	0	1.371289	3.247109	0	3	100	0	6453	0.1030514	0.355069	48.12405	
17:53:48:215	0	0	0	1.371289	3.247109	0	3	100	0	6453	0.1056998	0.328184	48.13354	
17:53:48:415	0	0	0	1.371289	3.247109	0	3	100	0	6453	0.1082631	0.3483746	48.13612	
17:53:48:614	0	0	0	1.371289	3.247109	0	3	100	0	6453	0.1066527	0.352047	48.13691	
17:53:48:813	0	0	0	1.340922	1.068337	0	3	100	0	6453	0.1208598	0.3598251	48.14426	
17:53:49:13	0	0	0	1.340922	1.068337	0	3	100	0	6453	0.1249154	0.3502872	48.14446	
17:53:49:230	0	0	0	1.340922	1.068337	0	3	100	0	6453	0.1235714	0.3568153	48.12942	
17:53:49:415	0	0	0	1.340922	1.068337	0	3	100	0	6453	0.1257695	0.3510262	48.13246	
17:53:49:616	0	0	0	1.340922	1.068337	0	3	100	0	6453	0.1163081	0.3620299	48.14274	
17:53:49:820	0	0	0	1.539489	6.793989	0	3	100	0	6453	0.1144701	0.3709799	48.13892	
17:53:50:20	0	0	0	1.539489	6.793989	0	3	100	0	6453	0.1153856	0.371687	48.14883	
17:53:50:220	0	0	0	1.539489	6.793989	0	3	100	0	6453	0.1208058	0.3812512	48.13601	
17:53:50:416	0	0	0	1.539489	6.793989	0	3	100	0	6453	0.1286058	0.3819457	48.14066	
17:53:50:617	0	0	0	1.539489	6.793989	0	3	100	0	6453	0.1339372	0.389947	48.13977	
17:53:50:817	0	0	0	1.527832	3.741402	0	3	100	0	6453	0.134252	0.3742295	48.13789	
17:53:51:21	0	0	0	1.527832	3.741402	0	3	100	0	6453	0.1418208	0.3667824	48.14761	
17:53:51:223	0	0	0	1.527832	3.741402	0	3	100	0	6453	0.1357123	0.3482458	48.13575	
17:53:51:423	0	0	0	1.527832	3.741402	0	3	100	0	6453	0.1335561	0.3445718	48.12105	
17:53:51:620	0	0	0	1.527832	3.741402	0	3	100	0	6453	0.1224534	0.3361172	48.13535	
17:53:51:819	0	0	0	1.534451	1.834537	0	3	100	0	6453	0.1129264	0.3352942	48.13153	
17:53:52:20	0	0	0	1.534451	1.834537	0	3	100	0	6453	0.1095265	0.3601994	48.12678	
17:53:52:221	0	0	0	1.534451	1.834537	0	3	100	0	6453	0.1106958	0.3698874	48.11384	
17:53:52:423	0	0	0	1.534451	1.834537	0	3	100	0	6453	0.0970986	0.3671733	48.1023	
17:53:52:622	0	0	0	1.534451	1.834537	0	3	100	0	6453	0.09309458	0.3468753	48.09253	
17:53:52:823	0	0	0	1.421228	-4.294367	0	3	100	0	6453	0.08352374	0.3198187	48.08829	
17:53:53:23	0	0	0	1.421228	-4.294367	0	3	100	0	6453	0.1025715	0.3244102	48.08114	
17:53:53:225	0	0	0	1.421228	-4.294367	0	3	100	0	6453	0.09794139	0.3165924	48.08661	
17:53:53:427	0	0	0	1.421228	-4.294367	0	3	100	0	6453	0.1094185	0.3237905	48.07058	
17:53:53:629	0	0	0	1.421228	-4.294367	0	3	100	0	6453	0.1166513	0.3156993	48.07594	
17:53:53:829	0	0	0	1.28826	-9.897516	0	3	100	0	6453	0.1201823	0.3198889	48.08628	
17:53:54:34	0	0	0	1.28826	-9.897516	0	3	100	0	6453	0.1269405	0.3080184	48.08224	
17:53:54:228	0	0	0	1.28826	-9.897516	0	3	100	0	6453	0.1283305	0.3057773	48.08575	
17:53:54:428	0	0	0	1.28826	-9.897516	0	3	100	0	6453	0.1260004	0.3116145	48.10363	
17:53:54:630	0	0	0	1.28826	-9.897516	0	3	100	0	6453	0.1365284	0.3384454	48.10746	
17:53:54:826	0	0	0	1.304929	-6.023154	0	3	100	0	6453	0.1289216	0.3437233	48.12269	
17:53:55:27	0	0	0	1.304929	-6.023154	0	3	100	0	6453	0.1261272	0.3570599	48.12944	
17:53:55:229	0	0	0	1.304929	-6.023154	0	3	100	0	6453	0.1172298	0.3616695	48.1216	
17:53:55:429	0	0	0	1.304929	-6.023154	0	3	100	0	6453	0.1078198	0.3705847	48.10816	
17:53:55:630	0	0	0	1.304929	-6.023154	0	3	100	0	6453	0.1081416	0.357284	48.10672	
17:53:55:830	0	0	0	1.179322	-9.272731	0	3	100	0	6453	0.09912394	0.3573285	48.09708	
17:53:56:31	0	0	0	1.179322	-9.272731	0	3	100	0	6453	0.1017336	0.342865	48.09784	
17:53:56:234	0	0	0	1.179322	-9.272731	0	3	100	0	6453	0.1032453	0.3493394	48.09354	
17:53:56:452	0	0	0	1.179322	-9.272731	0	3	100	0	6453	0.116134	0.339444	48.08634	
17:53:56:640	0	0	0	1.179322	-9.272731	0	3	100	0	6453	0.1200033	0.3534825	48.08843	
17:53:56:832	0	0	0	1.19737	-4.208475	0	3	100	0	6453	0.1235003	0.3456327	48.1047	
17:53:57:33	0	0	0	1.19737	-4.208475	0	3	100	0	6453	0.1127295	0.355095	48.11248	
17:53:57:240	0	0	0	1.19737	-4.208475	0	3	100	0	6453	0.1043786	0.3369103	48.109	
17:53:57:438	0	0	0	1.19737	-4.208475	0	3	100	0	6453	0.1041689	0.3440606	48.09911	
17:53:57:641	0	0	0	1.19737	-4.208475	0	3	100	0	6453	0.09649906	0.3498876	48.10823	
17:53:57:846	0	0	0	1.324847	1.929191	0	3	100	0	6453	0.1033693	0.338503	48.10212	
17:53:58:39	0	0	0	1.324847	1.929191	0	3	100	0	6453	0.1020347	0.345136	48.09246	
17:53:58:242	0	0	0	1.324847	1.929191	0	3	100	0	6453	0.09019686	0.3241345	48.09607	
17:53:58:438	0	0	0	1.324847	1.929191	0	3	100	0	6453	0.08646217	0.3326376	48.10372	
17:53:58:644	0	0	0	1.324847	1.929191	0	3	100	0	6453	0.08667572	0.3466907	48.11863	
17:53:58:841	0	0	0	1.36035	2.536009	0	3	100	0	6453	0.08917129	0.3447705	48.12363	
17:53:59:40	0	0	0	1.36035	2.536009	0	3	100	0	6453	0.09284484	0.3412801	48.12177	
17:53:59:254	0	0	0	1.36035	2.536009	0	3	100	0	6453	0.08981904	0.333915	48.1046	
17:53:59:442	0	0	0	1.36035	2.536009	0	3	100	0	6453	0.08767686	0.3458556	48.10708	
17:53:59:648	0	0	0	1.36035	2.536009	0	3	100	0	6453	0.09136938	0.3553534	48.11256	
17:53:59:847	0	0	0	1.461092	6.621353	0	3	100	0	6453	0.09767568	0.3556428	48.10899	
17:54:00:48	0	0	0	1.461092	6.621353	0	3	100	0	6453	0.1052348	0.3173616	48.10069	
17:54:00:249	0	0	0	1.461092	6.621353	0	3	100	0	6453	0.1023781	0.3139737	48.08892	
17:54:00:456	0	0	0	1.461092	6.621353	0	3	100	0	6453	0.1045438	0.3099497	48.07199	
17:54:00:651	0	0	0	1.461092	6.621353	0	3	100	0	6453	0.1148893	0.3183385	48.08699	
17:54:00:851	0	0	0	1.558644	8.26898	0	3	100	0	6453	0.113985	0.3295474	48.09963	
17:54:01:63	0	0	0	1.558644	8.26898	0	3	100	0	6453	0.1251721	0.3267502	48.09567	
17:54:01:253	0	0	0	1.558644	8.26898	0	3	100	0	6453	0.1264392	0.3411985	48.09878	
17:54:01:453	0	0	0	1.558644	8.26898	0	3	100	0	6453	0.1263603	0.3335958	48.1066	
17:54:01:656	0	0	0	1.558644	8.26898	0	3	100	0	6453	0.1204656	0.3129666	48.10624	
17:54:01:884	0	0	0	1.730145	11.1271	0	3	100	0	6453	0.109816	0.333525	48.11875	
17:54:02:56	0	0	0	1.730145	11.1271	0	3	100	0	6453	0.1033131	0.3362296	48.12207	
17:54:02:255	0	0	0	1.730145	11.1271	0	3	100	0	6453	0.09433375	0.3364741	48.12115	
17:54:02:456	0	0	0	1.730145	11.1271	0	3	100	0	6453	0.08998317	0.3108402	48.11139	
17:54:02:658	0	0	0	1.730145	11.1271	0	3	100	0	6453	0.09389395	0.3059163	48.10722	
17:54:02:860	0	0	0	1.685811	5.839922	0	3	100	0	6453	0.099208	0.3170409	48.12737	
17:54:03:65	0	0	0	1.685811	5.839922	0	3	100	0	6453	0.1018642	0.3214003	48.13095	
17:54:03:259	0	0	0	1.685811	5.839922	0	3	100	0	6453	0.1114585	0.3069054	48.13224	
17:54:03:460	0	0	0	1.685811	5.839922	0	3	100	0	6453	0.1133413	0.3112281	48.12114	
17:54:03:661	0	0	0	1.685811	5.839922	0	3	100	0	6453	0.1118862	0.2950541	48.12162	
