Date	Latitude(deg) 	Longitude(deg)	hamsl(m)	hafl(m)	climbrate(cm/s)	GroundSpeed(m/s)	Airspeed(m/s)	Mav_Link(%)	Rssi_Link(%)	Throttle	Roll(deg)	Pitch(deg)	Yaw(deg)
17:55:50:119	0	0	0	0	0	0	0	51	0	0	0.1751724	0.2902556	48.16749	
17:55:50:309	0	0	0	0	0	0	0	53	0	0	0.1668245	0.2823565	48.17864	
17:55:50:515	0	0	0	0	0	0	0	55	0	0	0.1777758	0.2794994	48.17251	
17:55:50:715	0	0	0	1.322989	-24.79402	0	3	57	0	6453	0.1764506	0.2642129	48.16	
17:55:50:917	0	0	0	1.322989	-24.79402	0	3	58	0	6453	0.1735792	0.2658562	48.16224	
17:55:51:117	0	0	0	1.322989	-24.79402	0	3	60	0	6453	0.1743794	0.26933	48.16902	
17:55:51:317	0	0	0	1.322989	-24.79402	0	3	61	0	6453	0.1698916	0.25594	48.16703	
17:55:51:518	0	0	0	1.322989	-24.79402	0	3	62	0	6453	0.1681082	0.2626491	48.17405	
17:55:51:718	0	0	0	2.430142	46.95162	0	3	63	0	6453	0.1684524	0.2636396	48.18118	
17:55:51:919	0	0	0	2.430142	46.95162	0	3	65	0	6453	0.1633286	0.2703683	48.1899	
17:55:52:119	0	0	0	2.430142	46.95162	0	3	66	0	6453	0.1611589	0.2767549	48.18617	
17:55:52:320	0	0	0	2.430142	46.95162	0	3	67	0	6453	0.169144	0.2789568	48.18464	
17:55:52:521	0	0	0	2.430142	46.95162	0	3	68	0	6453	0.1769697	0.2814081	48.17661	
17:55:52:722	0	0	0	2.279608	36.63537	0	3	68	0	6453	0.1772973	0.2949437	48.16981	
17:55:52:921	0	0	0	2.279608	36.63537	0	3	69	0	6453	0.1811065	0.2934289	48.1671	
17:55:53:119	0	0	0	2.279608	36.63537	0	3	70	0	6453	0.1806086	0.2775487	48.18407	
17:55:53:320	0	0	0	2.279608	36.63537	0	3	71	0	6453	0.1853917	0.2978646	48.18264	
17:55:53:520	0	0	0	2.279608	36.63537	0	3	72	0	6453	0.1908095	0.3243805	48.17616	
17:55:53:721	0	0	0	2.023508	24.55672	0	3	72	0	6453	0.1873726	0.32898	48.16634	
17:55:53:925	0	0	0	2.023508	24.55672	0	3	73	0	6453	0.1967234	0.3241134	48.16388	
17:55:54:124	0	0	0	2.023508	24.55672	0	3	74	0	6453	0.1976155	0.3257724	48.16064	
17:55:54:326	0	0	0	2.023508	24.55672	0	3	75	0	6453	0.198979	0.3377784	48.16903	
17:55:54:524	0	0	0	2.023508	24.55672	0	3	75	0	6453	0.2103915	0.3422062	48.16336	
17:55:54:725	0	0	0	1.904613	22.74059	0	3	76	0	6453	0.212539	0.3520966	48.15803	
17:55:54:926	0	0	0	1.904613	22.74059	0	3	77	0	6453	0.2148765	0.3527982	48.1504	
17:55:55:126	0	0	0	1.904613	22.74059	0	3	77	0	6453	0.2188427	0.3648369	48.15612	
17:55:55:327	0	0	0	1.904613	22.74059	0	3	78	0	6453	0.2163583	0.3676296	48.17191	
17:55:55:528	0	0	0	1.904613	22.74059	0	3	78	0	6453	0.2163404	0.3670334	48.15812	
17:55:55:728	0	0	0	2.123729	36.16939	0	3	79	0	6453	0.2142169	0.3823856	48.15768	
17:55:55:929	0	0	0	2.123729	36.16939	0	3	79	0	6453	0.2170404	0.3995031	48.15116	
17:55:56:142	0	0	0	2.123729	36.16939	0	3	80	0	6453	0.2201795	0.4010936	48.13705	
17:55:56:330	0	0	0	2.123729	36.16939	0	3	80	0	6453	0.2190424	0.4128053	48.12157	
17:55:56:536	0	0	0	2.123729	36.16939	0	3	81	0	6453	0.2156069	0.406056	48.10848	
17:55:56:736	0	0	0	2.023731	29.14107	0	3	81	0	6453	0.2126059	0.3936118	48.11883	
17:55:56:933	0	0	0	2.023731	29.14107	0	3	81	0	6453	0.2104482	0.380156	48.12426	
17:55:57:134	0	0	0	2.023731	29.14107	0	3	82	0	6453	0.2128865	0.3854581	48.12052	
17:55:57:334	0	0	0	2.023731	29.14107	0	3	82	0	6453	0.2114227	0.3956007	48.11613	
17:55:57:535	0	0	0	2.023731	29.14107	0	3	82	0	6453	0.2126021	0.3974922	48.11833	
17:55:57:736	0	0	0	2.211886	36.8137	0	3	83	0	6453	0.220149	0.4227042	48.11078	
17:55:57:936	0	0	0	2.211886	36.8137	0	3	83	0	6453	0.214511	0.406844	48.11538	
17:55:58:145	0	0	0	2.211886	36.8137	0	3	83	0	6453	0.2094392	0.386786	48.13351	
17:55:58:338	0	0	0	2.211886	36.8137	0	3	84	0	6453	0.212567	0.3928872	48.12939	
17:55:58:538	0	0	0	2.211886	36.8137	0	3	84	0	6453	0.2046517	0.37461	48.12548	
17:55:58:738	0	0	0	2.218709	33.6018	0	3	84	0	6453	0.2108257	0.3787914	48.11549	
17:55:58:939	0	0	0	2.218709	33.6018	0	3	85	0	6453	0.2097564	0.3789249	48.10336	
17:55:59:140	0	0	0	2.218709	33.6018	0	3	85	0	6453	0.2066748	0.3893825	48.09668	
17:55:59:341	0	0	0	2.218709	33.6018	0	3	85	0	6453	0.2041713	0.3900431	48.09251	
17:55:59:541	0	0	0	2.218709	33.6018	0	3	85	0	6453	0.1918729	0.3850442	47.9523	
17:55:59:746	0	0	0	1.930327	-61.4216	0	2	86	0	6453	0.1959768	0.3774053	48.59854	
17:55:59:944	47.46363	-122.3077	0.021	1.930327	-61.4216	0	2	86	0	6453	0.2114941	0.3692207	50.06047	
17:56:00:144	47.46363	-122.3077	0.021	1.930327	-61.4216	0	2	86	0	6453	0.2190019	0.3452826	51.55896	
17:56:00:349	47.46363	-122.3077	0.021	1.930327	-61.4216	0	2	86	0	6453	0.2231882	0.1735555	53.09402	
17:56:00:549	47.46363	-122.3077	0.021	1.930327	-61.4216	0	2	87	0	6453	0.2197646	-0.1229505	54.66882	
17:56:00:750	47.46363	-122.3077	0.021	0.1182976	-119.5906	0	2	87	0	6453	0.2108284	-0.4694857	56.25216	
17:56:00:946	47.46363	-122.3077	0.021	0.1182976	-119.5906	0	2	87	0	6453	0.2168629	-0.7998771	57.90272	
17:56:01:151	47.46363	-122.3077	0.021	0.1182976	-119.5906	0	2	87	0	6453	0.2178782	-1.072248	59.58275	
17:56:01:378	47.46363	-122.3077	0.021	0.1182976	-119.5906	0	2	88	0	6453	0.1968078	-1.269814	61.28897	
17:56:01:552	47.46363	-122.3077	0.021	0.1182976	-119.5906	0	2	88	0	6453	0.1697297	-1.449622	62.99051	
17:56:01:753	47.46363	-122.3077	0.021	-0.7058856	-110.6713	0	2	88	0	6453	0.1275015	-1.553528	64.74769	
17:56:01:955	47.46363	-122.3077	0.021	-0.7058856	-110.6713	0	2	88	0	6453	0.07658587	-1.563869	66.54092	
17:56:02:159	47.46363	-122.3077	0.021	-0.7058856	-110.6713	0	2	88	0	6453	0.02488782	-1.496893	68.39776	
17:56:02:355	47.46363	-122.3077	0.021	-0.7058856	-110.6713	0	2	88	0	6453	-0.01997287	-1.370473	70.23806	
17:56:02:560	47.46363	-122.3077	0.021	-0.7058856	-110.6713	0	2	89	0	6453	-0.05854159	-1.215656	72.13554	
17:56:02:760	47.46363	-122.3077	0.021	-0.8187661	-74.82699	0	2	89	0	6453	-0.09125266	-1.054641	74.07745	
17:56:02:961	47.46363	-122.3077	0.021	-0.8187661	-74.82699	0	2	89	0	6453	-0.1168953	-0.8953561	75.97166	
17:56:03:167	47.46363	-122.3077	0.021	-0.8187661	-74.82699	0	2	89	0	6453	-0.1366529	-0.7547036	77.93616	
17:56:03:372	47.46363	-122.3077	0.021	-0.8187661	-74.82699	0	2	89	0	6453	-0.1516352	-0.6358164	79.97226	
17:56:03:572	47.46363	-122.3077	0.021	-0.8187661	-74.82699	0	2	89	0	6453	-0.162296	-0.551217	82.00207	
17:56:03:777	47.46363	-122.3077	0.021	-0.6221074	-39.37121	0	2	90	0	6453	-0.1702324	-0.506215	84.00713	
17:56:03:977	47.46363	-122.3077	0.021	-0.6221074	-39.37121	0	2	90	0	6453	-0.1771183	-0.4833147	86.06744	
17:56:04:171	47.46363	-122.3077	0.021	-0.6221074	-39.37121	0	2	90	0	6453	-0.183339	-0.4757874	88.08335	
17:56:04:389	47.46363	-122.3077	0.021	-0.6221074	-39.37121	0	2	90	0	6453	-0.1910855	-0.4715655	90.38987	
17:56:04:590	47.46363	-122.3077	0.021	-0.6221074	-39.37121	0	2	90	0	6453	-0.199833	-0.4691934	92.89815	
17:56:04:777	47.46363	-122.3077	0.021	-0.3707159	-15.94361	0	2	90	0	6453	-0.2082697	-0.4728054	95.34753	
17:56:05:16	47.46363	-122.3077	0.021	-0.3707159	-15.94361	0	2	91	0	6453	-0.218022	-0.4824867	97.9118	
17:56:05:230	47.46363	-122.3077	0.021	-0.3707159	-15.94361	0	2	91	0	6453	-0.2268616	-0.4965487	100.3045	
17:56:05:381	47.46363	-122.3077	0.021	-0.3707159	-15.94361	0	2	91	0	6453	-0.2364284	-0.5097472	102.8237	
17:56:05:579	47.46363	-122.3077	0.021	-0.3707159	-15.94361	0	2	91	0	6453	-0.2439436	-0.5215937	105.1668	
17:56:05:779	47.46363	-122.3077	0.021	-0.1697996	-3.419842	0	2	91	0	6453	-0.252623	-0.5280358	107.6831	
17:56:05:983	47.46363	-122.3077	0.021	-0.1697996	-3.419842	0	2	91	0	6453	-0.260334	-0.5267448	110.1044	
17:56:06:186	47.46363	-122.3077	0.021	-0.1697996	-3.419842	0	2	91	0	6453	-0.2687165	-0.5094213	112.5628	
17:56:06:387	47.46363	-122.3077	0.021	-0.1697996	-3.419842	0	2	91	0	6453	-0.2753963	-0.4853757	114.9749	
17:56:06:583	47.46363	-122.3077	0.021	-0.1697996	-3.419842	0	2	92	0	6453	-0.2808951	-0.4594716	117.3859	
17:56:06:787	47.46363	-122.3077	0.021	-0.04912776	0.7791272	0	2	92	0	6453	-0.284753	-0.4334721	119.7611	
17:56:06:988	47.46363	-122.3077	0.021	-0.04912776	0.7791272	0	2	92	0	6453	-0.2860907	-0.4105498	122.0718	
17:56:07:189	47.46363	-122.3077	0.021	-0.04912776	0.7791272	0	2	92	0	6453	-0.2863557	-0.3879368	124.3097	
17:56:07:390	47.46363	-122.3077	0.021	-0.04912776	0.7791272	0	2	92	0	6453	-0.2846302	-0.3661502	126.5021	
17:56:07:590	47.46363	-122.3077	0.021	-0.04912776	0.7791272	0	2	92	0	6453	-0.2822151	-0.34523	128.6862	
17:56:07:790	47.46363	-122.3077	0.021	0.001147879	0.4763927	0	2	92	0	6453	-0.2795722	-0.3267797	130.8201	
17:56:07:997	47.46363	-122.3077	0.021	0.001147879	0.4763927	0	2	92	0	6453	-0.2757975	-0.3102461	132.9313	
17:56:08:196	47.46363	-122.3077	0.021	0.001147879	0.4763927	0	2	92	0	6453	-0.2714592	-0.293351	134.9367	
17:56:08:399	47.46363	-122.3077	0.021	0.001147879	0.4763927	0	2	92	0	6453	-0.2671086	-0.2783252	136.9278	
17:56:08:597	47.46363	-122.3077	0.021	0.001147879	0.4763927	0	2	93	0	6453	-0.1337876	-0.2649274	138.7876	
17:56:08:798	47.46363	-122.3077	0.021	0.0106944	-1.548609	0.01	2	93	0	6453	0.1449419	-0.2312535	140.4188	
17:56:09:1	47.46363	-122.3077	0.021	0.0106944	-1.548609	0.02	2	93	0	6453	0.3685317	-0.1719043	141.8708	
17:56:09:199	47.46363	-122.3077	0.021	0.0106944	-1.548609	0.02	2	93	0	6453	0.487491	-0.04942645	143.2366	
17:56:09:400	47.46363	-122.3077	0.021	0.0106944	-1.548609	0.02	2	93	0	6453	0.5099567	0.05905544	144.4565	
17:56:09:605	47.46363	-122.3077	0.021	0.0106944	-1.548609	0.02	2	93	0	6453	0.4972954	0.1652313	145.7675	
17:56:09:802	47.46363	-122.3077	0.021	-0.003028344	-4.683792	0.02	2	93	0	6453	0.5152004	0.2606464	147.2352	
17:56:10:12	47.46363	-122.3077	0.021	-0.003028344	-4.683792	0.03	2	93	0	6453	0.5525804	0.3380489	148.5483	
17:56:10:203	47.46363	-122.3077	0.021	-0.003028344	-4.683792	0.03	2	93	0	6453	0.5974891	0.4143715	149.7218	
17:56:10:404	47.46363	-122.3077	0.021	-0.003028344	-4.683792	0.03	2	93	0	6453	0.6633512	0.4608671	150.8237	
17:56:10:604	47.46363	-122.3077	0.021	-0.003028344	-4.683792	0.03	2	93	0	6453	0.741878	0.5039015	151.825	
17:56:10:809	47.46363	-122.3077	0.021	-0.02199214	-5.132699	0.03	2	94	0	6453	0.7989825	0.5343239	152.6919	
17:56:11:7	47.46363	-122.3077	0.021	-0.02199214	-5.132699	0.04	2	94	0	6453	0.8298866	0.5702791	153.486	
17:56:11:211	47.46363	-122.3077	0.021	-0.02199214	-5.132699	0.04	2	94	0	6453	0.8721499	0.6133323	154.1816	
17:56:11:411	47.46363	-122.3077	0.021	-0.02199214	-5.132699	0.05	2	94	0	6453	0.9008631	0.6540128	154.8003	
17:56:11:613	47.46363	-122.3077	0.021	-0.02199214	-5.132699	0.05	2	94	0	6453	0.9193975	0.7049583	155.3393	
17:56:11:809	47.46363	-122.3077	0.021	-0.0393742	-7.475952	0.05	2	94	0	6453	0.959621	0.7606	155.8092	
17:56:12:10	47.46363	-122.3077	0.021	-0.0393742	-7.475952	0.05	2	94	0	6453	0.9911429	0.8205891	156.1961	
17:56:12:210	47.46363	-122.3077	0.021	-0.0393742	-7.475952	0.06	2	94	0	6453	1.023538	0.887523	156.5111	
17:56:12:419	47.46363	-122.3077	0.021	-0.0393742	-7.475952	0.06	2	94	0	6453	1.047587	0.9617949	156.774	
17:56:12:620	47.46363	-122.3077	0.021	-0.0393742	-7.475952	0.06	2	94	0	6453	1.061354	1.026998	156.9659	
17:56:12:821	47.46363	-122.3077	0.021	-0.04445281	-6.830915	0.07	2	94	0	6453	1.072254	1.090937	157.1144	
17:56:13:18	47.46363	-122.3077	0.021	-0.04445281	-6.830915	0.07	2	94	0	6453	1.078823	1.158408	157.2111	
17:56:13:221	47.46363	-122.3077	0.021	-0.04445281	-6.830915	0.07	2	94	0	6453	1.080819	1.216785	157.2789	
17:56:13:434	47.46363	-122.3077	0.021	-0.04445281	-6.830915	0.07	2	94	0	6453	1.090957	1.26903	157.2877	
17:56:13:642	47.46363	-122.3077	0.021	-0.04445281	-6.830915	0.07	2	94	0	6453	1.106951	1.309667	157.2711	
17:56:13:819	47.46363	-122.3077	0.021	-0.02506341	-0.7031501	0.08	2	95	0	6453	1.115038	1.336577	157.2097	
17:56:14:23	47.46363	-122.3077	0.021	-0.02506341	-0.7031501	0.08	2	95	0	6453	1.113938	1.360134	157.1143	
17:56:14:227	47.46363	-122.3077	0.021	-0.02506341	-0.7031501	0.08	2	95	0	6453	1.10848	1.375985	156.9776	
17:56:14:421	47.46363	-122.3077	0.021	-0.02506341	-0.7031501	0.09	2	95	0	6453	1.115486	1.404611	156.798	
17:56:14:627	47.46363	-122.3077	0.021	-0.02506341	-0.7031501	0.09	2	95	0	6453	1.108705	1.434777	156.6096	
17:56:14:827	47.46363	-122.3077	0.021	-0.003133289	-0.6857805	0.09	2	95	0	6453	1.101308	1.471781	156.4823	
17:56:15:24	47.46363	-122.3077	0.021	-0.003133289	-0.6857805	0.09	2	95	0	6453	1.090197	1.526258	156.4467	
17:56:15:228	47.46363	-122.3077	0.021	-0.003133289	-0.6857805	0.1	2	95	0	6453	1.098564	1.591912	156.3795	
17:56:15:433	47.46363	-122.3077	0.021	-0.003133289	-0.6857805	0.1	2	95	0	6453	1.082884	1.670819	156.2842	
17:56:15:631	47.46363	-122.3077	0.021	-0.003133289	-0.6857805	0.1	2	95	0	6453	1.078641	1.731655	156.1492	
17:56:15:834	47.46363	-122.3077	0.021	-0.002664984	-2.550263	0.1	2	95	0	6453	1.083692	1.781727	155.9913	
17:56:16:40	47.46363	-122.3077	0.021	-0.002664984	-2.550263	0.11	2	95	0	6453	1.071945	1.827088	155.8063	
17:56:16:248	47.46363	-122.3077	0.021	-0.002664984	-2.550263	0.11	2	95	0	6453	1.073962	1.881793	155.5896	
17:56:16:436	47.46363	-122.3077	0.021	-0.002664984	-2.550263	0.11	2	95	0	6453	1.062708	1.929146	155.3533	
17:56:16:634	47.46363	-122.3077	0.021	-0.002664984	-2.550263	0.11	2	95	0	6453	1.05968	1.973348	155.1036	
17:56:16:837	47.46363	-122.3077	0.021	-0.01359858	-5.304768	0.11	2	95	0	6453	1.044555	2.012621	154.8122	
17:56:17:49	47.46363	-122.3077	0.021	-0.01359858	-5.304768	0.11	2	95	0	6453	1.029047	2.043393	154.5162	
17:56:17:242	47.46363	-122.3077	0.021	-0.01359858	-5.304768	0.13	2	95	0	6453	0.9997488	2.071444	154.1954	
17:56:17:440	47.46363	-122.3077	0.021	-0.01359858	-5.304768	0.13	2	96	0	6453	0.9806667	2.111511	153.8728	
17:56:17:640	47.46363	-122.3077	0.021	-0.01359858	-5.304768	0.13	2	96	0	6453	0.9591792	2.149784	153.5315	
17:56:17:842	47.46363	-122.3077	0.021	-0.02375797	-4.896684	0.13	2	96	0	6453	0.9327471	2.181905	153.1715	
17:56:18:47	47.46363	-122.3077	0.021	-0.02375797	-4.896684	0.13	2	96	0	6453	0.9138713	2.210175	152.8024	
17:56:18:246	47.46363	-122.3077	0.021	-0.02375797	-4.896684	0.13	2	96	0	6453	0.8829108	2.241214	152.4135	
17:56:18:445	47.46363	-122.3077	0.021	-0.02375797	-4.896684	0.13	2	96	0	6453	0.864215	2.280055	152.0225	
17:56:18:646	47.46363	-122.3077	0.021	-0.02375797	-4.896684	0.14	2	96	0	6453	0.8449016	2.32148	151.6111	
17:56:18:845	47.46363	-122.3077	0.021	-0.02552185	-4.535693	0.14	2	96	0	6453	0.8173283	2.355739	151.1938	
17:56:19:45	47.46363	-122.3077	0.021	-0.02552185	-4.535693	0.14	2	96	0	6453	0.7971252	2.383769	150.7672	
17:56:19:247	47.46363	-122.3077	0.021	-0.02552185	-4.535693	0.14	2	96	0	6453	0.7699518	2.416557	150.3387	
17:56:19:444	47.46363	-122.3077	0.021	-0.02552185	-4.535693	0.15	2	96	0	6453	0.7427377	2.449667	149.899	
17:56:19:646	47.46363	-122.3077	0.021	-0.02552185	-4.535693	0.15	2	96	0	6453	0.7091059	2.488873	149.451	
17:56:19:845	47.46363	-122.3077	0.021	-0.02317561	-4.146783	0.15	2	96	0	6453	0.6674219	2.511089	149.0056	
17:56:20:46	47.46363	-122.3077	0.021	-0.02317561	-4.146783	0.15	2	96	0	6453	0.6424112	2.535841	148.6047	
17:56:20:251	47.46363	-122.3077	0.021	-0.02317561	-4.146783	0.15	2	96	0	6453	0.6057903	2.562414	148.2078	
17:56:20:450	47.46363	-122.3077	0.021	-0.02317561	-4.146783	0.15	2	96	0	6453	0.5670975	2.584712	147.8029	
17:56:20:652	47.46363	-122.3077	0.021	-0.02317561	-4.146783	0.16	2	96	0	6453	0.5440902	2.607509	147.382	
17:56:20:852	47.46363	-122.3077	0.021	-0.01242475	-2.40412	0.16	2	96	0	6453	0.5089164	2.634022	146.9654	
17:56:21:54	47.46363	-122.3077	0.021	-0.01242475	-2.40412	0.16	2	96	0	6453	0.4762137	2.657268	146.539	
17:56:21:254	47.46363	-122.3077	0.021	-0.01242475	-2.40412	0.16	2	96	0	6453	0.4338815	2.677497	146.0971	
17:56:21:454	47.46363	-122.3077	0.021	-0.01242475	-2.40412	0.16	2	96	0	6453	0.3981014	2.701303	145.6609	
17:56:21:654	47.46363	-122.3077	0.021	-0.01242475	-2.40412	0.17	2	96	0	6453	0.3703349	2.730319	145.2167	
17:56:21:855	47.46363	-122.3077	0.021	-0.005521955	-1.817249	0.17	2	96	0	6453	0.3554498	2.769248	144.7706	
17:56:22:56	47.46363	-122.3077	0.021	-0.005521955	-1.817249	0.17	2	96	0	6453	0.31957	2.791926	144.3155	
17:56:22:256	47.46363	-122.3077	0.021	-0.005521955	-1.817249	0.17	2	96	0	6453	0.2923727	2.815273	143.8592	
17:56:22:457	47.46363	-122.3077	0.021	-0.005521955	-1.817249	0.18	2	96	0	6453	0.2591651	2.835128	143.3919	
17:56:22:658	47.46363	-122.3077	0.021	-0.005521955	-1.817249	0.18	2	97	0	6453	0.2242765	2.852657	142.9178	
17:56:22:860	47.46363	-122.3077	0.021	0.001447612	-1.808253	0.18	2	97	0	6453	0.1873247	2.867558	142.4319	
17:56:23:60	47.46363	-122.3077	0.021	0.001447612	-1.808253	0.18	2	97	0	6453	0.1635883	2.874029	141.9555	
17:56:23:264	47.46363	-122.3077	0.021	0.001447612	-1.808253	0.18	2	97	0	6453	0.1194717	2.880311	141.4732	
17:56:23:461	47.46363	-122.3077	0.021	0.001447612	-1.808253	0.18	2	97	0	6453	0.08748045	2.889995	140.9885	
17:56:23:663	47.46363	-122.3077	0.021	0.001447612	-1.808253	0.18	2	97	0	6453	0.05062823	2.896863	140.4985	
17:56:23:876	47.46363	-122.3077	0.021	0.00277146	-1.363186	0.18	2	97	0	6453	0.004169126	2.911477	140	
17:56:24:68	47.46363	-122.3077	0.021	0.00277146	-1.363186	0.18	2	97	0	6453	-0.03554633	2.919273	139.5033	
17:56:24:263	47.46363	-122.3077	0.021	0.00277146	-1.363186	0.18	2	97	0	6453	-0.05343462	2.925364	139.0003	
17:56:24:465	47.46363	-122.3077	0.021	0.00277146	-1.363186	0.18	2	97	0	6453	-0.09013991	2.936873	138.5014	
17:56:24:664	47.46363	-122.3077	0.021	0.00277146	-1.363186	0.19	2	97	0	6453	-0.1284024	2.949633	137.992	
17:56:24:870	47.46363	-122.3077	0.021	0.0006894566	-2.254342	0.19	2	97	0	6453	-0.1428133	2.970451	137.476	
17:56:25:70	47.46363	-122.3077	0.021	0.0006894566	-2.254342	0.18	2	97	0	6453	-0.1826694	2.982537	136.9746	
17:56:25:274	47.46363	-122.3077	0.021	0.0006894566	-2.254342	0.18	2	97	0	6453	-0.2213698	2.985841	136.4661	
17:56:25:472	47.46363	-122.3077	0.021	0.0006894566	-2.254342	0.18	2	97	0	6453	-0.270095	2.992944	135.9576	
17:56:25:668	47.46363	-122.3077	0.021	0.0006894566	-2.254342	0.18	2	97	0	6453	-0.2862056	2.99245	135.4495	
17:56:25:869	47.46363	-122.3077	0.021	6.538255E-05	-2.503001	0.18	2	97	0	6453	-0.3272278	2.991921	134.9387	
17:56:26:70	47.46363	-122.3077	0.021	6.538255E-05	-2.503001	0.19	2	97	0	6453	-0.3694423	2.994581	134.4216	
17:56:26:270	47.46363	-122.3077	0.021	6.538255E-05	-2.503001	0.19	2	97	0	6453	-0.3967355	2.998326	133.9035	
17:56:26:471	47.46363	-122.3077	0.021	6.538255E-05	-2.503001	0.19	2	97	0	6453	-0.4278115	2.995522	133.3739	
17:56:26:679	47.46363	-122.3077	0.021	6.538255E-05	-2.503001	0.19	2	97	0	6453	-0.47938	2.995667	132.8417	
17:56:26:881	47.46363	-122.3077	0.021	0.002527007	-1.511078	0.18	2	97	0	6453	-0.5245605	2.996475	132.3035	
17:56:27:79	47.46363	-122.3077	0.021	0.002527007	-1.511078	0.18	2	97	0	6453	-0.552227	2.990602	131.7626	
17:56:27:279	47.46363	-122.3077	0.021	0.002527007	-1.511078	0.18	2	97	0	6453	-0.5773903	2.989854	131.2264	
17:56:27:479	47.46363	-122.3077	0.021	0.002527007	-1.511078	0.19	2	97	0	6453	-0.6195756	2.992929	130.6884	
17:56:27:679	47.46363	-122.3077	0.021	0.002527007	-1.511078	0.19	2	97	0	6453	-0.6554092	3.003551	130.1487	
17:56:27:880	47.46363	-122.3077	0.021	-0.001224213	-3.049367	0.19	2	97	0	6453	-0.6912118	3.006677	129.6043	
17:56:28:81	47.46363	-122.3077	0.021	-0.001224213	-3.049367	0.19	2	97	0	6453	-0.7198393	3.00562	129.0542	
17:56:28:282	47.46363	-122.3077	0.021	-0.001224213	-3.049367	0.18	2	97	0	6453	-0.7470978	2.99663	128.5022	
17:56:28:482	47.46363	-122.3077	0.021	-0.001224213	-3.049367	0.18	2	97	0	6453	-0.7973945	2.980366	127.9495	
17:56:28:683	47.46363	-122.3077	0.021	-0.001224213	-3.049367	0.18	2	97	0	6453	-0.8494173	2.971708	127.3962	
17:56:28:883	47.46363	-122.3077	0.021	-0.002658673	-1.612148	0.18	2	97	0	6453	-0.8815344	2.961085	126.8287	
17:56:29:90	47.46363	-122.3077	0.021	-0.002658673	-1.612148	0.18	2	97	0	6453	-0.8944881	2.949861	126.2627	
17:56:29:291	47.46363	-122.3077	0.021	-0.002658673	-1.612148	0.18	2	97	0	6453	-0.92992	2.939346	125.6909	
17:56:29:490	47.46363	-122.3077	0.021	-0.002658673	-1.612148	0.17	2	97	0	6453	-0.9796448	2.934025	125.1185	
17:56:29:696	47.46363	-122.3077	0.021	-0.002658673	-1.612148	0.17	2	97	0	6453	-1.026564	2.925334	124.5462	
17:56:29:891	47.46363	-122.3077	0.021	0.0002376154	-1.808446	0.17	2	97	0	6453	-1.06428	2.925613	123.9755	
17:56:30:93	47.46363	-122.3077	0.021	0.0002376154	-1.808446	0.17	2	97	0	6453	-1.091649	2.924148	123.3938	
17:56:30:292	47.46363	-122.3077	0.021	0.0002376154	-1.808446	0.17	2	98	0	6453	-1.102886	2.914705	122.8042	
17:56:30:502	47.46363	-122.3077	0.021	0.0002376154	-1.808446	0.17	2	98	0	6453	-1.128912	2.903219	122.2129	
17:56:30:701	47.46363	-122.3077	0.021	0.0002376154	-1.808446	0.17	2	98	0	6453	-1.183225	2.886846	121.6209	
17:56:30:899	47.46363	-122.3077	0.021	0.002875894	-2.081239	0.17	2	98	0	6453	-1.233797	2.877888	121.0357	
17:56:31:101	47.46363	-122.3077	0.021	0.002875894	-2.081239	0.16	2	98	0	6453	-1.282685	2.870617	120.4449	
17:56:31:300	47.46363	-122.3077	0.021	0.002875894	-2.081239	0.16	2	98	0	6453	-1.294937	2.858571	119.8593	
17:56:31:525	47.46363	-122.3077	0.021	0.002875894	-2.081239	0.16	2	98	0	6453	-1.314441	2.848302	119.2537	
17:56:31:706	47.46363	-122.3077	0.021	0.002875894	-2.081239	0.16	2	98	0	6453	-1.336021	2.836094	118.6557	
17:56:31:904	47.46363	-122.3077	0.021	0.008451033	-0.3493538	0.16	2	98	0	6453	-1.367297	2.817063	118.0611	
17:56:32:112	47.46363	-122.3077	0.021	0.008451033	-0.3493538	0.16	2	98	0	6453	-1.379554	2.790203	117.4574	
17:56:32:309	47.46363	-122.3077	0.021	0.008451033	-0.3493538	0.15	2	98	0	6453	-1.395266	2.761842	116.8635	
17:56:32:508	47.46363	-122.3077	0.021	0.008451033	-0.3493538	0.15	2	98	0	6453	-1.428819	2.732052	116.2764	
17:56:32:709	47.46363	-122.3077	0.021	0.008451033	-0.3493538	0.15	2	98	0	6453	-1.485145	2.714612	115.6857	
17:56:32:921	47.46363	-122.3077	0.021	0.01493273	2.059464	0.14	2	98	0	6453	-1.552337	2.702629	115.1007	
17:56:33:119	47.46363	-122.3077	0.021	0.01493273	2.059464	0.14	2	98	0	6453	-1.589782	2.694192	114.5156	
17:56:33:317	47.46363	-122.3077	0.021	0.01493273	2.059464	0.14	2	98	0	6453	-1.610704	2.690743	113.9316	
17:56:33:516	47.46363	-122.3077	0.021	0.01493273	2.059464	0.14	2	98	0	6453	-1.644594	2.688747	113.3501	
17:56:33:719	47.46363	-122.3077	0.021	0.01493273	2.059464	0.13	2	98	0	6453	-1.668842	2.684067	112.7799	
17:56:33:917	47.46363	-122.3077	0.021	0.04773203	5.128662	0.13	2	98	0	6453	-1.675245	2.675086	112.2063	
17:56:34:118	47.46363	-122.3077	0.021	0.04773203	5.128662	0.13	2	98	0	6453	-1.688867	2.669867	111.6303	
17:56:34:318	47.46363	-122.3077	0.021	0.04773203	5.128662	0.13	2	98	0	6453	-1.698287	2.656059	111.0509	
17:56:34:519	47.46363	-122.3077	0.021	0.04773203	5.128662	0.12	2	98	0	6453	-1.708587	2.641209	110.4698	
17:56:34:719	47.46363	-122.3077	0.021	0.04773203	5.128662	0.12	2	98	0	6453	-1.746457	2.614312	109.8895	
17:56:34:917	47.46363	-122.3077	0.021	0.04904361	1.845288	0.12	2	98	0	6453	-1.773646	2.586001	109.3224	
17:56:35:121	47.46363	-122.3077	0.021	0.04904361	1.845288	0.12	2	98	0	6453	-1.791748	2.565806	108.76	
17:56:35:324	47.46363	-122.3077	0.021	0.04904361	1.845288	0.12	2	98	0	6453	-1.828915	2.542303	108.1886	
17:56:35:526	47.46363	-122.3077	0.021	0.04904361	1.845288	0.12	2	98	0	6453	-1.863881	2.51745	107.6066	
17:56:35:728	47.46363	-122.3077	0.021	0.04904361	1.845288	0.12	2	98	0	6453	-1.876596	2.495448	107.0153	
17:56:36:8	47.46363	-122.3077	0.021	0.04012099	0.2375574	0.11	2	98	0	6453	-1.900501	2.472765	106.4209	
17:56:36:129	47.46363	-122.3077	0.021	0.04012099	0.2375574	0.1	2	98	0	6453	-1.926245	2.447922	105.829	
17:56:36:335	47.46363	-122.3077	0.021	0.04012099	0.2375574	0.09	2	98	0	6453	-1.940696	2.426665	105.2228	
17:56:36:530	47.46363	-122.3077	0.021	0.04012099	0.2375574	0.09	2	98	0	6453	-1.975141	2.398569	104.625	
17:56:36:732	47.46363	-122.3077	0.021	0.04012099	0.2375574	0.09	2	98	0	6453	-1.997546	2.377524	104.0219	
17:56:36:932	47.46363	-122.3077	0.021	0.02677037	0.6860714	0.09	2	98	0	6453	-2.022402	2.368061	103.4202	
17:56:37:133	47.46363	-122.3077	0.021	0.02677037	0.6860714	0.08	2	98	0	6453	-2.059558	2.356684	102.8139	
17:56:37:365	47.46363	-122.3077	0.021	0.02677037	0.6860714	0.08	2	98	0	6453	-2.084129	2.335797	102.211	
17:56:37:529	47.46363	-122.3077	0.021	0.02677037	0.6860714	0.07	2	98	0	6453	-2.10064	2.315946	101.6112	
17:56:37:734	47.46363	-122.3077	0.021	0.02677037	0.6860714	0.07	2	98	0	6453	-2.113582	2.2997	101.0168	
17:56:37:931	47.46363	-122.3077	0.021	0.03456088	2.665289	0.07	2	98	0	6453	-2.11849	2.282208	100.4267	
17:56:38:229	47.46363	-122.3077	0.021	0.03456088	2.665289	0.06	2	98	0	6453	-2.113869	2.253914	99.84428	
17:56:38:333	47.46363	-122.3077	0.021	0.03456088	2.665289	0.06	2	98	0	6453	-2.105746	2.221205	99.27555	
17:56:38:533	47.46363	-122.3077	0.021	0.03456088	2.665289	0.06	2	98	0	6453	-2.094746	2.193783	98.71204	
17:56:38:740	47.46363	-122.3077	0.021	0.03456088	2.665289	0.06	2	98	0	6453	-2.086842	2.171199	98.1535	
17:56:38:938	47.46363	-122.3077	0.021	0.03695172	1.546094	0.06	2	98	0	6453	-2.103398	2.143798	97.60404	
17:56:39:140	47.46363	-122.3077	0.021	0.03695172	1.546094	0.05	2	98	0	6453	-2.13372	2.11721	97.0745	
17:56:39:345	47.46363	-122.3077	0.021	0.03695172	1.546094	0.05	2	98	0	6453	-2.170741	2.080045	96.55035	
17:56:39:699	47.46363	-122.3077	0.021	0.03695172	1.546094	0.05	2	98	0	6453	-2.208341	2.041907	96.01699	
17:56:39:756	47.46363	-122.3077	0.021	0.03695172	1.546094	0.05	2	98	0	6453	-2.244384	2.007325	95.49403	
17:56:39:959	47.46363	-122.3077	0.021	0.03154457	1.045032	0.05	2	98	0	6453	-2.267437	1.989273	95.00512	
17:56:40:145	47.46363	-122.3077	0.021	0.03154457	1.045032	0.05	2	98	0	6453	-2.28252	1.97781	94.50972	
17:56:40:344	47.46363	-122.3077	0.021	0.03154457	1.045032	0.04	2	98	0	6453	-2.312329	1.972471	94.01231	
17:56:40:545	47.46363	-122.3077	0.021	0.03154457	1.045032	0.04	2	98	0	6453	-2.337435	1.959601	93.51097	
17:56:40:745	47.46363	-122.3077	0.021	0.03154457	1.045032	0.03	2	98	0	6453	-2.340769	1.951259	92.99928	
17:56:40:945	47.46363	-122.3077	0.021	0.0180565	-1.623783	0.03	2	98	0	6453	-2.309582	1.948182	92.47803	
17:56:41:155	47.46363	-122.3077	0.021	0.0180565	-1.623783	0.02	2	98	0	6453	-2.311992	1.936239	91.94473	
17:56:41:347	47.46363	-122.3077	0.021	0.0180565	-1.623783	0.02	2	98	0	6453	-2.323058	1.919446	91.41591	
17:56:41:590	47.46363	-122.3077	0.021	0.0180565	-1.623783	0.02	2	98	0	6453	-2.338086	1.902335	90.89628	
17:56:41:753	47.46363	-122.3077	0.021	0.0180565	-1.623783	0.02	2	98	0	6453	-2.353099	1.88592	90.37114	
17:56:41:952	47.46363	-122.3077	0.021	0.01161972	-1.742903	0.02	2	98	0	6453	-2.371068	1.865494	89.84949	
17:56:42:169	47.46363	-122.3077	0.021	0.01161972	-1.742903	0.02	2	98	0	6453	-2.410609	1.858741	89.31908	
17:56:42:355	47.46363	-122.3077	0.021	0.01161972	-1.742903	0.02	2	98	0	6453	-2.425209	1.857785	88.76011	
17:56:42:556	47.46363	-122.3077	0.021	0.01161972	-1.742903	0.02	2	98	0	6453	-2.422391	1.87296	88.19274	
17:56:42:757	47.46363	-122.3077	0.021	0.01161972	-1.742903	0.02	2	98	0	6453	-2.412174	1.88115	87.60867	
17:56:42:976	47.46363	-122.3077	0.021	0.005710002	-0.6236593	0.01	2	98	0	6453	-2.416652	1.87588	87.02259	
17:56:43:163	47.46363	-122.3077	0.021	0.005710002	-0.6236593	0.02	2	98	0	6453	-2.442645	1.849396	86.43529	
17:56:43:367	47.46363	-122.3077	0.021	0.005710002	-0.6236593	0.02	2	98	0	6453	-2.460186	1.792829	85.83862	
17:56:43:568	47.46363	-122.3077	0.021	0.005710002	-0.6236593	0.02	2	98	0	6453	-2.454676	1.725952	85.24484	
17:56:43:764	47.46363	-122.3077	0.021	0.005710002	-0.6236593	0.03	2	98	0	6453	-2.460497	1.669495	84.64465	
17:56:43:964	47.46363	-122.3077	0.021	0.0188981	0.9036292	0.04	2	98	0	6453	-2.494312	1.61332	84.04076	
17:56:44:169	47.46363	-122.3077	0.021	0.0188981	0.9036292	0.05	2	98	0	6453	-2.514436	1.558149	83.43514	
17:56:44:366	47.46363	-122.3077	0.021	0.0188981	0.9036292	0.05	2	99	0	6453	-2.530355	1.515241	82.82425	
17:56:44:569	47.46363	-122.3077	0.021	0.0188981	0.9036292	0.05	2	99	0	6453	-2.548654	1.490259	82.21741	
17:56:44:771	47.46363	-122.3077	0.021	0.0188981	0.9036292	0.06	2	99	0	6453	-2.550477	1.47889	81.60747	
17:56:44:977	47.46363	-122.3077	0.021	0.02945263	1.730811	0.07	2	99	0	6453	-2.53078	1.467632	80.98103	
17:56:45:173	47.46363	-122.3077	0.021	0.02945263	1.730811	0.07	2	99	0	6453	-2.52345	1.462227	80.36327	
17:56:45:374	47.46363	-122.3077	0.021	0.02945263	1.730811	0.08	2	99	0	6453	-2.566969	1.46459	79.74115	
17:56:45:578	47.46363	-122.3077	0.021	0.02945263	1.730811	0.09	2	99	0	6453	-2.593719	1.444964	79.1056	
17:56:45:778	47.46363	-122.3077	0.021	0.02945263	1.730811	0.09	2	99	0	6453	-2.612731	1.414345	78.46619	
17:56:45:984	47.46363	-122.3077	0.021	0.0161101	-1.412026	0.11	2	99	0	6453	-2.622041	1.389448	77.83042	
17:56:46:180	47.46363	-122.3077	0.021	0.0161101	-1.412026	0.11	2	99	0	6453	-2.612005	1.341524	77.19467	
17:56:46:381	47.46363	-122.3077	0.021	0.0161101	-1.412026	0.11	2	99	0	6453	-2.604932	1.302897	76.56059	
17:56:46:581	47.46363	-122.3077	0.021	0.0161101	-1.412026	0.12	2	99	0	6453	-2.602115	1.268585	75.92425	
17:56:46:781	47.46363	-122.3077	0.021	0.0161101	-1.412026	0.13	2	99	0	6453	-2.594032	1.229988	75.28912	
17:56:46:982	47.46363	-122.3077	0.021	0.01062794	-1.23628	0.13	2	99	0	6453	-2.610567	1.19465	74.64089	
17:56:47:184	47.46363	-122.3077	0.021	0.01062794	-1.23628	0.14	2	99	0	6453	-2.623327	1.165203	74.00029	
17:56:47:389	47.46363	-122.3077	0.021	0.01062794	-1.23628	0.15	2	99	0	6453	-2.626595	1.141086	73.35867	
17:56:47:585	47.46363	-122.3077	0.021	0.01062794	-1.23628	0.16	2	99	0	6453	-2.636218	1.117357	72.71571	
17:56:47:786	47.46363	-122.3077	0.021	0.01062794	-1.23628	0.17	2	99	0	6453	-2.629824	1.092941	72.06557	
17:56:47:986	47.46363	-122.3077	0.021	0.008761568	-2.734285	0.18	2	99	0	6453	-2.628443	1.067313	71.41676	
17:56:48:214	47.46363	-122.3077	0.021	0.008761568	-2.734285	0.18	2	99	0	6453	-2.636978	1.035072	70.76266	
17:56:48:389	47.46363	-122.3077	0.021	0.008761568	-2.734285	0.19	2	99	0	6453	-2.639521	1.004609	70.11295	
17:56:48:590	47.46364	-122.3077	0.021	0.008761568	-2.734285	0.2	2	99	0	6453	-2.655031	0.9765341	69.45792	
17:56:48:788	47.46364	-122.3077	0.021	0.008761568	-2.734285	0.21	2	99	0	6453	-2.656009	0.9443043	68.80101	
17:56:48:989	47.46364	-122.3077	0.021	-0.003713635	-2.423887	0.21	2	99	0	6453	-2.665246	0.9075787	68.1417	
17:56:49:191	47.46364	-122.3077	0.021	-0.003713635	-2.423887	0.23	2	99	0	6453	-2.675555	0.865324	67.4844	
17:56:49:396	47.46364	-122.3077	0.021	-0.003713635	-2.423887	0.24	2	99	0	6453	-2.681379	0.8011788	66.83982	
17:56:49:591	47.46364	-122.3077	0.021	-0.003713635	-2.423887	0.24	2	99	0	6453	-2.704174	0.7321582	66.21773	
17:56:49:793	47.46364	-122.3077	0.021	-0.003713635	-2.423887	0.25	2	99	0	6453	-2.724371	0.6651754	65.6172	
17:56:49:993	47.46364	-122.3077	0.021	-0.009937764	-3.22104	0.25	2	99	0	6453	-2.731431	0.5952193	65.0403	
17:56:50:196	47.46364	-122.3077	0.021	-0.009937764	-3.22104	0.25	2	99	0	6453	-2.737369	0.5327539	64.47517	
17:56:50:398	47.46364	-122.3077	0.021	-0.009937764	-3.22104	0.26	2	99	0	6453	-2.731554	0.4885809	63.92034	
17:56:50:596	47.46364	-122.3077	0.021	-0.009937764	-3.22104	0.26	2	99	0	6453	-2.740074	0.4533399	63.38277	
17:56:50:800	47.46364	-122.3077	0.021	-0.009937764	-3.22104	0.27	2	99	0	6453	-2.746133	0.423593	62.85184	
17:56:51:0	47.46364	-122.3077	0.021	-0.004101644	-2.053617	0.29	2	99	0	6453	-2.74462	0.3991022	62.32193	
17:56:51:202	47.46364	-122.3077	0.021	-0.004101644	-2.053617	0.29	2	99	0	6453	-2.748964	0.3842496	61.80579	
17:56:51:398	47.46364	-122.3077	0.021	-0.004101644	-2.053617	0.29	2	99	0	6453	-2.74742	0.3861167	61.29559	
17:56:51:599	47.46364	-122.3077	0.021	-0.004101644	-2.053617	0.3	2	99	0	6453	-2.739969	0.3898827	60.79636	
17:56:51:800	47.46364	-122.3077	0.021	-0.004101644	-2.053617	0.3	2	99	0	6453	-2.735728	0.3806137	60.31644	
17:56:52:1	47.46364	-122.3077	0.021	0.00155052	-1.429612	0.3	2	99	0	6453	-2.727124	0.3880065	59.85543	
17:56:52:201	47.46364	-122.3077	0.021	0.00155052	-1.429612	0.3	2	99	0	6453	-2.718719	0.3964092	59.41206	
17:56:52:402	47.46364	-122.3077	0.021	0.00155052	-1.429612	0.3	2	99	0	6453	-2.71392	0.4038867	58.98037	
17:56:52:608	47.46364	-122.3077	0.021	0.00155052	-1.429612	0.3	2	99	0	6453	-2.722975	0.4093627	58.54849	
17:56:52:808	47.46364	-122.3077	0.021	0.00155052	-1.429612	0.31	2	99	0	6453	-2.723752	0.4009724	58.1158	
17:56:53:12	47.46364	-122.3077	0.021	0.004746708	-1.09895	0.31	2	99	0	6453	-2.70423	0.3936977	57.68567	
17:56:53:208	47.46364	-122.3077	0.021	0.004746708	-1.09895	0.32	2	99	0	6453	-2.67243	0.3756323	57.25305	
17:56:53:414	47.46364	-122.3077	0.021	0.004746708	-1.09895	0.33	2	99	0	6453	-2.680749	0.3130296	56.81149	
17:56:53:614	47.46364	-122.3077	0.021	0.004746708	-1.09895	0.33	2	99	0	6453	-2.688093	0.233598	56.35315	
17:56:53:811	47.46364	-122.3077	0.021	0.004746708	-1.09895	0.33	2	99	0	6453	-2.707089	0.1378451	55.8935	
17:56:54:11	47.46364	-122.3077	0.021	0.01501285	0.855476	0.33	2	99	0	6453	-2.726888	0.03699868	55.42645	
17:56:54:217	47.46364	-122.3077	0.021	0.01501285	0.855476	0.33	2	99	0	6453	-2.737907	-0.05011509	54.9292	
17:56:54:425	47.46364	-122.3077	0.021	0.01501285	0.855476	0.34	2	99	0	6453	-2.72558	-0.112446	54.42041	
17:56:54:618	47.46364	-122.3077	0.021	0.01501285	0.855476	0.34	2	99	0	6453	-2.695024	-0.1407258	53.90347	
17:56:54:818	47.46364	-122.3077	0.021	0.01501285	0.855476	0.34	2	99	0	6453	-2.661511	-0.151226	53.38033	
17:56:55:20	47.46364	-122.3077	0.021	0.0285062	1.782772	0.34	2	99	0	6453	-2.648384	-0.1516024	52.86268	
17:56:55:224	47.46364	-122.3077	0.021	0.0285062	1.782772	0.34	2	99	0	6453	-2.666451	-0.1288527	52.33952	
17:56:55:420	47.46364	-122.3077	0.021	0.0285062	1.782772	0.35	2	99	0	6453	-2.684506	-0.103991	51.80133	
17:56:55:621	47.46364	-122.3077	0.021	0.0285062	1.782772	0.35	2	99	0	6453	-2.700862	-0.08990103	51.2473	
17:56:55:825	47.46364	-122.3077	0.021	0.0285062	1.782772	0.36	2	99	0	6453	-2.679798	-0.0776277	50.68214	
17:56:56:26	47.46364	-122.3077	0.021	0.03656489	1.347696	0.36	2	99	0	6453	-2.671518	-0.09588458	50.09735	
17:56:56:223	47.46364	-122.3077	0.021	0.03656489	1.347696	0.36	2	99	0	6453	-2.686383	-0.1281593	49.5104	
17:56:56:424	47.46364	-122.3077	0.021	0.03656489	1.347696	0.36	2	99	0	6453	-2.691201	-0.1727887	48.91643	
17:56:56:625	47.46364	-122.3077	0.021	0.03656489	1.347696	0.37	2	99	0	6453	-2.678246	-0.2225305	48.31787	
17:56:56:824	47.46364	-122.3077	0.021	0.03656489	1.347696	0.38	2	99	0	6453	-2.667944	-0.2806193	47.70409	
17:56:57:30	47.46364	-122.3077	0.021	0.02709799	-0.8780525	0.39	2	99	0	6453	-2.666622	-0.3394271	47.10467	
17:56:57:234	47.46364	-122.3077	0.021	0.02709799	-0.8780525	0.39	2	99	0	6453	-2.678625	-0.3923663	46.49776	
17:56:57:436	47.46364	-122.3077	0.021	0.02709799	-0.8780525	0.39	2	99	0	6453	-2.668042	-0.4303996	45.895	
17:56:57:629	47.46364	-122.3077	0.021	0.02709799	-0.8780525	0.4	2	99	0	6453	-2.646999	-0.4627655	45.29448	
17:56:57:833	47.46364	-122.3077	0.021	0.02709799	-0.8780525	0.41	2	99	0	6453	-2.644587	-0.4882162	44.6758	
17:56:58:34	47.46364	-122.3077	0.021	0.004394752	-3.957209	0.41	2	99	0	6453	-2.63698	-0.5115234	44.03435	
17:56:58:237	47.46364	-122.3077	0.021	0.004394752	-3.957209	0.43	2	99	0	6453	-2.631919	-0.5292323	43.37674	
17:56:58:433	47.46364	-122.3077	0.021	0.004394752	-3.957209	0.43	2	99	0	6453	-2.627314	-0.5582264	42.71296	
17:56:58:631	47.46364	-122.3077	0.021	0.004394752	-3.957209	0.44	2	99	0	6453	-2.60289	-0.5874801	42.03474	
17:56:58:833	47.46364	-122.3077	0.021	0.004394752	-3.957209	0.44	2	99	0	6453	-2.598702	-0.6211625	41.35319	
17:56:59:32	47.46364	-122.3077	0.021	-0.009089143	-2.647005	0.45	2	99	0	6453	-2.592501	-0.6596956	40.66208	
17:56:59:237	47.46365	-122.3077	0.021	-0.009089143	-2.647005	0.46	2	99	0	6453	-2.588638	-0.6979254	39.95699	
17:56:59:433	47.46365	-122.3077	0.021	-0.009089143	-2.647005	0.48	2	99	0	6453	-2.572837	-0.7349406	39.24195	
17:56:59:634	47.46365	-122.3077	0.021	-0.009089143	-2.647005	0.48	2	99	0	6453	-2.558331	-0.7821903	38.51782	
17:56:59:839	47.46365	-122.3077	0.021	-0.009089143	-2.647005	0.49	2	99	0	6453	-2.538414	-0.8159118	37.77406	
17:57:00:40	47.46365	-122.3077	0.021	0.01196378	0.1701646	0.5	2	99	0	6453	-2.523065	-0.8402156	37.01377	
17:57:00:237	47.46365	-122.3077	0.021	0.01196378	0.1701646	0.52	2	99	0	6453	-2.496023	-0.8620689	36.2356	
17:57:00:437	47.46365	-122.3077	0.021	0.01196378	0.1701646	0.53	2	99	0	6453	-2.484507	-0.8865556	35.44691	
17:57:00:638	47.46365	-122.3077	0.021	0.01196378	0.1701646	0.54	2	99	0	6453	-2.453223	-0.906809	34.64787	
17:57:00:850	47.46365	-122.3077	0.021	0.01196378	0.1701646	0.55	2	99	0	6453	-2.431679	-0.9365426	33.84516	
17:57:01:42	47.46365	-122.3077	0.021	0.01685838	-0.600022	0.57	2	99	0	6453	-2.403664	-0.9577596	33.02163	
17:57:01:241	47.46365	-122.3077	0.021	0.01685838	-0.600022	0.57	2	99	0	6453	-2.386452	-0.9925931	32.16594	
17:57:01:444	47.46365	-122.3077	0.021	0.01685838	-0.600022	0.59	2	99	0	6453	-2.359266	-1.021677	31.30388	
17:57:01:645	47.46365	-122.3077	0.021	0.01685838	-0.600022	0.61	2	99	0	6453	-2.336658	-1.060427	30.44363	
17:57:01:843	47.46365	-122.3077	0.021	0.01685838	-0.600022	0.62	2	99	0	6453	-2.316467	-1.097864	29.61065	
17:57:02:47	47.46365	-122.3077	0.021	0.03103441	3.694158	0.62	2	99	0	6453	-2.293374	-1.114511	28.81522	
17:57:02:244	47.46365	-122.3077	0.021	0.03103441	3.694158	0.62	2	99	0	6453	-2.278398	-1.087427	29.08372	
17:57:02:445	47.01271	-121.5886	0	0.03103441	3.694158	0	2	99	0	6453	-2.245419	-0.7780742	29.54077	
17:57:02:647	47.01271	-121.5886	0	0.03103441	3.694158	0	2	99	0	6453	-2.207066	-0.361699	29.97622	
17:57:02:851	47.01271	-121.5886	0	0.03103441	3.694158	0	2	99	0	6453	-2.202652	-0.3413223	30.40693	
17:57:03:55	47.01271	-121.5886	0	-2.813352	-814.6179	0	2	99	0	6453	-2.198085	-0.3207181	30.84396	
17:57:03:247	47.01271	-121.5886	0	-2.813352	-814.6179	0	2	99	0	6453	-2.193204	-0.3015681	31.24449	
17:57:03:456	47.01271	-121.5886	0	-2.813352	-814.6179	0	2	99	0	6453	-2.188123	-0.2829792	31.63125	
17:57:03:649	47.01271	-121.5886	0	-2.813352	-814.6179	0	2	99	0	6453	-2.182906	-0.2645085	32.01583	
17:57:03:849	47.01271	-121.5886	0	-2.813352	-814.6179	0	2	99	0	6453	-2.177537	-0.2463276	32.39374	
17:57:04:53	47.01271	-121.5886	0	-8.96274	-1479.531	0	2	99	0	6453	-2.171842	-0.2294277	32.73786	
17:57:04:255	47.01271	-121.5886	0	-8.96274	-1479.531	0	2	99	0	6453	-2.166044	-0.21334	33.06244	
17:57:04:454	47.01271	-121.5886	0	-8.96274	-1479.531	0	2	99	0	6453	-2.160095	-0.197533	33.37999	
17:57:04:656	47.01271	-121.5886	0	-8.96274	-1479.531	0	2	99	0	6453	-2.154061	-0.1821597	33.6874	
17:57:04:856	47.01271	-121.5886	0	-8.96274	-1479.531	0	2	99	0	6453	-2.147877	-0.167225	33.98351	
17:57:05:57	47.01271	-121.5886	0	-14.00683	-1784.364	0	2	99	0	6453	-2.141673	-0.1520431	34.28757	
17:57:05:258	47.01271	-121.5886	0	-14.00683	-1784.364	0	2	99	0	6453	-2.135335	-0.1377174	34.56963	
17:57:05:459	47.01271	-121.5886	0	-14.00683	-1784.364	0	2	99	0	6453	-2.12888	-0.1242277	34.83006	
17:57:05:659	47.01271	-121.5886	0	-14.00683	-1784.364	0	2	99	0	6453	-2.122324	-0.1108326	35.08821	
17:57:05:860	47.01271	-121.5886	0	-14.00683	-1784.364	0	2	99	0	6453	-2.115692	-0.09778891	35.3377	
17:57:06:133	47.01271	-121.5886	0	-16.74809	-1828.441	0	2	99	0	6453	-2.109109	-0.08208401	35.66018	
17:57:06:282	47.01271	-121.5886	0	-16.74809	-1828.441	0	2	99	0	6453	-2.102237	-0.06328309	36.01958	
17:57:06:466	47.01271	-121.5886	0	-16.74809	-1828.441	0	2	99	0	6453	-2.094248	-0.05204339	36.05882	
17:57:06:685	47.01271	-121.5886	0	-16.74809	-1828.441	0	2	99	0	6453	-2.086174	-0.04061135	36.1008	
17:57:06:871	47.01271	-121.5886	0	-16.74809	-1828.441	0	2	99	0	6453	-2.078175	-0.02915647	36.14624	
17:57:07:258	47.01271	-121.5886	0	-17.42539	-1726.338	0	2	99	0	6453	-2.07021	-0.01752594	36.19807	
17:57:07:528	47.01271	-121.5886	0	-17.42539	-1726.338	0	2	99	0	6453	-2.062232	-0.005833515	36.25183	
17:57:07:657	47.01271	-121.5886	0	-17.42539	-1726.338	0	2	99	0	6453	-2.054225	0.0123398	36.48623	
17:57:07:837	47.01271	-121.5886	0	-17.42539	-1726.338	0	2	99	0	6453	-2.046111	0.03056115	36.7213	
17:57:07:967	47.01271	-121.5886	0	-17.42539	-1726.338	0	2	99	0	6453	-2.03806	0.04171901	36.75932	
17:57:08:72	47.01271	-121.5886	0	-16.76389	-1565.121	0	2	99	0	6453	-2.030019	0.05210442	36.77574	
17:57:08:277	47.01271	-121.5886	0	-16.76389	-1565.121	0	2	99	0	6453	-2.022007	0.0627213	36.80015	
17:57:08:664	47.01271	-121.5886	0	-16.76389	-1565.121	0	2	99	0	6453	-2.013957	0.07319084	36.81909	
17:57:09:62	47.01271	-121.5886	0	-16.76389	-1565.121	0	2	99	0	6453	-2.005901	0.08468999	36.86884	
17:57:09:147	47.01271	-121.5886	0	-16.76389	-1565.121	0	2	99	0	6453	-1.997698	0.09904226	37.00053	
17:57:09:179	47.01271	-121.5886	0	-15.52038	-1409.096	0	2	99	0	6453	-1.989589	0.1111455	37.06799	
17:57:09:346	47.01271	-121.5886	0	-15.52038	-1409.096	0	2	99	0	6453	-1.981537	0.1219732	37.09901	
17:57:09:478	47.01271	-121.5886	0	-15.52038	-1409.096	0	2	99	0	6453	-1.973523	0.1321462	37.11117	
17:57:09:688	47.01271	-121.5886	0	-15.52038	-1409.096	0	2	99	0	6453	-1.965499	0.142419	37.1263	
17:57:10:40	47.01271	-121.5886	0	-15.52038	-1409.096	0	2	99	0	6453	-1.95748	0.1526024	37.13885	
17:57:10:378	47.01271	-121.5886	0	-14.15654	-1273.781	0	2	99	0	6453	-1.949302	0.1646985	37.20758	
17:57:10:400	47.01271	-121.5886	0	-14.15654	-1273.781	0	2	99	0	6453	-1.941031	0.1776852	37.30279	
17:57:10:489	47.01271	-121.5886	0	-14.15654	-1273.781	0	2	99	0	6453	-1.932963	0.1882708	37.32742	
17:57:10:678	47.01271	-121.5886	0	-14.15654	-1273.781	0	2	99	0	6453	-1.924808	0.1996935	37.377	
17:57:10:877	47.01271	-121.5886	0	-14.15654	-1273.781	0	2	99	0	6453	-1.916739	0.2102223	37.40015	
17:57:11:78	47.01271	-121.5886	0	-12.96189	-1173.129	0	2	99	0	6453	-1.908693	0.2204871	37.41548	
17:57:11:279	47.01271	-121.5886	0	-12.96189	-1173.129	0	2	99	0	6453	-1.900612	0.2310243	37.43908	
17:57:11:479	47.01271	-121.5886	0	-12.96189	-1173.129	0	2	99	0	6453	-1.892971	0.2374756	37.33632	
17:57:11:681	47.01271	-121.5886	0	-12.96189	-1173.129	0	2	99	0	6453	-1.885701	0.2412823	37.15462	
17:57:11:899	47.01271	-121.5886	0	-12.96189	-1173.129	0	2	99	0	6453	-1.878307	0.2461887	37.00563	
17:57:12:109	47.01271	-121.5886	0	-11.90577	-1084.635	0	2	99	0	6453	-1.871163	0.2493132	36.80161	
17:57:12:285	47.01271	-121.5886	0	-11.90577	-1084.635	0	2	99	0	6453	-1.864021	0.2527787	36.60878	
17:57:12:602	47.01271	-121.5886	0	-11.90577	-1084.635	0	2	99	0	6453	-1.856811	0.2566118	36.42502	
17:57:12:721	47.01271	-121.5886	0	-11.90577	-1084.635	0	2	99	0	6453	-1.849572	0.2607691	36.25055	
17:57:13:63	47.01271	-121.5886	0	-11.90577	-1084.635	0	2	99	0	6453	-1.842294	0.2655376	36.09591	
17:57:13:156	47.01271	-121.5886	0	-11.04884	-1013.151	0	2	99	0	6453	-1.834877	0.2711776	35.96622	
17:57:13:314	47.01271	-121.5886	0	-11.04884	-1013.151	0	2	99	0	6453	-1.827327	0.2780299	35.87545	
17:57:13:490	47.01271	-121.5886	0	-11.04884	-1013.151	0	2	99	0	6453	-1.820118	0.2827245	35.71658	
17:57:13:687	47.01271	-121.5886	0	-11.04884	-1013.151	0	2	99	0	6453	-1.812879	0.2877141	35.56638	
17:57:13:889	47.01271	-121.5886	0	-11.04884	-1013.151	0	2	99	0	6453	-1.805611	0.2929844	35.42448	
17:57:14:93	47.01271	-121.5886	0	-10.29486	-943.4982	0	2	99	0	6453	-1.798255	0.2985063	35.28689	
17:57:14:294	47.01271	-121.5886	0	-10.29486	-943.4982	0	2	99	0	6453	-1.790778	0.3050371	35.18251	
17:57:14:495	47.01271	-121.5886	0	-10.29486	-943.4982	0	2	99	0	6453	-1.783329	0.3116779	35.08273	
17:57:14:695	47.01271	-121.5886	0	-10.29486	-943.4982	0	2	99	0	6453	-1.775955	0.3177968	34.9642	
17:57:14:896	47.01271	-121.5886	0	-10.29486	-943.4982	0	2	99	0	6453	-1.768638	0.3238478	34.84456	
17:57:15:98	47.01271	-121.5886	0	-9.631339	-883.5579	0	2	99	0	6453	-1.761284	0.3300203	34.7268	
17:57:15:314	47.01271	-121.5886	0	-9.631339	-883.5579	0	2	99	0	6453	-1.753886	0.336506	34.61874	
17:57:15:505	47.01271	-121.5886	0	-9.631339	-883.5579	0	2	99	0	6453	-1.746382	0.343611	34.53051	
17:57:15:698	47.01271	-121.5886	0	-9.631339	-883.5579	0	2	99	0	6453	-1.738916	0.3507492	34.4446	
17:57:15:902	47.01271	-121.5886	0	-9.631339	-883.5579	0	2	99	0	6453	-1.731405	0.3580261	34.36128	
17:57:16:104	47.01271	-121.5886	0	-9.024758	-827.3644	0	2	99	0	6453	-1.723977	0.3649662	34.26644	
17:57:16:305	47.01271	-121.5886	0	-9.024758	-827.3644	0	2	99	0	6453	-1.716532	0.3720498	34.17596	
17:57:16:505	47.01271	-121.5886	0	-9.024758	-827.3644	0	2	99	0	6453	-1.709388	0.3778348	34.04157	
17:57:16:711	47.01271	-121.5886	0	-9.024758	-827.3644	0	2	99	0	6453	-1.703303	0.3788726	33.74739	
17:57:16:906	47.01271	-121.5886	0	-9.024758	-827.3644	0	2	99	0	6453	-1.697087	0.3806915	33.48011	
17:57:17:108	47.01271	-121.5886	0	-8.46655	-776.0073	0	2	99	0	6453	-1.690883	0.3825324	33.21256	
17:57:17:308	47.01271	-121.5886	0	-8.46655	-776.0073	0	2	99	0	6453	-1.684646	0.3845856	32.95123	
17:57:17:509	47.01271	-121.5886	0	-8.46655	-776.0073	0	2	99	0	6453	-1.678351	0.3869601	32.69991	
17:57:17:705	47.01271	-121.5886	0	-8.46655	-776.0073	0	2	99	0	6453	-1.672016	0.3895867	32.45624	
17:57:17:918	47.01271	-121.5886	0	-8.46655	-776.0073	0	2	99	0	6453	-1.665537	0.3929022	32.23532	
17:57:18:106	47.01271	-121.5886	0	-7.95105	-726.5316	0	2	99	0	6453	-2.201383	0.3167506	32.00561	
17:57:18:310	47.01271	-121.5886	0	-7.95105	-726.5316	0	2	99	0	6453	-7.616313	-0.3010427	30.29728	
17:57:18:508	47.01271	-121.5886	0	-7.95105	-726.5316	0	2	99	0	6453	-13.02747	-0.8677101	28.59212	
17:57:18:709	47.01272	-121.5886	1538.692	-7.95105	-726.5316	19.33	2	99	0	6453	-32.63906	-5.517221	25.8072	
17:57:18:911	47.01272	-121.5886	1538.593	-7.95105	-726.5316	19.55	2	99	0	6453	-62.57539	-13.74537	26.67811	
17:57:19:114	47.01273	-121.5887	1538.429	809.049	38471.08	19.76	16.99599	99	0	6453	-96.76276	-19.76749	35.17533	
17:57:19:390	47.01273	-121.5887	1538.34	809.049	38471.08	19.84	16.99599	99	0	6453	-132.9437	-17.96338	48.2484	
17:57:19:511	47.01274	-121.5887	1538.08	809.049	38471.08	19.89	16.99599	99	0	6453	-168.1099	-6.14605	58.96366	
17:57:19:716	47.01275	-121.5887	1537.766	809.049	38471.08	19.77	16.99599	99	0	6453	154.1401	12.73923	62.36547	
17:57:19:917	47.01276	-121.5887	1537.527	809.049	38471.08	19.65	16.99599	99	0	6453	109.5275	31.17535	53.36343	
17:57:20:119	47.01276	-121.5887	1537.527	1610.428	57266.48	19.65	15.75493	99	0	6453	54.86332	40.61525	30.43601	
17:57:20:321	47.01276	-121.5887	1536.967	1610.428	57266.48	19.29	15.75493	99	0	6453	1.211597	33.6958	4.161335	
17:57:20:515	47.01278	-121.5888	1536.289	1610.428	57266.48	18.83	15.75493	99	0	6453	-40.75465	13.29982	-9.289412	
17:57:20:764	47.01278	-121.5888	1535.952	1610.428	57266.48	18.6	15.75493	99	0	6453	-77.44939	-4.479031	-2.506251	
17:57:20:923	47.0128	-121.5888	1534.305	1610.428	57266.48	17.23	15.75493	99	0	6453	-119.8207	-19.28837	15.26566	
17:57:21:121	47.0128	-121.5888	1534.305	1894.356	45768.31	17.23	10.67696	99	0	6453	178.7926	-25.00993	39.66723	
17:57:21:322	47.0128	-121.5888	1533.832	1894.356	45768.31	16.64	10.67696	99	0	6453	102.7907	-13.39512	53.46974	
17:57:21:522	47.01282	-121.5889	1532.083	1894.356	45768.31	14.4	10.67696	99	0	6453	19.84441	-4.469985	32.66172	
17:57:21:724	47.01283	-121.5889	1530.906	1894.356	45768.31	13.03	10.67696	99	0	6453	-51.43011	-33.20426	-1.360961	
17:57:21:929	47.01283	-121.5889	1529.929	1894.356	45768.31	12.4	10.67696	99	0	6453	-115.8032	-71.3457	-1.494034	
17:57:22:130	47.01284	-121.5889	1529.067	1885.178	26988.54	12.64	11.15426	99	0	6453	80.51305	-74.26097	95.61829	
17:57:22:330	47.01285	-121.5889	1528.49	1885.178	26988.54	13.02	11.15426	99	0	6453	9.789984	-62.7785	80.37419	
17:57:22:534	47.01286	-121.5889	1526.581	1885.178	26988.54	13.11	11.15426	99	0	6453	-51.19166	-70.68208	54.00027	
17:57:22:733	47.01286	-121.5889	1526.581	1885.178	26988.54	13.11	11.15426	99	0	6453	-28.37531	-87.3912	-28.12161	
17:57:22:932	47.01288	-121.5889	1524.418	1885.178	26988.54	12.23	11.15426	99	0	6453	37.85773	-76.71394	-128.9145	
17:57:23:142	47.01288	-121.5889	1523.014	1766.904	11003.18	11.3	14.74117	99	0	6453	12.08473	-68.89124	-135.7206	
17:57:23:337	47.01289	-121.589	1521.564	1766.904	11003.18	10.22	14.74117	99	0	6453	-19.67042	-66.46218	-141.1204	
17:57:23:537	47.0129	-121.589	1519.019	1766.904	11003.18	8.77	14.74117	99	0	6453	-63.89279	-68.49635	-136.104	
17:57:23:733	47.0129	-121.589	1519.019	1766.904	11003.18	8.77	14.74117	99	0	6453	-122.2273	-66.66685	-118.8158	
17:57:23:942	47.0129	-121.589	1517.354	1766.904	11003.18	8.16	14.74117	99	0	6453	-170.0309	-56.77951	-111.2119	
17:57:24:136	47.01292	-121.589	1512.846	1635.919	535.1566	8.07	15.85753	99	0	6453	155.3879	-45.06463	-118.4187	
17:57:24:337	47.01293	-121.589	1510.111	1635.919	535.1566	8.63	15.85753	99	0	6453	123.147	-32.86175	-133.9626	
17:57:24:536	47.01294	-121.589	1508.286	1635.919	535.1566	9.11	15.85753	99	0	6453	86.60355	-28.41531	-154.9217	
17:57:24:740	47.01294	-121.589	1508.286	1635.919	535.1566	9.11	15.85753	99	0	6453	46.84259	-33.64625	178.544	
17:57:24:939	47.01295	-121.589	1505.516	1635.919	535.1566	9.97	15.85753	99	0	6453	5.788973	-53.4506	147.3513	
17:57:25:139	47.01295	-121.589	1502.568	1539.187	-3730.425	10.54	13.48451	99	0	6453	-63.10972	-84.29061	123.0669	
17:57:25:340	47.01296	-121.589	1500.599	1539.187	-3730.425	10.28	13.48451	99	0	6453	51.08545	-72.63542	-96.98055	
17:57:25:542	47.01297	-121.5891	1494.967	1539.187	-3730.425	4.11	13.48451	99	0	6453	-25.0714	-66.60825	-120.4499	
17:57:25:743	47.01297	-121.5891	1494.967	1539.187	-3730.425	4.11	13.48451	99	0	6453	-50.99348	-82.63612	-163.2003	
17:57:25:945	47.01297	-121.5891	1491.019	1539.187	-3730.425	5.69	13.48451	99	0	6453	100.9365	-81.37473	7.342441	
17:57:26:146	47.01298	-121.5891	1489.055	1480.778	-5105.891	7.25	19.16395	99	0	6453	91.68067	-72.44753	-24.43907	
17:57:26:347	47.01299	-121.5891	1487.055	1480.778	-5105.891	8.02	19.16395	99	0	6453	76.00537	-72.81812	-54.35308	
17:57:26:548	47.013	-121.5891	1482.611	1480.778	-5105.891	7.98	19.16395	99	0	6453	71.73452	-78.23817	-101.8652	
17:57:26:749	47.01301	-121.5891	1476.585	1480.778	-5105.891	6.2	19.16395	99	0	6453	105.8785	-79.06089	169.0295	
17:57:26:950	47.01301	-121.5891	1471.471	1480.778	-5105.891	3.3	19.16395	99	0	6453	114.8539	-70.59648	101.7221	
17:57:27:150	47.01301	-121.5891	1471.471	1448.497	-4678.21	3.3	15.38484	99	0	6453	83.34309	-63.69724	51.93787	
17:57:27:351	47.01301	-121.5891	1468.992	1448.497	-4678.21	2.11	15.38484	99	0	6453	50.64885	-69.14534	-23.27707	
17:57:27:551	47.01302	-121.5891	1464.704	1448.497	-4678.21	6.43	15.38484	99	0	6453	41.10984	-65.9233	-138.4749	
17:57:27:752	47.01303	-121.5891	1461.794	1448.497	-4678.21	7.96	15.38484	99	0	6453	11.78585	-61.77621	135.2643	
17:57:27:957	47.01303	-121.5891	1459.581	1448.497	-4678.21	6.87	15.38484	99	0	6453	1.331659	-66.15653	70.13577	
17:57:28:159	47.01304	-121.5891	1457.122	1432.968	-3237.731	4.62	19.97673	99	0	6453	-8.590963	-77.80579	29.30381	
17:57:28:359	47.01304	-121.5891	1452.238	1432.968	-3237.731	0.97	19.97673	99	0	6453	-156.8803	-88.55341	128.3853	
17:57:28:559	47.01304	-121.5891	1448.75	1432.968	-3237.731	3.38	19.97673	99	0	6453	135.2703	-70.36006	152.5617	
17:57:28:760	47.01304	-121.5891	1448.75	1432.968	-3237.731	3.38	19.97673	99	0	6453	107.8594	-57.5897	130.3252	
17:57:28:960	47.01304	-121.5891	1446.525	1432.968	-3237.731	4.15	19.97673	99	0	6453	73.70382	-51.73349	105.9157	
17:57:29:206	47.01305	-121.5891	1442.091	1425.572	-2259.786	4.59	16.49111	99	0	6453	30.31918	-59.37621	80.26048	
17:57:29:378	47.01305	-121.5891	1439.722	1425.572	-2259.786	4.54	16.49111	99	0	6453	-103.1741	-80.74093	109.9311	
17:57:29:574	47.01306	-121.5891	1434.687	1425.572	-2259.786	4.11	16.49111	99	0	6453	89.7731	-64.51265	164.9637	
17:57:29:775	47.01306	-121.5891	1431.987	1425.572	-2259.786	3.37	16.49111	99	0	6453	22.87356	-49.93203	126.9219	
17:57:29:973	47.01305	-121.5891	1425.213	1425.572	-2259.786	4.44	16.49111	99	0	6453	-25.42618	-55.51971	93.22329	
17:57:30:174	47.01305	-121.5891	1425.213	1416.958	-1593.845	4.44	20.91173	99	0	6453	-81.44329	-72.59436	97.8469	
17:57:30:382	47.01307	-121.5891	1417.039	1416.958	-1593.845	4.61	20.91173	99	0	6453	-164.3421	-66.34882	133.6456	
17:57:30:587	47.01307	-121.5891	1417.039	1416.958	-1593.845	4.61	20.91173	99	0	6453	150.1103	-46.41874	127.1274	
17:57:30:774	47.01307	-121.5891	1411.682	1416.958	-1593.845	3.62	20.91173	99	0	6453	112.9294	-37.87879	106.6621	
17:57:30:976	47.01307	-121.5891	1408.937	1416.958	-1593.845	2.95	20.91173	99	0	6453	68.60757	-37.66353	82.19286	
17:57:31:180	47.01307	-121.5891	1406.181	1404.759	-1461.445	1.73	16.3461	99	0	6453	13.93538	-55.09218	45.51284	
17:57:31:385	47.01307	-121.5891	1403.534	1404.759	-1461.445	1.18	16.3461	99	0	6453	114.3036	-80.3238	-172.5379	
17:57:31:584	47.01307	-121.5891	1400.067	1404.759	-1461.445	5.27	16.3461	99	0	6453	34.81482	-46.26783	139.9853	
17:57:31:824	47.01309	-121.5891	1395.867	1404.759	-1461.445	7.38	16.3461	99	0	6453	-36.14478	-50.54854	92.35754	
17:57:32:16	47.01309	-121.5891	1395.867	1404.759	-1461.445	7.38	16.3461	99	0	6453	-138.1439	-72.83029	95.98303	
17:57:32:188	47.01309	-121.5891	1395.867	1392.123	-1479.267	7.38	20.26483	99	0	6453	87.47421	-64.70619	134.3995	
17:57:32:388	47.01309	-121.5892	1388.417	1392.123	-1479.267	0.51	20.26483	99	0	6453	62.3521	-60.98032	98.49259	
17:57:32:593	47.01309	-121.5892	1384.972	1392.123	-1479.267	4.66	20.26483	99	0	6453	59.22468	-63.09216	53.87068	
17:57:32:790	47.0131	-121.5891	1382.837	1392.123	-1479.267	6.03	20.26483	99	0	6453	52.38779	-70.03937	6.47823	
17:57:32:995	47.0131	-121.5891	1379.641	1392.123	-1479.267	5.67	20.26483	99	0	6453	64.57136	-73.51009	-67.32982	
17:57:33:197	47.01311	-121.5891	1376.195	1375.252	-1623.428	4.91	16.79999	99	0	6453	56.71535	-70.45123	-128.6941	
17:57:33:412	47.01312	-121.5891	1369.971	1375.252	-1623.428	0.14	16.79999	99	0	6453	46.61605	-84.31966	122.9983	
17:57:33:597	47.01311	-121.5891	1367.312	1375.252	-1623.428	3.08	16.79999	99	0	6453	72.15186	-60.1566	-24.43101	
17:57:33:797	47.01311	-121.5891	1362.803	1375.252	-1623.428	6.93	16.79999	99	0	6453	18.87447	-55.68018	-105.3325	
17:57:33:994	47.01312	-121.5891	1360.082	1375.252	-1623.428	6.15	16.79999	99	0	6453	-27.65932	-70.32437	-157.401	
17:57:34:197	47.01312	-121.5891	1360.082	1358.857	-1532.929	6.15	20.67613	99	0	6453	-28.13718	-85.22373	144.9093	
17:57:34:401	47.01312	-121.5891	1357.922	1358.857	-1532.929	3.94	20.67613	99	0	6453	141.9473	-79.68185	-75.67515	
17:57:34:596	47.01312	-121.5891	1352.873	1358.857	-1532.929	2.21	20.67613	99	0	6453	121.9755	-65.40466	-104.0225	
17:57:34:800	47.01312	-121.5891	1350.169	1358.857	-1532.929	2.77	20.67613	99	0	6453	96.34975	-55.16281	-129.9909	
17:57:35:2	47.01312	-121.5891	1346.085	1358.857	-1532.929	2.88	20.67613	99	0	6453	63.03385	-54.15821	-156.4505	
17:57:35:201	47.01311	-121.5891	1341.993	1342.468	-1546.617	2.59	17.05479	99	0	6453	21.97435	-65.94633	179.0735	
17:57:35:403	47.01311	-121.5891	1341.993	1342.468	-1546.617	2.59	17.05479	99	0	6453	-143.106	-84.25898	-117.9538	
17:57:35:604	47.01311	-121.5891	1335.704	1342.468	-1546.617	3.83	17.05479	99	0	6453	98.49883	-55.30471	-109.8762	
17:57:35:808	47.01312	-121.5891	1332.212	1342.468	-1546.617	4.77	17.05479	99	0	6453	28.15379	-39.50835	-154.0196	
17:57:36:7	47.01312	-121.5891	1329.717	1342.468	-1546.617	4.87	17.05479	99	0	6453	-38.48849	-50.95132	158.5037	
17:57:36:213	47.01312	-121.5891	1325.783	1326.275	-1498.662	4.06	20.36167	99	0	6453	-140.2883	-72.30227	165.0086	
17:57:36:414	47.01311	-121.5891	1322.118	1326.275	-1498.662	2.65	20.36167	99	0	6453	115.5622	-61.57159	-161.1316	
17:57:36:608	47.01312	-121.5891	1319.896	1326.275	-1498.662	3.69	20.36167	99	0	6453	89.80437	-51.37159	167.1937	
17:57:36:816	47.01312	-121.5891	1319.896	1326.275	-1498.662	3.69	20.36167	99	0	6453	67.18504	-54.10099	131.6144	
17:57:37:13	47.01313	-121.5891	1312.975	1326.275	-1498.662	4.55	20.36167	99	0	6453	51.57087	-63.42898	88.86285	
17:57:37:213	47.01313	-121.5891	1309.298	1309.033	-1878.854	3.84	18.24721	99	0	6453	72.57327	-70.72675	9.058593	
17:57:37:422	47.01314	-121.5891	1306.745	1309.033	-1878.854	2.39	18.24721	99	0	6453	56.22054	-61.3559	-48.93881	
17:57:37:616	47.01314	-121.5891	1306.745	1309.033	-1878.854	2.39	18.24721	99	0	6453	-24.34736	-73.17532	-80	
17:57:37:818	47.01314	-121.5891	1302.871	1309.033	-1878.854	2.58	18.24721	99	0	6453	132.0251	-72.25983	17.53259	
17:57:38:23	47.01314	-121.5891	1297.658	1309.033	-1878.854	7.9	18.24721	99	0	6453	57.99421	-41.32223	-14.62282	
17:57:38:217	47.01315	-121.5891	1294.891	1292.744	-1823.112	6.43	20.25634	99	0	6453	-19.19261	-36.79235	-34.01534	
17:57:38:419	47.01315	-121.5891	1294.891	1292.744	-1823.112	6.43	20.25634	99	0	6453	-126.4097	-50.43486	-22.96098	
17:57:38:622	47.01315	-121.5891	1292.663	1292.744	-1823.112	3.53	20.25634	99	0	6453	149.5659	-27.91687	-3.910574	
17:57:38:823	47.01315	-121.5891	1287.817	1292.744	-1823.112	3.95	20.25634	99	0	6453	98.51273	-4.634219	-22.29781	
17:57:39:23	47.01315	-121.5891	1283.423	1292.744	-1823.112	6.02	20.25634	99	0	6453	46.16565	-8.333503	-51.50161	
17:57:39:224	47.01315	-121.5891	1281.128	1276.625	-1878.82	5.51	17.54935	99	0	6453	-7.496423	-36.46636	-70.91587	
17:57:39:434	47.01315	-121.5891	1278.847	1276.625	-1878.82	4.97	17.54935	99	0	6453	-120.6187	-69.23164	-45.48312	
17:57:39:626	47.01315	-121.5891	1272.633	1276.625	-1878.82	1.22	17.54935	99	0	6453	87.7401	-45.42239	-0.4625891	
17:57:39:822	47.01315	-121.5891	1269.95	1276.625	-1878.82	3.32	17.54935	99	0	6453	-3.966689	-37.88918	-23.59651	
17:57:40:27	47.01315	-121.5891	1267.287	1276.625	-1878.82	5.54	17.54935	99	0	6453	-97.50903	-66.6876	-24.6336	
17:57:40:227	47.01314	-121.5891	1261.39	1261.604	-1872.879	5.33	20.37523	99	0	6453	144.461	-60.58563	16.12177	
17:57:40:432	47.01314	-121.5891	1261.39	1261.604	-1872.879	5.33	20.37523	99	0	6453	96.37016	-52.18317	0.8911351	
17:57:40:629	47.01314	-121.589	1256.86	1261.604	-1872.879	2.19	20.37523	99	0	6453	77.02785	-47.48114	-26.32903	
17:57:40:839	47.01314	-121.5891	1252.806	1261.604	-1872.879	4.23	20.37523	99	0	6453	53.23577	-51.21743	-53.51118	
17:57:41:33	47.01314	-121.5891	1250.001	1261.604	-1872.879	4.06	20.37523	99	0	6453	26.13268	-64.34988	-84.04147	
17:57:41:235	47.01314	-121.5891	1244.301	1242.36	-2030.896	3.05	16.9696	99	0	6453	29.03803	-80.45499	-152.1558	
17:57:41:441	47.01314	-121.5891	1241.471	1242.36	-2030.896	1.64	16.9696	99	0	6453	61.67141	-82.14747	76.78139	
17:57:41:638	47.01314	-121.5891	1237.619	1242.36	-2030.896	2.6	16.9696	99	0	6453	93.52748	-66.97822	-71.81435	
17:57:41:837	47.01314	-121.5891	1237.619	1242.36	-2030.896	2.6	16.9696	99	0	6453	31.69982	-53.69299	-143.0493	
17:57:42:46	47.01315	-121.5891	1230.932	1242.36	-2030.896	6.29	16.9696	99	0	6453	-7.751464	-66.73422	136.485	
17:57:42:252	47.01315	-121.5891	1228.369	1225.449	-1875.236	5.17	20.61764	99	0	6453	4.832618	-76.46738	54.0079	
17:57:42:446	47.01315	-121.5891	1224.46	1225.449	-1875.236	2.39	20.61764	99	0	6453	61.04935	-78.03872	-52.87691	
17:57:42:644	47.01315	-121.5891	1221.958	1225.449	-1875.236	2.68	20.61764	99	0	6453	79.8022	-75.90759	-121.2652	
17:57:42:849	47.01315	-121.5891	1219.534	1225.449	-1875.236	3.36	20.61764	99	0	6453	93.89828	-75.14575	176.6907	
17:57:43:49	47.01315	-121.5891	1219.534	1225.449	-1875.236	3.36	20.61764	99	0	6453	102.3524	-70.00577	118.3095	
17:57:43:251	47.01315	-121.5891	1215.986	1212.041	-1633.504	3.46	18.1315	99	0	6453	88.51355	-63.05931	77.30794	
17:57:43:451	47.01315	-121.5891	1212.427	1212.041	-1633.504	2.95	18.1315	99	0	6453	63.77888	-62.05709	40.90739	
17:57:43:700	47.01315	-121.5891	1212.427	1212.041	-1633.504	2.95	18.1315	99	0	6453	13.68995	-73.82396	-2.145825	
17:57:43:868	47.01315	-121.5891	1206.02	1212.041	-1633.504	2.49	18.1315	99	0	6453	126.9071	-82.45226	141.5724	
17:57:44:58	47.01315	-121.5891	1199.293	1212.041	-1633.504	5.26	18.1315	99	0	6453	63.84952	-42.75195	94.37525	
17:57:44:268	47.01314	-121.5891	1196.995	1199.292	-1423.339	5.28	19.47474	99	0	6453	-0.1005008	-34.73664	41.02118	
17:57:44:457	47.01314	-121.5891	1196.995	1199.292	-1423.339	5.28	19.47474	99	0	6453	-63.24739	-58.93644	5.25682	
17:57:44:659	47.01314	-121.5891	1194.891	1199.292	-1423.339	4.39	19.47474	99	0	6453	-178.9642	-77.81532	53.70304	
17:57:44:862	47.01314	-121.5891	1192.715	1199.292	-1423.339	2.88	19.47474	99	0	6453	111.6509	-64.0229	68.67692	
17:57:45:60	47.01315	-121.5891	1190.383	1199.292	-1423.339	3.18	19.47474	99	0	6453	93.90994	-58.5364	34.59368	
17:57:45:257	47.01315	-121.5891	1185.098	1187.773	-1350.869	4.57	20.63939	99	0	6453	78.52715	-60.15015	0.3168375	
17:57:45:463	47.01315	-121.5891	1182.288	1187.773	-1350.869	4.28	20.63939	99	0	6453	65.00825	-64.79907	-36.20161	
17:57:45:659	47.01315	-121.5891	1179.503	1187.773	-1350.869	3.83	20.63939	99	0	6453	60.86002	-68.30904	-92.7334	
