Date	Latitude(deg) 	Longitude(deg)	hamsl(m)	hafl(m)	climbrate(cm/s)	GroundSpeed(m/s)	Airspeed(m/s)	Mav_Link(%)	Rssi_Link(%)	Throttle	Roll(deg)	Pitch(deg)	Yaw(deg)
15:06:06	0	0	0	-0.5304617	-60.04048	0	3	100	0	6	0.1365516	-0.09484264	55.36186	
15:06:08	0	0	0	0.8119993	12.1835	0	3	100	0	5	0.1129989	-0.05470907	55.35432	
15:06:09	0	0	0	0.8664485	-0.9739692	0	3	100	0	4	0.1615767	0.01474087	55.34177	
15:06:11	0	0	0	0.4941201	-22.80091	0	3	100	0	4	0.1400949	0.0728715	55.37502	
15:06:13	0	0	0	0.2242554	-25.50496	0	3	100	0	4	0.141625	0.02897002	55.37787	
15:06:14	0	0	0	0.3733191	-9.94676	0	3	100	0	4	0.151635	0.06273557	55.45075	
15:06:16	0	0	0	0.6739597	-0.01635156	0	3	100	0	4	0.120514	0.05114542	55.45891	
15:06:18	0	0	0	0.8418704	2.733091	0	3	100	0	5	0.09592325	0.03304404	55.52381	
15:06:19	0	0	0	0.738317	-6.816929	0	3	100	0	5	0.1353906	0.05435837	55.47935	
15:06:21	0	0	0	0.6509479	-10.22729	0	3	100	0	5	0.1360196	0.0721915	55.51315	
15:06:23	0	0	0	0.715002	-4.640119	0	3	100	0	5	0.1329983	0.05449697	55.51683	
15:06:24	0	0	0	0.7633113	-3.575984	0	3	100	0	4	0.07935427	-0.02631456	55.48924	
15:06:26	0	0	0	0.5262372	-12.86289	0	3	100	0	4	0.05730467	-0.002194615	55.50887	
15:06:28	0	0	0	0.1959855	-19.92715	0	3	100	0	4	0.1011462	0.03383685	55.57268	
15:06:30	0	0	0	0.283353	-2.890633	0	3	100	0	5	0.05985959	0.06125112	55.54471	
15:06:31	0	0	0	0.7023961	12.95345	0	3	100	0	5	0.07088572	0.04677945	55.54356	
15:06:33	0	0	0	0.4140065	-9.695301	0	3	100	0	4	0.08816628	0.02041933	55.54184	
15:06:35	0	0	0	0.267229	-10.52151	0	3	100	0	5	0.1072566	0.02833384	55.55522	
15:06:36	0	0	0	0.7650614	13.32216	0	3	100	0	4	0.1210576	0.01855042	55.54815	
15:06:38	0	0	0	0.731963	2.631832	0	3	100	0	5	0.0980494	0.02204922	55.53146	
15:06:40	0	0	0	0.5138294	-8.531032	0	3	100	0	5	0.1129876	-0.007713578	55.53541	
15:06:42	0	0	0	0.5774197	-0.2241043	0	3	100	0	4	0.1011528	0.03884721	55.52242	
15:06:43	0	0	0	0.2922444	-6.004947	0	3	100	0	4	0.09937897	0.05919656	55.55513	
15:06:45	0	0	0	0.5018026	3.644878	0	3	100	0	5	0.111968	0.008351658	55.58191	
15:06:47	0	0	0	0.7230363	10.91146	0	3	100	0	4	0.1086853	0.02010328	55.59594	
15:06:48	0	0	0	0.8599604	7.099648	0	3	100	0	5	0.09335852	0.03194825	55.60494	
15:06:50	0	0	0	0.6705405	-5.017943	0	3	100	0	4	0.1066391	0.06518701	55.19685	
15:06:52	0	0	0	0.3753398	-15.04373	0	3	100	0	5	0.09898632	0.0418719	55.22552	
15:06:53	0	0	0	0.5739605	2.777705	0	3	100	0	5	0.06847224	0.01365064	55.29251	
15:06:55	0	0	0	0.715235	5.509167	0	3	100	0	4	0.05936431	-0.03632383	55.28265	
15:06:57	0	0	0	1.029013	11.09027	0	3	100	0	4	0.1223331	-0.06263006	55.29083	
15:06:59	0	0	0	0.5378201	-13.23941	0	3	100	0	4	0.120859	-0.08646812	55.30488	
15:07:00	0	0	0	0.6605431	-2.284915	0	3	100	0	4	0.09887753	-0.05899816	55.31605	
15:07:02	0	0	0	0.7521285	1.085789	0	3	100	0	4	0.07114302	-0.09110947	55.30318	
15:07:04	0	0	0	0.8014302	4.409018	0	3	100	0	4	0.05869346	-0.04972049	55.34663	
15:07:05	0	0	0	0.802222	0.7028689	0	3	100	0	4	0.08477371	-0.0369052	55.38184	
15:07:07	0	0	0	0.656827	-5.977091	0	3	100	0	4	0.0890636	-0.05940317	55.46602	
15:07:09	0	0	0	0.7871142	2.576501	0	3	100	0	4	0.08071864	-0.03994036	55.43943	
15:07:10	0	0	0	0.6156049	-6.227737	0	3	100	0	4	0.09304869	0.009458714	55.45873	
15:07:12	0	0	0	0.6250867	-1.786847	0	3	100	0	4	0.1072784	0.06800115	55.52737	
15:07:14	0	0	0	0.7567844	4.996098	0	3	100	0	4	0.0755613	0.02627877	55.50991	
15:07:15	0	0	0	0.6540279	-2.989939	0	3	100	0	4	0.1150157	0.08227356	55.57589	
15:07:17	0	0	0	0.652485	-0.01062111	0	3	100	0	5	0.09573925	0.07742868	55.60765	
15:07:19	0	0	0	0.9003221	9.967988	0	3	100	0	5	0.1112533	0.09699317	55.58246	
15:07:21	0	0	0	0.5364807	-8.981981	0	3	100	0	4	0.08460867	0.006618367	55.57774	
15:07:22	0	0	0	0.759169	4.449507	0	3	100	0	5	0.08807973	0.02907076	55.56131	
15:07:24	0	0	0	0.938203	12.88641	0	3	100	0	5	0.07322325	-0.04385756	55.55188	
15:07:26	0	0	0	0.9185913	3.168932	0	3	100	0	5	0.07778045	-0.03827592	55.48272	
15:07:27	0	0	0	0.8841842	-1.59807	0	3	100	0	4	0.06102435	-0.07243446	55.49569	
15:07:29	0	0	0	0.8286161	-1.068127	0	3	100	0	4	0.0972961	-0.06667836	55.47	
15:07:31	0	0	0	0.9279328	1.556886	0	3	100	0	5	0.06633181	-0.007671609	55.46275	
15:07:32	0	0	0	1.052647	3.787579	0	3	100	0	4	0.1102413	0.009032098	55.49717	
15:07:34	0	0	0	0.9680597	-1.515229	0	3	100	0	5	0.1159503	0.07549857	55.51101	
15:07:36	0	0	0	0.7119668	-9.121066	0	3	100	0	5	0.09855707	0.04825819	55.46955	
15:07:37	0	0	0	0.9699715	3.88396	0	3	100	0	4	0.04478786	0.04907592	55.48839	
15:07:39	0	0	0	1.058555	4.385262	0	3	100	0	4	0.05503927	0.04990046	55.51842	
15:07:41	0	0	0	1.00402	0.9763796	0	3	100	0	4	0.04120005	-0.01740672	55.53514	
15:07:43	0	0	0	1.021994	3.305562	0	3	100	0	5	0.05351092	-0.02086127	55.52918	
15:07:44	0	0	0	0.8443415	-6.177259	0	3	100	0	5	0.05873309	-0.004259265	55.52898	
15:07:46	0	0	0	0.9175228	2.359028	0	3	100	0	4	0.08140291	-0.00208775	55.51265	
15:07:48	0	0	0	0.4021504	-21.19107	0	3	100	0	5	0.06193591	-0.004249007	55.52052	
15:07:49	0	0	0	0.5665801	0.5434369	0	3	100	0	4	0.08484119	-0.02224728	55.48761	
15:07:51	0	0	0	0.8336696	8.07363	0	3	100	0	4	0.1004738	-0.0333005	55.45502	
15:07:53	0	0	0	0.5898603	-5.284776	0	3	100	0	4	0.08377857	-0.08055826	55.40611	
15:07:54	0	0	0	0.9626319	12.22311	0	3	100	0	4	0.07114187	-0.01973367	55.43344	
15:07:56	0	0	0	0.9941457	4.034135	0	3	100	0	4	0.07231667	0.05256985	55.44041	
15:07:58	0	0	0	1.041286	2.654052	0	3	100	0	4	0.06207629	0.1032374	55.49676	
15:07:59	47.45948	-122.2944	270.408	59.343	3204.086	26.55	26.55862	100	0	5	-0.4427214	6.310484	47.71099	
15:08:01	47.45948	-122.2944	270.408	310.8731	10330.23	26.55	25.56267	100	0	5	-0.5330772	27.10029	16.14313	
15:08:03	47.45948	-122.2944	270.408	337.8777	5272.254	26.55	23.71768	100	0	4	-2.532546	41.82212	-2.379098	
15:08:04	47.45948	-122.2944	270.408	299.1566	596.0263	26.55	22.86378	100	0	4	-11.84858	51.3052	-28.39726	
15:08:06	47.45948	-122.2944	270.408	269.8869	-1132.739	26.55	21.28193	100	0	4	-26.89421	54.83179	-62.23582	
15:08:08	47.45948	-122.2944	270.408	259.8627	-1242.573	26.55	19.8543	100	0	4	-40.0795	52.71149	-96.86361	
15:08:10	47.45948	-122.2944	270.408	259.9287	-927.4283	26.55	19.19357	100	0	4	-45.97443	48.99489	-126.4646	
15:08:11	47.45956	-122.2945	269.42	261.2192	-1470.632	24.85	18.32206	100	0	4	29.16388	5.525262	-129.1774	
15:08:13	47.45987	-122.2947	248.254	245.9661	-1214.264	22.57	14.14342	100	0	49	15.38801	6.494426	-101.8882	
15:08:15	47.46017	-122.2948	227.397	227.3398	-1076.916	27.84	14.55546	100	0	97	7.063029	-3.174431	-89.43205	
15:08:16	47.46061	-122.295	198.67	204.9331	-1208.881	32.82	22.03765	100	0	97	8.994293	-9.100444	-80.57312	
15:08:18	47.46104	-122.2954	171.176	181.5291	-805.6885	36.73	26.39903	100	0	97	4.600071	-6.218938	-66.94143	
15:08:20	47.46151	-122.2959	160.547	161.2634	-668.2009	37.19	27.79078	100	0	98	2.656806	-3.721973	-52.28152	
15:08:21	47.46189	-122.2964	147.937	150.9808	-511.5717	36.13	27.09163	100	0	97	6.437253	-2.130473	-45.29851	
15:08:23	47.46231	-122.2969	145.859	145.6785	-268.7654	34.87	25.89914	100	0	97	0.618951	-1.442247	-37.13325	
15:08:25	47.46265	-122.2974	145.019	143.9909	-66.14648	33.94	28.02628	100	0	97	0.8773911	-0.9808856	-32.3226	
15:08:26	47.46307	-122.298	145.987	145.5505	106.0966	33.06	26.89718	100	0	97	0.4225567	-0.6990249	-29.2356	
15:08:28	47.46346	-122.2985	148.271	148.2891	211.6514	32.28	28.75267	100	0	97	0.5710288	-0.2563025	-27.31333	
15:08:30	47.46366	-122.2988	149.943	151.129	226.7492	31.86	29.59705	100	0	97	0.2061311	-0.291008	-25.71971	
15:08:32	47.46366	-122.2988	149.943	151.571	202.9756	31.86	29.59705	100	0	97	-0.1947232	0.04744486	-19.1345	
15:08:33	47.46366	-122.2988	149.943	151.571	202.9756	31.86	29.59705	100	0	97	-0.5515495	0.4347573	-11.64447	
15:08:35	47.46372	-122.2989	150.452	151.571	202.9756	31.78	29.59705	100	0	97	0.006195646	0.01278784	0.03330499	
15:08:37	47.4652	-122.3006	178.706	171.3757	555.473	28.51	25.24939	100	0	97	10.85768	1.487902	1.022918	
15:08:38	47.46556	-122.301	175.786	180.5292	582.9265	30.78	23.90608	100	0	97	-11.28244	4.386432	-20.41039	
15:08:40	47.46593	-122.3015	171.786	176.6772	276.6492	31.95	24.68394	100	0	97	7.430485	-2.135225	-35.08004	
15:08:42	47.46625	-122.3018	173.518	174.782	0.2033375	31.58	26.07865	100	0	97	-0.1424883	0.002945544	-32.95303	
15:08:43	47.46673	-122.3024	168.815	172.6861	8.804491	31.8	28.25181	100	0	97	3.542109	-0.5767772	-31.09406	
15:08:45	47.4671	-122.3027	177.935	174.6333	-50.10756	31.19	29.65244	100	0	97	-1.483174	-0.440832	-31.0073	
15:08:47	47.46749	-122.3031	178.738	178.7446	198.6784	31.39	30.91081	100	0	97	-0.03703427	0.4827	-30.75833	
15:08:48	47.46791	-122.3035	179.616	180.661	158.0132	31.39	31.54376	100	0	97	13.52807	0.3391308	-31.27677	
15:08:50	47.46835	-122.3038	179.722	180.6992	23.20302	31.21	31.7381	100	0	97	-27.5913	1.785918	-17.49604	
15:08:52	47.46871	-122.3042	177.198	177.9582	-96.05119	32.27	31.60657	100	0	89	-29.90544	1.823517	-37.66527	
15:08:54	47.46904	-122.3048	173.638	174.4602	-168.2672	32.85	32.00069	100	0	89	-14.61969	0.5273597	-49.91423	
15:08:55	47.46926	-122.3055	169.373	169.9408	-202.3664	33.9	32.54319	100	0	88	-43.12129	0.979683	-69.65939	
15:08:57	47.46926	-122.3062	167.807	166.8626	-197.7711	34.8	33.40549	100	0	89	-44.05639	1.146522	-93.47015	
15:08:59	47.46907	-122.307	168.412	166.6661	-120.5299	35.45	33.84727	100	0	89	-43.51997	1.197031	-113.8791	
15:09:00	47.46874	-122.3075	168.913	167.4823	-36.2571	35.86	34.17269	100	0	89	-42.53154	1.056593	-134.8141	
15:09:02	47.46822	-122.3079	169.228	168.2859	2.684765	35.92	34.60121	100	0	89	-41.00412	0.774569	-155.0529	
15:09:04	47.4677	-122.308	166.486	168.6928	17.4861	35.61	34.84078	100	0	89	-10.26095	-0.1036352	-167.7448	
15:09:05	47.46715	-122.3081	161.5	163.8556	-132.0714	35.49	34.56907	100	0	89	-14.3127	-0.4945265	-173.4507	
15:09:07	47.46662	-122.3081	157.52	158.862	-187.2826	35.19	33.66988	100	0	89	-9.372455	-0.3163026	-178.4934	
15:09:09	47.46608	-122.308	154.108	154.6896	-197.2432	34.79	33.17431	100	0	89	-10.14269	-0.3866794	176.6114	
15:09:10	47.46557	-122.3079	151.158	151.5124	-176.8223	34.46	32.60033	100	0	89	-10.35512	-0.4946606	171.0719	
15:09:12	47.46511	-122.3078	148.8	148.9731	-126.2549	34.16	31.89674	100	0	88	-10.12035	-0.08803978	165.4136	
15:09:14	47.46464	-122.3076	146.86	146.8242	-114.1541	33.79	31.57636	100	0	89	-10.03473	-0.1626016	159.7888	
15:09:15	47.46412	-122.3073	144.937	145.0175	-104.3084	33.49	31.06476	100	0	89	0.009278849	-0.1845508	157.366	
15:09:17	47.46363	-122.3071	143.218	143.313	-98.3991	33.34	31.08504	100	0	89	0.223245	-0.1058865	157.3122	
15:09:19	47.46318	-122.3068	141.75	141.6851	-94.40165	33.24	31.12257	100	0	89	0.002821763	0.0007737428	157.2695	
15:09:21	47.46267	-122.3066	140.651	140.5807	-70.22676	33.19	31.15497	100	0	89	0.3446758	0.1136655	157.247	
15:09:22	47.46223	-122.3064	139.725	139.5529	-114.104	33.15	31.11832	100	0	56	37.99657	-1.188468	161.6014	
15:09:24	47.46174	-122.3063	137.775	137.4425	-248.4194	30.27	27.52302	100	0	5	44.1712	-4.053134	-172.3877	
15:09:26	47.46133	-122.3065	131.215	130.7834	-566.6103	26.99	24.42701	100	0	5	35.50324	-14.82367	-144.7494	
15:09:27	47.46101	-122.3069	117.65	118.7053	-909.2803	26.16	24.13333	100	0	4	9.926217	-23.47381	-128.8374	
15:09:29	47.46078	-122.3073	100.853	100.5102	-1023.761	26.96	25.08682	100	0	4	-18.91945	-22.48978	-123.9084	
15:09:31	47.46043	-122.3079	78.243	81.74718	-1020.303	28.69	26.48789	100	0	5	-37.34976	-19.57613	-139.2289	
15:09:32	47.46007	-122.3081	65.874	67.12568	-438.1941	29.04	26.43192	100	0	8	-21.39784	-6.481216	-173.802	
15:09:34	47.45967	-122.3082	64.471	63.93404	-102.0888	26.78	23.88044	100	0	55	-1.563912	0.9748645	-176.3081	
15:09:36	47.45926	-122.3082	65.151	64.40793	13.77564	27.08	24.47356	100	0	82	-0.9443062	1.966204	-175.4501	
15:09:37	47.45881	-122.3083	67.33	66.76552	147.7537	29.79	27.27272	100	0	99	-25.63939	2.906629	-177.1796	
15:09:39	47.45841	-122.3082	69.049	69.18931	167.0023	31.09	28.68829	100	0	96	-46.36372	3.302489	154.1591	
15:09:41	47.458	-122.3079	71.653	71.90488	168.1357	31.07	29.69997	100	0	96	-45.53131	2.877627	122.6709	
15:09:43	47.45778	-122.3072	73.587	73.89525	134.5552	30.82	30.86457	100	0	97	-41.21806	1.942085	93.26917	
15:09:44	47.45779	-122.3065	74.708	75.25867	95.79546	30.78	31.4976	100	0	97	-6.40369	0.7210495	77.52747	
15:09:46	47.45786	-122.3058	74.503	74.95179	-5.652073	31.38	32.03591	100	0	96	22.3317	-0.302112	82.01707	
15:09:48	47.45787	-122.3052	74.261	74.35775	4.999207	31.97	32.27494	100	0	94	23.78916	0.4716363	96.20009	
15:09:49	47.45773	-122.3044	74.49	74.37411	-0.004442781	32.36	31.85451	100	0	94	16.91915	0.2739344	108.5337	
15:09:51	47.45752	-122.3037	74.671	74.47553	-9.530003	32.56	32.17081	100	0	93	8.012967	0.05510395	116.0024	
15:09:53	47.45727	-122.3031	75.149	74.75739	2.637241	32.62	32.06916	100	0	94	1.288806	0.02266995	119.2964	
15:09:54	47.45699	-122.3025	76.12	75.72632	50.21149	32.63	32.01134	100	0	94	-2.514268	0.3808274	119.8237	
15:09:56	47.45672	-122.3018	77.023	76.84721	50.87154	32.61	31.96104	100	0	94	-3.893688	0.04197247	119.0587	
15:09:58	47.45645	-122.3012	78.093	77.93755	61.42899	32.56	31.91477	100	0	94	-3.766007	0.07623155	118.0186	
15:10:00	47.45622	-122.3006	79.086	79.07189	68.65813	32.54	31.91629	100	0	94	-3.007808	0.1455069	117.2263	
15:10:01	47.45597	-122.3	80.401	80.32047	70.28764	32.52	31.90346	100	0	94	-2.327515	0.1002999	116.8046	
15:10:03	47.45573	-122.2994	81.716	81.62305	60.18037	32.52	31.91248	100	0	88	-26.89307	0.06958097	115.024	
15:10:05	47.45554	-122.2987	81.436	81.98609	60.11447	31.77	31.6218	100	0	85	-38.74491	0.3293886	89.28365	
15:10:06	47.45558	-122.298	80.122	81.40516	35.89944	31.13	32.12237	100	0	87	-13.01886	-0.23724	72.24399	
15:10:08	47.45573	-122.2973	78.839	79.74666	-21.74787	31.06	32.23649	100	0	88	5.77224	-0.4938575	69.36192	
15:10:10	47.45583	-122.2968	78.371	78.45946	-36.69522	31.1	32.03352	100	0	87	9.142565	-0.3125177	73.77086	
15:10:11	47.45593	-122.296	82.958	81.46944	121.344	31.01	31.69876	100	0	87	6.407535	-0.2036936	78.56251	
15:10:13	47.45598	-122.2953	89.135	88.08955	299.7995	30.87	31.39842	100	0	88	2.336777	-0.152127	81.84886	
15:10:15	47.45602	-122.2945	95.837	95.11636	385.7272	30.73	31.23882	100	0	87	-0.4020654	-0.03457731	83.37826	
15:10:17	47.45604	-122.2939	98.426	101.0863	370.0892	30.54	30.96965	100	0	87	-2.412663	0.06320918	83.88639	
15:10:18	47.45605	-122.2932	93.84	98.1046	21.64736	30.37	30.84963	100	0	87	-3.148835	0.09029321	83.64754	
15:10:20	47.45608	-122.2925	89.589	91.08934	-262.0312	30.2	30.66322	100	0	87	-3.405548	0.2305387	83.46953	
15:10:22	47.45611	-122.2919	87.52	85.70648	-405.7066	30.06	30.62946	100	0	87	-44.48118	-0.3674084	75.85875	
15:10:23	47.45629	-122.2912	85.87	84.10023	-183.1833	29.62	30.76029	100	0	87	-46.24849	1.004202	43.79076	
15:10:25	47.45668	-122.2909	86.189	84.85771	-52.57785	29.65	31.47626	100	0	87	-44.98872	0.7666705	14.4863	
15:10:27	47.45712	-122.2908	87.607	86.631	50.10189	30.23	31.99648	100	0	88	-45.13189	0.6600516	-13.90006	
15:10:28	47.45748	-122.2911	89.568	89.40621	178.9789	31.01	32.57552	100	0	87	-34.20407	1.225222	-40.72345	
15:10:30	47.45782	-122.2917	93.315	92.94951	209.3477	31.52	32.54943	100	0	87	-14.96178	-0.04066982	-53.93925	
15:10:32	47.45805	-122.2923	96.496	96.36822	206.0383	31.46	32.31898	100	0	87	14.27394	-0.8154438	-53.97847	
15:10:34	47.45834	-122.293	100.678	100.0462	250.9518	30.95	31.96764	100	0	87	21.72109	-0.2192778	-42.75638	
15:10:35	47.45866	-122.2934	101.679	103.5635	210.2334	30.45	31.45536	100	0	87	24.97403	-0.2825007	-30.59087	
15:10:37	47.4591	-122.2937	100.813	102.5641	60.29422	29.99	31.59866	100	0	88	9.36268	0.1602171	-19.44173	
15:10:39	47.45948	-122.2939	100.309	100.6436	-57.69379	29.84	31.57137	100	0	87	-0.9433833	-0.06991693	-16.80249	
15:10:40	47.45989	-122.2941	99.966	99.64414	-55.08834	29.68	31.21133	100	0	88	-2.494133	0.1734475	-17.01465	
15:10:42	47.46038	-122.2944	99.98	99.56921	-36.22704	29.52	30.92955	100	0	87	-2.882722	0.05587682	-17.6245	
15:10:44	47.4608	-122.2946	100.214	99.84963	-2.957131	29.34	30.67063	100	0	87	-2.756746	0.232537	-18.38559	
15:10:45	47.46117	-122.2948	99.9	99.55334	-76.69949	29.6	30.71773	100	0	87	-44.84411	0.06124952	-35.04077	
15:10:47	47.46148	-122.2953	99.137	98.63987	-1.812532	30.43	30.34866	100	0	87	-26.1907	1.108501	-60.65137	
15:10:49	47.46168	-122.296	94.058	97.32307	-46.38032	30.63	30.77135	100	0	87	-5.417271	-0.1660555	-68.47237	
15:10:51	47.46183	-122.2966	95.724	95.24573	-102.1973	30.59	30.60692	100	0	87	-1.526055	0.09116516	-69.35546	
15:10:52	47.46199	-122.2973	94.854	93.79413	-111.0166	30.5	30.43038	100	0	87	-2.143945	0.04181217	-69.33245	
15:10:54	47.46213	-122.2978	95.991	94.85614	-29.33776	30.52	30.3617	100	0	87	-20.51155	0.06131244	-73.03711	
15:10:56	47.46224	-122.2986	97.577	96.84819	75.88859	31.01	30.72135	100	0	87	-29.33045	0.37498	-87.6565	
15:10:57	47.4622	-122.2994	99.316	99.13245	131.6392	31.36	30.74898	100	0	87	-24.74175	0.2390448	-103.6371	
15:10:59	47.46207	-122.3	101.12	101.2524	134.6497	31.43	30.90123	100	0	87	-14.66609	0.1612649	-114.6134	
15:11:01	47.46189	-122.3006	103.142	102.9255	22.69725	31.52	30.69379	100	0	87	-43.63913	-0.9151715	-126.7758	
15:11:02	47.46154	-122.3011	103.774	104.3033	160.0981	32.22	31.20948	100	0	88	-39.85613	0.199695	-160.0622	
15:11:04	47.46107	-122.3013	104.877	105.6051	103.8458	32.27	31.44477	100	0	87	-44.40273	-0.6701835	171.297	
15:11:06	47.46056	-122.3011	104.787	105.9372	95.87064	31.84	31.57625	100	0	87	-45.08588	-0.4721732	137.766	
15:11:07	47.46024	-122.3006	103.806	105.1263	40.13057	31.22	31.63726	100	0	93	-44.9989	-0.1239075	105.4334	
15:11:09	47.46016	-122.3	102.525	103.4857	-8.190839	31.3	31.92085	100	0	97	-45.38505	0.3789603	74.70198	
15:11:11	47.4603	-122.2994	101.904	102.3289	19.14099	31.38	32.3314	100	0	100	-34.79446	0.8625308	47.90895	
15:11:13	47.46067	-122.2988	102.453	102.2896	4.165964	31.47	32.46909	100	0	100	-9.963977	-0.3999462	36.37381	
15:11:14	47.46107	-122.2983	103.623	102.9795	31.31627	31.42	32.8926	100	0	98	-3.528663	-0.3659421	34.17328	
15:11:16	47.46146	-122.2979	105.327	104.4433	-40.89751	31.3	32.74134	100	0	98	-46.00174	-0.3176426	27.55818	
15:11:18	47.46194	-122.2978	105.846	105.7506	63.34415	31.6	32.82986	100	0	98	-46.31012	0.9728864	-1.646269	
15:11:19	47.46235	-122.298	106.289	106.4244	42.19307	32.15	33.04369	100	0	100	-42.05408	0.7506689	-28.53665	
15:11:21	47.46274	-122.2985	107.295	107.2066	50.43698	32.74	33.37792	100	0	100	-29.01691	0.2446499	-48.21042	
15:11:23	47.46301	-122.2991	108.61	108.2286	53.97835	32.97	33.38094	100	0	98	-21.39445	-0.1711688	-60.73966	
15:11:24	47.46319	-122.2999	110.373	109.7646	68.96743	33	33.00928	100	0	98	-27.21726	-0.2683566	-72.39901	
15:11:26	47.46323	-122.3005	111.898	111.4854	115.4819	33.5	32.69673	100	0	100	-45.48064	0.3072085	-98.14333	
15:11:28	47.46308	-122.3012	114.114	114.235	174.6713	33.96	32.43556	100	0	98	-45.02633	0.1302499	-128.6658	
15:11:30	47.46271	-122.3017	116.233	116.8821	202.4996	34.09	32.59576	100	0	98	-45.21817	-0.01332422	-160.5419	
15:11:31	47.46218	-122.3019	117.9	118.7298	156.939	33.93	32.51933	100	0	98	-45.49902	-0.5566503	167.7808	
15:11:33	47.46169	-122.3016	118.356	119.4667	121.2583	33.49	32.84125	100	0	98	-45.79485	-0.5252419	135.2601	
15:11:35	47.46135	-122.301	118.454	119.3324	58.16563	32.78	33.16487	100	0	98	-45.24995	-0.294673	104.56	
15:11:36	47.46129	-122.3003	118.15	118.7008	3.403898	32.14	33.12145	100	0	98	-44.90267	0.1558859	75.20865	
15:11:38	47.46145	-122.2997	118.202	118.0916	-25.03785	31.68	33.35586	100	0	98	-45.07286	0.017991	47.11202	
15:11:40	47.46183	-122.2992	119.072	118.4489	18.71116	31.47	33.08814	100	0	98	-44.90337	0.3957748	19.14293	
15:11:41	47.46228	-122.2991	120.772	120.1853	84.49665	31.48	32.61592	100	0	98	-40.82007	0.1681282	-7.326019	
15:11:43	47.46276	-122.2994	123.676	123.0874	164.4846	31.56	32.18385	100	0	98	-30.35679	-0.3547729	-28.55126	
15:11:45	47.46308	-122.2997	127.111	127.1202	220.8318	31.39	31.78808	100	0	98	-33.12977	-0.4611238	-46.24928	
15:11:47	47.46342	-122.3004	133.393	131.8797	296.3344	31.73	30.86147	100	0	98	-45.27938	-0.4099648	-75.443	
15:11:48	47.46343	-122.301	138.282	138.363	421.9317	32.08	30.83487	100	0	98	-45.54777	-0.9256693	-111.0726	
15:11:50	47.46319	-122.3017	143.564	144.6442	466.8861	32.49	30.90502	100	0	98	-45.56565	-1.65291	-149.5485	
15:11:52	47.46278	-122.302	146.965	149.2092	421.3724	32.73	31.73424	100	0	98	-45.75393	-1.833342	171.3141	
15:11:53	47.46227	-122.3018	148.175	150.9381	275.7498	32.86	32.38605	100	0	98	-44.97465	-1.437884	133.8856	
15:11:55	47.46195	-122.3014	146.728	149.2655	81.86047	32.75	33.24021	100	0	98	-45.14341	-1.364932	99.37436	
15:11:57	47.46187	-122.3005	143.121	145.1741	-97.52544	32.53	33.78229	100	0	98	-45.39737	-1.017561	68.25643	
15:11:58	47.46206	-122.3	140.625	140.8925	-178.3646	32.41	34.00286	100	0	98	-44.72322	-0.360783	39.13839	
15:12:00	47.46249	-122.2995	139.408	138.4971	-158.036	32.3	33.5096	100	0	98	-45.21	-0.331401	11.61596	
15:12:02	47.46297	-122.2995	140.388	138.8613	-35.12265	32.21	33.05626	100	0	98	-44.99887	-0.2563639	-16.47763	
15:12:04	47.46341	-122.2999	143.987	142.2567	130.7019	32.02	32.05175	100	0	98	-45.5947	-0.4594189	-46.29119	
15:12:05	47.46367	-122.3005	150.472	148.3872	298.5629	31.79	31.08348	100	0	98	-45.33493	-0.9046327	-79.54243	
15:12:07	47.46365	-122.3012	157.875	156.5418	469.6593	31.69	30.3791	100	0	98	-45.52782	-1.483766	-117.3189	
15:12:09	47.46338	-122.3017	164.674	164.7893	531.0086	31.73	30.37301	100	0	100	-45.14672	-1.879725	-157.7829	
15:12:10	47.46296	-122.3019	168.95	171.1907	476.2339	31.99	31.17418	100	0	98	-45.14407	-1.974408	161.2845	
15:12:12	47.46244	-122.3016	169.417	173.0052	278.2321	32.34	32.48156	100	0	98	-44.37618	-1.299908	121.7826	
15:12:14	47.46221	-122.301	164.716	169.0641	-32.05815	32.7	33.61895	100	0	100	-44.96574	-1.471262	86.38985	
15:12:15	47.46227	-122.3003	159.071	161.5079	-284.8297	33.05	34.31731	100	0	98	-45.11151	-0.9691067	55.64548	
15:12:17	47.46253	-122.2998	153.837	153.6722	-370.4789	33.33	34.46609	100	0	98	-44.5744	-0.5335773	27.37641	
15:12:19	47.46309	-122.2995	150.592	149.1474	-277.6071	33.31	34.22956	100	0	98	-44.88925	-0.4221855	-0.1989273	
15:12:20	47.46352	-122.2996	152.205	149.6398	-73.81246	32.73	32.9228	100	0	98	-45.06127	-0.7557008	-27.95728	
15:12:22	47.46394	-122.3001	158.996	155.346	236.5291	31.71	31.4516	100	0	98	-45.42023	-0.9808586	-60.59088	
15:12:24	47.46408	-122.3007	167.945	165.8839	526.0078	30.75	29.96444	100	0	100	-45.68151	-1.507906	-98.15572	
15:12:26	47.46395	-122.3014	179.065	178.3891	687.4087	30.37	29.55923	100	0	98	-45.81066	-2.288257	-140.5694	
15:12:27	47.46359	-122.3017	185.784	187.518	609.2458	30.94	29.86309	100	0	98	-45.12482	-2.694107	174.3886	
15:12:29	47.46306	-122.3016	186.301	191.0052	388.9319	31.98	31.89133	100	0	98	-45.22193	-2.619912	130.5856	
15:12:31	47.4628	-122.3011	181.878	186.538	26.29733	32.59	33.16581	100	0	98	-44.84953	-1.681423	92.2443	
15:12:32	47.46276	-122.3004	174.272	177.4328	-278.4783	33.12	33.76863	100	0	98	-43.10118	-1.127563	60.59179	
15:12:34	47.46304	-122.2997	168.889	169.0093	-388.9085	33.27	34.28762	100	0	100	-44.58213	-0.8288807	32.51799	
15:12:36	47.46344	-122.2994	168.224	165.8333	-227.7063	32.86	33.43987	100	0	98	-45.03657	-0.4819572	4.295304	
15:12:37	47.46396	-122.2995	172.867	169.2069	35.89202	31.66	31.91137	100	0	100	-45.33926	-0.9380988	-25.47756	
15:12:39	47.46435	-122.2998	181.315	177.6273	350.2322	30.63	30.30759	100	0	98	-45.47657	-1.685478	-60.73662	
15:12:41	47.46449	-122.3005	191.417	189.8174	646.8655	30.01	29.34572	100	0	98	-45.10572	-2.637092	-103.9988	
15:12:43	47.46434	-122.3011	200.85	202.113	802.6861	30.38	29.26791	100	0	98	-29.4005	-2.856869	-151.4664	
15:12:44	47.46397	-122.3014	206.1	209.7012	598.977	31.24	30.77595	100	0	98	-44.69411	-4.142671	162.7646	
15:12:46	47.46347	-122.3012	203.136	209.482	295.0822	32.48	32.47652	100	0	98	-44.79557	-3.349119	117.1739	
15:12:48	47.46322	-122.3006	194.061	200.4105	-116.5748	33.3	34.24734	100	0	98	-40.92556	-1.990607	79.46438	
15:12:49	47.46326	-122.3	186.865	188.5606	-391.5791	33.97	34.97881	100	0	98	-19.80491	-1.612558	58.55892	
15:12:51	47.46347	-122.2992	183.44	181.5145	-399.2233	33.68	35.06364	100	0	98	-4.90711	-1.13262	52.24231	
15:12:53	47.46371	-122.2985	185.188	181.1026	-267.4241	32.59	33.80895	100	0	100	-2.650719	-0.4323698	52.37488	
15:12:54	47.46389	-122.2979	187.836	184.5356	-103.2237	31.92	32.75811	100	0	98	-5.176177	-0.2442604	53.16303	
15:12:56	47.46412	-122.2973	190.524	187.5849	-55.82856	30.86	31.77098	100	0	98	-6.935081	0.1109185	53.53163	
15:12:58	47.46435	-122.2966	199.18	194.2143	114.4289	29.98	31.00098	100	0	98	-7.807933	0.533163	53.37695	
15:12:59	47.46457	-122.296	207.331	202.3071	206.5437	29.35	30.46902	100	0	98	-8.111591	0.8627115	53.44427	
15:13:01	47.46476	-122.2954	214.68	211.7251	311.5976	28.96	30.11341	100	0	98	-7.943399	1.038948	53.44025	
15:13:03	47.46495	-122.2949	222.085	220.1695	309.5604	28.71	29.913	100	0	98	11.47265	0.5903321	54.13628	
15:13:05	47.46511	-122.2943	228.619	227.5306	269.7999	29.46	28.98449	100	0	98	32.41084	1.183199	73.34108	
15:13:06	47.4651	-122.2936	233.204	232.8445	189.5903	31.02	29.30473	100	0	98	11.08601	0.5703421	90.8196	
15:13:08	47.46499	-122.293	235.485	235.433	98.30858	32.01	30.1644	100	0	98	-9.945783	-0.0260464	95.63603	
15:13:10	47.46486	-122.2922	238.702	237.8729	103.352	32.15	31.06294	100	0	98	-16.3234	0.3467885	93.40392	
15:13:11	47.46477	-122.2916	243.12	241.9579	145.8703	31.72	31.28312	100	0	100	-14.20131	0.5451979	90.64557	
15:13:13	47.46471	-122.2907	249.56	247.3763	219.7349	31.13	31.17732	100	0	98	-11.13426	0.874028	88.44619	
15:13:15	47.46468	-122.2901	256.206	254.6073	279.3445	30.77	30.91096	100	0	98	-6.897849	0.4970892	89.04597	
15:13:16	47.46466	-122.2893	263.275	261.5847	306.5243	30.56	30.71793	100	0	98	-5.300584	0.5906178	90.49711	
15:13:18	47.46464	-122.2888	268.082	268.0372	304.4795	30.48	30.63139	100	0	98	-4.494637	0.6103943	92.00246	
15:13:20	47.46458	-122.288	274.649	273.4084	174.152	31.49	30.54089	100	0	98	46.77058	-1.112502	110.8441	
15:13:22	47.46428	-122.2875	275.927	277.4227	276.3746	33.7	31.70586	100	0	100	46.03998	-0.4660374	149.7825	
15:13:23	47.46386	-122.2872	276.105	278.2434	196.0851	35.22	33.4914	100	0	98	45.42157	-1.237185	-173.5184	
15:13:25	47.46329	-122.2875	272.292	276.0371	121.5643	35.94	34.52655	100	0	98	21.36121	-0.3725417	-142.7348	
15:13:27	47.46284	-122.288	270.914	271.5609	-173.3321	35.62	34.91376	100	0	100	-29.57593	-1.180213	-144.9069	
15:13:28	47.46243	-122.2883	271.419	270.1537	-97.0173	35.3	34.0102	100	0	100	-28.44197	0.3131487	-161.6609	
15:13:30	47.46189	-122.2885	274.059	272.2482	1.943123	34.62	33.27508	100	0	98	-19.797	0.5215844	-173.4431	
15:13:32	47.46128	-122.2885	276.522	275.6661	61.91111	33.98	32.94574	100	0	98	-11.45596	0.33955	-178.9123	
15:13:33	47.46083	-122.2885	276.818	276.7198	1.612025	33.7	32.26067	100	0	98	-6.387603	0.2384941	178.8894	
15:13:35	47.46028	-122.2884	277.285	276.6937	-55.60548	33.49	31.72183	100	0	100	8.240089	0.2030852	178.8892	
15:13:37	47.45984	-122.2884	277.134	276.2738	-62.24786	33.91	31.45757	100	0	100	44.67735	0.256974	-157.2034	
15:13:39	47.45935	-122.2888	278.872	277.7551	53.04437	33.77	33.05184	100	0	98	38.6286	0.1960316	-125.3812	
15:13:40	47.45912	-122.2894	281.874	281.2217	143.4938	33.36	34.08974	100	0	98	4.908814	0.1582556	-108.2837	
15:13:42	47.4589	-122.2901	286.567	285.6696	171.6005	33.16	34.02737	100	0	98	-14.18492	-0.07777785	-109.2131	
15:13:44	47.45866	-122.2908	291.532	290.6237	229.3005	33.11	32.55231	100	0	98	-18.53017	0.4444202	-117.0518	
15:13:45	47.45841	-122.2914	295.71	295.0894	223.594	33.07	31.7832	100	0	98	-14.58023	0.4547809	-125.051	
15:13:47	47.4581	-122.292	299.619	299.4273	205.9848	33.03	31.09091	100	0	98	-8.961181	0.2056392	-130.6522	
15:13:49	47.45771	-122.2926	303.893	303.1922	130.6568	32.97	30.90978	100	0	98	41.38428	-0.8544189	-127.2608	
15:13:50	47.45749	-122.2933	309.773	306.8734	218.0209	32.61	31.48995	100	0	98	44.75599	0.9776375	-94.25425	
15:13:52	47.45753	-122.2939	312.342	313.8808	317.5267	32.06	32.11512	100	0	98	24.38138	0.9773375	-70.06867	
15:13:54	47.45771	-122.2946	309.077	312.0013	-16.04776	31.98	32.6284	100	0	100	-2.526137	-0.2435701	-62.63466	
15:13:55	47.4579	-122.2952	306.292	306.7502	-203.8277	32.29	32.58357	100	0	73	-13.47684	0.1053342	-65.7496	
15:13:57	47.45809	-122.296	302.944	302.6653	-275.4528	30.54	30.55694	100	0	73	-13.38573	-0.7356745	-72.10056	
15:13:59	47.45819	-122.2966	300.167	299.444	-251.8161	29.73	29.12581	100	0	73	-9.673597	-0.640257	-78.17658	
15:14:01	47.45827	-122.2973	299.879	297.8371	-166.2516	29.15	28.15408	100	0	73	-5.526227	-0.4707516	-82.11211	
15:14:02	47.45831	-122.2978	300.77	299.3988	-22.71106	28.81	27.75892	100	0	73	-2.740385	-0.2514493	-84.03649	
15:14:04	47.45836	-122.2986	302.259	301.384	48.30916	28.48	27.48686	100	0	73	-1.490345	-0.02320925	-84.58498	
15:14:06	47.4584	-122.2992	303.475	303.1718	70.53611	28.31	27.32455	100	0	73	-0.8351361	0.09371367	-84.34617	
15:14:07	47.45845	-122.2998	304.827	304.6893	68.0406	28.2	27.24667	100	0	73	-1.193883	0.1835026	-83.95596	
15:14:09	47.4585	-122.3005	306.335	306.0289	65.68899	28.18	27.2314	100	0	73	-1.325304	0.1882222	-83.62428	
15:14:11	47.45855	-122.301	307.655	307.5685	70.58758	28.22	27.28984	100	0	73	-1.594043	0.1501748	-83.3903	
15:14:12	47.4586	-122.3017	309.127	308.9933	73.00098	28.23	27.29724	100	0	73	-1.536532	0.2109562	-83.08987	
15:14:14	47.45866	-122.3023	310.602	310.1736	-10.07077	28.12	27.24388	100	0	73	44.03129	-1.030028	-69.78404	
15:14:16	47.45889	-122.3029	311.445	311.3184	78.02802	27.13	26.49913	100	0	73	46.02113	0.6363255	-32.60567	
15:14:18	47.45929	-122.3031	312.566	312.6627	84.72659	26.52	26.93493	100	0	73	45.4104	0.9778993	3.776086	
15:14:19	47.45966	-122.3028	313.044	313.3495	38.77518	26.7	27.81747	100	0	73	45.47013	0.6175693	38.43329	
15:14:21	47.45987	-122.3024	312.562	312.943	-17.85459	27.61	28.58431	100	0	73	45.15399	0.2984075	72.5931	
15:14:23	47.45986	-122.3017	311.443	311.8274	-15.70521	28.94	29.50034	100	0	74	34.763	0.7219459	103.7617	
15:14:24	47.45964	-122.3011	311.425	311.2888	-42.20437	29.49	30.05628	100	0	73	9.05601	0.08116841	117.6925	
15:14:26	47.4594	-122.3006	311.073	310.8044	-55.72576	29.53	29.58748	100	0	73	-9.325092	-0.4290248	118.1323	
15:14:28	47.45915	-122.3	310.354	310.292	-40.64611	29.22	29.21137	100	0	73	-24.89647	-0.3966989	108.0218	
15:14:29	47.45901	-122.2994	310.314	310.2602	19.92968	28.69	28.66518	100	0	73	-23.26572	0.2433422	93.48096	
15:14:31	47.45898	-122.2987	311.105	310.9223	45.72726	28.07	28.77317	100	0	73	-15.45055	0.2050392	83.08639	
15:14:33	47.459	-122.2982	311.949	311.9222	58.46623	27.75	28.8546	100	0	73	-8.29078	0.05355068	77.33738	
15:14:35	47.45908	-122.2976	313.262	313.4246	82.59034	27.51	28.51104	100	0	74	-3.94181	0.108542	75.12808	
15:14:36	47.45917	-122.2969	315.552	315.1637	99.52467	27.4	28.1744	100	0	73	-1.500295	0.1304788	74.86837	
15:14:38	47.45925	-122.2963	320.205	318.5631	176.7468	27.32	27.93986	100	0	74	-0.672217	0.1523264	75.68261	
15:14:40	47.45933	-122.2957	326.042	324.6839	304.4348	27.35	27.85244	100	0	74	-0.7140265	0.2541189	76.56929	
15:14:41	47.45941	-122.2951	332.161	331.2367	356.4076	27.36	27.81487	100	0	73	-1.519523	0.08698563	77.22738	
15:14:43	47.45948	-122.2946	337.448	337.5202	360.4101	27.33	27.77371	100	0	73	27.42276	-0.2368913	79.10698	
15:14:45	47.45946	-122.2939	341.087	342.2155	331.7699	28.5	27.96525	100	0	73	38.40568	0.2177686	106.823	
15:14:46	47.45925	-122.2933	343.586	344.8442	264.5714	29.11	28.38445	100	0	74	15.9381	0.8440412	127.7465	
15:14:48	47.45894	-122.2929	346.343	346.6108	140.7482	29.22	28.59953	100	0	73	-4.18507	0.04692264	131.8361	
15:14:50	47.45865	-122.2924	346.159	347.7245	88.29396	29.09	28.25414	100	0	73	-9.868941	0.127879	128.5424	
15:14:52	47.45835	-122.2919	343.248	344.9824	-61.47215	28.87	27.99698	100	0	74	-8.8788	0.4158662	123.8791	
15:14:53	47.45809	-122.2913	340.717	341.2691	-179.1759	28.77	27.88457	100	0	73	-6.159464	0.1834757	120.4742	
15:14:55	47.45787	-122.2908	338.403	338.201	-197.6882	28.64	27.75252	100	0	73	-3.823227	0.1901916	118.7652	
15:14:57	47.45766	-122.2903	336.316	335.6664	-181.6712	28.58	27.68159	100	0	73	-2.041263	0.2309279	118.1	
15:14:58	47.45744	-122.2897	334.694	334.0655	-141.0618	28.56	27.6622	100	0	73	-1.457994	0.2895622	118.0436	
15:15:00	47.45722	-122.2892	332.968	332.6726	-120.9966	28.57	27.66166	100	0	73	-1.04691	0.1544699	118.197	
15:15:02	47.45698	-122.2886	331.179	331.083	-117.5475	28.59	27.67166	100	0	73	-1.320736	0.0852323	118.4456	
15:15:03	47.45678	-122.2881	329.636	329.4016	-118.0038	28.6	27.67125	100	0	73	-1.545633	0.07365993	118.5206	
15:15:05	47.45654	-122.2875	327.762	327.651	-113.9342	28.62	27.68122	100	0	73	-1.698777	0.1932476	118.4504	
15:15:07	47.45631	-122.2869	325.867	325.8367	-112.7185	28.62	27.68695	100	0	73	-1.3915	0.2460371	118.3801	
15:15:08	47.45607	-122.2864	324.225	324.0904	-115.6092	28.61	27.68368	100	0	73	-1.668993	0.1248542	118.3631	
15:15:10	47.45586	-122.2859	322.787	322.6501	-106.6512	28.62	27.67898	100	0	73	-1.657073	0.08291797	118.1337	
15:15:12	47.4556	-122.2852	321.24	321.151	-94.35472	28.63	27.70381	100	0	73	-1.334885	0.1863353	118.0526	
15:15:14	47.45539	-122.2847	321.211	320.5723	-58.14547	28.72	27.76348	100	0	73	-1.604191	0.1645615	118.01	
15:15:15	47.4552	-122.2842	321.101	320.7776	-18.48704	28.69	27.7436	100	0	73	-1.248839	0.1551802	117.9995	
15:15:17	47.45496	-122.2836	320.938	320.9262	-0.5875507	28.69	27.73279	100	0	73	-1.5323	0.190811	117.9222	
15:15:19	47.45473	-122.2831	321.164	321.0083	3.41408	28.67	27.71926	100	0	73	-1.632138	0.1263983	117.8073	
15:15:20	47.4545	-122.2825	322.029	321.5561	21.77575	28.68	27.72681	100	0	73	-1.389275	0.1621914	117.741	
15:15:22	47.45425	-122.2819	324.26	323.4101	80.45942	28.72	27.76259	100	0	73	-1.536804	0.1769122	117.6983	
15:15:24	47.45406	-122.2814	325.914	325.7611	111.4143	28.71	27.75069	100	0	73	-1.560697	-0.09373632	117.6517	
15:15:25	47.45381	-122.2808	327.862	327.8549	131.093	28.74	27.78201	100	0	73	-1.68119	0.1082021	117.5768	
15:15:27	47.45359	-122.2803	329.642	329.7596	125.3015	28.75	27.78414	100	0	73	-1.554074	0.1166715	117.5231	
15:15:29	47.45338	-122.2798	332.629	332.1336	66.64509	28.66	27.7919	100	0	73	-42.10545	-0.8165674	109.998	
15:15:31	47.45327	-122.2792	334.101	334.3329	171.6021	27.93	27.6119	100	0	73	-47.37288	0.6545001	75.23833	
15:15:32	47.45344	-122.2786	336.956	337.1314	186.0546	26.73	27.72746	100	0	73	-45.50023	0.7587979	42.79715	
15:15:34	47.45379	-122.2782	339.205	339.4979	157.9989	26.19	28.09452	100	0	73	-45.25063	0.7905048	10.88381	
15:15:36	47.45417	-122.2783	339.941	340.7745	123.6654	26.39	28.10089	100	0	73	-35.2387	0.9108315	-18.87341	
15:15:37	47.45451	-122.2785	339.813	340.814	56.42363	26.76	28.62209	100	0	74	-10.05401	0.2741781	-33.6827	
15:15:39	47.45486	-122.2789	338.854	339.5213	-38.65909	27.04	28.63389	100	0	73	-1.418258	0.03590608	-35.90706	
15:15:41	47.45514	-122.2792	337.666	337.7415	-89.48717	27.1	28.14745	100	0	73	-0.5039586	0.04774522	-35.75144	
15:15:42	47.45547	-122.2796	336.432	336.1352	-98.77245	27.19	27.95699	100	0	73	-0.9610037	0.156118	-35.47264	
15:15:44	47.4558	-122.28	335.768	335.352	-73.85733	27.24	27.87629	100	0	73	-1.184172	0.1689748	-35.2274	
15:15:46	47.45615	-122.2804	337.845	336.1226	-2.017591	27.28	27.83329	100	0	73	-1.377117	-0.09768584	-35.07888	
15:15:48	47.45646	-122.2808	340.392	339.4618	129.291	27.3	27.84872	100	0	73	-1.49499	0.132219	-35.05494	
15:15:49	47.45677	-122.2811	343.009	342.8568	174.5446	27.3	27.82949	100	0	73	-1.69054	0.08281329	-35.01257	
15:15:51	47.45714	-122.2816	346.009	345.794	187.1549	27.34	27.82706	100	0	74	-1.900502	0.2036924	-35.07908	
15:15:53	47.45745	-122.2819	348.346	348.7027	179.0266	27.32	27.81955	100	0	73	-1.603083	0.1059413	-35.11951	
15:15:54	47.45779	-122.2823	350.042	350.4928	139.9666	27.31	27.79561	100	0	73	-8.419445	0.1676766	-34.93864	
15:15:56	47.45807	-122.2827	351.229	351.635	121.4342	27.62	27.8873	100	0	73	-20.86746	0.5922753	-46.6658	
15:15:58	47.45832	-122.2831	353.422	353.4722	116.8017	27.74	27.63948	100	0	73	-7.455702	0.2237896	-54.15021	
15:15:59	47.45856	-122.2837	357.153	356.6272	161.6396	27.73	27.58969	100	0	73	-3.481551	0.1936594	-56.06527	
15:16:01	47.45877	-122.2842	360.629	360.3447	200.3615	27.74	27.58787	100	0	73	-2.856305	0.261454	-56.65751	
15:16:03	47.45901	-122.2848	364.202	364.1047	208.32	27.82	27.64821	100	0	73	-2.695152	0.09534328	-57.00566	
15:16:04	47.45924	-122.2854	367.668	367.4309	207.688	27.89	27.68585	100	0	73	-3.280934	0.1866664	-57.59653	
15:16:06	47.45943	-122.2859	370.478	370.677	200.0961	27.94	27.73086	100	0	73	-2.502614	0.1192326	-58.04867	
15:16:08	47.45965	-122.2864	373.67	373.6949	188.9786	28.01	27.78787	100	0	73	-2.062313	0.08302145	-58.17164	
15:16:10	47.45986	-122.287	376.671	376.4797	174.8221	28.05	27.81687	100	0	73	-1.987692	0.05039213	-58.17917	
15:16:11	47.46007	-122.2876	379.713	379.4766	176.9916	28.09	27.83939	100	0	73	-1.937653	0.08005889	-58.12175	
15:16:13	47.46026	-122.288	382.422	382.3881	180.6327	28.14	27.8815	100	0	73	-1.9353	0.1398254	-58.10841	
15:16:15	47.46046	-122.2886	385.317	385.4715	189.3741	28.17	27.90797	100	0	73	-1.883188	0.1592924	-58.09109	
15:16:16	47.46069	-122.2892	389.331	388.7525	187.6078	28.16	27.8906	100	0	73	-2.01056	0.04311674	-58.10209	
15:16:18	47.46089	-122.2898	391.448	392.5515	205.5051	28.17	27.88531	100	0	73	-1.852381	0.08393456	-58.19561	
15:16:20	47.46109	-122.2903	390.343	392.0617	47.48425	28.16	27.86977	100	0	73	-2.043487	0.07782826	-58.35747	
15:16:22	47.46129	-122.2909	389.12	389.7686	-73.63248	28.18	27.87458	100	0	73	-1.973087	0.1434593	-58.47575	
15:16:23	47.46149	-122.2915	387.814	387.7683	-109.541	28.2	27.88943	100	0	73	-2.056699	0.123151	-58.69326	
15:16:25	47.46168	-122.292	386.614	386.3017	-104.6138	28.22	27.89647	100	0	73	-2.262913	0.1359067	-58.98312	
15:16:27	47.46188	-122.2926	385.358	385.1066	-94.43248	28.23	27.89	100	0	73	-2.235996	0.09171815	-59.37579	
15:16:28	47.46207	-122.2931	384.141	384.0063	-85.07349	28.29	27.91333	100	0	73	-5.107811	0.233982	-60.1284	
15:16:30	47.46226	-122.2937	382.832	382.5433	-100.6202	28.43	27.95189	100	0	73	-10.51276	0.1607494	-63.83817	
15:16:32	47.46241	-122.2944	381.511	381.8374	-84.16024	28.58	27.93313	100	0	73	-10.68133	0.06729008	-69.09756	
15:16:33	47.46251	-122.2949	380.567	379.9879	-85.04639	28.71	27.92566	100	0	73	-6.568064	0.254698	-73.54349	
15:16:35	47.46261	-122.2956	379.505	379.1718	-70.1742	28.75	27.89838	100	0	73	-3.736187	0.1215241	-75.67307	
15:16:37	47.46269	-122.2962	374.046	378.2483	-72.54565	28.71	27.82408	100	0	73	-2.055646	0.08803383	-76.55264	
15:16:38	47.46276	-122.2969	376.425	376.5819	-68.15045	28.72	27.80579	100	0	73	-1.471049	0.1381105	-76.5677	
15:16:40	47.46283	-122.2975	375.854	375.3657	-68.61514	28.71	27.81752	100	0	73	-1.400552	0.2238898	-76.33219	
15:16:42	47.46292	-122.2981	376.294	375.6753	-18.77248	28.72	27.81959	100	0	74	-1.523076	0.05722298	-76.15181	
15:16:44	47.463	-122.2988	376.65	376.4452	21.94905	28.84	27.94275	100	0	74	-1.652995	0.1170982	-76.10204	
15:16:45	47.46308	-122.2995	376.96	377.0198	31.10476	28.84	27.94855	100	0	73	-1.585647	0.1204373	-76.03497	
15:16:47	47.46315	-122.3	377.324	377.4396	21.69537	28.79	27.89471	100	0	73	22.70968	-0.3389799	-74.55937	
15:16:49	47.4633	-122.3006	377.162	377.0948	2.623118	28.27	27.99624	100	0	73	46.11209	-0.2138567	-44.25191	
15:16:50	47.4636	-122.301	377.612	377.7291	53.95299	27.44	28.67937	100	0	73	45.38737	0.4340563	-8.467642	
15:16:52	47.46404	-122.301	378.54	378.5839	53.67693	27.11	29.35402	100	0	73	45.53728	0.0903042	25.72024	
15:16:54	47.4644	-122.3005	379.085	379.2827	47.39456	27.71	29.57459	100	0	73	45.22855	0.09252404	59.58922	
15:16:55	47.46449	-122.3	379.276	379.6477	68.78988	28.46	29.86353	100	0	73	29.24157	0.7964115	88.72704	
15:16:57	47.46442	-122.2993	379.485	379.73	-2.559426	28.77	29.94072	100	0	74	6.324655	-0.1707843	99.64783	
15:16:59	47.4643	-122.2987	378.771	379.1571	-30.80931	28.96	30.05713	100	0	74	-8.572762	-0.2711715	100.9367	
15:17:01	47.46421	-122.298	377.035	377.6054	-74.43644	28.72	29.44206	100	0	73	-25.0842	-0.07294708	90.77028	
15:17:02	47.46421	-122.2974	375.162	375.0418	-104.6003	28.12	28.8994	100	0	73	-23.5409	0.1696394	76.26979	
15:17:04	47.46432	-122.2968	378.052	375.8887	17.04982	27.57	28.92766	100	0	73	-16.39194	0.2080637	65.04544	
15:17:06	47.46449	-122.2962	375.632	379.1613	122.5648	27.25	28.83129	100	0	73	-8.617622	-0.001552157	58.82783	
15:17:07	47.46467	-122.2958	381.732	381.2768	155.7064	27.1	28.70129	100	0	73	-4.067555	0.1190376	56.08588	
15:17:09	47.46489	-122.2952	383.866	384.199	168.9501	27	28.2773	100	0	73	-1.288985	0.09789142	55.67542	
15:17:11	47.4651	-122.2947	385.799	385.9631	94.18893	27.25	28.0805	100	0	74	33.57231	-0.5202172	66.83654	
15:17:12	47.46517	-122.2941	387.42	387.7012	149.583	28.09	28.20156	100	0	73	24.54723	0.6831814	88.76025	
15:17:14	47.46512	-122.2934	389.662	389.7994	126.5862	28.43	28.27887	100	0	73	3.222737	0.2166488	98.65259	
15:17:16	47.46502	-122.2928	391.582	391.675	108.1591	28.45	28.53104	100	0	73	-6.165452	-0.1032558	98.42863	
15:17:18	47.46492	-122.2922	393.448	393.5077	114.6988	28.34	28.33734	100	0	73	-7.934852	-0.06245644	95.01762	
15:17:19	47.46487	-122.2917	395.069	394.9721	94.06061	28.22	28.26217	100	0	74	-6.703916	-0.219053	91.59541	
15:17:21	47.46482	-122.2909	398.41	397.5664	193.9237	27.99	28.0799	100	0	74	-2.517047	0.800629	90.29998	
15:17:23	47.46479	-122.2903	401.656	401.3868	190.3947	27.74	27.67095	100	0	73	-2.2574	0.3321753	91.42202	
15:17:24	47.46475	-122.2896	404.939	404.737	185.2001	27.58	27.48988	100	0	73	-3.515193	0.2102733	91.5353	
15:17:26	47.46471	-122.289	407.683	407.6606	175.6225	27.55	27.4748	100	0	73	-3.43669	0.2169797	91.00261	
15:17:28	47.46469	-122.2885	409.937	410.0059	103.1783	27.61	27.49588	100	0	73	36.88686	-0.9402982	95.05437	
15:17:29	47.46454	-122.2878	410.945	411.2805	139.4156	29.13	28.04201	100	0	73	46.46295	0.02916312	131.0996	
15:17:31	47.46415	-122.2875	412.314	412.8678	129.5319	30.17	28.81047	100	0	73	45.45868	0.07407159	167.5224	
15:17:33	47.46369	-122.2875	412.874	413.635	86.32707	30.64	29.4614	100	0	74	45.50484	-0.4065781	-157.059	
15:17:34	47.46334	-122.2878	411.267	412.0487	-32.44641	30.55	29.95638	100	0	73	46.20225	-0.5389521	-121.8031	
15:17:36	47.46316	-122.2884	411.212	411.1411	-13.25172	29.8	29.71303	100	0	74	36.66218	0.5288447	-88.84166	
15:17:38	47.46319	-122.2892	410.061	410.1958	-57.59899	28.81	29.3738	100	0	73	8.192696	0.3304709	-73.06242	
15:17:40	47.46328	-122.2897	408.909	408.6978	-110.3176	28.69	29.27229	100	0	74	-1.419075	-0.1852033	-71.12902	
15:17:41	47.46338	-122.2903	407.996	405.8504	-127.0113	28.82	29.39892	100	0	74	-14.0125	-0.05665274	-73.16566	
15:17:43	47.46346	-122.291	405.271	405.4201	-85.95121	29.28	28.77657	100	0	74	-27.61542	0.08663426	-85.68445	
15:17:45	47.46342	-122.2917	404.772	403.6985	-88.8805	29.69	28.74573	100	0	73	-24.63903	0.3697309	-101.8111	
15:17:46	47.46326	-122.2923	403.43	403.5049	-44.53294	29.98	28.80615	100	0	73	-16.2663	0.09643031	-114.661	
15:17:48	47.46306	-122.2929	402.377	402.4961	-57.54787	30.1	28.77563	100	0	73	-7.42758	-0.05908163	-121.4704	
15:17:50	47.46279	-122.2934	401.236	401.2317	-70.92427	30.19	28.83755	100	0	74	-1.344165	-0.111094	-123.644	
15:17:51	47.46265	-122.2938	400.644	400.3267	-49.74843	30.22	28.52042	100	0	74	1.014606	0.3655831	-123.6175	
15:17:53	47.46265	-122.2938	400.644	400.4162	-5.630234	30.22	28.26223	100	0	73	2.20062	0.8147733	-124.0637	
15:17:55	47.46265	-122.2938	400.644	400.6898	16.3671	30.22	28.14032	100	0	74	2.943343	1.141022	-124.8503	
15:17:57	47.46265	-122.2938	400.644	400.8036	18.03742	30.22	28.06281	100	0	73	3.354925	1.370488	-125.738	
15:17:58	47.46265	-122.2938	400.644	400.7968	13.27587	30.22	28.02916	100	0	73	3.63678	1.527698	-126.5378	
15:18:00	47.46265	-122.2938	400.644	400.757	9.133254	30.22	28.02916	100	0	73	3.684895	1.608891	-127.3125	
15:18:02	47.46265	-122.2938	400.644	400.7293	7.552923	30.22	28.00359	100	0	73	3.532365	1.617263	-127.9348	
15:18:03	47.46265	-122.2938	400.644	400.7196	7.279042	30.22	27.98809	100	0	73	3.433491	1.609618	-128.3087	
15:18:05	47.46265	-122.2938	400.644	400.7165	7.099809	30.22	27.98388	100	0	74	3.265278	1.572817	-128.5546	
15:18:07	47.46265	-122.2938	400.644	400.716	7.297674	30.22	27.98161	100	0	73	2.882294	1.474698	-128.6481	
15:18:08	47.46265	-122.2938	400.644	400.7184	7.548628	30.22	27.98157	100	0	73	2.619176	1.399122	-128.565	
15:18:10	47.46265	-122.2938	400.644	400.7193	7.512079	30.22	27.98157	100	0	74	2.381482	1.329286	-128.3643	
