Date	Latitude(deg) 	Longitude(deg)	hamsl(m)	hafl(m)	climbrate(cm/s)	GroundSpeed(m/s)	Airspeed(m/s)	Mav_Link(%)	Rssi_Link(%)	Throttle	Roll(deg)	Pitch(deg)	Yaw(deg)
13:42:46	0	0	0	0.1917655	-37.21912	0	3	46	0	5	-1.489831	0.8558254	-150.2994	
13:42:48	0	0	0	1.162131	14.23557	0	3	56	0	5	-1.515165	0.816796	-150.3075	
13:42:50	0	0	0	1.249778	3.902688	0	3	63	0	5	-1.529842	0.7771035	-150.285	
13:42:51	0	0	0	1.31141	0.8828514	0	3	68	0	5	-1.484941	0.8379633	-150.2771	
13:42:53	0	0	0	1.301104	-3.819144	0	3	73	0	5	-1.506822	0.7871179	-150.3404	
13:42:55	0	0	0	1.163178	-9.939107	0	3	76	0	5	-1.476074	0.7848302	-150.3468	
13:42:56	0	0	0	0.82588	-18.64935	0	3	79	0	5	-1.46649	0.7408013	-150.364	
13:42:58	0	0	0	0.9406757	-4.513062	0	3	82	0	5	-1.438834	0.8355799	-150.3474	
13:43:00	0	0	0	1.247529	8.077912	0	3	84	0	5	-1.490744	0.8195715	-150.3043	
13:43:02	0	0	0	1.154736	-2.356171	0	3	85	0	5	-1.482638	0.8191235	-150.3106	
13:43:03	0	0	0	1.057287	-4.612784	0	3	87	0	5	-1.458084	0.7685894	-150.3383	
13:43:05	0	0	0	1.110975	0.7421062	0	3	88	0	5	-1.509658	0.7689374	-150.3505	
13:43:07	0	0	0	0.965993	-5.375633	0	3	89	0	5	-1.505329	0.7296593	-150.3682	
13:43:08	0	0	0	0.6678501	-15.04016	0	3	90	0	5	-1.500438	0.7443036	-150.3163	
13:43:10	0	0	0	0.4789135	-11.3274	0	3	91	0	7	-1.509622	0.7734714	-150.3336	
13:43:12	0	0	0	0.7043133	2.207553	0	3	92	0	5	-1.53353	0.7596596	-150.4082	
13:43:14	0	0	0	1.210983	19.55018	0	3	93	0	5	-1.520534	0.6818025	-150.4516	
13:43:15	0	0	0	1.168944	5.707135	0	3	93	0	5	-1.506242	0.6796061	-150.4301	
13:43:17	0	0	0	0.9487935	-6.358887	0	3	94	0	5	-1.48331	0.7055187	-150.3598	
13:43:19	0	0	0	1.136921	1.611421	0	3	94	0	5	-1.498525	0.7527336	-150.3658	
13:43:21	0	0	0	1.232426	6.340268	0	3	95	0	5	-1.497304	0.7701167	-150.3966	
13:43:22	0	0	0	1.314913	4.204117	0	3	95	0	5	-1.475187	0.8749126	-150.3939	
13:43:24	0	0	0	0.9967483	-10.44275	0	3	96	0	5	-1.472705	0.8833578	-150.3851	
13:43:26	0	0	0	1.033487	-1.671031	0	3	96	0	5	-1.485851	0.8351285	-150.3893	
13:43:27	0	0	0	1.267902	7.040268	0	3	96	0	5	-1.492718	0.7955536	-150.3782	
13:43:29	0	0	0	1.290182	4.986142	0	3	96	0	6	-1.4614	0.767429	-150.3589	
13:43:31	0	0	0	1.154797	-3.508935	0	3	97	0	5	-1.468107	0.8052488	-150.3138	
13:43:33	0	0	0	1.009746	-7.212613	0	3	97	0	5	-1.475862	0.8034104	-150.3935	
13:43:34	0	0	0	0.9192559	-6.832571	0	3	97	0	5	-1.521571	0.7716522	-150.4374	
13:43:36	0	0	0	0.7636933	-6.375615	0	3	97	0	5	-1.507259	0.7098227	-150.4295	
13:43:38	0	0	0	1.005891	5.633454	0	3	97	0	5	-1.489551	0.6607846	-150.3763	
13:43:39	0	0	0	1.392388	18.30301	0	3	98	0	5	-1.505109	0.7171378	-150.3114	
13:43:41	0	0	0	1.720912	15.40391	0	3	98	0	5	-1.526276	0.7266661	-150.2581	
13:43:43	0	0	0	1.335863	-7.905869	0	3	98	0	5	-1.490946	0.7657893	-150.2272	
13:43:45	0	0	0	1.076891	-11.91229	0	3	98	0	5	-1.501412	0.7477552	-150.2059	
13:43:46	0	0	0	1.004894	-11.14791	0	3	98	0	5	-1.523193	0.7018542	-150.1303	
13:43:48	0	0	0	0.9522087	-5.409722	0	3	98	0	6	-1.511707	0.6835549	-150.1316	
13:43:50	0	0	0	0.875074	-5.701337	0	3	98	0	5	-1.498477	0.6786289	-150.1117	
13:43:52	0	0	0	0.8303784	-4.670178	0	3	98	0	5	-1.505195	0.651826	-150.0998	
13:43:54	0	0	0	0.7827591	-2.167649	0	3	99	0	5	-1.509515	0.6557426	-150.0836	
13:43:55	0	0	0	1.120564	30.72487	0	3	99	0	5	5.612215	-10.95879	-145.2239	
13:43:57	0	0	0	1.627032	-8.364924	0	3	99	0	5	-5.826449	9.709367	-149.262	
13:43:59	0	0	0	1.640616	-2.088568	0	3	99	0	4	-4.224919	-2.771652	-155.2471	
13:44:01	0	0	0	2.210547	24.42076	0	3	99	0	5	-8.800383	-1.349349	-167.8406	
13:44:03	0	0	0	2.154903	5.459785	0	3	99	0	5	-4.707922	3.243827	-167.7684	
13:44:04	0	0	0	1.703643	-22.60127	0	3	99	0	28	-4.082644	-0.5232449	-166.0263	
13:44:06	0	0	0	1.82056	-14.43236	0	3	99	0	54	-2.84468	-2.045795	-167.6636	
13:44:08	0	0	0	1.826494	-45.24166	0	3	99	0	48	0.6336728	-13.10815	-168.267	
13:44:10	0	0	0	1.768579	-31.18398	0	3	99	0	52	-4.483593	-5.928964	-154.7869	
13:44:12	0	0	0	2.03815	18.00053	0	3	99	0	5	-1.961074	-1.869981	-158.3848	
13:44:13	0	0	0	1.666879	-10.62897	0	3	99	0	5	-15.67288	-4.264765	-163.7742	
13:44:15	0	0	0	1.076105	-15.09718	0	3	99	0	5	-1.711569	-0.886068	-167.8948	
13:44:17	0	0	0	0.993781	-2.047922	0	3	99	0	5	-1.602858	-0.3036274	-166.5201	
13:44:19	0	0	0	0.9163187	3.53834	0	3	99	0	5	-1.470092	0.1085987	-165.5783	
13:44:20	0	0	0	0.9732452	6.690016	0	3	99	0	4	-1.41986	0.3862823	-164.991	
13:44:22	0	0	0	1.12361	12.84951	0	3	99	0	5	-1.350965	0.6453738	-164.5142	
13:44:24	0	0	0	1.37798	16.67521	0	3	99	0	5	-1.358806	0.757685	-164.1035	
13:44:26	0	0	0	1.158844	3.030024	0	3	99	0	5	-1.341599	0.8486208	-163.805	
13:44:28	0	0	0	0.7964602	-8.310095	0	3	99	0	5	-1.289183	0.9250643	-163.5466	
13:44:29	0	0	0	0.632423	-8.723742	0	3	99	0	5	-1.327756	0.9549626	-163.3707	
13:44:31	0	0	0	0.8775589	12.0603	0	3	99	0	5	-1.363798	0.9613374	-163.2808	
13:44:33	0	0	0	0.8009522	3.082995	0	3	99	0	5	-1.377316	0.9299436	-163.285	
13:44:35	0	0	0	0.8637961	5.611017	0	3	99	0	5	-1.37147	0.965557	-163.2547	
13:44:37	0	0	0	0.6558648	-4.196105	0	3	99	0	5	-1.401489	0.9470876	-163.2871	
13:44:38	0	0	0	0.894398	6.622753	0	3	99	0	5	-1.424226	0.8332924	-163.3043	
13:44:40	0	0	0	1.011035	6.707249	0	3	99	0	5	-1.413525	0.7652087	-163.3117	
13:44:42	0	0	0	0.8958482	-2.334134	0	3	99	0	4	-1.433795	0.8196019	-163.3523	
13:44:44	0	0	0	0.9556092	1.786756	0	3	99	0	5	-1.453751	0.7608307	-163.3766	
13:44:46	0	0	0	0.9129149	0.1896035	0	3	99	0	6	-1.426647	0.7036038	-163.4052	
13:44:47	0	0	0	0.8586686	-2.552767	0	3	99	0	5	-1.400378	0.7386629	-163.3368	
13:44:49	0	0	0	1.231347	11.28227	0	3	99	0	5	-1.410132	0.7470903	-163.3617	
13:44:51	0	0	0	1.026977	-1.513007	0	3	99	0	5	-1.411237	0.7589243	-163.4053	
13:44:53	0	0	0	0.7958374	-10.49485	0	3	99	0	5	-1.387894	0.7877327	-163.3572	
13:44:54	0	0	0	0.8409135	-2.54538	0	3	99	0	5	-1.396684	0.7703228	-163.3997	
13:44:56	0	0	0	0.8771058	3.797604	0	3	99	0	5	-1.419856	0.7621252	-163.5017	
13:44:58	0	0	0	0.7700219	-3.144873	0	3	99	0	5	-1.430449	0.6769157	-163.4746	
13:45:00	0	0	0	0.5108357	-9.861544	0	3	99	0	5	-1.438131	0.6246908	-163.4872	
13:45:02	0	0	0	0.7062751	5.445163	0	3	99	0	5	-1.463255	0.5656994	-163.5653	
13:45:03	0	0	0	1.04636	16.46126	0	3	99	0	5	-1.487692	0.5295636	-163.5154	
13:45:05	0	0	0	1.19549	11.7279	0	3	99	0	5	-1.524499	0.4950422	-163.5501	
13:45:07	0	0	0	0.7158657	-11.89527	0	3	99	0	5	-1.536427	0.4000072	-163.6196	
13:45:09	0	0	0	0.5815099	-10.82221	0	3	99	0	5	-1.540444	0.4554529	-163.7119	
13:45:11	0	0	0	0.6001199	-3.952411	0	3	53	0	5	-1.51828	0.4871502	-163.7242	
13:45:12	0	0	0	0.6768168	1.553435	0	3	55	0	5	-1.54062	0.4735332	-163.776	
13:45:14	0	0	0	1.174407	20.09668	0	3	57	0	5	-1.53622	0.4395311	-163.7767	
13:45:16	0	0	0	1.309936	13.22636	0	3	59	0	5	-1.509554	0.4958268	-163.7971	
13:45:18	0	0	0	1.060765	37.1151	0	3	61	0	5	-0.08019333	-21.36834	-167.4803	
13:45:20	0	0	0	1.600028	0.08109491	0	3	63	0	5	-4.437349	-0.9704913	-177.6985	
13:45:21	0	0	0	1.833508	3.37619	0	3	65	0	5	-1.230596	0.8635279	-171.4885	
13:45:23	0	0	0	1.827045	16.94424	0	3	66	0	25	-4.294049	-0.8981944	-165.686	
13:45:25	0	0	0	1.97039	6.952266	0	3	68	0	49	-4.519532	-3.451236	-168.9731	
13:45:27	0	0	0	1.841737	14.25818	0	3	70	0	49	-5.807442	-5.077088	-164.8631	
13:45:28	0	0	0	1.819367	1.917893	0	3	71	0	50	0.3876204	-5.213962	-163.6861	
13:45:30	0	0	0	2.25112	25.17616	0	3	73	0	49	1.917799	-7.42935	-171.4799	
13:45:32	0	0	0	1.918899	-21.85543	0	3	74	0	50	-1.198395	-2.872352	159.4534	
13:45:34	0	0	0	1.21375	-42.92087	0	3	76	0	51	4.928864	-3.064734	-169.0183	
13:45:36	0	0	0	1.713698	16.58539	0	3	77	0	50	1.401061	-7.486357	-149.2952	
13:45:37	0	0	0	1.508462	-24.96094	0	3	79	0	50	-5.871852	-3.449072	-140.7399	
13:45:39	0	0	0	1.870986	-15.03551	0	3	80	0	44	0.8593678	-9.208731	-164.0637	
13:45:41	0	0	0	1.8042	-25.18843	0	3	81	0	55	5.421212	-4.002971	-166.3287	
13:45:43	0	0	0	2.077262	11.16133	0	3	82	0	54	-1.618315	-2.771941	-161.4452	
13:45:45	0	0	0	2.2686	-1.049974	0	3	83	0	54	-0.8114528	-4.522367	-155.1366	
13:45:46	0	0	0	2.370018	-18.53132	0	3	85	0	55	0.624177	-6.242981	-163.2641	
13:45:48	0	0	0	2.029018	-22.38118	0	3	85	0	57	4.083288	-6.489122	-159.5357	
13:45:50	0	0	0	2.620635	18.17487	0	3	86	0	59	-0.3189993	-3.472383	-154.9565	
13:45:52	0	0	0	2.180899	-1.964474	0	3	87	0	59	-1.266146	-6.228207	-156.7511	
13:45:54	0	0	0	2.105748	-25.0554	0	3	88	0	43	0.7073102	-5.349734	-155.8645	
13:45:55	0	0	0	1.675925	20.57141	0	3	89	0	5	-10.76172	-8.107602	-162.047	
13:45:57	0	0	0	1.620889	40.25629	0	3	90	0	5	0.2185135	-1.590148	-168.8399	
13:45:59	0	0	0	1.307452	13.12544	0	3	90	0	8	-0.1697045	-0.8989789	-169.3473	
13:46:01	0	0	0	1.222559	7.385157	0	3	91	0	5	-0.4530526	-0.4529655	-170.1472	
13:46:02	0	0	0	0.9008411	-3.282659	0	3	92	0	5	-0.6690263	-0.07794271	-171.0115	
13:46:04	0	0	0	0.9574724	6.844123	0	3	92	0	5	-0.9254808	0.2209036	-172.0512	
13:46:06	0	0	0	1.066506	9.329965	0	3	93	0	5	-1.072347	0.3784515	-172.9695	
13:46:08	0	0	0	0.9932295	5.474643	0	3	93	0	5	-1.20922	0.4484562	-173.8739	
13:46:10	0	0	0	1.147749	8.744286	0	3	94	0	5	-1.303031	0.5589679	-174.7869	
13:46:11	0	0	0	1.162533	7.26367	0	3	94	0	5	-1.380033	0.6220276	-175.4714	
13:46:13	0	0	0	1.240887	8.143062	0	3	94	0	5	-1.439973	0.7208114	-176.1044	
13:46:15	0	0	0	1.404358	9.380762	0	3	95	0	5	-1.496008	0.7466749	-176.629	
13:46:17	0	0	0	1.631621	11.79562	0	3	95	0	5	-1.527397	0.7611617	-177.0593	
13:46:19	0	0	0	1.44805	2.879019	0	3	95	0	5	-1.564938	0.7868809	-177.4143	
13:46:20	0	0	0	0.9208946	-14.44677	0	3	96	0	5	-1.582186	0.788069	-177.731	
13:46:22	0	0	0	0.9756383	-4.597543	0	3	96	0	5	-1.588289	0.773262	-177.9269	
13:46:24	0	0	0	1.330003	13.26227	0	3	96	0	5	-1.644633	0.6855373	-178.0723	
13:46:26	0	0	0	1.629707	17.27743	0	3	97	0	5	-1.67034	0.7568268	-178.2765	
13:46:28	0	0	0	1.600819	4.697678	0	3	97	0	5	-1.657563	0.7065123	-178.3426	
13:46:29	0	0	0	1.475917	-2.799943	0	3	51	0	5	-1.657617	0.6416963	-178.3455	
13:46:31	0	0	0	1.398908	-3.999671	0	3	53	0	5	-1.670812	0.6392041	-178.3129	
13:46:33	0	0	0	1.483382	0.9335112	0	3	55	0	5	-1.649659	0.6451743	-178.2823	
13:46:35	0	0	0	1.315771	-6.32983	0	3	57	0	5	-1.663454	0.6358401	-178.3298	
13:46:36	0	0	0	2.125834	6.516145	0	3	59	0	5	-3.950037	-2.050982	-163.8552	
13:46:38	0	0	0	2.195785	-1.617445	0	3	60	0	5	-6.334841	2.55557	-167.5844	
13:46:40	0	0	0	2.315343	5.164559	0	3	62	0	5	-7.301312	-4.098294	-168.8438	
13:46:42	0	0	0	2.661579	19.4464	0	3	64	0	44	-5.165942	-1.521026	-176.2091	
13:46:44	0	0	0	2.648069	-10.32625	0	3	66	0	53	1.582468	-5.107228	153.7923	
13:46:45	0	0	0	2.404779	-40.95724	0	3	68	0	45	-0.5669793	-10.78395	-169.1502	
13:46:47	0	0	0	2.458948	32.34169	0	3	69	0	49	-5.198308	-4.460185	-161.3367	
13:46:49	0	0	0	2.458001	-11.57404	0	3	71	0	51	-1.195401	-3.624109	-177.3705	
13:46:51	0	0	0	2.484182	-7.861207	0	3	73	0	52	-0.02015223	-4.510594	-164.4854	
13:46:53	0	0	0	2.604435	3.889634	0	3	74	0	5	-6.43091	-1.755334	-164.2473	
13:46:54	0	0	0	2.00329	-94.36337	0	3	76	0	5	-15.03427	-8.460526	-162.0793	
13:46:56	0	0	0	1.560587	12.14782	0	3	77	0	7	-8.583625	2.281842	-175.4388	
13:46:58	0	0	0	1.390844	-3.821605	0	3	78	0	7	-1.857803	-1.06018	-172.8195	
13:47:00	0	0	0	1.495813	2.698636	0	3	80	0	7	-1.685189	-0.5174274	-170.9106	
13:47:02	0	0	0	1.498585	2.925438	0	3	81	0	7	-1.573149	-0.1635767	-169.6195	
13:47:03	0	0	0	1.359893	-1.869341	0	3	82	0	7	-1.456231	0.1753504	-168.5084	
13:47:05	0	0	0	0.9884269	-60.3819	0	3	83	0	7	-1.290401	0.4692541	164.4655	
13:47:07	0	0	0	1.174941	-9.032452	0	3	84	0	7	-1.397071	0.5886143	163.2603	
13:47:09	0	0	0	1.509545	13.7786	0	3	85	0	7	-1.482107	0.7337488	162.4942	
13:47:11	0	0	0	1.605993	13.81357	0	3	86	0	7	-1.558445	0.8081877	161.8349	
13:47:12	0	0	0	1.703251	16.07196	0	3	87	0	7	-1.620057	0.9153242	161.303	
13:47:14	0	0	0	1.450531	-1.085543	0	3	88	0	7	-1.630709	0.9848377	160.7968	
13:47:16	0	0	0	1.259081	-2.851564	0	3	89	0	7	-1.640631	0.9893621	160.341	
13:47:18	0	0	0	1.216649	-2.165372	0	3	89	0	7	-1.65464	0.9610702	160.108	
13:47:19	0	0	0	1.047268	-4.615947	0	3	90	0	7	-1.671316	0.9208269	159.8416	
13:47:21	0	0	0	0.8348849	-8.303696	0	3	91	0	7	-1.665643	0.9256961	159.6076	
13:47:23	0	0	0	1.249091	12.33821	0	3	91	0	7	-1.668863	0.864152	159.364	
13:47:25	0	0	0	1.299271	7.457877	0	3	92	0	7	-1.6218	0.826147	159.2036	
13:47:27	0	0	0	1.067307	-5.518474	0	3	93	0	7	-1.669115	0.8418058	159.0998	
13:47:28	0	0	0	1.477937	15.62508	0	3	93	0	7	-1.605925	0.7615628	158.9993	
13:47:30	0	0	0	1.61753	13.23002	0	3	94	0	7	-1.651112	0.8498674	159.0044	
13:47:32	0	0	0	1.916671	16.41777	0	3	94	0	7	-1.660308	0.7985076	159.0418	
13:47:34	0	0	0	1.610828	-1.751845	0	3	94	0	7	-1.679794	0.7676622	159.1292	
13:47:36	0	0	0	1.202282	-15.64836	0	3	95	0	5	-1.715476	0.7148072	159.137	
13:47:37	0	0	0	1.582348	5.907173	0	3	95	0	7	-1.685878	0.7452645	159.1443	
13:47:39	0	0	0	1.353008	-6.015402	0	3	95	0	7	-1.717266	0.7285846	159.1187	
13:47:41	0	0	0	1.231246	-6.139847	0	3	96	0	7	-1.718863	0.8148336	159.1086	
13:47:43	0	0	0	1.334989	1.688714	0	3	96	0	7	-1.73155	0.7488037	159.1481	
13:47:44	0	0	0	1.258197	-0.572514	0	3	96	0	10	-1.74808	0.6476964	159.0862	
13:47:46	0	0	0	1.554903	8.839464	0	3	96	0	7	-1.757899	0.6995532	159.0554	
13:47:48	0	0	0	1.54665	2.889738	0	3	97	0	7	-1.796558	0.6464049	159.0702	
13:47:50	0	0	0	1.751063	7.90787	0	3	97	0	7	-1.768842	0.6682905	158.9498	
13:47:52	0	0	0	1.487273	-6.709507	0	3	97	0	7	-1.72596	0.6748615	158.8298	
13:47:53	0	0	0	1.812106	9.779323	0	3	97	0	6	-1.829611	0.5244583	158.194	
13:47:55	0	0	0	1.547771	-8.291943	0	3	97	0	7	-1.760487	0.5303374	158.1545	
13:47:57	0	0	0	1.371011	-8.477383	0	3	98	0	7	-1.809762	0.5271025	158.3479	
13:47:59	0	0	0	1.737588	11.29021	0	3	98	0	7	-1.859628	0.5460861	158.4148	
13:48:01	0	0	0	1.982033	17.44806	0	3	98	0	7	-1.847214	0.5563644	158.4325	
13:48:02	0	0	0	2.193761	13.76938	0	3	98	0	7	-1.828363	0.5735258	158.5164	
13:48:04	0	0	0	2.140194	1.722739	0	3	98	0	7	-1.83116	0.5845355	158.6056	
13:48:06	0	0	0	1.996021	-3.615525	0	3	98	0	7	-1.798535	0.5602428	158.6659	
13:48:08	0	0	0	1.758006	-9.383796	0	3	98	0	7	-1.817145	0.5680378	158.7221	
13:48:09	0	0	0	1.795853	-2.865534	0	3	98	0	7	-1.804107	0.6307846	158.8349	
13:48:11	0	0	0	2.006913	11.71328	0	3	98	0	7	-1.84406	0.5866432	158.8785	
13:48:13	0	0	0	2.195072	11.32222	0	3	99	0	7	-1.892205	0.5242994	158.474	
13:48:15	0	0	0	2.064159	-0.9942313	0	3	99	0	7	-1.8528	0.4928297	157.7216	
13:48:17	0	0	0	1.898929	-5.415717	0	3	99	0	7	-1.833426	0.4686489	157.7577	
13:48:18	0	0	0	1.819183	-6.872274	0	3	99	0	7	-1.832568	0.4315563	157.9956	
13:48:20	0	0	0	1.993118	3.13133	0	3	99	0	7	-1.838335	0.471757	158.1287	
13:48:22	0	0	0	1.985096	-0.6228063	0	3	99	0	7	-1.819791	0.46602	158.2681	
13:48:24	0	0	0	1.460048	-20.08333	0	3	99	0	7	-1.806216	0.4605772	158.3564	
13:48:26	0	0	0	1.401023	-13.53926	0	3	99	0	7	-1.844011	0.4567948	158.4489	
13:48:27	0	0	0	1.564349	6.181183	0	3	99	0	8	-1.885776	0.3806332	158.3502	
13:48:29	0	0	0	1.88307	13.90715	0	3	99	0	7	-1.87174	0.35815	158.452	
13:48:31	0	0	0	1.835401	4.254758	0	3	99	0	7	-1.866634	0.4351138	158.2866	
13:48:33	0	0	0	1.674886	-5.919701	0	3	99	0	7	-1.825551	0.4861485	158.2335	
13:48:35	0	0	0	1.531905	-7.914327	0	3	99	0	7	-1.787565	0.5179914	158.2859	
13:48:36	0	0	0	1.682647	2.803827	0	3	99	0	7	-1.820134	0.5343524	158.2625	
13:48:38	0	0	0	1.673246	-0.2085525	0	3	99	0	7	-1.798071	0.5763169	158.2742	
13:48:40	0	0	0	1.737957	2.039953	0	3	99	0	7	-1.813353	0.5482094	158.3436	
13:48:42	0	0	0	1.687042	-1.817132	0	3	99	0	6	-1.803605	0.5727643	158.327	
13:48:43	0	0	0	1.851783	4.175866	0	3	99	0	7	-1.809851	0.6076699	158.366	
13:48:45	0	0	0	1.913515	4.251288	0	3	99	0	7	-1.815305	0.6235779	158.3721	
13:48:47	0	0	0	2.081283	4.40732	0	3	70	0	7	-1.831578	0.6611395	158.3871	
13:48:49	0	0	0	1.591312	-13.40077	0	3	71	0	7	-1.846553	0.6723185	158.4113	
13:48:51	0	0	0	1.751649	2.889277	0	3	73	0	7	-1.811054	0.6780004	158.4574	
13:48:52	0	0	0	2.005675	9.018983	0	3	74	0	7	-1.816232	0.666618	158.5014	
13:48:54	0	0	0	1.994283	4.336651	0	3	76	0	5	-1.81918	0.6470335	158.4441	
13:48:56	0	0	0	3.113708	57.4073	0	3	77	0	5	-0.2940029	-9.855915	166.8621	
13:48:58	0	0	0	3.059127	14.50733	0	3	79	0	5	-0.4425887	2.47805	169.3706	
13:49:00	0	0	0	3.168257	-1.659518	0	3	80	0	5	-0.596476	1.645982	179.2137	
13:49:01	0	0	0	3.224097	6.435611	0	3	81	0	20	-5.481201	-2.638186	173.9973	
13:49:03	0	0	0	3.012387	-9.694211	0	3	82	0	58	-2.387722	-3.631696	176.036	
13:49:05	0	0	0	3.074273	-3.204925	0	3	83	0	57	-1.052643	-6.570011	179.7964	
13:49:07	0	0	0	3.092217	-35.19099	0	3	84	0	53	-2.543018	-6.084957	-179.4113	
13:49:09	0	0	0	2.797579	-44.09119	0	3	85	0	54	4.570783	-6.403028	153.8961	
13:49:10	0	0	0	2.46761	-13.42288	0	3	86	0	55	-2.308441	-4.376967	-174.137	
13:49:12	0	0	0	2.82894	3.884484	0	3	87	0	54	-2.248683	-5.809216	179.3711	
13:49:14	0	0	0	2.896838	28.03704	0	3	88	0	53	0.2224084	-6.075066	175.5244	
13:49:16	0	0	0	2.826396	-50.17867	0	3	89	0	57	6.627017	-7.115892	172.1157	
13:49:17	0	0	0	2.456792	-74.69219	0	3	90	0	58	1.504169	-4.807277	167.0404	
13:49:19	0	0	0	2.516739	-66.4831	0	3	90	0	58	0.167943	-4.804633	173.3866	
13:49:21	0	0	0	3.021209	-14.45955	0	3	91	0	58	-0.1464488	-4.564315	173.9881	
13:49:23	0	0	0	3.19707	6.46231	0	3	92	0	59	0.999272	-4.892992	173.5487	
13:49:25	0	0	0	3.640975	-14.07467	0	3	92	0	59	0.5763344	-5.265969	168.3819	
13:49:26	0	0	0	3.299485	32.81003	0	3	93	0	57	-2.190727	-5.843441	171.3321	
13:49:28	0	0	0	4.935932	301.2729	0	3	93	0	57	-0.5297704	-5.090389	178.3308	
13:49:30	0	0	0	4.796997	106.9801	0	3	94	0	59	-0.7663502	-4.439486	174.7175	
13:49:32	0	0	0	3.597176	-19.17009	0	3	94	0	58	1.365882	-3.521292	170.4801	
13:49:34	0	0	0	2.74626	-87.8274	0	3	94	0	58	1.966669	-4.143491	170.7022	
13:49:35	0	0	0	2.674104	-77.04845	0	3	95	0	53	-4.506977	-3.396155	169.0769	
13:49:37	0	0	0	1.322809	-299.5347	0	3	95	0	53	-10.82916	-5.96394	170.2326	
13:49:39	0	0	0	1.916582	-65.56571	0	3	95	0	53	7.272508	-4.400136	176.4241	
13:49:41	0	0	0	3.017387	-73.04528	0	3	96	0	53	-13.07522	-3.884599	171.717	
13:49:43	0	0	0	2.316885	-56.42979	0	3	96	0	55	8.600292	-5.27507	177.7769	
13:49:44	0	0	0	2.952991	16.19344	0	3	96	0	5	-8.604923	-9.900542	178.3143	
13:49:46	0	0	0	3.107135	88.14388	0	3	97	0	5	-1.957592	-6.291282	-179.9939	
13:49:48	0	0	0	2.56962	36.10529	0	3	97	0	5	-1.06434	-1.295458	-179.1215	
13:49:50	0	0	0	2.465836	29.78222	0	3	97	0	5	-1.846967	-0.3627849	-161.6164	
13:49:51	0	0	0	2.607839	33.05091	0	3	97	0	5	-1.611863	0.3138973	-160.2297	
13:49:53	0	0	0	2.436594	21.6533	0	3	97	0	6	-0.0716814	0.2858958	-158.8985	
13:49:55	0	0	0	2.306291	20.54435	0	3	97	0	5	1.478977	0.2044802	-157.3591	
13:49:57	0	0	0	2.46842	23.36121	0	3	98	0	5	-0.6096662	0.6272988	-156.1731	
13:49:59	0	0	0	2.630121	34.02228	0	3	98	0	5	-0.9305421	0.9732264	-161.5725	
13:50:00	0	0	0	2.849062	28.65118	0	3	98	0	5	2.5945	0.2632916	-161.0947	
13:50:02	0	0	0	2.690712	12.83647	0	3	98	0	5	1.134839	0.007395365	-159.9673	
13:50:04	0	0	0	2.085901	-14.3544	0	3	98	0	5	-0.384035	0.682844	-160.8277	
13:50:06	0	0	0	1.981047	-8.287855	0	3	98	0	4	0.05895999	0.8085107	-161.4583	
13:50:08	0	0	0	2.354119	13.46667	0	3	98	0	5	0.9901036	1.067197	-160.656	
13:50:09	0	0	0	2.341037	7.219325	0	3	98	0	5	-0.1562761	0.8076775	-161.2535	
13:50:11	0	0	0	2.429222	11.71361	0	3	98	0	5	1.067302	0.9431267	-161.0851	
13:50:13	0	0	0	2.82234	22.33232	0	3	99	0	5	-0.02662373	0.773351	-160.9298	
13:50:15	0	0	0	2.756764	3.864204	0	3	99	0	5	0.09761175	0.6426496	-161.4523	
13:50:17	0	0	0	2.281263	-15.53035	0	3	99	0	5	-0.285126	0.4714286	-161.8878	
13:50:18	0	0	0	2.204562	-5.395277	0	3	99	0	5	-0.3143193	0.524875	-162.3432	
13:50:20	0	0	0	2.340108	1.772157	0	3	99	0	5	-0.3678786	0.5629796	-162.6846	
13:50:22	0	0	0	2.501866	6.403279	0	3	99	0	5	0.4397336	0.267988	-163.0084	
13:50:24	0	0	0	2.493098	4.232801	0	3	99	0	5	-0.4867674	0.3502972	-163.2029	
13:50:25	0	0	0	2.163019	-11.32774	0	3	99	0	5	-0.2997318	-0.04349649	-163.4622	
13:50:27	0	0	0	2.326252	2.900952	0	3	99	0	5	2.412937	0.5040525	-162.5606	
13:50:29	0	0	0	2.359689	5.121689	0	3	99	0	5	-0.2038181	0.3091964	-162.6347	
13:50:31	0	0	0	2.241896	-4.541839	0	3	99	0	5	-0.2556163	0.2707864	-162.9311	
13:50:33	0	0	0	2.382406	5.279353	0	3	99	0	5	3.088626	1.321388	-161.9117	
13:50:34	0	0	0	2.820938	19.16536	0	3	99	0	5	-0.2079541	0.05223225	-162.2249	
13:50:36	0	0	0	2.352526	-10.09856	0	3	99	0	5	-0.6244968	-1.25389	-162.8338	
13:50:38	0	0	0	2.341755	-6.271519	0	3	99	0	5	-0.5101253	-0.7364037	-163.2613	
13:50:40	0	0	0	2.256751	-6.821097	0	3	99	0	5	-0.2916353	-1.073931	-163.2214	
13:50:42	0	0	0	2.192474	-5.315469	0	3	99	0	6	-0.3852406	-0.5534247	-163.4553	
13:50:43	0	0	0	2.325997	1.825654	0	3	99	0	5	0.7025852	-2.70725	-163.0097	
13:50:45	0	0	0	2.481233	8.964685	0	3	99	0	5	1.09479	-0.3493935	-161.9954	
13:50:47	0	0	0	2.909457	22.85324	0	3	99	0	5	-0.6117178	-0.3565845	-161.8803	
13:50:49	0	0	0	2.800861	2.569051	0	3	99	0	5	-1.112834	-0.5857917	-162.9128	
13:50:51	0	0	0	2.678617	-8.622105	0	3	99	0	5	0.0118888	-1.404695	-163.1554	
13:50:52	0	0	0	2.473247	-10.69638	0	3	99	0	5	-0.5748222	-0.3116464	-163.3781	
13:50:54	0	0	0	2.69367	2.416564	0	3	99	0	5	-0.5629261	-0.1931646	-163.7248	
13:50:56	0	0	0	2.79566	4.064978	0	3	99	0	5	-0.5794981	-0.1720211	-163.9696	
13:50:58	0	0	0	2.880801	4.334959	0	3	99	0	5	-0.5837986	-0.2181899	-164.1946	
13:50:59	0	0	0	2.894744	-0.1471831	0	3	99	0	5	-0.5397329	-0.1502274	-164.3516	
13:51:01	0	0	0	2.403142	-14.18321	0	3	99	0	5	-0.5041899	-0.1613803	-164.4759	
13:51:03	0	0	0	2.295719	-9.91032	0	3	99	0	5	-5.367946	2.774357	-163.4997	
13:51:05	0	0	0	2.35217	-4.769301	0	3	99	0	5	-2.84688	0.9069674	-162.4914	
13:51:07	0	0	0	2.303823	-5.279633	0	3	99	0	5	-3.0072	1.062977	-164.1995	
13:51:08	0	0	0	2.049615	-9.207516	0	3	99	0	5	-1.107952	0.0365459	-163.586	
13:51:10	0	0	0	2.15995	24.63549	0	3	99	0	5	-7.223865	0.6013427	-173.1337	
13:51:12	0	0	0	2.917631	6.33433	0	3	99	0	5	0.2311015	0.4046068	179.0224	
13:51:14	0	0	0	3.311771	15.76121	0	3	99	0	5	-2.641121	4.240364	-179.3254	
13:51:16	0	0	0	3.448456	10.07584	0	3	99	0	6	-3.169603	4.369871	-179.7213	
13:51:17	0	0	0	3.387525	2.447325	0	3	99	0	5	-2.259283	3.56319	-178.6341	
13:51:19	0	0	0	3.333051	-37.18742	0	3	99	0	27	-0.1610891	0.2347729	-175.1057	
13:51:21	0	0	0	3.031337	-32.89477	0	3	99	0	49	-1.989886	-0.7831855	-178.9263	
13:51:23	0	0	0	3.44298	-1.476086	0	3	99	0	45	0.6717795	-14.93581	-178.5258	
13:51:25	0	0	0	3.565365	9.982201	0	3	99	0	51	-4.952571	-1.918877	-173.9213	
13:51:26	0	0	0	3.455046	-3.216306	0	3	99	0	55	-2.606802	-3.225068	-177.5964	
13:51:28	0	0	0	3.609761	4.12015	0	3	99	0	50	0.768011	-8.891123	-172.1495	
13:51:30	0	0	0	3.545025	-21.88447	0	3	99	0	48	7.433352	-6.700122	-172.1214	
13:51:32	0	0	0	3.718338	19.94918	0	3	99	0	50	-1.689491	-5.465565	172.0026	
13:51:33	0	0	0	3.869896	67.10587	0	3	99	0	51	1.860348	-5.148774	-179.35	
13:51:35	0	0	0	3.648517	31.00133	0	3	99	0	56	-0.6126182	-4.126953	179.8744	
13:51:37	0	0	0	3.497089	11.72268	0	3	99	0	55	2.770179	-5.050317	179.1057	
13:51:39	0	0	0	3.622094	0.6570258	0	3	99	0	57	1.568304	-2.488989	-179.9767	
13:51:41	0	0	0	4.020742	19.11598	0	3	99	0	55	-1.835454	-6.375054	-172.201	
13:51:42	0	0	0	3.643131	-8.13649	0	3	99	0	55	-0.692969	-6.409831	-179.849	
13:51:44	0	0	0	3.218644	-33.9895	0	3	99	0	55	-0.9621881	-4.271096	-176.0184	
13:51:46	0	0	0	3.351082	2.411355	0	3	99	0	55	3.060197	-5.041138	179.1152	
13:51:48	0	0	0	3.577502	15.42627	0	3	99	0	55	-1.579926	-5.736555	-177.0105	
13:51:50	0	0	0	3.431109	4.678955	0	3	99	0	10	0.9112452	-5.215236	-178.5457	
13:51:51	0	0	0	2.873441	-35.07207	0	3	99	0	5	-10.67491	-9.067702	-172.3407	
13:51:53	0	0	0	2.583112	21.45648	0	3	99	0	5	-0.1694315	-0.460548	-171.4501	
13:51:55	0	0	0	2.77946	9.094457	0	3	99	0	5	-0.359624	0.1492257	-168.9934	
13:51:57	0	0	0	2.369518	-20.08715	0	3	99	0	5	0.6069535	-0.623567	-167.0608	
13:51:59	0	0	0	2.375827	-12.47682	0	3	99	0	5	-0.5679725	0.3770068	-166.3327	
13:52:00	0	0	0	2.212675	-17.59785	0	3	99	0	5	-0.9717149	-1.194951	-164.6464	
13:52:02	0	0	0	2.245898	-9.305965	0	3	99	0	6	2.626724	-1.104839	-163.3169	
13:52:04	0	0	0	2.554664	0.8790009	0	3	99	0	5	-0.5536571	-0.2098632	-163.6703	
13:52:06	0	0	0	2.584426	1.637917	0	3	99	0	5	2.86298	-0.8649812	-162.218	
13:52:07	0	0	0	2.568441	-1.756582	0	3	99	0	5	-2.198083	-0.2443404	-162.7691	
13:52:09	0	0	0	2.669744	2.295671	0	3	99	0	5	-1.23044	-0.09564561	-163.5027	
13:52:11	0	0	0	2.706195	0.5623847	0	3	99	0	5	-1.37919	-3.723652	-164.6131	
13:52:13	0	0	0	2.639337	-3.654769	0	3	99	0	5	-1.323441	-1.16721	-164.4586	
13:52:15	0	0	0	2.564	1.721468	0	3	99	0	5	-1.250777	-0.179985	-164.7704	
13:52:16	0	0	0	2.460443	-4.588921	0	3	99	0	5	-1.22414	-0.06631094	-165.208	
13:52:18	0	0	0	2.769343	9.69838	0	3	99	0	5	-1.232496	-0.05960253	-165.5424	
13:52:20	0	0	0	2.692541	-2.385535	0	3	99	0	5	-1.23868	-0.03095831	-165.8411	
13:52:22	0	0	0	2.376125	-12.80279	0	3	99	0	5	-1.221629	-0.05714212	-166.1105	
13:52:24	0	0	0	2.241136	-11.7181	0	3	99	0	5	-1.272747	-0.08451641	-166.3034	
13:52:25	0	0	0	2.389709	1.763272	0	3	99	0	5	-1.302849	-0.1025242	-166.4555	
13:52:27	0	0	0	2.378883	-1.160931	0	3	99	0	5	-1.029148	-0.8311193	-166.8894	
13:52:29	0	0	0	2.547882	5.64387	0	3	99	0	8	-0.969159	-2.697108	-167.1189	
13:52:31	0	0	0	2.539782	-0.8677338	0	3	99	0	5	-1.178587	-1.321331	-166.3581	
13:52:33	0	0	0	2.379953	-7.413989	0	3	99	0	5	-1.168653	-0.8535745	-166.1356	
13:52:34	0	0	0	2.422184	0.3616712	0	3	99	0	6	-1.206294	-0.9416181	-166.2625	
13:52:36	0	0	0	2.566725	5.564921	0	3	99	0	5	-1.137001	-1.052147	-166.1827	
13:52:38	0	0	0	2.502322	-0.05394189	0	3	99	0	5	-0.6496102	-2.29728	-165.8971	
13:52:40	0	0	0	2.80148	11.68264	0	3	99	0	5	-1.117911	-1.178599	-165.9262	
13:52:41	0	0	0	2.928644	10.35103	0	3	99	0	5	-1.144915	-1.163793	-165.9354	
13:52:43	0	0	0	2.820047	0.4007136	0	3	99	0	5	-1.192043	-1.192509	-165.9775	
13:52:45	0	0	0	2.472828	-13.1717	0	3	99	0	5	-1.216164	-1.070247	-165.862	
13:52:47	0	0	0	2.324095	-9.616339	0	3	99	0	5	-1.022812	-1.202787	-165.8434	
13:52:49	0	0	0	2.167628	-5.461945	0	3	99	0	5	-1.028933	-1.160889	-165.3796	
13:52:50	0	0	0	2.355958	6.323987	0	3	99	0	5	-0.9063283	-1.487277	-165.7943	
13:52:52	0	0	0	2.288443	-1.68816	0	3	99	0	5	-1.190688	-1.175915	-165.7502	
13:52:54	0	0	0	2.141731	12.26981	0	3	99	0	5	-5.753683	-2.438777	-174.8158	
13:52:56	0	0	0	2.838373	5.625679	0	3	99	0	5	-0.3783159	-6.540304	-169.6197	
13:52:58	0	0	0	3.266151	16.30761	0	3	99	0	5	-0.590202	-3.69084	-168.588	
13:52:59	0	0	0	3.784516	24.86089	0	3	99	0	5	-3.939242	-3.49239	-169.8316	
13:53:01	0	0	0	3.636596	-0.9935091	0	3	99	0	5	-3.594789	-2.741997	-169.8167	
13:53:03	0	0	0	3.201935	-24.22895	0	3	99	0	19	-2.658778	-2.236926	-171.0788	
13:53:05	0	0	0	3.488177	4.664812	0	3	99	0	50	-2.999918	-2.50504	-174.268	
13:53:06	0	0	0	3.704061	-7.699029	0	3	99	0	51	-1.74267	-10.02079	-171.8398	
13:53:08	0	0	0	3.755386	2.528813	0	3	99	0	53	-1.555613	-5.979827	-167.851	
13:53:10	0	0	0	3.8338	23.55374	0	3	99	0	53	-0.07445317	-5.697806	-168.7188	
13:53:12	0	0	0	3.689253	11.24553	0	3	99	0	55	1.546898	-5.667423	-167.1819	
13:53:14	0	0	0	3.50615	-38.83083	0	3	99	0	57	1.239939	-4.190987	-165.8768	
13:53:15	0	0	0	3.717287	12.28524	0	3	99	0	56	0.7568816	-4.848219	-169.4055	
13:53:17	0	0	0	4.23272	29.0091	0	3	99	0	58	0.8208426	-3.928959	-168.1355	
13:53:19	0	0	0	4.422155	5.780475	0	3	99	0	55	-0.2367548	-5.296454	-166.7214	
13:53:21	0	0	0	3.845725	12.06032	0	3	99	0	57	-2.04369	-4.491116	-167.5377	
13:53:23	0	0	0	4.186017	47.95667	0	3	99	0	56	-2.057052	-6.021583	-164.7065	
13:53:24	0	0	0	3.922191	-22.45705	0	3	99	0	57	0.7439121	-4.647716	-177.6104	
13:53:26	0	0	0	3.979048	-9.221292	0	3	99	0	5	-0.2395751	-2.133795	-175.6165	
13:53:28	0	0	0	3.975043	-6.627175	0	3	99	0	7	-0.6304685	1.774026	-174.3921	
13:53:30	0	0	0	3.895444	-5.244677	0	3	99	0	5	-1.214207	-4.52105	165.8646	
13:53:32	0	0	0	3.856481	-5.203537	0	3	99	0	12	-2.217268	-2.793942	167.7248	
13:53:33	0	0	0	3.889947	-18.61142	0	3	99	0	33	-0.699819	-3.501778	174.7859	
13:53:35	0	0	0	3.906223	-19.78064	0	3	99	0	47	-0.6733842	-6.019869	173.9759	
13:53:37	0	0	0	3.862209	-13.94415	0	3	99	0	46	-1.201798	-14.19841	173.9638	
13:53:39	0	0	0	4.226044	26.31067	0	3	99	0	54	-1.052825	-1.834185	174.61	
13:53:41	0	0	0	4.375496	-0.7314209	0	3	99	0	56	1.891121	-6.035027	168.6709	
13:53:42	0	0	0	4.131423	-51.20396	0	3	99	0	57	2.493445	-5.208866	167.7968	
13:53:44	0	0	0	4.192949	5.262492	0	3	99	0	57	-1.234171	-3.934585	167.5301	
13:53:46	0	0	0	4.556473	-12.88176	0	3	99	0	58	-1.265201	-5.434144	167.8813	
13:53:48	0	0	0	3.501846	-139.1983	0	3	99	0	58	-0.9682471	-4.647788	164.757	
13:53:49	0	0	0	1.927593	-287.3817	0	3	99	0	60	0.6800077	-4.060486	164.8865	
13:53:51	0	0	0	3.072686	-80.24294	0	3	99	0	59	-0.7369196	-6.450191	163.2632	
13:53:53	0	0	0	4.027717	55.7369	0	3	99	0	58	-1.241008	-4.890742	164.7472	
13:53:55	0	0	0	5.063796	62.56309	0	3	99	0	58	-0.4479229	-5.004294	166.9048	
13:53:57	0	0	0	6.931717	412.7929	0	3	99	0	58	0.2689766	-4.935275	167.3424	
13:53:58	0	0	0	5.932734	61.60186	0	3	99	0	58	6.935169	-5.918429	165.5028	
13:54:00	0	0	0	5.056753	178.7239	0	3	99	0	58	-0.5448663	-5.587986	162.5766	
13:54:02	0	0	0	7.846754	627.798	0	3	99	0	57	0.3824406	-4.653774	166.522	
13:54:04	0	0	0	7.385281	153.5871	0	3	99	0	58	-0.115714	-2.847228	164.8948	
13:54:06	0	0	0	4.671251	-68.97525	0	3	99	0	58	2.367504	-4.817908	170.7894	
13:54:07	0	0	0	3.692475	-21.32817	0	3	99	0	56	1.854842	-4.60319	159.3192	
13:54:09	0	0	0	5.708403	187.384	0	3	99	0	59	-2.735379	-3.816689	168.6209	
13:54:11	0	0	0	4.875525	-13.17119	0	3	99	0	59	1.660786	-4.547042	171.775	
13:54:13	0	0	0	3.910285	-16.80692	0	3	99	0	60	0.778825	-4.005147	169.9592	
13:54:15	0	0	0	3.18051	-67.40258	0	3	99	0	61	0.8527104	-4.452328	166.9702	
13:54:16	0	0	0	3.136351	-200.2585	0	3	99	0	57	-1.952418	-7.132476	169.7077	
13:54:18	0	0	0	2.387424	-206.4228	0	3	99	0	59	-0.1862374	-3.747387	163.8629	
13:54:20	0	0	0	2.538126	-170.56	0	3	99	0	56	0.02668587	-4.498538	171.0475	
13:54:22	0	0	0	2.435368	-114.6696	0	3	99	0	5	-13.13506	-17.04498	173.1246	
13:54:24	0	0	0	2.43756	-68.33118	0	3	99	0	5	-0.2813088	-3.669959	171.9862	
13:54:25	0	0	0	2.200421	-48.89216	0	3	99	0	5	-0.5642087	-2.82949	174.8992	
13:54:27	0	0	0	2.290758	-27.90361	0	3	99	0	5	-0.7776013	-2.242491	176.4957	
13:54:29	0	0	0	2.555337	-9.172009	0	3	99	0	5	-0.9808832	-1.764387	177.5817	
13:54:31	0	0	0	2.591664	-10.10544	0	3	99	0	5	-1.125754	-1.44529	178.0985	
13:54:32	0	0	0	2.579404	-11.87935	0	3	99	0	5	-1.203607	-1.204585	178.4004	
13:54:34	0	0	0	2.469138	-11.16352	0	3	99	0	5	-1.269674	-0.9808283	178.7277	
13:54:36	0	0	0	2.497691	-5.97321	0	3	99	0	5	-1.43553	-0.4246113	-164.9262	
13:54:38	0	0	0	2.725294	2.618929	0	3	99	0	5	-1.353198	-0.4720473	-163.4463	
13:54:40	0	0	0	2.970502	8.583967	0	3	99	0	5	-1.357746	-0.5357962	-162.1264	
13:54:41	0	0	0	2.874023	-3.296445	0	3	99	0	7	-1.436091	-0.7823828	-161.4547	
13:54:43	0	0	0	2.666923	-9.099338	0	3	99	0	5	-1.620344	-1.84623	-160.8631	
13:54:45	0	0	0	2.646265	-6.811193	0	3	100	0	5	-1.5113	-2.375792	-159.5017	
13:54:47	0	0	0	2.677679	-0.8482766	0	3	100	0	4	-1.354885	-1.627852	-158.993	
13:54:49	0	0	0	2.58956	-2.911296	0	3	100	0	5	-3.704997	-2.513794	-157.8824	
13:54:50	0	0	0	2.739793	5.163188	0	3	100	0	5	-1.664598	-2.124496	-158.6849	
13:54:52	0	0	0	2.698493	-1.812511	0	3	100	0	5	-1.570771	-2.04113	-158.2099	
13:54:54	0	0	0	2.943213	8.252505	0	3	100	0	5	-1.517182	-3.490557	-157.9871	
13:54:56	0	0	0	2.770098	-5.080641	0	3	100	0	5	-1.559694	-3.284628	-157.8923	
13:54:58	0	0	0	3.066942	10.26364	0	3	100	0	5	-13.7554	-17.46675	-106.3338	
13:54:59	0	0	0	3.218658	-2.466557	0	3	100	0	5	-14.91315	-16.24424	-78.53942	
13:55:01	0	0	0	2.906144	-14.10438	0	3	100	0	5	-16.82158	-7.475001	-65.05048	
13:55:03	0	0	0	2.511285	-48.2281	0	3	100	0	5	-7.24822	-2.475204	-108.754	
13:55:05	0	0	0	2.630842	25.35995	0	3	100	0	5	-3.081196	-4.911472	-132.8627	
13:55:06	0	0	0	2.836051	11.84617	0	3	100	0	5	-2.14385	-3.828267	-136.7971	
13:55:08	0	0	0	2.680609	-0.846059	0	3	100	0	5	0.535266	-2.997097	-138.7782	
13:55:10	0	0	0	2.733278	2.791821	0	3	100	0	5	0.1554906	-2.617374	-140.8501	
13:55:12	0	0	0	2.712372	-4.204926	0	3	100	0	5	-0.5013362	-2.355391	-142.8105	
13:55:14	0	0	0	2.82337	3.346448	0	3	100	0	5	-0.3871617	-2.14924	-144.1167	
13:55:15	0	0	0	2.571345	-10.894	0	3	100	0	7	-1.056452	-2.192775	-145.7117	
13:55:17	0	0	0	2.483362	-10.37488	0	3	100	0	5	-1.172526	-1.914605	-147.2255	
13:55:19	0	0	0	2.593066	-2.040279	0	3	100	0	5	-1.637222	-1.799142	-149.0952	
13:55:21	0	0	0	2.767718	4.623713	0	3	100	0	5	-1.202087	-1.779926	-150.0663	
13:55:23	0	0	0	2.360054	-13.7258	0	3	100	0	5	-1.193326	-1.720627	-150.4699	
13:55:24	0	0	0	2.457769	-2.335903	0	3	100	0	5	-1.235621	-1.658515	-150.8826	
13:55:26	0	0	0	2.28148	-8.561337	0	3	100	0	5	-1.259299	-1.560832	-151.2872	
13:55:28	0	0	0	2.252887	-3.522558	0	3	100	0	5	-1.268334	-1.527019	-151.5097	
13:55:30	0	0	0	2.298336	-1.389706	0	3	100	0	7	-1.349848	-1.513597	-151.7105	
13:55:32	0	0	0	2.744997	17.09262	0	3	100	0	5	-1.377414	-1.524235	-151.906	
13:55:33	0	0	0	2.960052	14.73686	0	3	100	0	5	-1.388049	-1.515963	-152.0896	
13:55:35	0	0	0	2.903836	2.836222	0	3	100	0	5	-1.488212	-1.546616	-152.1419	
