Date	Latitude(deg) 	Longitude(deg)	hamsl(m)	hafl(m)	climbrate(cm/s)	GroundSpeed(m/s)	Airspeed(m/s)	Mav_Link(%)	Rssi_Link(%)	Throttle	Roll(deg)	Pitch(deg)	Yaw(deg)
13:51:13	0	0	0	0.2797773	-2.216463	0	3	29	0	4	0.2083565	0.1163343	55.91544	
13:51:15	0	0	0	1.377022	22.56478	0	3	39	0	3	0.3554907	0.2879262	56.30033	
13:51:17	0	0	0	0.3972334	-31.91606	0	3	48	0	4	0.4562116	0.4169959	56.58031	
13:51:18	0	0	0	-0.07796799	-39.0391	0	3	54	0	4	0.5072161	0.4282615	56.74908	
13:51:20	0	0	0	-0.2254835	-26.31252	0	3	60	0	4	0.5243385	0.3975134	56.82579	
13:51:22	0	0	0	-0.02775357	-11.62801	0	3	64	0	4	0.5538132	0.393308	56.83672	
13:51:23	0	0	0	-0.2332595	-18.79494	0	3	68	0	4	0.550431	0.3636197	56.87434	
13:51:25	0	0	0	-0.2643393	-12.13952	0	3	71	0	4	0.5334853	0.2858957	56.74222	
13:51:27	0	0	0	-0.2091435	-6.999722	0	3	74	0	4	0.4930679	0.2271212	56.65953	
13:51:28	0	0	0	-0.1045192	-0.6401148	0	3	77	0	4	0.4888499	0.2777388	56.5331	
13:51:30	0	0	0	0.1937183	4.561731	0	3	79	0	4	0.4460963	0.3286466	56.50694	
13:51:32	0	0	0	0.4371488	8.028577	0	3	81	0	4	0.4132072	0.261804	56.43975	
13:51:33	0	0	0	-0.1218272	-18.34958	0	3	83	0	4	0.429978	0.2115383	56.3545	
13:51:35	0	0	0	-0.09918261	-10.50772	0	3	84	0	4	0.4158331	0.2693646	56.23943	
13:51:37	0	0	0	0.0008852938	-0.2694091	0	3	86	0	4	0.3999911	0.3072528	56.45227	
13:51:38	0	0	0	0.1474306	1.012839	0	3	87	0	4	0.4182363	0.308762	56.33055	
13:51:40	0	0	0	0.0397832	-5.552095	0	3	88	0	4	0.3894857	0.3009081	56.27478	
13:51:42	0	0	0	0.196991	3.491771	0	3	89	0	4	0.3162979	0.2420456	56.1516	
13:51:44	0	0	0	0.202681	2.079318	0	3	90	0	4	0.2759776	0.2419449	56.07611	
13:51:45	0	0	0	0.284521	2.016233	0	3	91	0	4	0.2557558	0.2395375	56.01655	
13:51:47	0	0	0	0.4464589	5.899741	0	3	91	0	4	0.2631184	0.2694035	55.99707	
13:51:49	0	0	0	-0.003980791	-17.05539	0	3	92	0	4	0.2485504	0.2755443	55.95441	
13:51:50	0	0	0	-0.2849872	-15.67592	0	3	93	0	4	0.2594405	0.249044	55.90373	
13:51:52	0	0	0	-0.3138123	-11.24771	0	3	93	0	4	0.2243309	0.1922901	55.86772	
13:51:54	0	0	0	-0.3998114	-7.046991	0	3	94	0	4	0.2635637	0.1742446	55.84798	
13:51:55	0	0	0	-0.1340173	6.580655	0	3	94	0	4	0.2357616	0.2391182	55.80971	
13:51:57	0	0	0	-0.001876341	6.526649	0	3	95	0	4	0.2433095	0.2162625	55.78162	
13:51:59	0	0	0	0.1099696	5.751045	0	3	95	0	4	0.1815999	0.2095904	55.77275	
13:52:00	0	0	0	-0.0002218683	-4.103961	0	3	95	0	4	0.2332917	0.2178722	55.80898	
13:52:02	0	0	0	-0.007135509	-3.022146	0	3	96	0	4	0.2446627	0.2663967	55.76332	
13:52:04	0	0	0	-0.08096361	-3.73619	0	3	96	0	4	0.1672629	0.1440737	55.72213	
13:52:06	0	0	0	-0.1835524	-4.349472	0	3	96	0	4	0.1311534	0.06332173	55.68085	
13:52:08	0	0	0	0.05116413	4.763411	0	3	96	0	4	0.1288631	0.01808753	55.62696	
13:52:09	0	0	0	-0.111988	-4.286757	0	3	97	0	4	0.166286	0.06616033	55.60485	
13:52:10	0	0	0	0.1423472	6.692822	0	3	97	0	4	0.1758209	0.06999259	55.56234	
13:52:12	0	0	0	-0.07248974	-6.57791	0	3	97	0	4	0.1719199	0.023622	55.56235	
13:52:14	0	0	0	-0.06685183	-3.87668	0	3	97	0	4	0.2226319	0.0212345	55.50315	
13:52:16	0	0	0	-0.1082212	-3.927257	0	3	97	0	4	0.2133501	0.002185581	55.50849	
13:52:18	0	0	0	0.07543092	6.068169	0	3	98	0	4	0.2081113	-0.01081872	55.45234	
13:52:20	0	0	0	0.07766134	4.634391	0	3	98	0	4	0.1652811	0.05973873	55.41267	
13:52:21	0	0	0	-0.07513873	-6.138327	0	3	98	0	4	0.1932332	0.06375786	55.40838	
13:52:22	0	0	0	-0.2390947	-7.953774	0	3	98	0	4	0.1525727	0.06973653	55.44019	
13:52:24	0	0	0	0.05969871	8.761631	0	3	98	0	4	0.1547426	-0.01447066	55.38301	
13:52:26	0	0	0	-0.004087994	-0.1445833	0	3	98	0	4	0.1302011	-0.008951087	55.38072	
13:52:27	0	0	0	-0.1679348	-5.610113	0	3	98	0	4	0.1542249	0.05885366	55.39506	
13:52:29	0	0	0	0.08197385	7.056271	0	3	98	0	4	0.1538854	0.1384772	55.45541	
13:52:31	0	0	0	0.1320958	2.953965	0	3	98	0	4	0.1356782	0.2024897	55.50412	
13:52:32	0	0	0	0.1582245	3.616282	0	3	99	0	4	0.1521377	0.1636294	55.60186	
13:52:34	0	0	0	0.1312462	-0.5915177	0	3	99	0	4	0.1788252	0.1263446	55.58751	
13:52:36	0	0	0	0.1585458	-2.13716	0	3	99	0	4	0.2556373	0.1228108	55.61305	
13:52:37	0	0	0	-0.2102112	-15.63196	0	3	99	0	4	0.1898177	0.1008205	55.5859	
13:52:40	0	0	0	0.1874653	10.97004	0	3	99	0	4	0.2063211	0.07694906	55.56633	
13:52:41	0	0	0	0.2945023	7.047158	0	3	99	0	4	0.2311824	0.05447432	55.48654	
13:52:43	0	0	0	0.05919077	-8.740748	0	3	99	0	4	0.1995333	0.05854827	55.4536	
13:52:45	0	0	0	-0.04258724	-3.562386	0	3	99	0	4	0.1623171	-0.02590062	55.41186	
13:52:46	0	0	0	-0.09837279	-4.081064	0	3	99	0	4	0.1317579	0.002781034	55.43442	
13:52:48	0	0	0	0.1267061	7.882403	0	3	99	0	4	0.1080352	0.02127791	55.42804	
13:52:49	0	0	0	-0.2021726	-10.58325	0	3	99	0	4	0.1278078	0.06054849	55.48457	
13:52:51	0	0	0	0.05815514	6.449649	0	3	99	0	4	0.2495699	0.1181811	55.53149	
13:52:53	0	0	0	0.3391446	11.74969	0	3	99	0	4	0.231823	0.1014939	55.5491	
13:52:54	0	0	0	0.388833	4.998042	0	3	99	0	4	0.2319408	0.05341038	55.53958	
13:52:56	0	0	0	0.3500177	2.488388	0	3	99	0	4	0.2356161	0.09635781	55.549	
13:52:58	0	0	0	0.1142193	-9.773217	0	3	99	0	4	0.1938287	0.05610726	55.53855	
13:52:59	0	0	0	-0.2743373	-16.61904	0	3	99	0	4	0.1171686	-0.01200765	55.52751	
13:53:01	0	0	0	9.851344E-05	5.670833	0	3	99	0	4	-0.01833673	-0.04053587	55.49931	
13:53:03	0	0	0	0.1356261	4.504651	0	3	99	0	2	-0.03128894	-0.01151269	55.472	
13:53:04	0	0	0	0.1949112	4.697607	0	3	99	0	4	0.1555755	0.1568197	55.57387	
13:53:06	0	0	0	0.4054977	10.99686	0	3	99	0	4	0.06495717	0.07912063	55.59404	
13:53:08	0	0	0	0.2504008	-2.17188	0	3	99	0	4	0.09280973	0.04668393	55.59681	
13:53:10	0	0	0	0.3144173	1.836162	0	3	99	0	4	0.09963546	-0.0138221	55.60603	
13:53:12	0	0	0	0.2340062	-2.50163	0	3	99	0	4	0.1045852	-0.01228004	55.57476	
13:53:14	0	0	0	0.3821433	7.070431	0	3	99	0	4	0.1003132	-0.04047624	55.51955	
13:53:16	0	0	0	0.1471376	-6.666656	0	3	99	0	5	0.0458374	-0.03550925	55.52006	
13:53:17	0	0	0	0.05671027	-4.178237	0	3	99	0	4	0.0891114	-0.05405553	55.49173	
13:53:18	0	0	0	0.1749488	1.123295	0	3	99	0	4	0.09300904	-0.06388432	55.46371	
13:53:20	0	0	0	0.1752663	0.2966253	0	3	99	0	4	0.1095265	-0.1171591	55.39883	
13:53:21	0	0	0	0.4036655	9.033871	0	3	99	0	4	0.1114581	-0.1116309	55.34208	
13:53:23	0	0	0	0.3320051	-0.3843656	0	3	99	0	4	0.08080266	-0.09412979	55.30511	
13:53:25	0	0	0	0.1867188	-6.63693	0	3	99	0	4	0.06000198	-0.1072285	55.29602	
13:53:26	0	0	0	-0.2195993	-18.59686	0	3	99	0	4	0.090309	-0.02272443	55.3144	
13:53:28	0	0	0	0.03186252	2.620593	0	3	99	0	4	0.07829956	0.0007593115	55.36047	
13:53:30	0	0	0	0.03962855	0.3893006	0	3	99	0	4	0.1030645	0.03886517	55.39014	
13:53:31	0	0	0	0.08349013	1.467539	0	3	99	0	4	0.07268668	0.05730514	55.40038	
13:53:33	0	0	0	0.03985126	-2.949947	0	3	99	0	4	0.04751389	0.01799474	55.47173	
13:53:35	0	0	0	0.221038	7.770172	0	3	99	0	4	0.06188326	0.06212999	55.49381	
13:53:36	0	0	0	-0.01736791	-9.963361	0	3	99	0	4	0.05434272	0.08833647	55.54131	
13:53:38	0	0	0	-0.1297583	-6.997772	0	3	99	0	4	0.07690465	0.01640064	55.6038	
13:53:40	0	0	0	-0.111306	-3.520837	0	3	99	0	4	0.09973148	0.0725297	55.63214	
13:53:41	0	0	0	-0.280944	-6.657636	0	3	99	0	4	0.08891029	0.06015532	55.64484	
13:53:43	0	0	0	-0.1989962	0.4749111	0	3	99	0	4	0.09844746	0.03590318	55.63608	
13:53:46	0	0	0	-0.09829568	5.386103	0	3	99	0	4	0.07094468	0.04999152	55.66655	
13:53:47	0	0	0	-0.1364471	1.870347	0	3	99	0	4	0.0360784	0.02364472	55.64967	
13:53:48	0	0	0	-0.1493244	-0.1009825	0	3	99	0	4	0.06720322	-0.05207569	55.61232	
13:53:50	0	0	0	-0.1280292	1.71502	0	3	99	0	4	0.05034405	-0.105661	55.56416	
13:53:52	0	0	0	-0.1845457	-0.4892027	0	3	99	0	4	0.01067369	-0.1801244	55.50528	
13:53:55	0	0	0	-0.1118505	-1.241834	0	3	99	0	4	0.02469298	-0.1622381	55.46153	
13:53:57	0	0	0	-0.4391449	-12.12748	0	3	99	0	5	-0.002371139	-0.09158469	55.4172	
13:53:57	0	0	0	-0.328504	-0.2673618	0	3	99	0	5	0.0126389	-0.03641237	55.40379	
13:53:58	0	0	0	-0.679902	-14.23715	0	3	99	0	4	0.04002807	0.04134877	55.39196	
13:54:00	0	0	0	-0.4324821	7.457702	0	3	99	0	4	0.05834999	0.0002184193	55.37999	
13:54:02	0	0	0	-0.07902425	16.25046	0	3	99	0	4	0.04087781	-0.04811358	55.43279	
13:54:03	0	0	0	0.07007993	10.95686	0	3	99	0	4	0.04611945	0.0231375	55.43032	
13:54:05	0	0	0	-0.1016595	0.4631096	0	3	99	0	4	0.0110171	0.04825758	55.48389	
13:54:07	0	0	0	-0.004372171	5.948181	0	3	99	0	4	0.02832413	0.101445	55.53922	
13:54:09	0	0	0	0.2573851	11.17666	0	3	99	0	4	0.04172185	0.04259597	55.56274	
13:54:10	0	0	0	-0.07262203	-6.276716	0	3	99	0	5	0.03304514	-0.02406705	55.60297	
13:54:12	0	0	0	0.1069376	6.20647	0	3	99	0	4	0.06589705	-0.06019639	55.5624	
13:54:13	0	0	0	-0.03077735	-4.430271	0	3	99	0	4	0.07203287	-0.03672045	55.47642	
13:54:15	0	0	0	-0.01712902	1.205094	0	3	99	0	4	0.05686553	-0.106831	55.46941	
13:54:18	0	0	0	-0.1882811	-6.767509	0	3	99	0	4	0.05408606	-0.05671988	55.45929	
13:54:19	0	0	0	-0.1565846	0.1362143	0	3	99	0	4	0.04428941	0.03559527	55.50089	
13:54:20	0	0	0	-0.09867136	1.466307	0	3	99	0	4	0.08709321	0.07822009	55.54689	
13:54:22	0	0	0	-0.5582427	-15.80841	0	3	99	0	4	0.08480795	0.1394902	55.56617	
13:54:24	0	0	0	-0.6445583	-6.627208	0	3	99	0	4	0.06308481	0.1135195	55.60169	
13:54:25	0	0	0	-0.2507508	11.57238	0	3	99	0	4	0.08458256	0.07134714	55.58626	
13:54:27	0	0	0	-0.3585978	-1.127204	0	3	99	0	4	0.09708859	0.06096673	55.58219	
13:54:29	0	0	0	-0.5143405	-5.86564	0	3	99	0	4	0.1589471	0.08387846	55.60892	
13:54:31	0	0	0	-0.451058	1.221453	0	3	99	0	4	0.07269941	0.04156652	55.62918	
13:54:32	0	0	0	-0.343338	2.835654	0	3	99	0	4	0.09063426	-0.03607968	55.57449	
13:54:34	0	0	0	-0.1405232	7.670657	0	3	99	0	4	0.06257709	-0.05261459	55.53569	
13:54:36	0	0	0	-0.4093959	-7.092996	0	3	99	0	4	0.04065865	-0.01485711	55.49203	
13:54:38	0	0	0	-0.2876057	4.281445	0	3	99	0	4	0.09386564	-0.0579425	55.46153	
13:54:39	0	0	0	-0.2128984	2.229639	0	3	99	0	4	0.07541674	-0.05318117	55.43703	
13:54:40	0	0	0	-0.4149338	-4.93027	0	3	99	0	4	0.03771297	-0.02724522	55.40937	
13:54:42	0	0	0	-0.2256946	5.58493	0	3	99	0	4	0.03793748	0.02629101	55.45538	
13:54:44	0	0	0	-0.4394419	-5.936753	0	3	99	0	4	0.089399	0.0437656	55.41509	
13:54:45	0	0	0	-0.3096748	3.434066	0	3	99	0	4	0.1134315	0.05280802	55.4234	
13:54:47	0	0	0	0.0508876	13.09622	0	3	99	0	4	0.1348103	0.03827949	55.42274	
13:54:49	0	0	0	-0.03706863	2.865437	0	3	99	0	4	0.08893553	0.01500038	55.419	
13:54:51	0	0	0	-0.2980472	-12.86435	0	3	99	0	4	0.08124882	0.009789619	55.41305	
13:54:54	0	0	0	-0.7869841	-22.98069	0	3	99	0	4	0.08943435	0.04784914	55.42101	
13:54:55	0	0	0	-0.8479898	-12.1698	0	3	99	0	4	0.08687578	0.005716088	55.45224	
13:54:56	0	0	0	-0.4505243	10.32405	0	3	99	0	4	0.08987952	0.003437446	55.44681	
13:54:57	0	0	0	-0.3251401	7.581291	0	3	99	0	3	0.09968208	-0.06069816	55.4328	
13:54:59	0	0	0	-0.3154675	2.788517	0	3	99	0	4	0.09079459	-0.1092842	55.34736	
13:55:01	0	0	0	-0.5643301	-8.630963	0	3	99	0	4	0.07448691	-0.0960063	55.30909	
13:55:03	0	0	0	-0.6888279	-6.237254	0	3	99	0	4	0.07088215	-0.1181552	55.31744	
13:55:05	0	0	0	-0.4837849	5.125794	0	3	99	0	4	0.06678706	-0.06509668	55.3113	
13:55:06	0	0	0	-0.4005397	5.148102	0	3	99	0	4	0.05520925	-0.02798727	55.3438	
13:55:08	0	0	0	-0.634778	-8.505034	0	3	99	0	5	0.04606653	-0.009828449	55.39188	
13:55:10	0	0	0	-0.9916301	-15.25213	0	3	99	0	4	0.06525829	-0.004262038	55.4178	
13:55:11	0	0	0	-1.062127	-8.595018	0	3	99	0	5	0.09435896	-0.06891366	55.38039	
13:55:12	0	0	0	-0.6668793	11.94607	0	3	99	0	4	0.09161921	-0.09301674	55.31904	
13:55:14	0	0	0	-0.1685381	23.54038	0	3	99	0	4	0.07055811	-0.06633225	55.33624	
13:55:16	0	0	0	-0.1405998	7.891208	0	3	99	0	4	0.03581986	-0.06838443	55.38255	
13:55:17	0	0	0	-0.3516656	-5.433508	0	3	99	0	4	0.01067761	-0.1337284	55.31055	
13:55:19	0	0	0	-0.8011333	-18.7395	0	3	99	0	4	-0.02314974	-0.08168373	55.31882	
13:55:21	0	0	0	-0.8761703	-9.200493	0	3	99	0	4	0.03284649	-0.0369826	55.34887	
13:55:23	0	0	0	-0.4988273	8.861195	0	3	99	0	4	0.02407199	-0.06200141	55.36063	
13:55:24	0	0	0	-0.7459792	-5.610469	0	3	99	0	4	0.07650518	-0.02245962	55.40995	
13:55:26	0	0	0	-0.5654827	7.388417	0	3	99	0	4	0.1208162	0.01393453	55.37649	
13:55:28	0	0	0	-0.3326303	11.60225	0	3	99	0	4	0.1017228	0.043404	55.39778	
13:55:29	0	0	0	-0.3378058	3.810802	0	3	99	0	4	0.06056461	-0.009917591	55.4267	
13:55:31	0	0	0	-0.3474188	2.30876	0	3	99	0	4	0.09163003	-0.0324898	55.39211	
13:55:33	0	0	0	-0.5616806	-6.692068	0	3	99	0	4	0.09296389	-0.08998632	55.35102	
13:55:34	0	0	0	-0.5895482	-4.827501	0	3	99	0	4	0.20295	-0.01066967	55.37939	
13:55:36	0	0	0	-0.5411693	0.3697404	0	3	99	0	4	0.1396311	-0.03149771	55.36074	
13:55:38	47.46364	-122.3077	0.02	-0.8201786	-66.00449	0	3	99	0	4	0.05253879	-0.04242515	57.78796	
13:55:39	47.46364	-122.3077	0.02	-0.2972507	0.5643828	0	3	99	0	4	-0.1357992	0.2275953	72.22295	
13:55:41	47.46364	-122.3077	0.02	0.1065286	22.17145	0	3	99	0	4	-0.1629189	0.2431444	88.5117	
13:55:43	47.46364	-122.3077	0.02	0.2168836	20.13698	0	3	99	0	4	-0.2127084	0.1211861	108.4893	
13:55:44	47.46363	-122.3077	0.02	0.1986462	16.26247	0.49	3	99	0	58	0.7151046	0.6440725	118.448	
13:55:46	47.46358	-122.3077	0.023	0.2178826	23.41168	9.25	7.144598	99	0	99	4.079229	1.921614	129.7453	
13:55:48	47.4634	-122.3077	0.031	0.05452351	-1.100695	16.76	15.88554	99	0	99	7.466385	2.017978	154.9181	
13:55:49	47.46309	-122.3077	1.503	1.06072	128.671	22.03	20.52392	99	0	99	-2.043557	5.822623	161.933	
13:55:51	47.46273	-122.3077	4.083	3.793775	153.1685	25.98	24.36842	99	0	99	-5.929762	4.751068	162.0557	
13:55:53	47.46229	-122.3075	5.804	5.984739	130.9878	29.11	27.82277	99	0	99	-3.216541	3.566921	161.6861	
13:55:55	47.46186	-122.3074	6.313	6.753836	49.67088	31.1	29.75765	99	0	100	-1.865265	2.337244	163.0037	
13:55:56	47.46141	-122.3072	6.137	6.362295	-9.679831	32.52	31.03135	99	0	100	-1.19728	1.731305	164.6364	
13:55:58	47.46101	-122.307	5.655	5.704715	-35.26085	33.34	31.85842	99	0	100	-0.28082	1.137039	166.5445	
13:56:00	47.46044	-122.3067	4.703	4.880608	-49.7933	34.07	32.52055	99	0	98	-0.1233764	0.5467921	168.9259	
13:56:01	47.45998	-122.3064	4.068	4.089475	-40.72763	34.37	32.76317	99	0	100	0.2445353	0.3924676	171.5082	
13:56:03	47.45947	-122.3062	4.294	3.928812	-22.34795	34.53	32.86853	99	0	100	0.1555193	0.05989319	173.4627	
13:56:05	47.45893	-122.3059	4.645	4.426606	21.90269	34.66	33.02997	99	0	100	-0.03806399	0.04509411	175.7	
13:56:06	47.45851	-122.3057	5.159	5.142458	41.33317	34.68	33.10093	99	0	98	0.6959225	0.2120022	178.7669	
13:56:08	47.45796	-122.3055	5.445	5.518376	47.87928	34.8	32.50166	99	0	100	0.09861781	0.09501715	178.8412	
13:56:10	47.45744	-122.3053	6.133	6.165716	58.89599	34.82	32.78448	99	0	98	0.2217667	0.02606027	179.4258	
13:56:11	47.45695	-122.3052	7.044	7.075807	71.76704	34.76	32.95041	99	0	100	0.2208329	0.106056	-179.4765	
13:56:13	47.45637	-122.305	8.467	8.247574	88.34621	34.69	33.04158	99	0	98	0.1547733	0.1667452	-179.539	
13:56:15	47.45592	-122.3049	9.801	9.76116	92.89671	34.56	32.94073	99	0	98	0.1838431	0.03057541	-178.239	
13:56:17	47.45539	-122.3048	11.497	11.41867	106.7071	34.55	32.93731	99	0	98	0.4214166	0.1336596	-176.9175	
13:56:18	47.45483	-122.3047	13.604	13.2517	115.1411	34.51	33.08469	99	0	100	0.1949649	0.1350775	-176.3848	
13:56:20	47.45432	-122.3046	16.008	15.62185	136.5498	34.53	33.0519	99	0	100	0.4434929	0.2392642	-175.4791	
13:56:22	47.45391	-122.3046	18.05	18.19903	149.9173	34.55	33.07484	99	0	100	18.97813	0.3538979	-169.6857	
13:56:23	47.4535	-122.3046	20.815	21.77677	263.807	34.45	34.00479	99	0	100	17.78556	1.230578	-157.9411	
13:56:25	47.45288	-122.3048	26.823	26.39787	289.554	34.05	34.09788	99	0	100	17.07619	0.9737319	-148.8813	
13:56:27	47.45236	-122.3052	31.949	32.0938	314.8156	33.89	34.46134	99	0	100	17.4472	0.8643489	-140.3666	
13:56:28	47.4521	-122.3054	34.747	35.98521	259.5124	33.81	35.72651	99	0	100	17.23865	0.9863358	-131.0784	
13:56:30	47.45156	-122.3062	39.513	38.17586	144.3002	33.8	36.36631	99	0	100	17.26952	-0.5494286	-120.185	
13:56:32	47.45126	-122.3068	40.933	41.5554	228.4264	34.06	37.18809	99	0	100	4.947155	0.9261752	-113.7932	
13:56:33	47.45103	-122.3075	46.861	47.07727	527.3749	32.66	36.06134	99	0	100	25.15019	8.352034	-100.4715	
13:56:35	47.45094	-122.3081	54.764	55.27977	557.6631	31.02	34.70673	99	0	100	27.69812	10.23895	-83.67958	
13:56:37	47.45098	-122.3089	65.457	64.72823	534.5299	29.48	33.6118	99	0	100	35.8207	10.10008	-64.11382	
13:56:39	47.4512	-122.3094	74.727	74.30894	590.1378	28.05	32.15923	99	0	100	38.22495	11.53741	-37.8155	
13:56:40	47.45154	-122.3097	83.047	82.93248	479.9539	27.42	30.77991	99	0	98	40.22444	9.960135	-10.68311	
13:56:42	47.45193	-122.3098	88.172	87.64073	-13.75911	27.99	30.31784	99	0	98	15.07099	-0.3134646	3.423957	
13:56:44	47.45239	-122.3097	86.597	87.06696	-45.92632	29.82	31.58909	99	0	98	6.928434	-0.6723613	10.96186	
13:56:45	47.45284	-122.3096	85.185	85.56969	-37.59783	30.84	32.54778	99	0	100	-4.092163	-0.3393702	12.58845	
13:56:47	47.45335	-122.3094	83.924	84.03563	-177.1753	31.28	32.86763	99	0	100	-5.104047	-2.848013	12.34779	
13:56:49	47.45382	-122.3092	82.198	82.12032	-76.16316	31.69	33.37171	99	0	100	-4.304362	-1.493091	11.17346	
13:56:50	47.45426	-122.3091	80.888	80.59662	-180.644	31.77	33.4119	99	0	100	-7.247205	-3.591282	10.31378	
13:56:52	47.45476	-122.3089	77.901	78.06861	-223.0934	32.15	33.72944	99	0	100	-9.799684	-4.996069	7.493968	
13:56:54	47.4552	-122.3088	75.91	76.34811	101.307	32.29	33.99714	99	0	100	0.7966587	0.4218435	5.558248	
13:56:55	47.4557	-122.3087	77.94	77.46915	51.92955	31.4	33.01746	99	0	98	0.3652007	-0.01425031	7.116549	
13:56:57	47.45617	-122.3086	79.671	79.18774	53.93154	29.97	31.69399	99	0	79	0.6919438	-0.3137064	7.99873	
13:56:59	47.45659	-122.3085	80.904	80.63591	63.31658	28.94	30.42284	99	0	80	0.3606926	-0.2235745	9.80253	
13:57:01	47.45702	-122.3083	81.86	81.80554	60.05084	28.35	29.95304	99	0	80	1.026507	-0.1714018	11.59691	
13:57:02	47.45742	-122.3082	82.87	82.78239	51.1349	27.98	29.54887	99	0	79	0.6070432	-0.1206225	13.08173	
13:57:04	47.45785	-122.308	83.774	83.62247	47.51821	27.68	29.20462	99	0	79	0.3662908	0.06059011	14.61148	
13:57:06	47.4581	-122.3079	84.46	84.61655	55.06541	27.61	29.10516	99	0	80	0.4672217	0.2747035	16.17369	
13:57:07	47.45864	-122.3076	86.244	85.59689	45.0245	27.62	29.11703	100	0	80	0.6654878	0.05545291	17.86137	
13:57:09	47.45901	-122.3074	87.27	87.11175	77.59981	27.65	29.20247	100	0	80	0.6181953	0.2027395	19.43148	
13:57:11	47.45937	-122.3072	87.914	88.1068	52.4104	27.69	29.27672	100	0	80	0.5063593	-0.04496637	20.84723	
13:57:12	47.4597	-122.307	88.565	88.75905	62.31956	27.67	29.24554	100	0	79	0.4267013	0.4499989	22.46109	
13:57:14	47.46019	-122.3066	89.872	89.54646	35.15121	27.58	29.11614	100	0	79	0.3687033	-0.005818146	23.93859	
13:57:16	47.46054	-122.3064	90.91	90.68776	63.80062	27.61	29.1581	100	0	80	0.3257203	0.2282093	25.42392	
13:57:17	47.46092	-122.3061	92.197	92.05232	74.09615	27.71	29.28707	100	0	80	0.4082406	0.1493471	26.78822	
13:57:19	47.46126	-122.3058	93.13	93.25658	75.61983	27.76	29.34586	100	0	80	0.3740473	0.2701983	28.23952	
13:57:21	47.46167	-122.3054	94.128	94.18066	47.99834	27.8	29.37263	100	0	80	0.4827289	0.05409825	29.85616	
13:57:23	47.46201	-122.3051	95.38	95.25646	60.54565	27.81	29.38617	100	0	79	-0.2551273	0.1619803	31.12674	
13:57:24	47.46238	-122.3048	96.735	96.53468	71.53757	27.73	29.28735	100	0	80	0.4407965	0.1984758	32.26099	
13:57:26	47.46276	-122.3044	98.339	98.08069	71.61359	27.68	29.25539	100	0	79	0.3432701	-0.03932763	33.56588	
13:57:28	47.46307	-122.3041	99.592	99.55966	90.37714	27.69	29.23853	100	0	80	0.3506231	0.2487616	34.7828	
13:57:29	47.46342	-122.3037	101.177	101.051	92.74806	27.78	29.32192	100	0	80	0.4291229	0.2857537	36.07933	
13:57:31	47.46378	-122.3033	102.922	102.7867	92.7196	27.74	29.28437	100	0	80	0.4006646	0.1261057	37.15997	
13:57:33	47.46408	-122.303	104.779	104.6562	109.9519	27.82	29.3468	100	0	80	0.4073578	0.384217	38.19722	
13:57:35	47.46442	-122.3026	106.834	106.6421	35.8467	27.8	29.33652	100	0	80	-39.84605	-0.1736956	35.44591	
13:57:36	47.46485	-122.3023	106.316	106.8874	31.63617	28.24	29.29025	100	0	80	-46.20204	0.9714885	4.337007	
13:57:38	47.46523	-122.3024	105.519	106.1295	-10.60463	29.25	29.93472	100	0	84	-45.77572	1.183868	-25.97046	
13:57:40	47.46555	-122.3028	104.966	105.0474	-42.36728	30.73	30.88583	100	0	86	-45.6856	1.157339	-54.23097	
13:57:41	47.46572	-122.3036	104.309	104.2988	-42.84728	32.23	31.82195	100	0	84	-45.44139	1.401729	-81.60312	
13:57:43	47.46566	-122.3042	103.962	103.6961	-58.6315	32.77	31.89875	100	0	87	-34.08765	1.016908	-104.0419	
13:57:45	47.46543	-122.3049	103.55	103.1862	-54.96581	33.28	32.19236	100	0	87	-18.81586	0.2364124	-117.1545	
13:57:46	47.46516	-122.3054	103.081	102.8613	-22.68027	33.51	32.55254	100	0	87	-8.358016	-0.1187199	-123.1398	
13:57:48	47.46478	-122.3061	102.545	102.693	-1.287869	33.66	32.61779	100	0	90	-5.561365	-0.2506208	-126.4762	
13:57:50	47.46441	-122.3067	102.536	102.7031	34.39523	33.92	32.35247	100	0	93	-5.53973	0.1506081	-129.2809	
13:57:51	47.46423	-122.307	102.796	103.0754	39.31521	33.98	32.23268	100	0	93	-7.692968	0.2276123	-132.6597	
13:57:53	47.46366	-122.3077	103.414	103.5767	33.2819	34.01	31.82716	100	0	95	-8.623287	0.0511094	-137.2609	
13:57:55	47.46328	-122.3082	103.855	103.9356	32.61296	34.05	31.8252	100	0	95	-4.720568	0.1536301	-140.3635	
13:57:57	47.46288	-122.3086	104.853	104.6751	52.07354	34.02	31.80864	100	0	95	-3.502639	0.3525456	-142.2167	
13:57:58	47.46243	-122.3091	106.149	105.8323	54.92286	33.96	31.767	100	0	95	-2.5444	0.1619725	-143.3824	
13:58:00	47.46207	-122.3095	106.733	106.8832	53.94569	33.92	31.73341	100	0	95	-2.037996	0.1417441	-144.0499	
13:58:02	47.46163	-122.31	107.449	107.4672	38.88641	33.91	31.73738	100	0	95	-1.69493	0.1890209	-144.4266	
13:58:03	47.46119	-122.3104	109.125	108.6105	53.11945	33.86	31.68387	100	0	93	-1.774477	0.1677893	-144.6786	
13:58:05	47.46082	-122.3108	110.41	110.2589	79.16071	33.79	31.61719	100	0	93	-1.837811	0.2306132	-144.7583	
13:58:07	47.46039	-122.3113	111.794	111.6197	0.4414912	33.84	31.6897	100	0	95	-43.49699	-0.4453622	-150.4148	
13:58:08	47.45982	-122.3116	112.206	112.3724	98.14253	34.05	31.8058	100	0	95	-45.61543	0.4727282	179.3566	
13:58:10	47.45943	-122.3115	112.859	113.447	94.33112	33.61	32.63975	100	0	95	-44.93554	0.483264	149.7923	
13:58:12	47.45896	-122.311	112.396	113.3998	32.03691	32.88	33.32999	100	0	93	-45.22451	-0.17704	120.3235	
13:58:14	47.45876	-122.3104	112.055	112.8795	43.84993	32.17	33.34659	100	0	95	-8.743649	-0.05938961	102.3509	
13:58:15	47.4586	-122.3097	111.904	111.9097	-44.75972	32.31	33.77628	100	0	95	20.2228	-0.6098091	107.3346	
13:58:17	47.45836	-122.309	112.437	111.8936	-16.35334	32.71	33.25669	100	0	95	21.9372	-0.05078633	120.2308	
13:58:19	47.45806	-122.3085	113.701	112.9302	20.55785	32.95	33.19239	100	0	95	14.79698	0.06497439	131.5487	
13:58:20	47.45777	-122.3081	114.903	114.5601	51.89534	33.05	32.94806	100	0	95	6.737619	0.05563716	138.4474	
13:58:22	47.45727	-122.3075	116.543	116.1077	32.7632	33.15	32.82872	100	0	95	-32.55241	-0.03975832	139.5172	
13:58:24	47.45695	-122.3071	116.57	116.7693	71.40237	32.6	32.25937	100	0	95	-45.36006	1.018171	112.2909	
13:58:25	47.45681	-122.3064	117.378	117.4742	47.27938	31.63	32.52201	100	0	95	-44.73666	0.8140891	84.46511	
13:58:27	47.45691	-122.3057	117.627	117.813	19.88511	30.91	32.81062	100	0	95	-44.95518	0.6799565	56.56524	
13:58:29	47.45724	-122.3051	116.885	117.4153	-15.37931	30.71	32.82495	100	0	95	-44.55932	0.5099756	28.90123	
13:58:31	47.45765	-122.3049	116.247	116.6235	-12.19553	30.8	33.24388	100	0	95	-21.32647	0.1580345	8.91909	
13:58:32	47.45808	-122.3049	115.916	115.8179	-47.74087	30.87	33.2204	100	0	95	-7.015023	-0.6844528	2.832922	
13:58:34	47.45856	-122.3049	115.967	115.6567	-17.43044	30.82	33.16397	100	0	95	15.37224	-0.5462847	3.817965	
13:58:36	47.45906	-122.3048	116.635	116.3283	32.03014	30.71	32.86663	100	0	95	23.1172	-0.01294994	15.49859	
13:58:37	47.45951	-122.3045	117.642	117.3819	58.18268	30.52	32.55221	100	0	93	19.03079	0.1352104	28.34099	
13:58:39	47.45989	-122.3042	118.968	118.6161	57.01987	30.36	32.44144	100	0	95	10.49666	-0.07550364	37.43523	
13:58:41	47.46024	-122.3037	120.596	120.2488	77.65088	30.3	32.31108	100	0	95	3.654625	0.144717	42.43275	
13:58:42	47.46059	-122.3032	122.37	121.9596	82.12792	30.19	32.06614	100	0	93	0.06780782	0.07430276	44.36953	
13:58:44	47.46093	-122.3027	124.255	123.8244	97.9694	30.15	31.75634	100	0	95	-1.923723	0.1517128	44.79533	
13:58:46	47.46124	-122.3023	125.798	125.2877	40.6651	30.17	31.71996	100	0	93	-45.64431	0.001003991	31.3797	
13:58:47	47.4617	-122.3021	128.579	127.8704	162.839	29.96	30.92219	100	0	93	-45.44519	1.239891	1.580117	
13:58:49	47.46209	-122.3022	131.909	131.6115	313.3454	30.03	30.82779	100	0	95	-8.430182	1.538583	-24.034	
13:58:51	47.46252	-122.3025	136.228	135.916	126.2693	29.8	30.67671	100	0	95	46.98531	0.05807987	-6.843541	
13:58:53	47.463	-122.3023	134.442	136.5769	49.34624	31	31.72375	100	0	95	46.14482	0.9306636	27.02055	
13:58:54	47.46331	-122.3019	129.488	131.8443	-200.3066	32.61	33.01171	100	0	95	45.38233	0.6821209	56.28541	
13:58:56	47.46343	-122.3011	122.671	124.017	-401.1079	34.35	34.63852	100	0	93	45.85641	0.7988267	82.88016	
13:58:58	47.46331	-122.3004	116.026	115.6768	-511.8279	35.5	35.3517	100	0	93	45.41619	0.7631643	107.0274	
13:58:59	47.46301	-122.2998	111.122	109.1484	-492.0713	36.17	35.84121	100	0	95	41.99896	1.156744	130.2199	
13:59:01	47.46254	-122.2994	106.747	104.7798	-423.9568	36.34	35.57735	100	0	95	21.03984	0.3261089	144.014	
13:59:03	47.46197	-122.299	100.711	100.266	-351.3697	36.37	35.46432	100	0	95	5.54162	-0.5728397	148.336	
13:59:04	47.46146	-122.2988	95.819	95.90899	-244.5086	36.32	34.63984	100	0	93	0.88096	-0.6907181	149.6496	
13:59:06	47.4609	-122.2986	92.276	92.53962	-157.1523	36	34.08715	100	0	95	-0.2024964	-0.3976637	151.4153	
13:59:08	47.46035	-122.2984	90.093	90.31966	-90.40343	35.56	34.08518	100	0	95	-4.901089	-0.1505839	153.5653	
13:59:10	47.45991	-122.2982	88.936	88.78378	-78.95103	35.14	33.94497	100	0	95	-26.78061	-0.03554663	148.1999	
13:59:11	47.45942	-122.2979	88.97	88.64063	11.92453	34.42	34.68052	100	0	95	-29.2562	0.393915	136.2647	
13:59:13	47.459	-122.2974	90.584	90.01787	82.89068	33.55	35.44115	100	0	95	-23.77496	0.290372	125.3452	
13:59:15	47.45869	-122.2968	92.625	92.36282	137.6728	32.92	35.85965	100	0	95	-15.78692	0.2285842	118.7222	
13:59:16	47.45844	-122.2962	98.175	97.21637	252.72	32.47	34.45974	100	0	95	-9.279112	0.106911	116.3124	
13:59:18	47.45815	-122.2955	106.05	104.538	388.9343	32.17	33.13306	100	0	95	-5.16174	0.1877438	116.0418	
13:59:20	47.45794	-122.2949	112.238	112.1518	449.2028	32.02	32.19905	100	0	95	-3.031823	0.2167043	117.18	
13:59:21	47.45774	-122.2943	118.432	119.0673	462.0714	31.98	31.80268	100	0	95	-2.881637	0.4427884	118.6024	
13:59:23	47.45748	-122.2936	126.822	126.6162	463.0366	31.94	31.54268	100	0	95	-2.948282	0.1892944	119.803	
13:59:25	47.45725	-122.293	123.836	128.2245	220.9388	31.91	31.51588	100	0	95	-2.97072	0.3764361	120.6567	
13:59:27	47.45702	-122.2924	121.376	122.9346	-116.8976	31.82	31.32801	100	0	93	-3.30688	0.1702448	121.2321	
13:59:28	47.45675	-122.2917	119.914	119.5314	-179.6957	31.78	31.2126	100	0	93	-3.252733	0.1870048	121.4899	
13:59:30	47.45652	-122.2911	118.583	117.967	-132.5531	31.81	31.21033	100	0	95	-3.167409	0.3936965	121.5672	
13:59:32	47.45626	-122.2905	117.7	117.0943	-94.11449	31.89	31.28234	100	0	93	-2.877549	0.3473911	121.4838	
13:59:33	47.45605	-122.2899	117.126	116.7148	-62.49645	31.87	31.24755	100	0	95	-2.978877	0.2656709	121.3927	
13:59:35	47.4558	-122.2893	116.429	116.2781	-51.49154	31.94	31.3144	100	0	95	-2.850493	0.2224401	121.2721	
13:59:37	47.45555	-122.2886	115.595	115.6196	-47.19107	32	31.35795	100	0	95	-2.749345	0.3570941	120.9837	
13:59:38	47.45531	-122.288	114.754	114.7574	-59.5928	32.06	31.41614	100	0	95	-2.670734	0.2351884	120.7733	
13:59:40	47.45507	-122.2874	113.734	113.7316	-72.47076	32.07	31.43408	100	0	95	-2.510266	0.07085138	120.4911	
13:59:42	47.45482	-122.2867	112.697	112.7218	-69.19102	32.13	31.48327	100	0	95	-2.790601	0.2502824	120.1115	
13:59:43	47.45458	-122.2861	111.803	111.5625	-76.19812	32.12	31.45477	100	0	95	-2.494243	0.2829925	119.6245	
13:59:45	47.45434	-122.2855	113.49	112.2766	0.09586867	32.21	31.55626	100	0	93	-2.538514	0.2216308	119.2183	
13:59:47	47.4541	-122.2849	115.085	114.445	74.2104	32.21	31.54574	100	0	93	-2.268385	0.03541144	118.8169	
13:59:49	47.45386	-122.2842	116.627	116.5498	111.7601	32.2	31.53776	100	0	95	-2.322237	0.14857	118.5516	
13:59:50	47.45359	-122.2836	119.678	119.078	142.4793	32.27	31.58459	100	0	95	-2.10262	0.1532944	118.1983	
13:59:52	47.45338	-122.283	122.092	122.2608	176.9045	32.35	31.67427	100	0	95	-2.110076	0.1623423	117.8777	
13:59:54	47.4531	-122.2823	125.28	125.1921	186.3878	32.41	31.726	100	0	93	-2.144259	0.2193862	117.6357	
13:59:55	47.45288	-122.2817	127.762	128.0311	181.3641	32.42	31.73143	100	0	93	-2.453448	0.1866348	117.3869	
13:59:57	47.45263	-122.2811	130.455	130.6196	172.8334	32.38	31.68295	100	0	93	-2.253547	0.1269162	117.1153	
13:59:59	47.45236	-122.2804	133.766	133.3332	171.4765	32.42	31.71089	100	0	95	-2.298501	0.1455923	116.8899	
14:00:01	47.45214	-122.2798	137.37	136.9094	207.8077	32.48	31.78334	100	0	95	-2.148205	0.1648715	116.7506	
14:00:02	47.45188	-122.2791	142.086	141.7393	266.3001	32.49	31.79479	100	0	95	-2.318326	0.2034814	116.6002	
14:00:04	47.45161	-122.2784	145.426	145.5709	247.9441	32.54	31.83407	100	0	95	-2.281828	0.1930034	116.377	
14:00:06	47.45158	-122.2784	145.781	147.319	147.7477	32.54	31.843	100	0	95	-2.067689	0.05279962	116.51	
14:00:07	47.45158	-122.2784	145.781	146.5751	22.11954	32.54	31.83726	100	0	95	-1.892214	-0.027088	116.6598	
14:00:09	47.45158	-122.2784	145.781	145.7836	-30.49207	32.54	31.833	100	0	95	-1.77257	-0.08224931	116.7955	
14:00:11	47.45158	-122.2784	145.781	145.4979	-33.20375	32.54	31.83097	100	0	93	-1.691898	-0.1173725	116.915	
14:00:12	47.45158	-122.2784	145.781	145.511	-22.92577	32.54	31.82982	100	0	93	-1.647927	-0.1159746	117.0162	
14:00:14	47.45158	-122.2784	145.781	145.5858	-15.5855	32.54	31.82917	100	0	95	-1.617778	-0.1157428	117.0858	
14:00:16	47.45158	-122.2784	145.781	145.6362	-12.52836	32.54	31.82917	100	0	95	-1.599092	-0.1133746	117.1337	
14:00:17	47.45158	-122.2784	145.781	145.6584	-11.47773	32.54	31.82885	100	0	95	-1.614099	-0.0792515	117.151	
14:00:19	47.45158	-122.2784	145.781	145.6686	-10.75287	32.54	31.82868	100	0	95	-1.624573	-0.05622026	117.1474	
14:00:21	47.45158	-122.2784	145.781	145.6771	-9.861894	32.54	31.82859	100	0	95	-1.634254	-0.03807275	117.1321	
14:00:23	47.45158	-122.2784	145.781	145.6869	-8.821138	32.54	31.82856	100	0	95	-1.669996	0.003649509	117.0833	
14:00:24	47.45158	-122.2784	145.781	145.697	-7.842301	32.54	31.82855	100	0	95	-1.695012	0.03265241	117.0304	
14:00:26	47.45158	-122.2784	145.781	145.7059	-7.023087	32.54	31.82855	100	0	95	-1.715304	0.05549806	116.9752	
14:00:28	47.45158	-122.2784	145.781	145.7138	-6.290577	32.54	31.8285	100	0	93	-1.753607	0.09420648	116.8931	
14:00:29	47.45158	-122.2784	145.781	145.7208	-5.628636	32.54	31.82845	100	0	93	-1.780057	0.1210677	116.8181	
14:00:31	47.45158	-122.2784	145.781	145.7271	-5.050513	32.54	31.82841	100	0	93	-1.799723	0.1411088	116.7499	
14:00:33	47.45158	-122.2784	145.781	145.7327	-4.52307	32.54	31.82838	100	0	95	-1.834144	0.1740453	116.6594	
14:00:34	47.45158	-122.2784	145.781	145.7377	-4.054076	32.54	31.82834	100	0	95	-1.858008	0.1971204	116.5786	
14:00:36	47.45158	-122.2784	145.781	145.7421	-3.644908	32.54	31.82834	100	0	93	-1.875152	0.2140352	116.51	
14:00:38	47.45158	-122.2784	145.781	145.7461	-3.275831	32.54	31.82824	100	0	93	-1.902872	0.2401399	116.4274	
14:00:40	47.45158	-122.2784	145.781	145.7496	-2.959119	32.54	31.82818	100	0	93	-1.922186	0.2586543	116.3561	
14:00:41	47.45158	-122.2784	145.781	145.7526	-2.670813	32.54	31.82814	100	0	95	-1.935419	0.2716808	116.2953	
14:00:43	47.45158	-122.2784	145.781	145.7554	-2.395212	32.54	31.82811	100	0	93	-1.956142	0.2913162	116.2309	
14:00:45	47.45158	-122.2784	145.781	145.758	-2.158277	32.54	31.82808	100	0	95	-1.970793	0.305432	116.1744	
14:00:46	47.45158	-122.2784	145.781	145.7602	-1.954241	32.54	31.82808	100	0	95	-1.980867	0.3154435	116.1263	
14:00:48	47.45158	-122.2784	145.781	145.7623	-1.766546	32.54	31.82801	100	0	95	-1.995683	0.329628	116.0799	
14:00:50	47.45158	-122.2784	145.781	145.7641	-1.589789	32.54	31.82797	100	0	95	-2.006105	0.339803	116.0396	
14:00:51	47.45158	-122.2784	145.781	145.7658	-1.426386	32.54	31.82795	100	0	95	-2.013352	0.3471017	116.0054	
14:00:53	47.45158	-122.2784	145.781	145.7673	-1.275904	32.54	31.82793	100	0	95	-2.023533	0.3569453	115.9762	
14:00:55	47.45158	-122.2784	145.781	145.7688	-1.136713	32.54	31.82791	100	0	95	-2.030667	0.3639646	115.9504	
14:00:57	47.45158	-122.2784	145.781	145.7701	-1.020175	32.54	31.82791	100	0	95	-2.035679	0.3690071	115.928	
14:00:58	47.45158	-122.2784	145.781	145.7712	-0.9255553	32.54	31.82788	100	0	95	-2.04255	0.375637	115.9123	
14:01:00	47.45158	-122.2784	145.781	145.7721	-0.8374225	32.54	31.82785	100	0	95	-2.047313	0.3802619	115.8973	
14:01:02	47.45158	-122.2784	145.781	145.7729	-0.7540641	32.54	31.82784	100	0	93	-2.050563	0.3835104	115.8848	
14:01:03	47.45158	-122.2784	145.781	145.7738	-0.6733525	32.54	31.82782	100	0	95	-2.055081	0.3877809	115.8788	
14:01:05	47.45158	-122.2784	145.781	145.7746	-0.6059682	32.54	31.82781	100	0	95	-2.058338	0.3908485	115.8728	
14:01:07	47.45158	-122.2784	145.781	145.7752	-0.548802	32.54	31.82781	100	0	95	-2.060592	0.3929769	115.867	
14:01:08	47.45158	-122.2784	145.781	145.7758	-0.4966289	32.54	31.82779	100	0	95	-2.063576	0.3956367	115.8671	
14:01:10	47.45158	-122.2784	145.781	145.7762	-0.4485718	32.54	31.82778	100	0	95	-2.065684	0.3974764	115.8661	
14:01:12	47.45158	-122.2784	145.781	145.7767	-0.4014568	32.54	31.82777	100	0	95	-2.067133	0.398712	115.8645	
14:01:13	47.45158	-122.2784	145.781	145.7772	-0.3637627	32.54	31.82776	100	0	95	-2.069059	0.4002711	115.8682	
14:01:15	47.45158	-122.2784	145.781	145.7775	-0.3303568	32.54	31.82776	100	0	95	-2.070416	0.4012904	115.8698	
14:01:17	47.45158	-122.2784	145.781	145.7778	-0.2977251	32.54	31.82776	100	0	95	-2.071357	0.4019738	115.8709	
14:01:19	47.45158	-122.2784	145.781	145.7781	-0.2677146	32.54	31.82775	100	0	93	-2.072589	0.4027958	115.8753	
14:01:20	47.45158	-122.2784	145.781	145.7784	-0.2397998	32.54	31.82775	100	0	95	-2.073455	0.4033225	115.8784	
14:01:22	47.45158	-122.2784	145.781	145.7787	-0.2133844	32.54	31.82774	100	0	95	-2.074068	0.4036644	115.8808	
14:01:24	47.45158	-122.2784	145.781	145.7789	-0.189763	32.54	31.82774	100	0	95	-2.074842	0.4040567	115.8857	
14:01:25	47.45158	-122.2784	145.781	145.7791	-0.1687634	32.54	31.82774	100	0	95	-2.075384	0.4042875	115.8894	
14:01:27	47.45158	-122.2784	145.781	145.7793	-0.1496371	32.54	31.82774	100	0	95	-2.075773	0.4044162	115.8923	
14:01:29	47.45158	-122.2784	145.781	145.7795	-0.1323634	32.54	31.82774	100	0	95	-2.07625	0.4045592	115.8968	
14:01:30	47.45158	-122.2784	145.781	145.7796	-0.1176116	32.54	31.82774	100	0	95	-2.076588	0.4046148	115.9001	
14:01:32	47.45158	-122.2784	145.781	145.7798	-0.1037294	32.54	31.82774	100	0	95	-2.076828	0.4046191	115.9024	
14:01:34	47.45158	-122.2784	145.781	145.7799	-0.09159001	32.54	31.82773	100	0	95	-2.077126	0.404631	115.906	
14:01:36	47.45158	-122.2784	145.781	145.78	-0.08073231	32.54	31.82774	100	0	95	-2.077339	0.4046106	115.9087	
14:01:37	47.45158	-122.2784	145.781	145.7801	-0.07069336	32.54	31.82774	100	0	95	-2.077492	0.4045712	115.9107	
14:01:39	47.45158	-122.2784	145.781	145.7802	-0.06203341	32.54	31.82773	100	0	95	-2.077672	0.4045292	115.9135	
14:01:41	47.45158	-122.2784	145.781	145.7803	-0.05359958	32.54	31.82773	100	0	93	-2.077799	0.4044769	115.9156	
14:01:42	47.45158	-122.2784	145.781	145.7804	-0.04610863	32.54	31.82774	100	0	95	-2.077891	0.4044231	115.9171	
14:01:44	47.45158	-122.2784	145.781	145.7804	-0.03975793	32.54	31.82774	100	0	93	-2.077998	0.4043645	115.919	
14:01:46	47.45158	-122.2784	145.781	145.7805	-0.03369113	32.54	31.82774	100	0	93	-2.078075	0.4043081	115.9204	
14:01:47	47.45158	-122.2784	145.781	145.7805	-0.0284765	32.54	31.82774	100	0	95	-2.078131	0.4042591	115.9214	
14:01:49	47.45158	-122.2784	145.781	145.7806	-0.02388283	32.54	31.82773	100	0	95	-2.078192	0.4042049	115.9226	
14:01:51	47.45158	-122.2784	145.781	145.7806	-0.01952622	32.54	31.82774	100	0	95	-2.078238	0.4041607	115.9235	
14:01:53	47.45158	-122.2784	145.781	145.7807	-0.01583084	32.54	31.82774	100	0	95	-2.078264	0.4041202	115.9242	
14:01:54	47.45158	-122.2784	145.781	145.7807	-0.01252385	32.54	31.82774	100	0	95	-2.078297	0.4040831	115.9248	
14:01:56	47.45158	-122.2784	145.781	145.7807	-0.009660089	32.54	31.82774	100	0	93	-2.07832	0.4040512	115.9254	
14:01:58	47.45158	-122.2784	145.781	145.7807	-0.006849431	32.54	31.82774	100	0	95	-2.078339	0.4040269	115.9258	
14:01:59	47.45158	-122.2784	145.781	145.7808	-0.004826576	32.54	31.82774	100	0	95	-2.078351	0.404001	115.9261	
14:02:01	47.45158	-122.2784	145.781	145.7808	-0.002606736	32.54	31.82774	100	0	95	-2.078362	0.4039799	115.9263	
