Date	Latitude(deg) 	Longitude(deg)	hamsl(m)	hafl(m)	climbrate(cm/s)	GroundSpeed(m/s)	Airspeed(m/s)	Mav_Link(%)	Rssi_Link(%)	Throttle	Roll(deg)	Pitch(deg)	Yaw(deg)
14:19:00	0	0	0	0.2568807	-22.65895	0	3	46	0	80	-0.1270729	-0.153597	56.12337	
14:19:02	0	0	0	0.4614342	-2.822637	0	3	56	0	80	-0.1635304	-0.2420944	56.28693	
14:19:04	0	0	0	0.658543	0.7154881	0	3	64	0	80	-0.2244232	-0.3704844	56.3874	
14:19:05	0	0	0	0.7481976	-5.596487	0	3	70	0	80	-0.2253373	-0.3786533	56.35017	
14:19:07	0	0	0	0.5856283	-16.06233	0	3	74	0	80	-0.2465956	-0.3615364	56.39082	
14:19:09	0	0	0	0.306714	-22.30622	0	3	78	0	81	-0.2684853	-0.391535	56.3833	
14:19:11	0	0	0	0.3483167	-12.38186	0	3	80	0	80	-0.2589503	-0.3500799	56.24052	
14:19:12	0	0	0	0.7415302	7.187024	0	3	83	0	80	-0.2478787	-0.3593421	56.18397	
14:19:14	0	0	0	0.5949984	-7.41629	0	3	85	0	80	-0.2507846	-0.3417444	56.1537	
14:19:16	0	0	0	0.5179918	-9.021357	0	3	86	0	80	-0.192187	-0.2386018	56.10609	
14:19:17	0	0	0	0.1539104	-22.17243	0	3	88	0	80	-0.185051	-0.2111905	56.07557	
14:19:19	0	0	0	-0.01121898	-17.0079	0	3	89	0	80	-0.1738595	-0.2661369	56.05914	
14:19:21	0	0	0	0.213184	0.2077865	0	3	90	0	81	-0.1152539	-0.2259549	55.98775	
14:19:22	0	0	0	0.428209	5.673268	0	3	91	0	80	-0.102925	-0.1845697	55.93537	
14:19:24	0	0	0	0.5005443	3.18489	0	3	92	0	80	-0.08153498	-0.179325	55.91871	
14:19:26	0	0	0	0.4761554	-0.3341335	0	3	92	0	80	-0.0116417	-0.1209293	55.86305	
14:19:27	0	0	0	0.6466721	4.087984	0	3	93	0	80	0.007927348	-0.1320292	55.75003	
14:19:29	47.45871	-122.2983	182.748	98.1399	4823.245	29.43	29.43257	94	0	80	2.792588	13.99768	59.53982	
14:19:31	47.45871	-122.2983	182.748	223.9044	6489.739	29.43	29.43257	94	0	80	15.57672	31.23775	73.60807	
14:19:32	47.45871	-122.2983	182.748	222.8169	2505.516	29.43	29.43257	95	0	80	32.12912	38.65858	96.43533	
14:19:34	47.45871	-122.2983	182.748	194.8601	-248.4985	29.43	29.43257	95	0	69	49.40182	35.88373	125.6894	
14:19:36	47.45871	-122.2983	182.748	177.0728	-1168.27	29.43	29.43257	95	0	53	60.18962	24.71745	155.9346	
14:19:38	47.45877	-122.2983	182.765	172.155	-1061.357	28.82	29.4254	96	0	52	66.12811	11.60745	-169.3307	
14:19:39	47.45911	-122.2985	185.249	174.8409	-582.839	24.85	25.12655	96	0	54	2.87535	8.570182	-100.9118	
14:19:41	47.45945	-122.2984	198.037	191.4955	879.7585	16.26	16.65375	96	0	54	16.95067	31.44688	-83.39103	
14:19:43	47.45963	-122.2983	206.587	204.9463	211.3138	16.72	14.67926	97	0	61	2.986949	2.381684	-60.02112	
14:19:44	47.45988	-122.298	207.77	209.011	187.0882	19.28	16.72268	97	0	69	44.04702	2.063689	-23.82518	
14:19:46	47.45997	-122.2976	208.318	209.399	246.0555	23.32	22.51534	97	0	72	30.28265	7.018729	40.57228	
14:19:48	47.45988	-122.2971	206.426	208.2522	-72.20147	25.52	25.4176	97	0	72	1.717505	3.403409	62.859	
14:19:49	47.45974	-122.2965	204.464	204.2765	-140.5739	27.98	26.86847	97	0	72	1.284106	1.819197	71.42162	
14:19:51	47.45958	-122.2959	204.906	204.0223	-3.453516	29.26	27.86481	98	0	72	0.7203826	1.118101	78.73193	
14:19:53	47.45944	-122.2953	206.535	206.0928	135.4501	29.76	27.22861	98	0	72	0.4825056	0.782471	86.62901	
14:19:54	47.45931	-122.2947	208.957	209.2477	212.9977	29.79	27.5689	98	0	72	0.6207343	0.5708995	93.43094	
14:19:56	47.45915	-122.2941	212.333	212.2444	235.3863	29.67	26.44035	98	0	73	0.3728068	0.4146383	99.14288	
14:19:58	47.45896	-122.2934	214.566	215.5966	228.9938	29.44	27.27313	98	0	72	0.1848955	0.09397803	104.6947	
14:20:00	47.45882	-122.2929	215.792	216.8077	160.4086	29.28	26.15513	98	0	72	0.2357479	0.2443462	109.6305	
14:20:01	47.45863	-122.2923	214.354	216.5063	54.28927	29.11	26.89301	98	0	72	0.2771121	0.102096	113.8954	
14:20:03	47.45845	-122.2916	211.731	213.0712	-98.67351	28.88	26.41279	98	0	73	0.4214084	0.2249292	117.4933	
14:20:05	47.45825	-122.291	209.279	209.5667	-167.7291	28.72	26.21688	98	0	72	0.4692138	0.2156514	120.8321	
14:20:06	47.45805	-122.2904	207.078	206.965	-166.03	28.62	26.95693	99	0	73	0.1211101	0.2328564	123.5896	
14:20:08	47.45786	-122.2899	205.614	205.126	-138.6702	28.59	27.41866	99	0	73	0.3942738	0.1979097	125.9269	
14:20:10	47.45764	-122.2893	204.468	204.0807	-92.98396	28.55	27.63405	99	0	72	0.4311549	0.2912261	127.9332	
14:20:11	47.45742	-122.2888	203.409	203.2682	-74.26326	28.4	27.06608	99	0	72	0.3059209	0.1967342	129.6712	
14:20:13	47.45718	-122.2882	202.235	202.2726	-69.13249	28.33	27.22528	99	0	72	0.6524873	0.1847707	130.9248	
14:20:15	47.45694	-122.2877	201.247	201.272	-64.29438	28.33	27.41994	99	0	72	0.3072974	0.3733999	132.1566	
14:20:16	47.45671	-122.2872	200.383	200.3379	-68.99497	28.29	27.45535	99	0	73	0.3255811	0.2969556	133.6518	
14:20:18	47.45649	-122.2867	199.434	199.2949	-67.83644	28.37	27.58497	99	0	72	-0.03274343	0.3278897	134.3927	
14:20:20	47.45623	-122.2862	198.333	198.2292	-65.23063	28.37	27.58073	99	0	72	3.341054	0.3066613	135.1539	
14:20:22	47.45592	-122.2857	196.529	196.5056	-120.3679	29.09	28.5525	99	0	73	44.65384	-1.130683	159.1522	
14:20:23	47.45545	-122.2855	194.189	194.8621	-30.42036	29.96	31.71316	99	0	73	45.21136	-1.519593	-162.5	
14:20:25	47.45504	-122.2858	193.461	193.9195	6.517583	29.83	32.37267	99	0	72	45.1947	-1.982288	-123.697	
14:20:27	47.45483	-122.2863	193.669	193.8851	56.99326	29.26	31.35197	99	0	73	45.01744	-2.078129	-84.56956	
14:20:28	47.45486	-122.2869	194.51	195.198	199.8163	28.53	29.9381	99	0	72	31.42783	-0.5084891	-48.44423	
14:20:30	47.45512	-122.2875	197.304	197.8173	215.5966	27.98	29.27916	99	0	73	-3.782073	-0.3356731	-36.49979	
14:20:32	47.45538	-122.2879	200.353	200.5909	195.2715	27.98	29.03213	99	0	73	-9.103593	0.172642	-39.96008	
14:20:33	47.45567	-122.2884	204.391	203.9386	185.4079	27.86	28.49063	99	0	72	-5.43416	0.1797836	-43.3913	
14:20:35	47.45596	-122.2889	208.752	207.9964	198.9825	27.74	28.12167	99	0	72	-3.127419	0.0432098	-44.97013	
14:20:37	47.45621	-122.2894	212.467	211.9541	203.833	27.68	27.96407	99	0	73	-1.913775	0.006623464	-45.8434	
14:20:38	47.45645	-122.2899	216.16	215.9133	220.5749	27.67	27.82565	99	0	72	-7.46455	0.3679996	-48.87622	
14:20:40	47.45667	-122.2904	219.687	219.6962	208.287	27.67	27.68869	99	0	73	-4.380348	0.3340467	-51.86609	
14:20:42	47.45691	-122.291	224.17	223.6502	212.3114	27.73	27.67692	99	0	73	-2.293196	0.2927424	-53.33888	
14:20:44	47.45711	-122.2914	228.219	228.0778	233.0792	27.75	27.72979	99	0	72	-1.861124	0.3261866	-54.05816	
14:20:45	47.45734	-122.292	232.834	232.5251	239.0338	27.79	27.76968	99	0	73	-1.893546	0.1558715	-54.58105	
14:20:47	47.45758	-122.2926	237.343	237.0351	245.8005	27.86	27.83901	99	0	73	-1.881222	0.1408307	-55.10402	
14:20:49	47.45779	-122.2931	242.013	241.1451	243.43	27.85	27.8155	99	0	73	-1.802613	0.3054608	-55.66244	
14:20:50	47.45801	-122.2937	244.371	246.2705	266.2799	27.88	27.82602	99	0	73	-2.035911	0.2967506	-56.26822	
14:20:52	47.45819	-122.2942	241.774	244.3057	5.526505	27.92	27.85569	99	0	73	-4.696052	0.2373028	-57.03666	
14:20:54	47.4584	-122.2948	238.552	239.4814	-208.3894	28.14	27.92649	99	0	73	-14.98506	0.1253331	-62.25012	
14:20:55	47.45856	-122.2954	234.828	235.1073	-260.8019	28.51	27.89544	99	0	73	-15.1665	0.2477508	-71.01884	
14:20:57	47.45864	-122.296	231.596	231.1977	-266.8925	28.75	27.95181	99	0	73	-10.83115	0.2064092	-78.3054	
14:20:59	47.45869	-122.2966	227.551	227.3183	-272.3014	28.94	28.03798	99	0	73	-5.602345	-0.02586366	-82.83276	
14:21:01	47.45872	-122.2973	226.456	224.6962	-210.3867	29.02	28.06367	99	0	73	-1.992822	0.1195354	-84.58111	
14:21:02	47.45874	-122.298	226.319	225.0376	-81.44142	29	28.02811	99	0	73	-0.4003969	0.2126199	-84.54647	
14:21:04	47.45876	-122.2985	226.294	225.429	-122.969	28.85	28.07231	99	0	72	44.91204	-1.586521	-73.08738	
14:21:06	47.459	-122.2992	225.458	225.4312	7.142693	27.72	27.98157	99	0	73	46.06566	0.2660926	-35.9999	
14:21:07	47.45934	-122.2994	225.798	225.7155	5.898633	27.08	28.52418	99	0	73	45.9185	0.2196255	-1.64379	
14:21:09	47.45968	-122.2993	225.738	225.7905	2.656077	27.08	29.20241	99	0	73	45.14902	0.4101834	33.11463	
14:21:11	47.46	-122.2988	225.525	225.5126	-43.01977	27.85	29.40304	99	0	73	45.9726	0.02137742	66.29871	
14:21:12	47.46004	-122.2981	225.217	225.1886	4.854798	29.08	29.93848	99	0	73	36.30764	0.688607	97.11456	
14:21:14	47.45992	-122.2976	226.174	225.7478	-3.610393	29.28	29.99352	99	0	73	6.761259	-0.005604132	109.5861	
14:21:16	47.45972	-122.297	226.612	226.3175	12.05356	29.32	30.02639	99	0	73	-1.521833	-0.2868913	110.8982	
14:21:18	47.45953	-122.2964	229.774	228.1302	77.90457	29.12	29.79568	99	0	73	-21.46275	-0.251736	104.5793	
14:21:19	47.45942	-122.2957	234.305	232.809	231.9896	28.54	29.28509	99	0	73	-24.39584	0.1810606	90.94267	
14:21:21	47.45941	-122.2951	239.277	238.6727	335.446	27.99	29.18638	99	0	73	-18.20744	0.4031024	79.16907	
14:21:23	47.45948	-122.2945	245.124	244.5793	352.7016	27.48	29.1032	99	0	72	-12.23453	0.09949619	71.71245	
14:21:24	47.4596	-122.2939	248.774	249.3752	359.0492	27.15	28.89455	99	0	73	-6.047839	1.045445	66.63698	
14:21:26	47.45974	-122.2933	248.836	250.7245	150.099	27.49	28.8583	99	0	73	-1.662116	-0.4838548	64.07172	
14:21:28	47.45988	-122.2928	249.032	249.8172	-12.45982	27.73	28.84679	99	0	73	41.317	-1.320341	69.84721	
14:21:29	47.45993	-122.2921	250.354	249.5342	58.42236	28.68	28.20343	99	0	72	45.37036	0.3146209	104.6961	
14:21:31	47.45973	-122.2916	255.14	253.87	200.613	28.72	27.59502	99	0	73	45.0057	0.09432834	139.7209	
14:21:33	47.45934	-122.2913	258.279	259.1864	266.7319	28.78	27.45474	99	0	73	44.86376	-0.3827521	177.3173	
14:21:35	47.45887	-122.2914	259.237	260.5208	183.8192	28.8	27.65659	99	0	73	31.80005	-0.02329043	-146.3639	
14:21:36	47.45852	-122.2918	261.173	261.4745	110.6241	28.67	27.84934	99	0	73	3.010512	0.2839325	-129.9785	
14:21:38	47.45821	-122.2923	262.85	262.4973	44.52629	28.88	28.25366	99	0	73	-6.473736	0.03634663	-128.0504	
14:21:40	47.45792	-122.2927	264.024	263.436	-60.63863	29.08	28.05198	99	0	73	44.01529	-2.088281	-118.8091	
14:21:41	47.45776	-122.2933	264.922	264.0976	60.87529	28.94	28.55231	99	0	72	46.69711	-0.9298097	-78.64854	
14:21:43	47.4579	-122.294	261.491	265.304	160.3561	28.22	29.32471	99	0	73	31.75544	0.4644455	-43.32694	
14:21:45	47.45819	-122.2944	258.315	260.5677	-151.0367	27.95	29.7606	99	0	72	-13.74047	-0.3990278	-33.45683	
14:21:46	47.45847	-122.2948	254.77	254.7	-286.9841	28.34	29.4651	99	0	73	-30.59184	-0.07621861	-47.15476	
14:21:48	47.45872	-122.2954	249.836	250.0346	-273.3213	29.05	28.70499	99	0	72	-27.50031	0.6378567	-65.41901	
14:21:50	47.45881	-122.296	246.303	245.9389	-291.0742	29.15	28.45365	99	0	72	-18.13708	0.2305756	-78.17985	
14:21:51	47.45883	-122.2967	241.987	241.71	-279.2729	29.32	28.3716	99	0	73	-9.042512	0.3271219	-85.97944	
14:21:53	47.45881	-122.2974	240.969	239.1938	-208.9779	29.34	28.27876	99	0	73	-2.454646	0.2406905	-88.6319	
14:21:55	47.45878	-122.298	240.898	239.5344	-78.31766	29.29	28.16168	99	0	73	0.02308096	0.2399877	-88.80761	
14:21:57	47.45878	-122.2987	240.534	239.8883	-117.0384	29.04	28.24396	99	0	73	45.20323	-1.46571	-71.13017	
14:21:58	47.45898	-122.2992	238.213	239.0877	-14.94336	28.36	29.34222	99	0	73	45.76105	0.126982	-32.81518	
14:22:00	47.45933	-122.2995	236.008	236.7921	-77.25998	28.09	30.26435	99	0	73	45.4748	-0.1224321	1.848848	
14:22:02	47.45978	-122.2993	233.665	233.9956	-107.928	28.27	30.92796	99	0	72	45.2281	-0.02956216	35.16311	
14:22:03	47.46005	-122.2989	233.024	232.4597	-95.05801	28.57	30.55127	99	0	73	44.59091	-0.2687022	67.04095	
14:22:05	47.46012	-122.2981	234.357	233.2406	47.61414	28.96	30.26545	99	0	73	24.47273	0.5635713	93.36034	
14:22:07	47.46004	-122.2976	236.731	235.8308	57.54998	28.58	29.47722	99	0	73	1.897819	-0.3641823	100.7117	
14:22:08	47.45996	-122.297	238.251	238.3471	102.6801	28.38	29.3279	99	0	73	-7.926455	-0.06756408	100.566	
14:22:10	47.45987	-122.2963	243.439	241.4462	140.5243	27.99	28.89336	99	0	72	-23.10525	-0.1037368	91.69977	
14:22:12	47.45988	-122.2957	248.819	247.5481	317.3262	27.49	28.52994	99	0	73	16.23669	0.3666982	81.48434	
14:22:14	47.45988	-122.2951	252.91	253.0356	310.654	28.4	28.2406	99	0	73	45.36123	-0.3068142	108.6857	
14:22:15	47.45964	-122.2946	256.878	257.7611	324.3667	29.67	28.60371	99	0	73	45.41639	0.1402264	144.1021	
14:22:17	47.45921	-122.2943	258.434	260.2258	222.266	30.52	29.25497	99	0	72	45.5081	-0.2768913	179.1991	
14:22:19	47.45875	-122.2944	257.023	259.31	98.40199	30.58	29.25821	99	0	73	35.27309	0.462656	-146.9748	
14:22:20	47.45841	-122.2948	255.372	256.6246	-82.0564	30.24	29.54927	99	0	73	-0.5364184	0.3160566	-133.7993	
14:22:22	47.45805	-122.2953	252.348	252.4903	-235.6528	30.34	29.56814	99	0	73	-26.25473	-0.2343709	-141.8859	
14:22:24	47.4577	-122.2957	250.042	249.1554	-209.671	30.5	28.96424	99	0	72	-28.30759	0.1821571	-159.7914	
14:22:25	47.45718	-122.2959	249.152	247.9719	-146.4431	30.33	28.94634	99	0	73	-35.95554	-0.04114893	-175.4967	
14:22:27	47.45678	-122.2958	249.786	248.0538	-51.39504	30.07	28.72775	99	0	73	-45.1703	0.5651423	154.6046	
14:22:29	47.45638	-122.2954	253.653	251.4395	103.1027	29.06	28.59906	99	0	73	-45.63266	0.2972265	122.9901	
14:22:31	47.45621	-122.295	257.839	256.8405	256.1169	28.14	28.65193	99	0	73	-44.37931	0.7114712	90.12808	
14:22:32	47.45625	-122.2943	262.333	262.5032	315.4168	27.32	28.41008	99	0	73	-44.94994	0.3911392	58.06251	
14:22:34	47.45649	-122.2939	263.468	265.823	259.0157	26.95	28.49775	99	0	72	-44.43437	0.3154189	26.13916	
14:22:36	47.45689	-122.2937	262.932	264.6908	127.4362	27.01	28.88262	99	0	73	-20.09432	0.9215496	2.746385	
14:22:37	47.45728	-122.2937	264.571	264.6782	35.49965	27.01	28.86345	99	0	73	-3.983205	-0.1195636	-3.183042	
14:22:39	47.45774	-122.2938	263.999	264.3861	-4.473902	27.01	28.68418	99	0	73	-1.275898	-0.09892289	-3.551871	
14:22:41	47.45811	-122.2938	263.768	263.7449	-28.99259	26.93	28.43779	99	0	73	9.024378	-0.03652618	-3.027085	
14:22:42	47.45855	-122.2938	265.091	264.1643	-3.999175	26.68	28.22019	99	0	72	22.60748	0.08409245	8.103057	
14:22:44	47.45897	-122.2937	267.553	266.6654	9.682104	26.47	27.87116	99	0	73	-40.49065	-0.2817483	10.80527	
14:22:46	47.45933	-122.2937	266.606	267.1674	48.03209	26.94	27.28431	99	0	73	-46.19786	0.5661706	-21.92105	
14:22:48	47.45967	-122.2941	265.712	266.4683	7.383461	27.73	27.61353	99	0	72	-45.9131	0.5916439	-56.13026	
14:22:49	47.4598	-122.2946	264.021	264.876	-50.00235	28.54	27.93226	99	0	73	-44.9021	0.1512383	-90.41467	
14:22:51	47.45967	-122.2953	259.254	260.865	-152.3132	29.57	28.2744	99	0	73	-44.85452	-0.3216414	-125.7999	
14:22:53	47.45936	-122.2958	256.993	257.2365	-149.1637	29.76	28.63567	99	0	73	-25.73057	0.3211758	-153.2416	
14:22:54	47.45897	-122.296	256.212	255.4088	-121.5481	29.8	28.67918	99	0	73	-0.02390911	0.1033435	-163.2745	
14:22:56	47.45852	-122.2963	255.789	255.0006	-106.8422	29.81	28.47488	99	0	73	24.04771	-0.2167444	-156.3484	
14:22:58	47.45821	-122.2966	254.678	254.2648	-79.38528	29.84	27.75584	99	0	73	27.00788	0.4234383	-138.0291	
14:22:59	47.45786	-122.2971	254.346	253.4642	-77.98326	29.57	27.77328	99	0	73	17.44274	0.516387	-122.4864	
14:23:01	47.45764	-122.2977	254.74	253.8168	-112.7313	29.35	27.87112	99	0	72	40.20793	-1.423104	-109.9932	
14:23:03	47.45756	-122.2983	253.591	253.5596	-11.52332	28.91	27.74334	99	0	73	45.61199	-0.08072653	-72.27267	
14:23:05	47.45775	-122.2989	252.105	252.7179	-1.048407	28.09	28.47224	99	0	73	45.61927	0.2539473	-35.28677	
14:23:06	47.45815	-122.2992	250.869	251.3349	-45.09638	27.53	29.10349	99	0	73	45.57328	0.2017876	-0.4748195	
14:23:08	47.45856	-122.2991	250.146	250.0256	-75.39111	27.51	29.59142	99	0	73	45.26884	0.1266854	33.24359	
14:23:10	47.45883	-122.2986	249.857	249.4218	-60.09653	28.19	29.68118	99	0	73	44.61765	0.2310664	66.24986	
14:23:11	47.45889	-122.298	250.363	249.7969	1.497651	28.87	29.51855	99	0	73	24.43639	0.6494057	91.19299	
14:23:13	47.45881	-122.2974	251.075	250.6449	-48.50177	29	29.49631	99	0	73	6.155334	-0.5304006	100.8808	
14:23:15	47.45867	-122.2967	249.565	249.6016	-56.79383	29.67	29.93795	99	0	72	-18.42526	-0.5537027	101.5405	
14:23:16	47.45855	-122.2961	252.29	250.7695	75.04446	29.31	29.77086	99	0	73	-32.02959	-0.01980823	87.47889	
14:23:18	47.45854	-122.2955	256.815	255.7413	258.3197	28.36	28.80839	99	0	73	-30.04904	0.6102437	70.92858	
14:23:20	47.45869	-122.2948	263.464	262.1225	334.3832	26.93	28.69324	99	0	72	-44.35662	0.7607856	45.07484	
14:23:22	47.45898	-122.2945	268.246	268.5721	363.5329	26.03	28.86255	99	0	72	-44.48483	0.5760354	13.91845	
14:23:23	47.45938	-122.2944	270.63	272.2576	258.1042	26.31	29.40256	99	0	73	-45.27393	-0.106255	-18.52585	
14:23:25	47.45948	-122.2944	270.408	272.7386	270.1344	26.55	28.54786	99	0	73	-30.22011	8.474769	-46.74679	
14:23:27	47.45948	-122.2944	270.408	273.8722	413.0384	26.55	26.41141	99	0	73	-18.23571	23.96144	-64.09766	
14:23:28	47.45948	-122.2944	270.408	274.147	326.9639	26.55	24.48328	99	0	72	-14.10722	36.49199	-82.65832	
14:23:30	47.45948	-122.2944	270.408	272.3363	43.29817	26.55	23.59091	99	0	73	-15.83055	45.41222	-104.46	
14:23:32	47.45948	-122.2944	270.408	269.4723	-262.9085	26.55	22.74317	99	0	73	-21.44707	51.37344	-128.8488	
14:23:33	47.45948	-122.2944	270.408	266.8288	-487.7907	26.55	21.17273	99	0	72	-31.71279	52.97756	-159.2406	
14:23:35	47.45948	-122.2944	270.408	265.1606	-586.8791	26.55	19.75544	99	0	72	-42.6322	48.75537	166.199	
14:23:37	47.45948	-122.2944	270.408	264.7965	-538.0966	26.55	18.47635	99	0	72	-48.20381	39.28719	131.2612	
14:23:38	47.45948	-122.2944	270.408	265.984	-328.4458	26.55	17.322	99	0	72	-46.89984	27.14223	94.94543	
14:23:40	47.45948	-122.2944	270.408	268.624	5.512777	26.55	15.79806	99	0	73	-39.84013	16.81936	54.91343	
14:23:42	47.45948	-122.2944	270.408	271.9693	344.4641	26.55	14.49152	99	0	72	-29.88038	15.2815	15.21082	
14:23:44	47.45948	-122.2944	270.408	274.5161	505.3745	26.55	13.72577	99	0	73	-21.43748	25.39945	-10.56746	
14:23:45	47.45948	-122.2944	270.408	274.8819	396.3964	26.55	13.03469	99	0	73	-17.78964	35.93878	-31.86735	
14:23:47	47.45948	-122.2944	270.408	273.0916	125.1076	26.55	12.71486	99	0	73	-19.18124	43.96067	-54.84309	
14:23:49	47.45948	-122.2944	270.408	270.4429	-152.0646	26.55	12.41102	99	0	73	-25.56713	48.3372	-82.63487	
14:23:50	47.45948	-122.2944	270.408	268.0807	-345.4964	26.55	11.84817	99	0	73	-32.93394	49.33012	-112.3129	
14:23:52	47.45948	-122.2944	270.408	266.6201	-435.5726	26.55	11.34021	99	0	73	-38.05221	49.04365	-140.3972	
14:23:54	47.45948	-122.2944	270.408	266.0658	-441.6295	26.55	11.10512	99	0	72	-42.7398	46.034	-170.2871	
14:23:55	47.45948	-122.2944	270.408	266.3302	-369.9981	26.55	10.66963	99	0	72	-45.56041	40.0169	158.2222	
14:23:57	47.45948	-122.2944	270.408	267.3883	-216.3306	26.55	10.27661	99	0	72	-45.27749	31.34276	124.1128	
14:23:59	47.45948	-122.2944	270.408	269.2858	20.14922	26.55	9.757776	99	0	73	-41.01965	22.24556	86.23186	
14:24:01	47.45948	-122.2944	270.408	271.785	290.2279	26.55	9.453693	99	0	73	-33.91834	16.08562	44.10222	
14:24:02	47.45948	-122.2944	270.408	274.2192	499.2379	26.55	9.179267	99	0	73	-25.54933	19.3998	7.773814	
14:24:04	47.45948	-122.2944	270.408	275.4213	510.6417	26.55	8.931606	99	0	73	-19.4567	30.12186	-15.87895	
14:24:06	47.45948	-122.2944	270.408	274.545	309.3128	26.55	8.708098	99	0	73	-18.05928	39.58831	-37.73777	
14:24:07	47.45948	-122.2944	270.408	272.1982	23.775	26.55	8.604657	99	0	73	-21.59802	46.07098	-62.60391	
14:24:09	47.45948	-122.2944	270.408	269.5742	-223.5076	26.55	8.413037	99	0	73	-29.01099	48.9032	-91.89325	
14:24:11	47.45948	-122.2944	270.408	267.5838	-370.1403	26.55	8.324354	99	0	72	-35.26444	49.25359	-120.8994	
14:24:12	47.45948	-122.2944	270.408	266.5334	-423.0101	26.55	8.160071	99	0	72	-39.98531	48.09348	-149.3346	
14:24:14	47.45948	-122.2944	270.408	266.2952	-404.3774	26.55	8.08404	99	0	72	-43.8816	44.22943	-179.321	
14:24:16	47.45948	-122.2944	270.408	266.8002	-309.3889	26.55	7.943193	99	0	73	-45.64483	37.48171	148.6227	
14:24:18	47.45948	-122.2944	270.408	268.1017	-131.364	26.55	7.816082	99	0	73	-44.23516	28.46357	113.4229	
14:24:19	47.45948	-122.2944	270.408	270.1714	116.43	26.55	7.648276	99	0	73	-39.12965	19.42975	73.67247	
14:24:21	47.45948	-122.2944	270.408	272.7346	381.1895	26.55	7.549925	99	0	73	-31.35448	15.28211	31.26987	
14:24:23	47.45948	-122.2944	270.408	274.9259	542.9362	26.55	7.420088	99	0	73	-22.95594	22.65249	0.2454443	
14:24:24	47.45948	-122.2944	270.408	275.498	479.6622	26.55	7.343992	99	0	73	-18.316	33.41556	-22.16036	
14:24:26	47.45948	-122.2944	270.408	274.042	233.9998	26.55	7.275315	99	0	73	-18.57453	42.08643	-44.73759	
14:24:28	47.45948	-122.2944	270.408	271.4163	-56.72565	26.55	7.243531	99	0	73	-23.81436	47.4071	-71.43874	
14:24:29	47.45948	-122.2944	270.408	268.9379	-273.2231	26.55	7.184651	99	0	73	-31.82359	48.86936	-101.8181	
14:24:31	47.45948	-122.2944	270.408	267.2177	-388.7336	26.55	7.1574	99	0	73	-36.78028	49.107	-129.5845	
14:24:33	47.45948	-122.2944	270.408	266.4524	-416.337	26.55	7.106918	99	0	73	-41.32286	47.14856	-158.4015	
14:24:35	47.45948	-122.2944	270.408	266.4558	-373.8636	26.55	7.083555	99	0	72	-44.65137	42.42096	170.9452	
14:24:36	47.45948	-122.2944	270.408	267.1952	-255.4737	26.55	7.040274	99	0	73	-45.57056	34.79362	138.0058	
14:24:38	47.45948	-122.2944	270.408	268.736	-54.48366	26.55	7.001213	99	0	72	-43.01137	25.41999	101.5778	
14:24:40	47.45948	-122.2944	270.408	271.0195	207.7752	26.55	6.949648	100	0	73	-36.74197	17.72681	60.90224	
14:24:41	47.45948	-122.2944	270.408	273.5609	451.925	26.55	6.919425	100	0	72	-28.86805	16.13499	19.0606	
14:24:43	47.45948	-122.2944	270.408	275.3517	549.9272	26.55	6.892148	100	0	73	-21.18307	26.00996	-7.132446	
14:24:45	47.45948	-122.2944	270.408	275.2623	420.3665	26.55	6.86753	100	0	73	-18.00783	36.26654	-29.05109	
14:24:46	47.45948	-122.2944	270.408	273.358	150.602	26.55	6.845314	100	0	73	-19.63574	44.01423	-52.35371	
14:24:48	47.45948	-122.2944	270.408	270.6821	-124.8838	26.55	6.835031	100	0	73	-25.91194	48.26806	-80.13992	
14:24:50	47.45948	-122.2944	270.408	268.3695	-313.9127	26.55	6.815983	100	0	73	-33.37748	49.07609	-110.14	
14:24:52	47.45948	-122.2944	270.408	266.9577	-400.531	26.55	6.807168	100	0	73	-38.20906	48.79856	-138.1423	
14:24:53	47.45948	-122.2944	270.408	266.4052	-410.245	26.55	6.798794	100	0	73	-42.55759	46.04125	-167.4924	
14:24:55	47.45948	-122.2944	270.408	266.619	-344.4901	26.55	6.783279	100	0	72	-45.32323	40.30178	160.8666	
14:24:57	47.45948	-122.2944	270.408	267.6098	-198.9771	26.55	6.769277	100	0	73	-45.18099	31.99506	127.0998	
14:24:58	47.45948	-122.2944	270.408	269.4049	25.6759	26.55	6.750791	100	0	73	-41.50976	22.53547	89.35812	
14:25:00	47.45948	-122.2944	270.408	271.8463	294.3832	26.55	6.739957	100	0	73	-34.39799	15.87655	47.45404	
14:25:02	47.45948	-122.2944	270.408	274.2652	509.1077	26.55	6.725653	100	0	73	-25.91354	18.46328	10.09805	
14:25:03	47.45948	-122.2944	270.408	275.6076	539.2406	26.55	6.717271	100	0	73	-19.52139	29.13247	-13.82632	
14:25:05	47.45948	-122.2944	270.408	274.8829	349.7921	26.55	6.71339	100	0	73	-17.8072	38.82775	-35.68246	
14:25:07	47.45948	-122.2944	270.408	272.6096	64.28858	26.55	6.706203	100	0	73	-20.96452	45.65479	-60.22772	
14:25:09	47.45948	-122.2944	270.408	269.9099	-194.4301	26.55	6.702877	100	0	73	-28.21522	48.75291	-89.17936	
14:25:10	47.45948	-122.2944	270.408	267.8384	-351.3369	26.55	6.699717	100	0	73	-34.71276	49.29112	-118.4064	
14:25:12	47.45948	-122.2944	270.408	266.6843	-413.4911	26.55	6.693863	100	0	73	-39.67292	48.23217	-146.74	
14:25:14	47.45948	-122.2944	270.408	266.3626	-401.6451	26.55	6.691154	100	0	72	-43.58405	44.76284	-176.431	
14:25:15	47.45948	-122.2944	270.408	266.7845	-316.0427	26.55	6.686134	100	0	73	-45.6725	38.19572	151.6553	
14:25:17	47.45948	-122.2944	270.408	268.0023	-146.2045	26.55	6.681605	100	0	73	-44.50931	29.32703	116.7435	
14:25:19	47.45948	-122.2944	270.408	270.0492	101.6106	26.55	6.675625	100	0	73	-39.7029	20.22704	77.60576	
14:25:20	47.45948	-122.2944	270.408	272.5525	363.5558	26.55	6.672121	100	0	73	-32.11184	15.51247	35.42474	
14:25:22	47.45948	-122.2944	270.408	274.8079	538.9621	26.55	6.667495	100	0	73	-23.7519	21.64539	2.58704	
14:25:24	47.45948	-122.2944	270.408	275.5504	494.2861	26.55	6.664783	100	0	73	-18.69607	32.4118	-20.20484	
14:25:25	47.45948	-122.2944	270.408	274.2685	263.9351	26.55	6.663527	100	0	72	-18.4162	41.22768	-42.38298	
14:25:27	47.45948	-122.2944	270.408	271.7343	-23.99312	26.55	6.661201	100	0	72	-22.86244	47.00847	-68.09335	
14:25:29	47.45948	-122.2944	270.408	269.1868	-252.6863	26.55	6.660126	100	0	73	-30.74359	48.96477	-98.14883	
14:25:31	47.45948	-122.2944	270.408	267.3841	-379.0946	26.55	6.658131	100	0	73	-36.16998	49.28426	-126.3009	
14:25:32	47.45948	-122.2944	270.408	266.5074	-417.2151	26.55	6.657207	100	0	73	-40.87885	47.59214	-155.0823	
14:25:34	47.45948	-122.2944	270.408	266.4076	-385.0927	26.55	6.655499	100	0	73	-44.46678	43.14083	174.7225	
14:25:36	47.45948	-122.2944	270.408	267.0517	-275.8605	26.55	6.653956	100	0	72	-45.67181	35.9865	142.1396	
14:25:37	47.45948	-122.2944	270.408	268.4942	-84.78051	26.55	6.652564	100	0	72	-43.59961	26.78778	106.2055	
14:25:39	47.45948	-122.2944	270.408	270.6588	168.4575	26.55	6.650723	100	0	73	-37.89014	18.35078	65.88853	
14:25:41	47.45948	-122.2944	270.408	273.2213	424.2606	26.55	6.649645	100	0	73	-30.02075	15.32225	23.20645	
14:25:42	47.45948	-122.2944	270.408	275.2016	552.5803	26.55	6.648223	100	0	72	-21.80266	24.60151	-4.42565	
14:25:44	47.45948	-122.2944	270.408	275.3833	443.4759	26.55	6.647388	100	0	73	-17.96226	35.28549	-26.3782	
14:25:46	47.45948	-122.2944	270.408	273.6223	180.119	26.55	6.647003	100	0	73	-19.09459	43.43167	-49.32843	
14:25:48	47.45948	-122.2944	270.408	270.9544	-101.8985	26.55	6.646286	100	0	72	-25.02008	48.12859	-76.60468	
14:25:49	47.45948	-122.2944	270.408	268.5121	-305.692	26.55	6.645956	100	0	73	-33.06888	48.95131	-107.2378	
14:25:51	47.45948	-122.2944	270.408	267.0064	-399.4083	26.55	6.645343	100	0	73	-37.85058	48.8044	-135.0161	
14:25:53	47.45948	-122.2944	270.408	266.4029	-413.945	26.55	6.645059	100	0	72	-42.09635	46.39896	-163.933	
14:25:54	47.45948	-122.2944	270.408	266.5283	-359.863	26.55	6.644534	100	0	73	-45.03292	41.09375	165.1401	
14:25:56	47.45948	-122.2944	270.408	267.4119	-225.7295	26.55	6.644059	100	0	73	-45.25163	33.28292	131.8366	
14:25:58	47.45948	-122.2944	270.408	269.0912	-12.23627	26.55	6.643631	100	0	72	-42.11106	23.89544	94.52679	
14:25:59	47.45948	-122.2944	270.408	271.4524	252.3705	26.55	6.643066	100	0	73	-35.41311	16.72704	53.00663	
14:26:01	47.45948	-122.2944	270.408	273.933	481.3159	26.55	6.642583	100	0	73	-27.18211	17.50665	13.6586	
14:26:03	47.45948	-122.2944	270.408	275.4456	540.5203	26.55	6.642299	100	0	72	-20.26657	27.89048	-11.27121	
14:26:05	47.45948	-122.2944	270.408	275.0081	376.3571	26.55	6.642167	100	0	73	-17.869	37.82162	-32.94365	
14:26:06	47.45948	-122.2944	270.408	272.8658	94.0882	26.55	6.641925	100	0	73	-20.42987	45.03819	-57.05958	
14:26:08	47.45948	-122.2944	270.408	270.1804	-171.3591	26.55	6.641814	100	0	75	-27.32382	48.63654	-85.65116	
14:26:10	47.45948	-122.2944	270.408	267.9859	-343.5214	26.55	6.641604	100	0	73	-34.18987	49.31065	-115.171	
14:26:11	47.45948	-122.2944	270.408	266.7162	-416.3566	26.55	6.641507	100	0	73	-39.05444	48.60308	-143.2517	
14:26:13	47.45948	-122.2944	270.408	266.3034	-411.761	26.55	6.641329	100	0	73	-43.24714	45.31691	-172.9289	
14:26:15	47.45948	-122.2944	270.408	266.6495	-333.8374	26.55	6.641166	100	0	72	-45.62585	38.99956	155.3242	
14:26:16	47.45948	-122.2944	270.408	267.7617	-175.8286	26.55	6.64102	100	0	73	-44.83617	30.3412	121.0761	
14:26:18	47.45948	-122.2944	270.408	269.7163	64.05113	26.55	6.640888	100	0	73	-40.44557	21.2436	82.64852	
14:26:20	47.45948	-122.2944	270.408	272.216	330.59	26.55	6.64077	100	0	73	-32.96899	15.9451	40.84531	
14:26:21	47.45948	-122.2944	270.408	274.5325	520.7444	26.55	6.640615	100	0	73	-24.6916	20.57842	5.743428	
14:26:23	47.45948	-122.2944	270.408	275.5085	506.3721	26.55	6.640523	100	0	73	-19.19281	31.17926	-17.65505	
14:26:25	47.45948	-122.2944	270.408	274.424	288.7693	26.55	6.64044	100	0	73	-18.38484	40.29635	-39.86646	
14:26:27	47.45948	-122.2944	270.408	272.0031	4.397049	26.55	6.640401	100	0	73	-22.35172	46.42846	-65.27246	
14:26:28	47.45948	-122.2944	270.408	269.4335	-232.078	26.55	6.64033	100	0	73	-29.84689	48.87136	-94.8466	
14:26:30	47.45948	-122.2944	270.408	267.5362	-368.6363	26.55	6.640297	100	0	72	-35.69181	49.1932	-123.6323	
14:26:32	47.45948	-122.2944	270.408	266.5857	-413.9274	26.55	6.640237	100	0	73	-40.32564	47.841	-152.0774	
14:26:33	47.45948	-122.2944	270.408	266.4178	-387.3279	26.55	6.640209	100	0	73	-44.11935	43.67887	177.6931	
14:26:35	47.45948	-122.2944	270.408	266.9947	-285.4488	26.55	6.640156	100	0	73	-45.63887	36.5905	145.1588	
14:26:37	47.45948	-122.2944	270.408	268.385	-99.29753	26.55	6.640109	100	0	72	-43.75747	27.60458	109.6749	
14:26:39	47.45948	-122.2944	270.408	270.5131	151.7421	26.55	6.640046	100	0	73	-38.35694	18.94391	69.36689	
14:26:40	47.45948	-122.2944	270.408	273.0785	410.1469	26.55	6.639993	100	0	73	-30.67898	15.40976	26.86007	
14:26:42	47.45948	-122.2944	270.408	275.1142	550.3117	26.55	6.639963	100	0	72	-22.48271	23.56378	-2.387563	
14:26:44	47.45948	-122.2944	270.408	275.4692	464.6263	26.55	6.639948	100	0	72	-18.25682	34.13556	-24.47642	
14:26:45	47.45948	-122.2944	270.408	273.8629	211.4218	26.55	6.639922	100	0	72	-18.88339	42.49015	-47.38175	
14:26:47	47.45948	-122.2944	270.408	271.2774	-69.7131	26.55	6.63991	100	0	73	-24.16716	47.64333	-74.06861	
14:26:49	47.45948	-122.2944	270.408	268.8112	-282.6503	26.55	6.639885	100	0	73	-32.22942	48.89858	-104.5478	
14:26:50	47.45948	-122.2944	270.408	267.1664	-391.8331	26.55	6.639875	100	0	73	-37.03626	49.13625	-132.0686	
14:26:52	47.45948	-122.2944	270.408	266.4239	-417.1962	26.55	6.639855	100	0	73	-41.64407	46.94717	-161.1265	
14:26:54	47.45948	-122.2944	270.408	266.4777	-368.1422	26.55	6.639847	100	0	73	-44.90408	41.88868	168.0046	
14:26:56	47.45948	-122.2944	270.408	267.2972	-241.0362	26.55	6.639831	100	0	73	-45.51839	34.02484	134.6535	
14:26:57	47.45948	-122.2944	270.408	268.8996	-33.9062	26.55	6.639814	100	0	73	-42.5456	24.80303	97.97592	
14:26:59	47.45948	-122.2944	270.408	271.2605	233.229	26.55	6.639796	100	0	72	-36.19981	17.08081	56.61225	
