Date	Latitude(deg) 	Longitude(deg)	hamsl(m)	hafl(m)	climbrate(cm/s)	GroundSpeed(m/s)	Airspeed(m/s)	Mav_Link(%)	Rssi_Link(%)	Throttle	Roll(deg)	Pitch(deg)	Yaw(deg)
15:52:34	0	0	0	21.40569	-7.840958	0	3	100	0	45	-0.6492512	-7.069468	116.6841	
15:52:36	0	0	0	20.68897	-20.54866	0	3	100	0	41	-0.6507146	-7.047197	116.7567	
15:52:37	0	0	0	20.89275	-6.434131	0	3	100	0	36	-0.7245665	-7.049011	116.788	
15:52:39	0	0	0	21.16423	3.791449	0	3	100	0	32	-0.7215995	-7.059608	116.8564	
15:52:41	0	0	0	21.11402	-2.713211	0	3	100	0	28	-0.6896076	-7.08231	116.746	
15:52:42	0	0	0	20.71338	-19.03915	0	3	100	0	23	-0.6725063	-7.15578	116.5749	
15:52:44	0	0	0	20.75462	-9.015163	0	3	100	0	19	-0.7035557	-7.176531	116.3855	
15:52:46	0	0	0	20.57127	-12.6093	0	3	100	0	15	-0.6803681	-7.121736	116.3037	
15:52:48	0	0	0	20.37024	-13.61112	0	3	100	0	12	-0.7042921	-7.128898	116.2721	
15:52:49	0	0	0	20.74419	9.902573	0	3	100	0	12	-0.6953155	-7.167912	116.1152	
15:52:51	0	0	0	20.73233	2.499051	0	3	100	0	12	-0.6938519	-7.184608	116.1256	
15:52:53	0	0	0	20.69613	-1.785834	0	3	100	0	12	-0.7274955	-7.183743	116.0627	
15:52:54	0	0	0	20.83691	6.92075	0	3	100	0	12	-0.7614989	-7.161866	115.9583	
15:52:56	0	0	0	20.78816	0.8947628	0	3	100	0	12	-0.7181673	-7.132525	115.9329	
15:52:58	0	0	0	20.43986	-15.26037	0	3	100	0	12	-0.7388118	-7.105449	115.9878	
15:53:00	0	0	0	20.24026	-14.74263	0	3	100	0	12	-0.7443188	-7.079535	116.1096	
15:53:01	0	0	0	19.86335	-22.04105	0	3	100	0	12	-0.7118024	-7.023418	116.2788	
15:53:03	0	0	0	20.32369	8.874723	0	3	100	0	12	-0.756357	-7.105652	116.3169	
15:53:05	0	0	0	20.66229	15.84503	0	3	100	0	12	-0.7529352	-7.168307	116.1769	
15:53:06	0	0	0	20.87165	15.32463	0	3	100	0	12	-0.735297	-7.202425	116.0217	
15:53:08	0	0	0	20.61901	-4.529609	0	3	100	0	12	-0.7013379	-7.207136	115.9051	
15:53:10	0	0	0	20.18007	-17.63803	0	3	100	0	12	-0.6546617	-7.150259	115.9725	
15:53:12	0	0	0	19.81228	-21.60712	0	3	100	0	12	-0.689201	-7.138552	116.033	
15:53:13	0	0	0	20.10598	1.441766	0	3	100	0	12	-0.7232286	-7.115034	116.0722	
15:53:15	0	0	0	20.25584	5.277073	0	3	100	0	12	-0.7311148	-7.115194	116.1925	
15:53:17	0	0	0	20.67927	20.3087	0	3	100	0	12	-0.7077475	-7.099648	116.3288	
15:53:19	0	0	0	20.69331	7.131181	0	3	100	0	12	-0.7508489	-7.096867	116.4724	
15:53:20	0	0	0	20.95574	10.81956	0	3	100	0	12	-0.7263567	-7.148045	116.4069	
15:53:22	0	0	0	20.81735	0.1972934	0	3	100	0	12	-0.7251003	-7.138087	116.4134	
15:53:24	0	0	0	20.6306	-6.782252	0	3	100	0	12	-0.7263598	-7.176364	116.3463	
15:53:25	0	0	0	20.3941	-14.24021	0	3	100	0	12	-0.7404309	-7.192071	116.2685	
15:53:27	0	0	0	20.35225	-9.249745	0	3	100	0	12	-0.6818781	-7.11562	116.1724	
15:53:29	0	0	0	20.48071	1.390897	0	3	100	0	12	-0.7138078	-7.05171	116.3015	
15:53:31	0	0	0	20.74648	12.54577	0	3	100	0	12	-0.7316629	-7.017423	116.4605	
15:53:32	0	0	0	20.68433	2.691981	0	3	100	0	12	-0.7201154	-7.012897	116.5682	
15:53:34	0	0	0	20.79152	5.879715	0	3	100	0	12	-0.7517403	-7.030198	116.6605	
15:53:36	0	0	0	20.53741	-9.442496	0	3	100	0	12	-0.7521237	-7.03849	116.7	
15:53:37	0	0	0	20.56759	-2.694544	0	3	100	0	12	-0.7744676	-7.072046	116.762	
15:53:39	0	0	0	20.60787	-1.847552	0	3	100	0	12	-0.7440521	-7.091224	116.6679	
15:53:41	0	0	0	20.74456	3.534631	0	3	100	0	12	-0.7313377	-7.123248	116.6498	
15:53:43	0	0	0	20.69497	-1.72902	0	3	100	0	12	-0.7015167	-7.076722	116.5906	
15:53:44	0	0	0	20.53429	-5.44347	0	3	100	0	12	-0.6748113	-7.07509	116.6502	
15:53:46	0	0	0	20.38376	-7.160571	0	3	100	0	12	-0.6913597	-7.046924	116.7398	
15:53:48	0	0	0	20.35397	-1.99963	0	3	100	0	12	-0.6769058	-7.010532	116.8947	
15:53:49	0	0	0	20.56455	10.04979	0	3	100	0	12	-0.6860041	-7.033095	116.9749	
15:53:51	0	0	0	20.76068	10.06281	0	3	100	0	12	-0.6625082	-7.011207	117.0039	
15:53:53	0	0	0	20.58182	-5.001826	0	3	100	0	12	-0.6744652	-7.074199	117.0349	
15:53:55	0	0	0	20.39691	-5.082061	0	3	100	0	12	-0.6876394	-7.03371	117.0864	
15:53:56	0	0	0	20.70121	9.855678	0	3	100	0	12	-0.6645285	-7.065873	117.088	
15:53:58	0	0	0	20.6835	3.210059	0	3	100	0	12	-0.6039709	-7.044849	117.0771	
15:54:00	0	0	0	20.63912	-0.3593342	0	3	100	0	12	-0.6224932	-6.97997	117.1509	
15:54:01	0	0	0	20.82914	7.982589	0	3	100	0	12	-0.6435543	-7.045621	117.1521	
15:54:03	0	0	0	20.37244	-13.37687	0	3	100	0	12	-0.6048731	-7.078976	117.035	
15:54:05	0	0	0	20.01981	-19.87086	0	3	100	0	12	-0.6189721	-7.088186	116.9878	
15:54:07	0	0	0	19.86745	-13.93359	0	3	100	0	12	-0.6459488	-7.093621	116.9366	
15:54:08	0	0	0	20.30793	13.36184	0	3	100	0	12	-0.6439452	-7.052914	116.9282	
15:54:10	0	0	0	20.55751	13.74076	0	3	100	0	12	-0.6803184	-7.045092	116.9828	
15:54:12	0	0	0	20.54316	5.471964	0	3	100	0	12	-0.6359649	-7.047109	117.0129	
15:54:13	0	0	0	20.42806	1.401719	0	3	100	0	12	-0.6781757	-7.029381	117.057	
15:54:15	0	0	0	20.6554	9.497411	0	3	100	0	12	-0.6757682	-6.997345	117.1442	
15:54:17	0	0	0	20.74457	5.788056	0	3	100	0	12	-0.7217491	-6.976003	117.1773	
15:54:19	0	0	0	20.56974	-4.468726	0	3	100	0	12	-0.7107068	-7.017081	117.2164	
15:54:20	0	0	0	20.50284	-3.358116	0	3	100	0	12	-0.7040157	-7.072914	117.1934	
15:54:22	0	0	0	20.63542	2.792962	0	3	100	0	12	-0.7079872	-7.047071	117.1702	
15:54:24	0	0	0	20.7265	4.155912	0	3	100	0	12	-0.6690992	-7.031774	117.0607	
15:54:25	0	0	0	21.06538	14.57644	0	3	100	0	12	-0.6758921	-7.066857	117.0676	
15:54:27	0	0	0	20.85332	-4.569336	0	3	100	0	12	-0.6471693	-7.020474	117.0402	
15:54:29	0	0	0	20.80396	-4.699286	0	3	100	0	12	-0.6844743	-7.119447	116.974	
15:54:31	0	0	0	20.87596	2.098674	0	3	100	0	12	-0.6746843	-7.156856	116.7382	
15:54:32	0	0	0	20.46217	-16.11072	0	3	100	0	12	-0.6419727	-7.111757	116.6631	
15:54:34	0	0	0	20.78239	8.256895	0	3	100	0	12	-0.6709055	-7.105148	116.7404	
15:54:36	0	0	0	20.94423	7.262937	0	3	100	0	12	-0.6549106	-7.0332	116.8436	
15:54:37	0	0	0	20.61358	-12.1505	0	3	100	0	12	-0.7002413	-6.97391	116.9777	
15:54:39	0	0	0	20.53271	-7.899488	0	3	100	0	12	-0.7101812	-6.987877	117.0598	
15:54:41	0	0	0	20.79684	6.871627	0	3	100	0	12	-0.6869568	-6.959691	117.2048	
15:54:43	0	0	0	20.93512	3.999408	0	3	100	0	12	-0.7190642	-7.058307	117.3714	
15:54:44	0	0	0	20.86844	0.5790225	0	3	100	0	12	-0.6852521	-6.993104	117.3773	
15:54:46	0	0	0	20.86666	-1.936622	0	3	100	0	12	-0.6735589	-7.05373	117.4118	
15:54:48	0	0	0	20.75215	-2.975514	0	3	100	0	12	-0.6768233	-7.080833	117.2322	
15:54:49	0	0	0	20.26986	-22.17989	0	3	100	0	12	-0.6704385	-7.058976	117.197	
15:54:51	0	0	0	20.43044	-2.669127	0	3	100	0	12	-0.651014	-7.055506	117.084	
15:54:53	0	0	0	20.91395	25.83647	0	3	100	0	12	-0.7000163	-7.044525	117.1192	
15:54:55	0	0	0	21.02339	13.44172	0	3	100	0	12	-0.6721566	-6.990696	117.0944	
15:54:56	0	0	0	20.56283	-13.00499	0	3	100	0	12	-0.8766516	-7.033897	117.0518	
15:54:58	0	0	0	20.53041	-7.522124	0	3	100	0	12	-0.7350345	-7.017773	116.9277	
15:55:00	0	0	0	20.62982	-0.433533	0	3	100	0	12	-0.9292242	-7.060918	116.8944	
15:55:01	0	0	0	20.891	9.319567	0	3	100	0	12	-0.9521551	-7.112349	116.722	
15:55:03	0	0	0	20.86489	1.025985	0	3	100	0	12	-0.8914145	-7.180082	116.6034	
15:55:05	0	0	0	20.50115	-14.61034	0	3	100	0	12	-0.8721109	-7.21259	116.4125	
15:55:07	0	0	0	20.08153	-18.44758	0	3	100	0	12	-0.8027499	-7.220162	116.2063	
15:55:08	0	0	0	20.07372	-7.797206	0	3	100	0	12	-0.84073	-7.178342	116.065	
15:55:10	0	0	0	20.62738	16.94875	0	3	100	0	12	-0.8136754	-7.093503	116.0624	
15:55:12	0	0	0	21.26082	31.40186	0	3	100	0	12	-0.8319968	-7.070036	116.1095	
15:55:13	0	0	0	20.96623	3.015911	0	3	100	0	12	-0.8589718	-7.050493	116.1836	
15:55:15	0	0	0	20.53761	-16.65801	0	3	100	0	12	-0.845619	-7.008968	116.2903	
15:55:17	0	0	0	20.31909	-14.05176	0	3	100	0	12	-0.8647384	-6.984393	116.4947	
15:55:19	0	0	0	20.69479	7.767835	0	3	100	0	12	-0.866024	-7.048726	116.5261	
15:55:20	0	0	0	20.50387	-4.751677	0	3	100	0	12	-0.8608536	-7.034939	116.5561	
15:55:22	0	0	0	20.70736	5.655207	0	3	100	0	12	-0.8800255	-7.097352	116.527	
15:55:24	0	0	0	20.34029	-11.97254	0	3	100	0	12	-0.8434862	-7.045147	116.4398	
15:55:25	0	0	0	19.69497	-31.01472	0	3	100	0	12	-0.8491777	-7.084535	116.5185	
15:55:27	0	0	0	19.7797	-7.073238	0	3	100	0	12	-0.8220949	-7.062105	116.4489	
15:55:29	0	0	0	19.96709	4.11647	0	3	100	0	12	-0.8393152	-7.066761	116.3928	
15:55:31	0	0	0	20.57893	22.55116	0	3	100	0	12	-0.8527602	-7.036228	116.5216	
15:55:32	0	0	0	20.53818	10.62332	0	3	100	0	12	-0.8498479	-6.98314	116.6998	
15:55:34	0	0	0	20.86353	16.46218	0	3	100	0	12	-0.8390092	-6.929446	116.9112	
15:55:36	0	0	0	19.98309	-29.40162	0	3	100	0	12	-0.8423615	-7.023652	117.016	
15:55:38	0	0	0	19.58798	-24.79565	0	3	100	0	12	-0.8027653	-7.02664	116.9631	
15:55:39	0	0	0	19.93178	5.543679	0	3	100	0	12	-0.8155546	-7.064329	116.906	
15:55:41	0	0	0	20.47004	22.24326	0	3	100	0	12	-0.8669894	-7.072434	116.8874	
15:55:43	0	0	0	20.58268	14.83826	0	3	100	0	12	-0.8549128	-7.068415	116.8485	
15:55:44	0	0	0	20.42412	-1.110499	0	3	100	0	12	-0.8662237	-7.092859	116.7563	
15:55:46	0	0	0	20.1232	-10.26943	0	3	100	0	12	-0.8581758	-7.058976	116.7778	
15:55:48	0	0	0	20.66552	14.99693	0	3	100	0	12	-0.8299831	-7.009213	116.8222	
15:55:50	0	0	0	20.36755	-7.379374	0	3	100	0	12	-0.8175154	-7.067959	116.8007	
15:55:51	0	0	0	19.90271	-19.32368	0	3	100	0	12	-0.6648444	-7.03476	116.817	
15:55:53	0	0	0	20.08006	-0.3285624	0	3	100	0	12	-0.619504	-6.976372	116.8841	
15:55:55	0	0	0	20.26763	8.602256	0	3	100	0	12	-0.6272295	-7.043972	116.8983	
15:55:56	0	0	0	20.7082	20.73106	0	3	100	0	12	-0.630693	-6.950642	117.0096	
15:55:58	0	0	0	20.75028	11.46872	0	3	100	0	12	-0.6333812	-6.994051	117.0927	
15:56:00	0	0	0	20.90172	9.451495	0	3	100	0	12	-0.6831012	-7.02316	117.1287	
15:56:02	0	0	0	20.77552	-0.08909287	0	3	100	0	12	-0.6331215	-6.872667	117.203	
15:56:03	0	0	0	20.61778	-4.42392	0	3	100	0	12	-0.6672925	-6.901931	117.2287	
15:56:05	0	0	0	20.5099	-7.666265	0	3	100	0	12	-0.6513313	-6.918537	117.2769	
15:56:07	0	0	0	20.50862	-5.515136	0	3	100	0	12	-0.6639322	-6.910163	117.3627	
15:56:08	0	0	0	20.65151	1.562894	0	3	100	0	12	-0.6773086	-6.897316	117.5377	
15:56:10	0	0	0	20.17298	-16.79126	0	3	100	0	12	-0.6556236	-6.951908	117.5538	
15:56:12	0	0	0	20.33776	-1.773245	0	3	100	0	12	-0.6833678	-6.906996	117.5018	
15:56:14	0	0	0	20.51754	4.522825	0	3	100	0	12	-0.6245847	-6.967349	117.5632	
15:56:15	0	0	0	20.42856	1.120711	0	3	100	0	12	-0.6398143	-6.936847	117.5017	
15:56:17	0	0	0	20.71136	9.774407	0	3	100	0	12	-0.6510041	-6.800133	117.728	
15:56:19	0	0	0	20.77738	6.799623	0	3	100	0	12	-0.7317812	-6.880433	117.7002	
15:56:20	0	0	0	20.76964	3.578026	0	3	100	0	12	-0.6461691	-6.921985	117.6919	
15:56:22	0	0	0	21.02551	13.16664	0	3	100	0	12	-0.6281484	-6.793849	117.5586	
15:56:24	0	0	0	20.81111	-5.161331	0	3	100	0	12	-0.6183208	-6.847692	117.5577	
15:56:26	0	0	0	20.52888	-11.37306	0	3	100	0	12	-0.7184204	-6.844684	117.5411	
15:56:27	0	0	0	20.40081	-9.852087	0	3	100	0	12	-0.7105547	-6.760983	117.6011	
15:56:29	0	0	0	20.56476	2.909053	0	3	100	0	12	-0.6968673	-6.713059	117.7229	
15:56:31	0	0	0	20.33815	-8.240566	0	3	100	0	12	-0.7253947	-6.77942	117.776	
15:56:32	0	0	0	20.24789	-5.386521	0	3	100	0	12	-0.7520744	-6.761262	117.938	
15:56:34	0	0	0	20.2855	0.434204	0	3	100	0	12	-0.7497145	-6.786728	117.9994	
15:56:36	0	0	0	20.6254	12.32544	0	3	100	0	12	-0.6724367	-6.808305	117.8295	
15:56:38	0	0	0	20.92233	18.89586	0	3	100	0	12	-0.6996337	-6.824441	117.8948	
15:56:39	0	0	0	20.84235	4.763887	0	3	100	0	12	-0.6782895	-6.82981	117.7495	
15:56:41	0	0	0	20.52466	-9.267723	0	3	100	0	12	-0.7096826	-6.835396	117.6816	
15:56:43	0	0	0	20.41734	-7.192593	0	3	100	0	12	-0.7153541	-6.857749	117.5695	
15:56:44	0	0	0	20.72379	7.500116	0	3	100	0	12	-0.7106169	-6.886941	117.3665	
15:56:46	0	0	0	20.76371	5.274771	0	3	100	0	12	-0.6897515	-6.963409	117.1684	
15:56:48	0	0	0	20.61295	-7.473296	0	3	100	0	12	-0.7146877	-6.886934	117.1448	
15:56:50	0	0	0	20.70611	-0.1924269	0	3	100	0	12	-0.7058041	-6.898512	117.036	
15:56:51	0	0	0	20.83161	4.723764	0	3	100	0	12	-0.7136425	-6.864452	117.0595	
15:56:53	0	0	0	20.65795	-3.441216	0	3	100	0	12	-0.7358332	-6.855536	116.9621	
15:56:55	0	0	0	20.71389	-0.718947	0	3	100	0	12	-0.7744052	-6.894752	117.048	
15:56:56	0	0	0	20.86309	4.748847	0	3	100	0	12	-0.7648579	-6.922448	116.8958	
15:56:58	0	0	0	20.53967	-13.71499	0	3	100	0	12	-0.7578101	-6.905872	116.8883	
15:57:00	0	0	0	20.76094	3.263485	0	3	100	0	12	-0.7732409	-6.898586	116.8543	
15:57:02	0	0	0	20.82221	4.028948	0	3	100	0	12	-0.7737232	-6.897997	116.8841	
15:57:03	0	0	0	20.45706	-12.36622	0	3	100	0	12	-0.7776731	-6.795778	116.9038	
15:57:05	0	0	0	20.23793	-13.96985	0	3	100	0	12	-0.8009555	-6.78001	117.0449	
15:57:07	0	0	0	20.33545	-2.123231	0	3	100	0	12	-0.8051485	-6.750638	117.1578	
15:57:08	0	0	0	20.41149	0.2559845	0	3	100	0	12	-0.7992808	-6.762837	117.1816	
15:57:10	0	0	0	20.09445	-12.30097	0	3	100	0	12	-0.7758629	-6.784346	117.2841	
15:57:12	0	0	0	19.887	-11.40448	0	3	100	0	12	-0.7602363	-6.802106	117.3518	
15:57:14	0	0	0	20.07592	3.91709	0	3	100	0	12	-0.7549	-6.828978	117.3866	
15:57:15	0	0	0	20.64274	24.99709	0	3	100	0	12	-0.750043	-6.84815	117.396	
15:57:17	0	0	0	20.55799	8.483289	0	3	100	0	12	-0.7193331	-6.859582	117.3684	
15:57:19	0	0	0	20.14624	-12.80997	0	3	100	0	12	-0.7238631	-6.849456	117.3949	
15:57:20	0	0	0	20.30427	2.160219	0	3	100	0	12	-0.7176813	-6.849911	117.3649	
15:57:22	0	0	0	20.15421	-5.063086	0	3	100	0	12	-0.7548685	-6.831043	117.4482	
15:57:24	0	0	0	20.2705	0.851482	0	3	100	0	12	-0.7318388	-6.837729	117.44	
15:57:26	0	0	0	20.73525	14.96866	0	3	100	0	12	-0.717319	-6.810121	117.4693	
15:57:27	0	0	0	20.63984	6.348735	0	3	100	0	12	-0.7318763	-6.797629	117.4616	
15:57:29	0	0	0	20.83994	8.233897	0	3	100	0	12	-0.7585662	-6.859321	117.4801	
15:57:31	0	0	0	20.6731	-3.932185	0	3	100	0	12	-0.7762621	-6.875862	117.3946	
15:57:32	0	0	0	20.40641	-12.6286	0	3	100	0	12	-0.7440055	-6.863074	117.324	
15:57:34	0	0	0	20.60813	4.140952	0	3	100	0	12	-0.7516407	-6.85526	117.2461	
15:57:36	0	0	0	20.80783	10.01576	0	3	100	0	12	-0.7470314	-6.866677	117.2884	
15:57:38	0	0	0	21.11087	15.87774	0	3	100	0	12	-0.7379109	-6.839713	117.3164	
15:57:39	0	0	0	20.82674	-7.763351	0	3	100	0	12	-0.7137849	-6.808297	117.3388	
15:57:41	0	0	0	20.74528	-4.111491	0	3	100	0	12	-0.7406706	-6.773522	117.4202	
15:57:43	0	0	0	21.092	11.61195	0	3	100	0	12	-0.7117659	-6.810766	117.492	
15:57:44	0	0	0	20.78053	-9.757776	0	3	100	0	12	-0.7326201	-6.801664	117.5306	
15:57:46	0	0	0	20.59134	-9.660817	0	3	100	0	12	-0.7451623	-6.831418	117.6121	
15:57:48	0	0	0	20.84166	7.696991	0	3	100	0	12	-0.7376723	-6.838721	117.5662	
15:57:50	0	0	0	20.95813	6.663087	0	3	100	0	12	-0.7206727	-6.8582	117.5067	
15:57:51	0	0	0	20.97116	6.74708	0	3	100	0	12	-0.7295424	-6.859721	117.4045	
15:57:53	0	0	0	20.90474	-2.0757	0	3	100	0	12	-0.7031049	-6.828464	117.4744	
15:57:55	0	0	0	21.07641	7.073417	0	3	100	0	12	-0.7131739	-6.767339	117.5731	
15:57:56	0	0	0	21.06672	3.817454	0	3	100	0	12	-0.7289471	-6.758351	117.6798	
15:57:58	0	0	0	21.14844	3.660854	0	3	100	0	12	-0.7272789	-6.651279	117.9328	
15:58:00	0	0	0	20.95674	-6.032763	0	3	100	0	12	-0.732022	-6.672338	118.1662	
15:58:02	0	0	0	20.922	-2.807859	0	3	100	0	12	-0.7754362	-6.773373	118.0899	
15:58:03	0	0	0	21.37601	16.38086	0	3	100	0	12	-0.7708834	-6.751387	118.0639	
15:58:05	0	0	0	21.16176	-2.322038	0	3	100	0	12	-0.6816007	-6.786431	118.072	
15:58:07	0	0	0	20.93372	-9.462596	0	3	100	0	12	-0.7529825	-6.80091	117.5033	
15:58:08	0	0	0	21.04636	-1.366243	0	3	100	0	12	-0.7189243	-6.731163	117.3512	
15:58:10	0	0	0	20.85204	-9.559473	0	3	100	0	12	-0.7488234	-6.810765	117.3369	
15:58:12	0	0	0	20.87032	-2.909214	0	3	100	0	12	-0.7530547	-6.842301	117.1461	
15:58:14	0	0	0	20.77056	-5.207237	0	3	100	0	12	-0.7423754	-6.868013	116.9744	
15:58:15	0	0	0	20.85633	-0.5946467	0	3	100	0	12	-0.7103108	-6.880575	116.7796	
15:58:17	0	0	0	20.52018	-11.71821	0	3	100	0	12	-0.7273085	-6.905941	116.7272	
15:58:19	0	0	0	20.67108	-0.5899081	0	3	100	0	12	-0.7034186	-6.816442	116.6153	
15:58:20	0	0	0	20.66146	-0.8581549	0	3	100	0	12	-0.7316697	-6.79247	116.7537	
15:58:22	0	0	0	20.88456	7.102671	0	3	100	0	12	-0.7393731	-6.795981	116.7748	
15:58:24	0	0	0	21.07045	11.50179	0	3	100	0	12	-0.7397712	-6.811451	116.8546	
15:58:26	0	0	0	20.94192	-0.9212819	0	3	100	0	12	-0.7484888	-6.771565	116.8861	
15:58:27	0	0	0	21.01161	2.353991	0	3	100	0	12	-0.756303	-6.774601	116.9327	
15:58:29	0	0	0	20.98727	0.6591536	0	3	100	0	12	-0.7339736	-6.749032	116.9788	
15:58:31	0	0	0	21.29107	12.14589	0	3	100	0	12	-0.7623065	-6.778905	117.1067	
15:58:32	0	0	0	21.3058	4.431749	0	3	100	0	12	-0.7906299	-6.82376	117.1272	
15:58:34	0	0	0	21.00981	-9.42644	0	3	100	0	12	-0.7497317	-6.818903	117.063	
15:58:36	0	0	0	20.94272	-7.874993	0	3	100	0	12	-0.791064	-6.81362	117.0518	
15:58:38	0	0	0	21.0056	-1.640223	0	3	100	0	12	-0.7973744	-6.823219	117.0293	
15:58:39	0	0	0	20.82951	-6.243476	0	3	100	0	12	-0.8013987	-6.887681	116.8337	
15:58:41	0	0	0	20.74131	-6.541487	0	3	100	0	12	-0.7712069	-6.889644	116.7554	
15:58:43	0	0	0	20.5284	-10.97751	0	3	100	0	12	-0.7820469	-6.878242	116.6145	
15:58:45	0	0	0	20.62283	-0.1784398	0	3	100	0	12	-0.7499842	-6.86323	116.6136	
15:58:46	0	0	0	20.70871	3.979125	0	3	100	0	12	-0.7569357	-6.865212	116.6486	
15:58:48	0	0	0	20.81437	5.852877	0	3	100	0	12	-0.7728353	-6.903497	116.5614	
15:58:50	0	0	0	20.83061	2.130155	0	3	100	0	12	-0.7261984	-6.847527	116.6124	
15:58:51	0	0	0	20.58525	-3.866389	0	3	100	0	12	-0.7049851	-6.87607	116.6123	
15:58:53	0	0	0	20.94696	11.33687	0	3	100	0	12	-0.7068943	-6.852823	116.6331	
15:58:55	0	0	0	20.96013	4.791652	0	3	100	0	12	-0.7316763	-6.85232	116.662	
15:58:57	0	0	0	20.93642	0.7676462	0	3	100	0	12	-0.7380165	-6.871287	116.6431	
15:58:58	0	0	0	20.95411	-0.4602354	0	3	100	0	12	-0.7388055	-6.825805	116.6614	
15:59:00	0	0	0	21.07861	8.582385	0	3	100	0	12	-0.7807538	-6.797103	116.8154	
15:59:02	0	0	0	20.92121	-3.641342	0	3	100	0	12	-0.7999817	-6.784083	116.8484	
15:59:03	0	0	0	20.96053	-0.61342	0	3	100	0	12	-0.8263424	-6.785644	116.9225	
15:59:05	0	0	0	20.85233	-5.001298	0	3	100	0	12	-0.7769857	-6.85673	116.8288	
15:59:07	0	0	0	20.915	1.546789	0	3	100	0	12	-0.8055376	-6.867595	116.8289	
15:59:09	0	0	0	21.02952	6.154562	0	3	100	0	12	-0.7925645	-6.876418	116.7237	
15:59:10	0	0	0	21.23769	8.44813	0	3	100	0	12	-0.8044306	-6.882981	116.5984	
15:59:12	0	0	0	21.13468	2.591289	0	3	100	0	12	-0.8293477	-6.932131	116.4459	
15:59:14	0	0	0	20.9651	-6.560943	0	3	100	0	12	-0.8365879	-6.916139	116.3558	
15:59:15	0	0	0	20.58229	-17.95776	0	3	100	0	12	-0.8247392	-6.987542	116.1742	
15:59:17	0	0	0	20.43022	-14.24292	0	3	100	0	12	-0.8439853	-6.977225	116.0331	
15:59:19	0	0	0	20.8969	12.98855	0	3	100	0	12	-0.7991065	-7.001402	115.8732	
15:59:21	0	0	0	21.1978	13.38145	0	3	100	0	12	-0.7953717	-6.963652	115.837	
15:59:22	0	0	0	21.11563	1.784752	0	3	100	0	12	-0.774825	-6.971873	115.7492	
15:59:24	0	0	0	21.12834	0.1689262	0	3	100	0	12	-0.7590258	-6.923568	115.7742	
15:59:26	0	0	0	20.87028	-8.972599	0	3	100	0	12	-0.7503645	-6.907381	115.9132	
15:59:27	0	0	0	20.87559	-0.2572988	0	3	100	0	12	-0.7818294	-6.871243	116.0715	
15:59:29	0	0	0	20.69831	-7.92586	0	3	100	0	12	-0.6889995	-6.912924	116.1808	
15:59:31	0	0	0	20.54376	-10.85908	0	3	100	0	12	-0.7051826	-6.883607	116.1539	
15:59:33	0	0	0	20.42774	-8.72563	0	3	100	0	12	-0.7368599	-6.856625	116.2763	
15:59:34	0	0	0	20.73965	8.900456	0	3	100	0	12	-0.7585824	-6.895632	116.222	
15:59:36	0	0	0	21.1101	16.84544	0	3	100	0	12	-0.7565317	-6.859876	116.2607	
15:59:38	0	0	0	21.04001	3.960776	0	3	100	0	12	-0.6936333	-6.872937	116.3091	
15:59:39	0	0	0	20.75292	-9.354435	0	3	100	0	12	-0.6892102	-6.851023	116.4471	
15:59:41	0	0	0	20.84378	-0.5646936	0	3	100	0	12	-0.6889898	-6.792486	116.5782	
15:59:43	0	0	0	21.0906	8.833382	0	3	100	0	12	-0.6583758	-6.764354	116.754	
15:59:45	0	0	0	21.44038	16.98829	0	3	100	0	12	-0.6846888	-6.769696	116.8666	
15:59:46	0	0	0	21.35649	1.704741	0	3	100	0	12	-0.6874411	-6.805481	116.9733	
15:59:48	0	0	0	21.08418	-9.308774	0	3	100	0	12	-0.5785076	-6.841321	116.9299	
15:59:50	0	0	0	21.39076	8.404318	0	3	100	0	12	-0.546277	-6.833352	116.8038	
15:59:51	0	0	0	21.61264	9.267584	0	3	100	0	12	-0.5473529	-6.84865	116.8167	
15:59:53	0	0	0	21.33355	-8.730482	0	3	100	0	12	-0.5899093	-6.857815	116.8844	
15:59:55	0	0	0	21.08503	-12.50151	0	3	100	0	12	-0.6212684	-6.821205	117.0084	
15:59:57	0	0	0	21.42124	8.365275	0	3	100	0	12	-0.6044887	-6.871774	117.0063	
15:59:58	0	0	0	21.48315	6.191191	0	3	100	0	12	-0.615126	-6.925831	116.9002	
16:00:00	0	0	0	21.27216	-7.727855	0	3	100	0	12	-0.6171387	-6.958514	116.622	
16:00:02	0	0	0	21.42506	1.86284	0	3	100	0	12	-0.6299608	-6.919912	116.6076	
16:00:03	0	0	0	21.40244	-1.980075	0	3	100	0	12	-0.5669127	-6.896262	116.5387	
16:00:05	0	0	0	21.29944	-5.140989	0	3	100	0	12	-0.5584581	-6.935391	116.5344	
16:00:07	0	0	0	21.1627	-7.816202	0	3	100	0	12	-0.5974748	-6.947667	116.4395	
16:00:09	0	0	0	21.27452	0.8319241	0	3	100	0	12	-0.6193267	-6.967436	116.2999	
16:00:10	0	0	0	21.0002	-10.92144	0	3	100	0	12	-0.6481246	-6.961861	116.2132	
16:00:12	0	0	0	20.83211	-12.31895	0	3	100	0	12	-0.6375291	-6.873067	116.2725	
16:00:14	0	0	0	20.93908	2.076623	0	3	100	0	12	-0.6486269	-6.898053	116.257	
16:00:15	0	0	0	21.22289	12.02007	0	3	100	0	12	-0.6925086	-6.858917	116.3971	
16:00:17	0	0	0	21.55659	18.1381	0	3	100	0	12	-0.6971481	-6.888765	116.4336	
16:00:19	0	0	0	21.6054	9.730638	0	3	100	0	12	-0.6936349	-6.980844	116.3956	
16:00:21	0	0	0	21.41037	-3.391694	0	3	100	0	12	-0.6935322	-7.020747	116.1696	
16:00:22	0	0	0	21.22475	-9.738079	0	3	100	0	12	-0.7219158	-6.959465	116.0448	
16:00:24	0	0	0	21.0373	-11.2541	0	3	100	0	12	-0.7093847	-6.918448	116.0689	
16:00:26	0	0	0	21.31937	6.386065	0	3	100	0	12	-0.6607538	-6.944445	116.0338	
16:00:27	0	0	0	21.58279	12.53521	0	3	100	0	12	-0.6671028	-6.854938	116.1964	
16:00:29	0	0	0	21.61415	6.250329	0	3	100	0	12	-0.6708326	-6.770489	116.4133	
16:00:31	0	0	0	21.81223	12.70093	0	3	100	0	12	-0.709538	-6.80694	116.5886	
16:00:33	0	0	0	21.8483	6.365388	0	3	100	0	12	-0.7047809	-6.821208	116.593	
16:00:34	0	0	0	21.49487	-11.72087	0	3	100	0	12	-0.6784784	-6.804259	116.6761	
16:00:36	0	0	0	21.44311	-6.425835	0	3	100	0	12	-0.6441647	-6.77786	116.7531	
16:00:38	0	0	0	21.61122	2.871381	0	3	100	0	12	-0.6401201	-6.784753	116.8718	
16:00:39	0	0	0	21.83441	5.891507	0	3	100	0	12	-0.6129741	-6.814682	116.946	
16:00:41	0	0	0	21.77754	-0.4231825	0	3	100	0	12	-0.5921602	-6.786888	116.9358	
16:00:43	0	0	0	21.93356	6.776556	0	3	100	0	12	-0.5825095	-6.763901	116.9496	
16:00:45	0	0	0	21.72268	-6.089106	0	3	100	0	12	-0.6002299	-6.716374	117.1675	
16:00:46	0	0	0	21.35679	-17.60604	0	3	100	0	12	-0.5871179	-6.713631	117.2904	
16:00:48	0	0	0	21.60907	2.669636	0	3	100	0	12	-0.539174	-6.673182	117.4528	
16:00:50	0	0	0	21.723	6.131211	0	3	100	0	12	-0.5558483	-6.722358	117.7	
16:00:51	0	0	0	21.74747	4.696122	0	3	100	0	12	-0.5478274	-6.736382	117.8132	
16:00:53	0	0	0	21.89418	5.803548	0	3	100	0	12	-0.5707258	-6.772646	117.7704	
16:00:55	0	0	0	21.79943	-0.8226739	0	3	100	0	12	-0.5665385	-6.771161	117.7399	
16:00:57	0	0	0	21.58354	-5.674169	0	3	100	0	12	-0.5436341	-6.852622	117.672	
16:00:58	0	0	0	21.29563	-13.84348	0	3	100	0	12	-0.545967	-6.822586	117.5871	
16:01:00	0	0	0	21.36607	-3.125476	0	3	100	0	12	-0.6407664	-6.899339	117.3487	
16:01:02	0	0	0	21.39637	1.93429	0	3	100	0	12	-0.6231601	-6.96361	117.0835	
16:01:03	0	0	0	21.61505	7.381627	0	3	100	0	12	-0.6154478	-6.960257	116.9192	
16:01:05	0	0	0	21.5436	0.6044701	0	3	100	0	12	-0.571673	-6.928676	116.6985	
16:01:07	0	0	0	21.74261	8.801922	0	3	100	0	12	-0.5191808	-6.793696	116.7999	
16:01:09	0	0	0	21.90545	8.487475	0	3	100	0	12	-0.5724471	-6.746448	117.0083	
16:01:10	0	0	0	21.69902	-6.111147	0	3	100	0	12	-0.5963351	-6.725193	117.1415	
16:01:12	0	0	0	21.41859	-11.38347	0	3	100	0	12	-0.5873173	-6.793038	117.3105	
16:01:14	0	0	0	21.8445	10.60635	0	3	100	0	12	-0.6001248	-6.893516	117.167	
16:01:15	0	0	0	21.80517	0.2392481	0	3	100	0	12	-0.5751216	-6.862957	116.9072	
16:01:17	0	0	0	21.7612	0.5996976	0	3	100	0	12	-0.5955693	-6.871275	116.8449	
16:01:19	0	0	0	21.70675	-1.161279	0	3	100	0	12	-0.6163614	-6.877562	116.7542	
16:01:21	0	0	0	21.98718	9.931941	0	3	100	0	12	-0.6334102	-6.878158	116.6444	
16:01:22	0	0	0	22.01588	3.838244	0	3	100	0	12	-0.7847967	-6.899804	116.6843	
16:01:24	0	0	0	21.67295	-12.31712	0	3	100	0	12	-0.7945948	-6.913408	116.6318	
16:01:26	0	0	0	21.77004	-0.518263	0	3	100	0	12	-0.8074086	-6.899699	116.5399	
16:01:27	0	0	0	21.63734	-6.212843	0	3	100	0	12	-0.7950422	-6.849083	116.5922	
16:01:29	0	0	0	21.79883	4.171239	0	3	100	0	12	-0.8331205	-6.857855	116.6345	
16:01:31	0	0	0	21.52375	-8.039247	0	3	100	0	12	-0.799216	-6.85736	116.5305	
16:01:33	0	0	0	21.51878	-1.453777	0	3	100	0	12	-0.7961985	-6.783227	116.7085	
16:01:34	0	0	0	21.84203	11.53565	0	3	100	0	12	-0.7920042	-6.747801	116.9112	
16:01:36	0	0	0	21.6715	-1.976117	0	3	100	0	12	-0.7866863	-6.768991	117.1399	
16:01:38	0	0	0	21.72405	0.3120902	0	3	100	0	12	-0.7904228	-6.738687	117.278	
16:01:39	0	0	0	21.54887	-7.294364	0	3	100	0	12	-0.7650015	-6.719469	117.341	
16:01:41	0	0	0	21.50364	-3.708704	0	3	100	0	12	-0.7553483	-6.709595	117.4104	
16:01:43	0	0	0	21.47866	-3.534925	0	3	100	0	12	-0.7575094	-6.746281	117.5143	
16:01:45	0	0	0	21.77062	10.22776	0	3	100	0	12	-0.7680139	-6.849703	117.3765	
16:01:46	0	0	0	21.70616	1.739087	0	3	100	0	12	-0.7516279	-6.851611	117.2298	
16:01:48	0	0	0	21.67418	-1.281838	0	3	100	0	12	-0.758256	-6.811921	117.2567	
16:01:50	0	0	0	21.63955	-0.6003481	0	3	100	0	12	-0.7623343	-6.827774	117.2323	
16:01:52	0	0	0	21.59297	-4.243592	0	3	100	0	12	-0.7627521	-6.85788	117.2342	
16:01:53	0	0	0	21.68779	5.01969	0	3	100	0	12	-0.7511821	-6.79258	117.249	
16:01:55	0	0	0	21.32154	-13.65292	0	3	100	0	12	-0.7466287	-6.825622	117.1989	
16:01:57	0	0	0	21.3616	-1.319116	0	3	100	0	12	-0.7226486	-6.833944	117.1477	
16:01:58	0	0	0	21.65337	8.929989	0	3	100	0	12	-0.7103693	-6.817111	117.198	
16:02:00	0	0	0	21.77816	9.655001	0	3	100	0	12	-0.7165506	-6.861119	117.2419	
16:02:02	0	0	0	22.08673	15.48744	0	3	100	0	12	-0.7355102	-6.919204	117.054	
16:02:04	0	0	0	21.91287	-0.08920722	0	3	100	0	12	-0.7361342	-6.906098	116.9615	
16:02:05	0	0	0	21.7846	-6.144945	0	3	100	0	12	-0.5321153	-6.877319	116.861	
16:02:07	0	0	0	21.82988	-0.01611055	0	3	100	0	12	-0.553059	-6.880503	116.7836	
16:02:09	0	0	0	21.74331	-3.56671	0	3	100	0	12	-0.5655056	-6.861633	116.8532	
16:02:10	0	0	0	21.95832	6.647613	0	3	100	0	12	-0.6086784	-6.851235	116.8533	
16:02:12	0	0	0	21.97759	4.749953	0	3	100	0	12	-0.6667927	-6.880509	116.8274	
16:02:14	0	0	0	21.71837	-7.489973	0	3	100	0	12	-0.6555055	-6.918242	116.6974	
16:02:16	0	0	0	21.51874	-12.07092	0	3	100	0	12	-0.6779986	-6.939557	116.677	
16:02:17	0	0	0	21.43817	-5.730539	0	3	100	0	12	-0.785376	-6.896991	116.5711	
16:02:19	0	0	0	21.74327	5.418651	0	3	100	0	12	-0.8087487	-6.81676	116.7089	
16:02:21	0	0	0	21.56601	-4.13183	0	3	100	0	12	-0.8508385	-6.85494	116.8797	
16:02:22	0	0	0	21.58827	-0.4308065	0	3	100	0	12	-0.8341466	-6.918348	116.9947	
16:02:24	0	0	0	21.3427	-10.31071	0	3	100	0	12	-0.8174699	-6.889694	116.9263	
16:02:26	0	0	0	21.45653	-1.595466	0	3	100	0	12	-0.8307401	-6.871928	116.9219	
16:02:28	0	0	0	21.18704	-8.410221	0	3	100	0	12	-0.810426	-6.851967	116.9898	
16:02:29	0	0	0	21.31582	0.9373029	0	3	100	0	12	-0.7871431	-6.812152	117.0826	
16:02:31	0	0	0	21.49365	6.941766	0	3	100	0	12	-0.8089578	-6.798582	117.28	
16:02:33	0	0	0	21.35395	-3.03052	0	3	100	0	12	-0.8022094	-6.789537	117.4188	
16:02:34	0	0	0	21.0915	-12.11228	0	3	100	0	12	-0.8169749	-6.799277	117.5308	
16:02:36	0	0	0	20.72822	-17.41203	0	3	100	0	12	-0.8485643	-6.880194	117.508	
16:02:38	0	0	0	20.77495	-2.457642	0	3	100	0	12	-0.7251845	-6.982785	117.2952	
16:02:40	0	0	0	21.00094	8.024709	0	3	100	0	12	-0.7833788	-6.969566	117.1248	
16:02:41	0	0	0	21.45093	19.39114	0	3	100	0	12	-0.7821037	-6.979557	116.8546	
16:02:43	0	0	0	21.51013	10.27214	0	3	100	0	12	-0.7729043	-6.947518	116.8152	
16:02:45	0	0	0	21.16286	-8.437055	0	3	100	0	12	-0.7906154	-6.945102	116.7766	
16:02:46	0	0	0	21.23375	-1.150309	0	3	100	0	12	-0.7994072	-6.985855	116.7006	
16:02:48	0	0	0	21.27389	1.87467	0	3	100	0	12	-0.8231311	-7.099378	116.5323	
16:02:50	0	0	0	21.28498	2.242439	0	3	100	0	12	-0.808714	-7.089808	116.4158	
16:02:52	0	0	0	21.30444	0.7669288	0	3	100	0	12	-0.8125681	-7.051511	116.2422	
16:02:53	0	0	0	21.36942	4.14603	0	3	100	0	12	-0.6794174	-7.07207	115.9954	
16:02:55	0	0	0	21.39178	4.459529	0	3	100	0	12	-0.6257192	-6.993597	116.0551	
16:02:57	0	0	0	21.56287	10.61873	0	3	100	0	12	-0.6344019	-6.954573	116.1488	
16:02:58	0	0	0	21.64894	5.584522	0	3	100	0	12	-0.6272982	-6.921697	116.2243	
16:03:00	0	0	0	21.39368	-9.707767	0	3	100	0	12	-0.6646988	-6.935053	116.4111	
16:03:02	0	0	0	21.01412	-18.29048	0	3	100	0	12	-0.664923	-6.885982	116.5026	
16:03:04	0	0	0	20.88382	-10.3192	0	3	100	0	12	-0.6729515	-6.77468	116.7682	
16:03:05	0	0	0	21.40502	16.73406	0	3	100	0	12	-0.7227846	-6.787771	116.8762	
16:03:07	0	0	0	21.42288	7.926833	0	3	100	0	12	-0.7264131	-6.742267	117.1506	
16:03:09	0	0	0	21.47032	4.422105	0	3	100	0	12	-0.7206404	-6.690676	117.37	
16:03:10	0	0	0	21.41975	3.328894	0	3	100	0	12	-0.7330941	-6.740669	117.6009	
16:03:12	0	0	0	21.52441	2.424506	0	3	100	0	12	-0.7142901	-6.73652	117.6984	
16:03:14	0	0	0	21.16075	-8.970092	0	3	100	0	12	-0.6938596	-6.703107	117.8671	
16:03:16	0	0	0	21.4049	4.696697	0	3	100	0	12	-0.6810365	-6.750397	117.9704	
16:03:17	0	0	0	21.32383	-1.644361	0	3	100	0	12	-0.6648345	-6.771891	118.0923	
16:03:19	0	0	0	21.49208	3.931257	0	3	100	0	12	-0.6124744	-6.789394	117.8899	
16:03:21	0	0	0	21.54601	6.072301	0	3	100	0	12	-0.6212578	-6.77739	117.8785	
16:03:22	0	0	0	21.36757	-6.186285	0	3	100	0	12	-0.599445	-6.731874	117.9229	
16:03:24	0	0	0	21.47693	3.460314	0	3	100	0	12	-0.6077979	-6.712959	118.035	
16:03:26	0	0	0	21.76536	13.6631	0	3	100	0	12	-0.5886795	-6.69336	118.0965	
16:03:28	0	0	0	21.66117	0.4285771	0	3	100	0	12	-0.5782673	-6.6542	118.1874	
16:03:29	0	0	0	21.58419	-2.252188	0	3	100	0	12	-0.5859573	-6.678605	118.3569	
16:03:31	0	0	0	21.50541	-2.655249	0	3	100	0	12	-0.5902092	-6.69562	118.5267	
16:03:33	0	0	0	21.48187	-1.750618	0	3	100	0	12	-0.5756248	-6.807827	118.3497	
16:03:34	0	0	0	21.37714	-3.131354	0	3	100	0	12	-0.5834061	-6.841419	118.2984	
16:03:36	0	0	0	21.35669	-3.715786	0	3	100	0	12	-0.5375015	-6.819332	118.1632	
16:03:38	0	0	0	21.64608	12.48673	0	3	100	0	12	-0.5234335	-6.841192	118.1204	
16:03:40	0	0	0	21.75663	7.657532	0	3	100	0	12	-0.5361805	-6.818984	118.1376	
16:03:41	0	0	0	21.85903	9.164527	0	3	100	0	12	-0.5065555	-6.791241	117.997	
16:03:43	0	0	0	21.93698	4.357162	0	3	100	0	12	-0.4773445	-6.799191	117.8309	
16:03:45	0	0	0	21.66538	-8.789935	0	3	100	0	12	-0.5085062	-6.834707	117.8969	
16:03:46	0	0	0	21.69101	-3.599185	0	3	100	0	12	-0.5424343	-6.873823	117.8489	
16:03:48	0	0	0	21.84914	4.2686	0	3	100	0	12	-0.5324491	-6.82817	117.8171	
16:03:50	0	0	0	22.07648	9.50135	0	3	100	0	12	-0.5478852	-6.821537	117.7758	
16:03:52	0	0	0	21.99696	-0.2806419	0	3	100	0	12	-0.5562814	-6.779738	117.8241	
16:03:53	0	0	0	21.71926	-11.09599	0	3	100	0	12	-0.604845	-6.755265	117.7759	
16:03:55	0	0	0	21.58926	-10.48244	0	3	100	0	12	-0.6316625	-6.760531	117.8707	
16:03:57	0	0	0	21.42605	-10.05518	0	3	100	0	12	-0.6044126	-6.748068	117.9277	
16:03:58	0	0	0	21.55871	-0.7086744	0	3	100	0	12	-0.6114607	-6.756906	117.8938	
16:04:00	0	0	0	21.87129	12.05552	0	3	100	0	12	-0.6143842	-6.707842	117.977	
16:04:02	0	0	0	21.62522	-4.674902	0	3	100	0	12	-0.6107534	-6.714474	118.1184	
16:04:04	0	0	0	21.48372	-7.897254	0	3	100	0	12	-0.566218	-6.755934	118.0878	
16:04:05	0	0	0	21.59938	1.962694	0	3	100	0	12	-0.5696328	-6.810083	117.9543	
16:04:07	0	0	0	21.87699	10.69855	0	3	100	0	12	-0.5524847	-6.848259	117.8625	
16:04:09	0	0	0	21.7388	1.64911	0	3	100	0	12	-0.5549305	-6.844522	117.8472	
16:04:10	0	0	0	21.83834	5.743756	0	3	100	0	12	-0.5922582	-6.82315	117.7568	
16:04:12	0	0	0	21.86027	-0.06104542	0	3	100	0	12	-0.6003808	-6.859879	117.5492	
16:04:14	0	0	0	21.48679	-14.04575	0	3	100	0	12	-0.6060559	-6.905159	117.3915	
16:04:16	0	0	0	21.40025	-8.793252	0	3	100	0	12	-0.5819252	-6.854893	117.293	
16:04:17	0	0	0	21.3928	-5.596856	0	3	100	0	12	-0.6108711	-6.910448	117.2355	
16:04:19	0	0	0	21.4546	0.6826662	0	3	100	0	12	-0.6177615	-6.895217	117.1438	
16:04:21	0	0	0	21.68926	12.20754	0	3	100	0	12	-0.6112124	-6.934867	117.0627	
16:04:22	0	0	0	21.80982	8.636474	0	3	100	0	12	-0.5908816	-6.929524	116.9314	
16:04:24	0	0	0	21.85426	6.393234	0	3	100	0	12	-0.5894208	-6.905756	116.8664	
16:04:26	0	0	0	21.82246	1.2272	0	3	100	0	12	-0.5936592	-6.889501	116.8679	
16:04:28	0	0	0	21.51586	-10.27129	0	3	100	0	12	-0.5871832	-6.937967	116.8174	
16:04:29	0	0	0	21.76615	6.055226	0	3	100	0	12	-0.5846907	-6.920495	116.8094	
16:04:31	0	0	0	21.5913	-7.178526	0	3	100	0	12	-0.5783216	-6.960427	116.6305	
16:04:33	0	0	0	21.53366	-4.481614	0	3	100	0	12	-0.5897322	-6.97454	116.5388	
16:04:34	0	0	0	21.26664	-14.05985	0	3	100	0	12	-0.6234141	-6.987331	116.5185	
16:04:36	0	0	0	21.26624	-4.614408	0	3	100	0	12	-0.6293703	-6.955104	116.4749	
16:04:38	0	0	0	21.38853	1.165542	0	3	100	0	12	-0.6501411	-6.978617	116.3979	
16:04:40	0	0	0	21.61626	12.1242	0	3	100	0	12	-0.6452749	-6.980099	116.3518	
16:04:41	0	0	0	21.80437	12.14224	0	3	100	0	12	-0.6198798	-6.987988	116.2559	
16:04:43	0	0	0	21.64981	1.054484	0	3	100	0	12	-0.5995807	-6.973976	116.4307	
16:04:45	0	0	0	21.65651	5.782114	0	3	100	0	12	-0.5735806	-7.019145	116.3822	
16:04:47	0	0	0	21.37218	-10.20974	0	3	100	0	12	-0.5695938	-6.97768	116.353	
16:04:48	0	0	0	21.47413	0.04459934	0	3	100	0	12	-0.5717605	-6.981454	116.2985	
16:04:50	0	0	0	21.57323	3.329933	0	3	100	0	12	-0.5911406	-6.989562	116.3663	
16:04:52	0	0	0	21.41635	-4.507222	0	3	100	0	12	-0.6188049	-6.970641	116.2915	
16:04:53	0	0	0	21.29985	-5.737972	0	3	100	0	12	-0.5947877	-6.909033	116.4202	
16:04:55	0	0	0	21.23575	-5.695262	0	3	100	0	12	-0.6425326	-6.855263	116.5479	
16:04:57	0	0	0	21.3185	2.516668	0	3	100	0	12	-0.6570701	-6.871242	116.714	
16:04:59	0	0	0	21.51053	7.653579	0	3	100	0	12	-0.6202307	-6.871142	116.8452	
16:05:00	0	0	0	21.58253	4.368439	0	3	100	0	12	-0.6238531	-6.883361	116.9357	
16:05:02	0	0	0	21.3179	-9.969245	0	3	100	0	12	-0.6232248	-6.804347	116.9573	
16:05:04	0	0	0	21.38694	2.41926	0	3	100	0	12	-0.6241393	-6.808307	117.063	
16:05:05	0	0	0	21.59057	7.421399	0	3	100	0	12	-0.6407182	-6.808034	117.1251	
16:05:07	0	0	0	21.42028	-1.223289	0	3	100	0	12	-0.6274645	-6.772847	117.2491	
16:05:09	0	0	0	21.56028	6.181457	0	3	100	0	12	-0.5980092	-6.742349	117.3817	
16:05:11	0	0	0	21.77169	10.56618	0	3	100	0	12	-0.5960914	-6.781631	117.4976	
16:05:12	0	0	0	21.83408	7.486196	0	3	100	0	12	-0.5660208	-6.820102	117.5418	
16:05:14	0	0	0	21.44091	-7.468072	0	3	100	0	12	-0.5111244	-6.801017	117.5491	
16:05:16	0	0	0	21.47365	-5.139636	0	3	100	0	12	-0.5060532	-6.825918	117.6322	
16:05:17	0	0	0	21.18975	-13.38468	0	3	100	0	12	-0.52912	-6.801139	117.7845	
16:05:19	0	0	0	21.49322	6.792266	0	3	100	0	12	-0.5115681	-6.809058	117.9245	
16:05:21	0	0	0	21.34785	-2.080013	0	3	100	0	12	-0.4972318	-6.765522	117.9157	
16:05:23	0	0	0	21.53609	6.742185	0	3	100	0	12	-0.4886405	-6.72977	118.0093	
16:05:24	0	0	0	21.66628	7.540262	0	3	100	0	12	-0.515521	-6.71719	118.2241	
16:05:26	0	0	0	21.41554	-7.521412	0	3	100	0	12	-0.5093612	-6.713227	118.3253	
16:05:28	0	0	0	21.56776	0.5834258	0	3	100	0	12	-0.5180582	-6.72217	118.4558	
16:05:29	0	0	0	21.51129	-3.583314	0	3	100	0	12	-0.5587143	-6.71146	118.5095	
16:05:31	0	0	0	21.37407	-5.33534	0	3	100	0	12	-0.5395376	-6.744594	118.4709	
16:05:33	0	0	0	21.3213	-3.51539	0	3	100	0	12	-0.5174741	-6.795344	118.4857	
16:05:35	0	0	0	21.44163	5.583008	0	3	100	0	12	-0.5272003	-6.847668	118.3247	
16:05:36	0	0	0	21.54214	5.114428	0	3	100	0	12	-0.4947032	-6.7989	118.179	
16:05:38	0	0	0	21.28898	-7.45833	0	3	100	0	12	-0.5104113	-6.807323	118.247	
16:05:40	0	0	0	21.15165	-7.756857	0	3	100	0	12	-0.5108393	-6.882275	118.1171	
16:05:41	0	0	0	21.1668	-0.8709002	0	3	100	0	12	-0.4940853	-6.96101	117.7726	
16:05:43	0	0	0	21.34545	7.245901	0	3	100	0	12	-0.5149649	-6.974484	117.5532	
16:05:45	0	0	0	21.32745	2.972308	0	3	100	0	12	-0.5174758	-6.911405	117.3742	
16:05:47	0	0	0	21.15327	-4.263788	0	3	100	0	12	-0.5198767	-6.909693	117.3051	
16:05:48	0	0	0	21.05175	-8.545356	0	3	100	0	12	-0.4832692	-6.777613	117.34	
16:05:50	0	0	0	20.93382	-8.845248	0	3	100	0	12	-0.524292	-6.727764	117.6354	
16:05:52	0	0	0	20.80777	-6.176188	0	3	100	0	12	-0.5571208	-6.74891	117.7867	
16:05:53	0	0	0	20.76529	-5.436077	0	3	100	0	12	-0.5451128	-6.73508	117.8936	
16:05:55	0	0	0	20.95918	6.674825	0	3	100	0	12	-0.5337391	-6.722369	117.9059	
16:05:57	0	0	0	21.12461	10.17074	0	3	100	0	12	-0.5556656	-6.681573	118.1134	
16:05:59	0	0	0	21.3173	10.9596	0	3	100	0	12	-0.5768491	-6.707166	118.2236	
16:06:00	0	0	0	21.42416	10.26727	0	3	100	0	12	-0.5589664	-6.741454	118.2792	
16:06:02	0	0	0	20.81673	-18.17948	0	3	100	0	12	-0.5526744	-6.785723	118.307	
16:06:04	0	0	0	20.83138	-6.42351	0	3	100	0	12	-0.5199006	-6.831509	118.3131	
16:06:05	0	0	0	20.53937	-15.4067	0	3	100	0	12	-0.5217713	-6.903005	118.1061	
16:06:07	0	0	0	21.43236	26.8213	0	3	100	0	12	-0.5174148	-6.897002	117.8819	
16:06:09	0	0	0	20.76635	-2.883309	0	3	100	0	44	-0.4847012	-6.864105	117.7934	
16:06:11	0	0	0	20.98145	-1.530682	0	3	100	0	40	-0.4748336	-6.842421	117.8147	
16:06:12	0	0	0	21.12162	2.436473	0	3	100	0	36	-0.4723111	-6.884721	117.7137	
16:06:14	0	0	0	20.97435	-6.82328	0	3	100	0	32	-0.4842201	-6.814158	117.6834	
16:06:16	0	0	0	20.92879	-7.519816	0	3	100	0	28	-0.5153276	-6.810855	117.6381	
16:06:17	0	0	0	21.03488	-2.882861	0	3	100	0	23	-0.5066535	-6.786785	117.6098	
16:06:19	0	0	0	21.27549	7.812459	0	3	100	0	19	-0.5560334	-6.785848	117.6235	
16:06:21	0	0	0	21.34472	2.048672	0	3	100	0	15	-0.5586854	-6.844319	117.611	
16:06:23	0	0	0	20.77669	-22.24843	0	3	100	0	12	-0.5549312	-6.900077	117.415	
16:06:24	0	0	0	20.82594	-8.487519	0	3	100	0	12	-0.5579199	-6.899286	117.2664	
16:06:26	0	0	0	20.8138	-6.618686	0	3	100	0	12	-0.5735035	-6.909469	117.1084	
16:06:28	0	0	0	20.84941	-3.686944	0	3	100	0	12	-0.5732888	-6.950489	116.9371	
16:06:29	0	0	0	21.10957	6.373926	0	3	100	0	12	-0.6143414	-6.952735	116.8344	
16:06:31	0	0	0	21.08889	0.0184193	0	3	100	0	12	-0.5717286	-6.96992	116.5521	
16:06:33	0	0	0	20.78301	-12.94559	0	3	100	0	12	-0.5733249	-7.00929	116.488	
16:06:35	0	0	0	20.65441	-9.250795	0	3	100	0	12	-0.5881911	-7.004809	116.3928	
16:06:36	0	0	0	20.76419	1.214761	0	3	100	0	12	-0.6200944	-6.98505	116.3133	
16:06:38	0	0	0	20.97144	6.124464	0	3	100	0	12	-0.6047028	-6.968291	116.2227	
16:06:40	0	0	0	21.13778	10.35017	0	3	100	0	12	-0.6099681	-6.972775	116.2243	
16:06:41	0	0	0	20.85631	-5.60283	0	3	100	0	12	-0.6001431	-6.912374	116.2631	
16:06:43	0	0	0	20.57691	-13.68633	0	3	100	0	12	-0.6015507	-6.86565	116.4309	
16:06:45	0	0	0	20.6292	-3.679731	0	3	100	0	12	-0.6026961	-6.864492	116.6533	
16:06:47	0	0	0	20.6631	-2.25087	0	3	100	0	12	-0.610496	-6.878747	116.7794	
16:06:48	0	0	0	20.51187	-5.682166	0	3	100	0	12	-0.6073295	-6.936338	116.78	
16:06:50	0	0	0	20.7983	9.741618	0	3	100	0	12	-0.6222363	-6.915948	116.7707	
16:06:52	0	0	0	20.81313	1.640279	0	3	100	0	12	-0.6124148	-6.959906	116.647	
16:06:53	0	0	0	20.49768	-9.462129	0	3	100	0	12	-0.6001111	-6.918753	116.6231	
16:06:55	0	0	0	20.59453	-0.9966497	0	3	100	0	12	-0.5877426	-6.980335	116.6386	
16:06:57	0	0	0	20.945	12.22299	0	3	100	0	12	-0.5950747	-6.930116	116.5617	
16:06:59	0	0	0	21.25924	18.48067	0	3	100	0	12	-0.5891928	-6.831419	116.7275	
16:07:00	0	0	0	21.07904	-2.857049	0	3	100	0	12	-0.5998538	-6.831844	116.8833	
16:07:02	0	0	0	20.61168	-18.02986	0	3	100	0	12	-0.6149656	-6.815154	116.9203	
16:07:04	0	0	0	20.79738	0.2439631	0	3	100	0	12	-0.6243203	-6.831847	117.1214	
16:07:05	0	0	0	20.91759	2.855552	0	3	100	0	12	-0.5800132	-6.904476	117.1125	
16:07:07	0	0	0	20.63256	-10.50654	0	3	100	0	12	-0.5779635	-6.884358	117.2385	
16:07:09	0	0	0	20.7314	0.4560111	0	3	100	0	12	-0.5603562	-6.835262	117.2823	
16:07:11	0	0	0	20.96251	8.85443	0	3	100	0	12	-0.5228332	-6.867967	117.2281	
16:07:12	0	0	0	21.16615	5.693752	0	3	100	0	12	-0.4925338	-6.847971	117.2957	
16:07:14	0	0	0	20.88286	-9.907193	0	3	100	0	12	-0.5461614	-6.833339	117.4219	
16:07:16	0	0	0	20.76461	-5.537592	0	3	100	0	12	-0.5808404	-6.785615	117.5037	
16:07:17	0	0	0	20.71459	-6.231648	0	3	100	0	12	-0.6130084	-6.775178	117.5942	
16:07:19	0	0	0	20.50275	-9.443012	0	3	100	0	12	-0.5989868	-6.769472	117.6569	
16:07:21	0	0	0	20.85611	11.6709	0	3	100	0	12	-0.5797005	-6.727743	117.896	
