Date	Latitude(deg) 	Longitude(deg)	hamsl(m)	hafl(m)	climbrate(cm/s)	GroundSpeed(m/s)	Airspeed(m/s)	Mav_Link(%)	Rssi_Link(%)	Throttle	Roll(deg)	Pitch(deg)	Yaw(deg)
12:58:58	0	0	0	0.7880638	-3.796648	0	3	64	0	5	0.48541	0.8969664	171.0736	
12:59:00	0	0	0	1.333327	9.008679	0	3	72	0	5	0.4772182	0.9091147	170.9332	
12:59:01	0	0	0	1.142321	-5.726006	0	3	78	0	5	0.4876129	0.856124	170.8539	
12:59:03	0	0	0	1.215755	-4.261034	0	3	81	0	5	0.4701286	0.8991356	170.7538	
12:59:05	0	0	0	1.074032	-8.76607	0	3	84	0	3	0.451795	0.9822558	170.6712	
12:59:06	0	0	0	1.0251	-7.699574	0	3	86	0	5	0.4179255	0.9093717	170.5613	
12:59:08	0	0	0	0.9941593	-4.951214	0	3	88	0	5	0.4250339	0.9234106	170.4537	
12:59:10	0	0	0	1.034114	-1.570935	0	3	90	0	5	0.4598672	0.9468489	170.403	
12:59:11	0	0	0	0.9647249	-6.224486	0	3	91	0	5	0.4977381	0.9603454	170.3897	
12:59:13	0	0	0	0.9936094	-3.728829	0	3	92	0	5	0.4763274	0.9148658	170.345	
12:59:15	0	0	0	0.9937231	-4.603302	0	3	93	0	5	0.4640336	0.9347467	170.2983	
12:59:16	0	0	0	0.9008934	-7.365009	0	3	93	0	5	0.4899346	0.9370252	170.2317	
12:59:18	0	0	0	0.846399	-6.200774	0	3	94	0	5	0.4911914	1.019326	170.2588	
12:59:20	0	0	0	0.9553503	2.197081	0	3	94	0	5	0.500059	0.9762344	170.2038	
12:59:21	0	0	0	0.9946713	13.2873	0	3	95	0	5	0.5736245	0.8470497	170.196	
12:59:23	0	0	0	0.8786637	-29.28185	0	3	95	0	5	0.3481963	0.8847059	173.4451	
12:59:25	0	0	0	0.08490774	-36.11345	0	3	96	0	5	1.900371	4.040009	170.7737	
12:59:27	0	0	0	0.5073565	14.19976	0	3	96	0	5	-1.069159	2.984363	169.9873	
12:59:28	0	0	0	0.705075	11.18084	0	3	96	0	5	-0.6292408	2.213334	169.197	
12:59:30	0	0	0	0.9765646	13.12748	0	3	97	0	5	-0.2907823	1.628208	168.7496	
12:59:32	0	0	0	1.016392	30.80812	0	3	97	0	5	4.300184	4.805099	170.4306	
12:59:33	0	0	0	1.180654	-5.469003	0	3	97	0	5	5.692251	3.637439	173.7223	
12:59:35	0	0	0	1.293897	-25.2362	0	3	97	0	5	0.142606	1.126831	174.3877	
12:59:37	0	0	0	1.014371	1.748288	0	3	98	0	5	-2.565729	10.02483	170.0755	
12:59:38	0	0	0	0.9736907	0.3927052	0	3	98	0	5	-0.0601225	11.53977	156.8439	
12:59:40	0	0	0	0.6195768	-56.31834	0	3	98	0	5	0.8280396	6.950022	152.2779	
12:59:42	0	0	0	0.5313593	-48.75385	0	3	98	0	5	11.8068	9.30244	150.8821	
12:59:43	0	0	0	0.8705104	-28.27653	0	3	98	0	5	4.0149	5.537166	155.8713	
12:59:45	0	0	0	0.4386187	-109.3764	0	3	98	0	5	8.188172	7.786643	156.3171	
12:59:47	0	0	0	-0.3852138	-147.6502	0	3	98	0	5	3.331233	5.029394	161.0024	
12:59:48	0	0	0	0.1110594	-7.54002	0	3	98	0	5	3.758499	2.245325	164.625	
12:59:50	0	0	0	1.23114	53.17537	0	3	98	0	5	2.894104	2.051829	161.4805	
12:59:52	0	0	0	1.215871	35.09436	0	3	99	0	5	2.309535	1.885043	158.7577	
12:59:53	0	0	0	1.20296	33.39725	0	3	99	0	5	1.818241	1.744701	156.1441	
12:59:55	0	0	0	1.130689	27.04307	0	3	99	0	5	1.35566	1.663852	153.6917	
12:59:57	0	0	0	1.078982	21.45776	0	3	99	0	5	1.1005	1.588923	151.767	
12:59:59	0	0	0	1.384089	32.43921	0	3	99	0	5	0.8483725	1.425777	150.0365	
13:00:00	0	0	0	0.9878953	7.56036	0	3	99	0	5	0.6850018	1.279021	148.5207	
13:00:02	0	0	0	1.123937	20.18801	0	3	99	0	5	0.5709625	1.279626	147.3484	
13:00:04	0	0	0	1.124962	15.35845	0	3	99	0	5	0.4848216	1.1781	146.367	
13:00:05	0	0	0	1.012166	11.05194	0	3	99	0	5	0.4825878	1.21654	145.6116	
13:00:07	0	0	0	1.080223	12.86353	0	3	99	0	5	0.4583018	1.187988	145.0619	
13:00:09	0	0	0	1.013764	10.64991	0	3	99	0	5	0.463787	1.251815	144.7027	
13:00:10	0	0	0	0.9957062	10.44188	0	3	99	0	5	0.4765797	1.190841	144.5286	
13:00:12	0	0	0	0.9903578	6.754642	0	3	99	0	5	0.4796061	1.212042	144.3916	
13:00:14	0	0	0	1.216994	14.41152	0	3	99	0	5	0.4710892	1.186955	144.3284	
13:00:15	0	0	0	0.7572894	-8.176437	0	3	99	0	5	0.4836531	1.218944	144.4032	
13:00:17	0	0	0	0.9427848	7.138245	0	3	99	0	5	0.5195252	1.31237	144.5264	
13:00:19	0	0	0	1.181216	15.33962	0	3	99	0	5	0.5217605	1.389742	144.7141	
13:00:20	0	0	0	1.139295	6.55508	0	3	99	0	5	0.5743514	1.434451	145.0211	
13:00:22	0	0	0	0.867542	-3.349394	0	3	99	0	5	0.5673965	1.478972	145.2436	
13:00:24	0	0	0	1.071431	7.040357	0	3	99	0	5	0.5831796	1.484431	145.4594	
13:00:26	0	0	0	1.057196	6.422994	0	3	99	0	5	0.5735173	1.515799	145.7973	
13:00:27	0	0	0	1.168511	9.296217	0	3	99	0	5	0.5818038	1.49215	146.0019	
13:00:29	0	0	0	1.241236	8.582043	0	3	99	0	5	0.5930558	1.533498	146.1918	
13:00:31	0	0	0	1.180827	0.2076008	0	3	99	0	5	0.5960308	1.553305	146.442	
13:00:32	0	0	0	0.815424	-13.28429	0	3	99	0	4	0.5805774	1.537224	146.612	
13:00:34	0	0	0	0.8657293	0.6499146	0	3	99	0	5	0.535096	1.406692	146.7174	
13:00:36	0	0	0	1.001924	6.5152	0	3	99	0	5	-6.917841	1.445982	152.6562	
13:00:37	0	0	0	0.8035865	9.042455	0	3	99	0	5	-2.760456	2.743419	155.7594	
13:00:39	0	0	0	0.8885322	8.542199	0	3	99	0	5	-3.153035	4.029124	142.0572	
13:00:41	0	0	0	1.024762	-20.89703	0	3	99	0	5	3.895698	5.617305	148.7537	
13:00:42	0	0	0	0.9628406	-22.73381	0	3	99	0	5	1.460386	4.234312	147.0673	
13:00:44	0	0	0	0.6227419	-46.40129	0	3	99	0	5	1.253147	-0.4074771	141.8739	
13:00:46	0	0	0	0.6194034	-22.51801	0	3	99	0	5	1.534235	1.233356	137.8095	
13:00:47	0	0	0	0.5983475	-87.05155	0	3	99	0	5	9.344567	4.946544	140.8152	
13:00:49	0	0	0	-0.06280528	-132.3754	0	3	99	0	5	-3.720104	2.835855	143.2594	
13:00:51	0	0	0	-0.2101529	-95.77657	0	3	99	0	5	3.91551	-1.64054	158.5609	
13:00:52	0	0	0	0.2875041	-2.960611	0	3	99	0	5	2.757524	-0.4460273	156.7556	
13:00:54	0	0	0	0.6602485	28.84656	0	3	99	0	5	1.994669	0.2405216	155.2847	
13:00:56	0	0	0	0.9303602	35.68956	0	3	99	0	5	1.454299	0.6361845	154.0231	
13:00:58	0	0	0	1.126155	36.81984	0	3	99	0	5	1.082114	0.8749695	153.0013	
13:00:59	0	0	0	1.357928	35.21468	0	3	99	0	5	0.766821	1.146855	151.9603	
13:01:01	0	0	0	1.262292	25.74168	0	3	99	0	5	0.5157863	1.175184	151.0754	
13:01:03	0	0	0	1.203622	14.0123	0	3	99	0	5	2.214939	5.154283	149.4066	
13:01:04	0	0	0	1.102857	21.24687	0	3	99	0	5	1.61153	6.069874	142.6924	
13:01:06	0	0	0	1.454156	14.64316	0	3	99	0	5	-4.383899	13.17547	137.9977	
13:01:08	0	0	0	0.9248292	-115.329	0	3	99	0	5	-0.162399	10.6105	140.6546	
13:01:09	0	0	0	0.1774774	-56.94889	0	3	99	0	6	0.7514446	5.587083	146.5102	
13:01:11	0	0	0	0.5336057	-17.13909	0	3	99	0	5	-14.25761	-4.185913	146.0726	
13:01:13	0	0	0	1.013828	33.2113	0	3	99	0	4	-9.641453	6.703035	146.1474	
13:01:14	0	0	0	0.4193705	-68.46379	0	3	99	0	5	-5.130503	5.129411	147.7453	
13:01:16	0	0	0	0.05367415	-106.2796	0	3	99	0	5	-1.091571	8.970393	142.8864	
13:01:18	0	0	0	0.4828776	-14.7758	0	3	99	0	5	0.1761242	13.3738	147.1652	
13:01:19	0	0	0	0.9982134	24.05634	0	3	99	0	5	-7.552075	9.664659	148.1817	
13:01:21	0	0	0	1.140224	11.69521	0	3	99	0	5	-16.81095	12.83301	149.0881	
13:01:23	0	0	0	1.429562	53.52321	0	3	99	0	4	-3.306169	2.961282	135.9722	
13:01:24	0	0	0	1.401114	36.35727	0	3	99	0	5	7.598186	-0.7495215	142.0219	
13:01:26	0	0	0	1.435938	-1.976571	0	3	99	0	5	0.4023541	1.483386	153.2877	
13:01:28	0	0	0	1.440729	23.29185	0	3	99	0	5	0.2104424	1.508929	150.6033	
13:01:30	0	0	0	1.430497	30.47926	0	3	99	0	5	0.0811068	1.544107	148.6087	
13:01:31	0	0	0	1.311996	26.10747	0	3	99	0	5	-0.004074601	1.642677	147.1974	
13:01:33	0	0	0	1.611244	39.46342	0	3	99	0	5	-0.06764851	1.639962	145.9077	
13:01:35	0	0	0	1.612835	32.19939	0	3	99	0	5	-0.05104866	1.666689	144.9435	
13:01:36	0	0	0	1.388862	22.23415	0	3	99	0	5	-0.05370921	1.654084	144.2266	
13:01:38	0	0	0	1.429453	24.22607	0	3	99	0	5	-0.006850922	1.607901	143.7608	
13:01:40	0	0	0	1.418589	20.87869	0	3	99	0	5	0.001735588	1.587996	143.4247	
13:01:41	0	0	0	1.155383	9.167096	0	3	99	0	5	0.05719208	1.61069	143.1912	
13:01:43	0	0	0	1.172643	12.89282	0	3	99	0	5	0.06235535	1.59299	143.1361	
13:01:45	0	0	0	1.197974	16.05091	0	3	99	0	5	0.1158451	1.604267	143.1337	
13:01:46	0	0	0	1.223015	15.99925	0	3	99	0	5	0.1240976	1.55792	143.1366	
13:01:48	0	0	0	1.487224	25.9884	0	3	99	0	5	0.1552787	1.52961	143.2124	
13:01:50	0	0	0	1.235471	6.685045	0	3	99	0	5	0.1999976	1.507108	143.3707	
13:01:51	0	0	0	1.05321	3.161356	0	3	99	0	5	0.2229157	1.448079	143.4904	
13:01:53	0	0	0	1.098017	8.239383	0	3	99	0	5	0.2755385	1.505733	143.6595	
13:01:55	0	0	0	1.066296	7.41839	0	3	99	0	5	0.2775097	1.395554	143.8747	
13:01:56	0	0	0	0.9550095	5.254218	0	3	99	0	5	0.275721	1.375381	143.9781	
13:01:58	0	0	0	0.9825129	8.792808	0	3	99	0	5	0.2955236	1.409097	144.1055	
13:02:00	0	0	0	1.37753	22.13743	0	3	99	0	5	0.3289522	1.425435	144.3062	
13:02:02	0	0	0	1.32904	10.79264	0	3	99	0	5	0.3472953	1.336599	144.4353	
13:02:03	0	0	0	1.288545	5.747879	0	3	99	0	5	0.3782761	1.281747	144.5775	
13:02:05	0	0	0	1.083101	-2.866717	0	3	99	0	5	0.3947634	1.204808	144.7055	
13:02:07	0	0	0	1.15874	3.278522	0	3	99	0	5	0.411415	1.232105	144.7939	
13:02:08	0	0	0	1.285202	7.816222	0	3	99	0	5	0.4119146	1.247067	144.8604	
13:02:10	0	0	0	1.377385	8.238128	0	3	99	0	5	0.4009759	1.270575	144.977	
13:02:12	0	0	0	1.240189	-0.09507432	0	3	99	0	5	0.4107742	1.262805	145.0345	
13:02:13	0	0	0	1.112212	-5.137463	0	3	99	0	5	0.4383315	1.287842	145.1179	
13:02:15	0	0	0	1.154544	2.49399	0	3	99	0	4	0.4209851	1.323076	145.2196	
13:02:17	0	0	0	1.328618	9.73234	0	3	99	0	5	0.3953231	1.268043	145.2853	
13:02:18	0	0	0	1.140799	-0.2743377	0	3	99	0	6	0.3764972	1.252844	145.2912	
13:02:20	0	0	0	1.203323	3.73053	0	3	99	0	5	0.3807445	1.193307	145.288	
13:02:22	0	0	0	1.182837	0.8227957	0	3	99	0	5	0.3904768	1.168531	145.3182	
13:02:23	0	0	0	1.178223	-0.3803534	0	3	99	0	5	0.3775527	1.202994	145.3217	
13:02:25	0	0	0	1.163583	-0.1852388	0	3	99	0	5	0.4079102	1.183152	145.2844	
13:02:27	0	0	0	1.112531	-1.387197	0	3	99	0	5	0.4003791	1.151972	145.2608	
13:02:28	0	0	0	1.325158	4.809381	0	3	99	0	5	0.4119861	1.133456	145.2735	
13:02:30	0	0	0	1.13977	-1.739862	0	3	99	0	5	0.4259128	1.131971	145.2889	
13:02:32	0	0	0	1.331027	7.925333	0	3	99	0	5	0.4089161	1.166566	145.3008	
13:02:34	0	0	0	1.519234	10.64105	0	3	99	0	5	0.3970702	1.212523	145.3058	
13:02:35	0	0	0	1.488769	4.08899	0	3	99	0	5	0.4227725	1.305276	145.3483	
13:02:37	0	0	0	1.479291	2.141239	0	3	99	0	5	0.4269208	1.245021	145.4045	
13:02:39	0	0	0	1.594632	2.466262	0	3	99	0	5	0.4301645	1.256571	145.3812	
13:02:40	0	0	0	1.33523	-5.424667	0	3	99	0	5	0.4014775	1.258743	145.3671	
13:02:42	0	0	0	1.36894	-3.522945	0	3	99	0	5	0.3984494	1.254097	145.397	
13:02:44	0	0	0	1.447531	2.495354	0	3	99	0	5	0.4428545	1.268218	145.4145	
13:02:45	0	0	0	1.791102	14.62255	0	3	99	0	5	0.4240309	1.32608	145.4486	
13:02:47	0	0	0	1.273446	-10.00872	0	3	99	0	5	0.4167502	1.370252	145.4842	
13:02:49	0	0	0	1.4663	3.499328	0	3	99	0	5	0.416546	1.344895	145.505	
13:02:50	0	0	0	1.414239	-0.07744753	0	3	99	0	6	0.4036688	1.291823	145.4878	
13:02:52	0	0	0	1.393621	-0.8224257	0	3	99	0	5	0.4071358	1.231206	145.4545	
13:02:54	47.08724	-122.5835	0.02	0.9300924	-53.31119	0	3	99	0	5	0.3945626	1.257468	145.6481	
13:02:55	47.08724	-122.5835	0.02	-0.3727764	-60.4931	0	3	99	0	5	0.3180529	0.8759821	150.8561	
13:02:57	47.08724	-122.5835	0.02	-0.3247778	-18.20727	0	3	99	0	5	0.2351024	0.6315355	154.8235	
13:02:59	47.08724	-122.5835	0.02	-0.03800355	7.698094	0	3	99	0	5	0.155444	0.4625582	157.867	
13:03:00	47.08724	-122.5835	0.02	0.106909	12.69525	0	3	99	0	5	0.07593931	0.3034058	161.1145	
13:03:02	47.08724	-122.5835	0.02	0.1276659	9.909574	0	3	99	0	5	0.01094129	0.1981737	163.575	
13:03:04	47.08724	-122.5835	0.02	0.1036879	6.873625	0	3	99	0	5	-0.0406478	0.1330242	165.4386	
13:03:06	47.08724	-122.5835	0.02	0.08232865	5.25137	0	3	99	0	5	-0.08014153	0.05710217	167.139	
13:03:07	47.08724	-122.5835	0.02	0.07137611	4.741773	0	3	99	0	5	-0.1101617	0.01054423	168.4245	
13:03:09	47.08724	-122.5835	0.02	0.0662324	4.517773	0	3	99	0	5	-0.1305732	-0.02595696	169.3858	
13:03:11	47.08724	-122.5835	0.02	0.06522412	4.45096	0	3	99	0	5	-0.1406696	-0.04786893	170.0534	
13:03:12	47.08724	-122.5835	0.02	0.0627317	4.104444	0	3	99	0	5	-0.1461805	-0.06849261	170.5442	
13:03:14	47.08724	-122.5835	0.02	0.05843433	3.537328	0	3	99	0	5	-0.1562778	-0.1000152	170.9127	
13:03:16	47.08724	-122.5835	0.02	0.04885769	1.788192	0	3	99	0	5	-0.1286774	-0.1894817	170.9485	
13:03:17	47.08724	-122.5835	0.02	0.0393607	1.928378	0	3	99	0	5	-0.1276729	-0.1298796	170.9584	
13:03:19	47.08724	-122.5835	0.02	0.04101913	2.301809	0	3	99	0	5	-0.1329743	-0.103783	170.956	
13:03:21	47.08724	-122.5835	0.02	0.04436677	2.590885	0	3	99	0	5	-0.1220226	-0.08555172	170.6771	
13:03:22	47.08724	-122.5835	0.02	0.04272826	2.107931	0	3	99	0	5	-0.1121178	-0.07899009	170.461	
13:03:24	47.08724	-122.5835	0.02	0.04119451	2.06776	0	3	99	0	5	-0.1082064	-0.07744938	170.2917	
13:03:26	47.08724	-122.5835	0.02	0.03957232	1.892542	0	3	99	0	5	-0.09324197	-0.06785386	169.9128	
13:03:27	47.08724	-122.5835	0.02	0.0397385	1.956104	0	3	99	0	5	-0.08593907	-0.0523967	169.6326	
13:03:29	47.08724	-122.5835	0.02	0.03844309	1.731422	0	3	99	0	5	-0.08027779	-0.05289481	169.421	
13:03:31	47.08724	-122.5835	0.02	0.03585164	1.464226	0	3	99	0	5	-0.06882673	-0.03407289	169.0582	
13:03:33	47.08724	-122.5835	0.02	0.03419095	1.337978	0	3	99	0	5	-0.06387534	-0.03616589	168.7778	
13:03:34	47.08724	-122.5835	0.02	0.03289862	1.217414	0	3	99	0	5	-0.05967635	-0.03438157	168.5724	
13:03:36	47.08724	-122.5835	0.02	0.03085814	0.9823492	0	3	99	0	5	-0.05102217	-0.03362932	168.277	
13:03:38	47.08724	-122.5835	0.02	0.02889798	0.708515	0	3	99	0	5	-0.04530513	-0.02820379	168.0514	
13:03:39	47.08724	-122.5835	0.02	0.02759254	0.6724676	0	3	99	0	5	-0.0402606	-0.0002359225	167.8828	
13:03:41	47.08724	-122.5835	0.019	0.02311547	-0.6536745	0	3	99	0	5	-0.03656695	0.7597011	167.649	
13:03:43	47.08724	-122.5835	0.02	0.015416	-0.8902473	0	3	99	0	5	-0.0415232	-0.09904633	167.3601	
13:03:44	47.08724	-122.5835	0.02	0.01777545	0.1544142	0	3	99	0	5	-0.02563244	0.3353437	167.1741	
13:03:46	47.08724	-122.5835	0.02	0.02317293	0.2457379	0	3	99	0	13	-0.05906782	0.1009835	166.9983	
13:03:48	47.08724	-122.5835	0.02	0.01893624	-0.4383836	0	3	99	0	13	-0.04077983	0.04116562	166.8837	
13:03:49	47.08724	-122.5835	0.02	-0.01693141	-4.4665	0	3	99	0	13	-0.03699536	0.5450364	166.7881	
13:03:51	47.08724	-122.5835	0.019	-0.01902477	-5.613416	0	3	99	0	13	-0.02679028	0.2982433	166.6949	
13:03:53	47.08724	-122.5835	0.02	-0.003352576	-0.7667837	0	3	99	0	13	-0.0204777	-0.07594907	166.6012	
13:03:54	47.08724	-122.5835	0.02	0.01808928	0.5923184	0	3	99	0	13	-0.01800139	0.06747606	166.537	
13:03:56	47.08724	-122.5835	0.02	0.02460391	0.5640267	0	3	99	0	13	-0.01236258	-0.009621906	166.5089	
13:03:58	47.08724	-122.5835	0.02	0.02433012	0.3077328	0	3	99	0	13	-0.007322934	-0.05739304	166.5069	
13:04:00	47.08724	-122.5835	0.02	0.02173645	0.1532161	0.04	3	99	0	13	0.08613573	-0.1717275	166.2402	
13:04:01	47.08723	-122.5835	0.021	0.02483546	0.5916365	1.66	3	99	0	24	0.06978693	-0.5053151	163.2422	
13:04:03	47.08718	-122.5835	0.021	0.03394806	1.48866	4.95	4.707916	99	0	49	0.2250091	-1.38927	164.1019	
13:04:05	47.08707	-122.5834	0.02	0.03744962	2.73102	10.16	9.798985	99	0	75	0.9619349	-1.543963	163.3902	
13:04:06	47.08686	-122.5833	0.027	0.05157067	3.059052	17.54	17.517	99	0	92	3.061754	-1.929339	159.0449	
13:04:08	47.08664	-122.5832	0.039	0.04034391	12.53493	22.07	22.87882	99	0	92	5.731122	0.2039482	163.4672	
13:04:10	47.08626	-122.5831	2.424	3.328353	440.7763	24.81	25.00989	99	0	92	13.48783	8.302957	175.8979	
13:04:11	47.08582	-122.5831	3.597	4.391202	558.2162	27.42	27.05962	99	0	92	-2.258725	13.44237	-179.7164	
13:04:13	47.08548	-122.5831	9.306	9.569246	309.9507	27.58	26.36157	99	0	92	-5.656089	7.99647	179.3108	
13:04:15	47.08505	-122.5831	14.453	15.00211	389.2186	28.07	27.40442	99	0	92	-12.13147	8.656075	171.7752	
13:04:16	47.08455	-122.583	22.132	21.10942	349.3399	28.06	27.13963	99	0	92	0.2004276	7.23242	168.5833	
13:04:18	47.08416	-122.5829	26.988	25.79142	-135.2436	28.53	27.53902	99	0	92	6.120353	-3.871624	170.9083	
13:04:20	47.08369	-122.5828	25.792	26.02882	30.92765	30.39	28.43249	99	0	92	5.770011	-0.4561844	176.11	
13:04:22	47.08321	-122.5828	25.057	25.15469	-268.0885	31.22	29.8819	100	0	92	-2.149431	-5.857272	178.5425	
13:04:23	47.08276	-122.5828	20.988	21.71004	-90.32528	32.53	31.90384	100	0	92	-2.105918	-2.615742	178.8873	
13:04:25	47.08226	-122.5828	18.185	18.29297	-199.0431	32.93	32.53069	99	0	92	-2.285585	-3.916588	179.4171	
13:04:27	47.08173	-122.5829	16.312	16.61769	74.56621	32.95	32.75086	100	0	92	-1.931959	1.066185	179.7324	
13:04:28	47.08123	-122.5829	16.304	15.84138	-297.7086	32.52	32.20225	100	0	92	3.75844	-6.041708	-178.6291	
13:04:30	47.08075	-122.5829	11.356	11.73864	-277.3076	33.37	32.95369	99	0	92	4.191602	-6.061041	-174.5626	
13:04:32	47.08027	-122.583	9.723	10.21575	48.16501	33.19	32.93332	100	0	92	-20.55501	0.9787865	-178.3846	
13:04:33	47.07979	-122.583	10.976	10.71845	39.49722	32.48	32.29897	100	0	92	-17.07607	0.6492404	173.2321	
13:04:35	47.0793	-122.5829	12.494	12.62948	231.948	31.91	31.78055	99	0	92	-14.70177	3.89082	165.9147	
13:04:37	47.07885	-122.5827	16.408	16.0501	157.566	31.13	31.00483	100	0	92	-8.702065	2.415916	160.7939	
13:04:38	47.0784	-122.5824	18.526	17.78355	-188.8615	31.1	30.94215	100	0	92	2.856673	-4.910224	160.2806	
13:04:40	47.07792	-122.5822	20.156	20.05346	273.8376	30.92	30.92581	100	0	92	4.350885	4.339515	165.086	
13:04:42	47.07744	-122.582	24.365	23.50936	41.53759	30.66	30.44648	100	0	92	-2.216429	-0.4424941	166.9792	
13:04:43	47.07705	-122.5819	24.058	24.00424	-0.9695765	31.33	31.14773	100	0	92	-0.839457	-1.357477	167.7193	
13:04:45	47.07656	-122.5817	23.49	23.66772	-20.7951	31.84	31.68186	100	0	92	-0.9684134	-1.579863	168.8006	
13:04:47	47.0761	-122.5816	22.953	23.03838	-26.4357	32.12	32.00441	100	0	92	-0.3338162	-1.480099	169.9546	
13:04:49	47.0756	-122.5815	22.266	22.37469	-31.29505	32.3	32.1508	100	0	92	-0.6451151	-1.418062	171.1327	
13:04:50	47.0751	-122.5814	22.03	21.97418	-26.80544	32.31	32.19022	100	0	92	-2.534432	-1.237098	171.288	
13:04:52	47.07458	-122.5812	21.836	21.78176	-14.34397	32.31	32.16393	100	0	92	-2.192597	-1.013675	171.6359	
13:04:54	47.07413	-122.5811	21.717	21.6815	-12.64293	32.27	32.10073	100	0	92	-1.892937	-1.081326	171.9445	
13:04:55	47.07365	-122.581	21.692	21.65381	15.68591	32.26	32.10195	100	0	92	-2.312886	-0.5658005	172.1055	
13:04:57	47.07314	-122.5809	21.669	21.71719	-10.32674	32.23	32.05176	100	0	92	-2.371102	-1.050346	172.2874	
13:04:59	47.07269	-122.5808	21.45	21.42421	-19.17101	32.28	32.10859	100	0	92	-1.74823	-1.19656	172.6204	
13:05:00	47.07221	-122.5807	21.149	21.24403	11.68247	32.3	32.13426	100	0	92	-2.141409	-0.611006	173.0333	
13:05:02	47.07171	-122.5806	21.248	21.27318	6.903656	32.24	32.06211	100	0	92	-2.980601	-0.6062922	173.123	
13:05:04	47.07125	-122.5805	21.388	21.38231	9.356867	32.19	32.0141	100	0	92	-2.493797	-0.5616146	173.3041	
13:05:05	47.07074	-122.5805	21.626	21.57626	14.82328	32.14	31.96181	100	0	92	-2.47539	-0.4945867	173.104	
13:05:07	47.07024	-122.5804	21.907	21.86123	9.35429	32.12	31.93078	100	0	92	-2.08286	-0.5988008	173.2252	
13:05:09	47.06974	-122.5803	22.293	22.23967	20.24093	32.04	31.87497	100	0	92	-2.184503	-0.4560846	173.6108	
13:05:11	47.06923	-122.5802	22.906	22.79877	33.64182	32	31.81452	100	0	92	-2.335987	-0.1932194	174.1104	
13:05:12	47.06878	-122.5801	23.421	23.39189	33.96274	31.97	31.79002	100	0	92	-2.483882	-0.2073405	174.3108	
13:05:14	47.06842	-122.5801	23.914	23.89086	29.0462	31.95	31.76846	100	0	92	-1.883029	-0.3379653	174.4362	
13:05:16	47.06782	-122.58	24.564	24.50329	33.72827	31.92	31.7423	100	0	92	-2.901947	-0.31991	173.8112	
13:05:17	47.06737	-122.5799	24.216	24.62753	12.56573	31.93	31.75067	100	0	92	-2.620533	-0.4096552	173.1942	
13:05:19	47.06686	-122.5798	23.453	23.39635	-247.3042	31.96	31.77324	100	0	92	3.704651	-5.088389	173.365	
13:05:21	47.06638	-122.5798	17.987	18.4718	-318.425	32.93	32.61996	100	0	92	3.599763	-5.970041	176.534	
13:05:22	47.06583	-122.5798	11.599	12.65823	-336.8754	33.65	33.36998	100	0	92	4.043305	-5.862696	179.9235	
13:05:24	47.0653	-122.5798	5.759	6.722776	-148.8352	34.03	33.74469	100	0	92	-2.060154	-1.0718	-176.8621	
13:05:26	47.06486	-122.5798	7.984	7.640247	79.07315	32.53	32.13619	100	0	92	-11.35994	3.324427	-179.5423	
13:05:27	47.06433	-122.5798	12.331	11.27158	257.1407	31.06	30.85398	100	0	92	-5.622812	6.561527	176.4767	
13:05:29	47.06397	-122.5798	18.003	18.58278	473.3216	29.37	28.95594	100	0	92	24.61998	10.36914	-177.9947	
13:05:31	47.06348	-122.5799	27.09	26.39587	458.122	28.33	27.85729	100	0	92	23.06437	9.679956	-164.9146	
13:05:33	47.06312	-122.5801	33.537	33.78897	422.1112	28.08	27.73872	100	0	92	23.56918	9.183397	-151.019	
13:05:34	47.06275	-122.5805	41.974	41.72409	489.9952	27.43	27.48503	100	0	92	21.50978	10.80205	-135.4849	
13:05:36	47.06248	-122.5809	51.809	50.5356	496.262	27.03	27.31345	100	0	92	23.99109	10.54858	-120.631	
13:05:38	47.06232	-122.5815	62.014	60.60621	562.4064	26.87	27.51727	100	0	92	22.53246	10.73892	-104.7565	
13:05:39	47.06227	-122.5821	72.848	70.90181	540.8314	26.9	27.65585	100	0	92	24.0125	9.110964	-88.2233	
13:05:41	47.06233	-122.5827	80.659	79.69073	134.918	27.56	28.09132	100	0	92	-2.272258	-2.005292	-78.32748	
13:05:43	47.06244	-122.5834	78.431	79.00686	-132.5331	30.52	30.82916	100	0	92	3.557851	-6.278245	-74.03131	
13:05:44	47.06258	-122.5841	73.424	75.84582	-146.2306	32.53	32.24448	100	0	92	2.098564	-6.067502	-69.6098	
13:05:46	47.06273	-122.5846	68.222	69.71893	-231.6593	33.39	33.31647	100	0	92	-12.95197	-4.772447	-67.87991	
13:05:48	47.06289	-122.5854	61.762	62.86018	-380.2855	33.95	33.73824	100	0	92	-36.92433	-5.412317	-80.0202	
13:05:49	47.06289	-122.5861	57.409	57.77583	-95.30984	34.12	33.18729	100	0	92	-42.77781	-0.06197379	-107.3028	
13:05:51	47.06265	-122.5868	56.324	55.74535	-188.8699	33.42	33.04763	100	0	92	-40.79006	-2.489582	-128.9767	
13:05:53	47.06229	-122.5873	53.549	53.97869	134.1305	33.4	32.93563	100	0	92	-36.30593	2.27281	-153.7168	
13:05:55	47.06179	-122.5875	56.455	55.8273	94.84283	32.17	32.2233	100	0	92	-35.77562	1.89669	-171.9743	
13:05:56	47.06137	-122.5875	58.377	57.7493	25.58307	31.76	31.98208	100	0	92	-28.7631	-0.05778463	172.9068	
13:05:58	47.06087	-122.5874	58.221	57.92379	-99.28567	31.99	32.29716	100	0	92	3.676692	-4.047557	167.0097	
13:06:00	47.06033	-122.5872	60.008	60.03799	545.2495	30.99	31.43467	100	0	92	22.17916	7.757017	-178.5622	
13:06:01	47.0599	-122.5873	65.574	65.27084	410.2482	30.2	29.65599	100	0	92	34.17838	7.552134	-160.7907	
13:06:03	47.05949	-122.5876	73.297	72.22584	382.7851	29.29	29.27653	100	0	92	32.83397	7.457732	-140.4349	
13:06:05	47.05918	-122.5881	81.154	79.80371	411.4774	28.66	29.0826	100	0	92	8.585181	7.221997	-123.5562	
13:06:06	47.05893	-122.5887	85.868	84.91885	217.634	29.16	29.50499	100	0	92	-12.38699	2.419899	-124.5729	
13:06:08	47.05872	-122.5891	83.456	83.52505	-244.6874	30.72	30.2244	100	0	92	3.776788	-6.505594	-123.1548	
13:06:10	47.05849	-122.5897	78.716	78.89555	-252.2591	32.32	31.93131	100	0	92	3.88646	-5.994249	-119.4868	
13:06:11	47.0582	-122.5905	71.418	72.86659	-310.7731	33.45	33.09668	100	0	92	3.919394	-6.048218	-116.0688	
13:06:13	47.05801	-122.5911	65.823	66.40427	-352.1594	33.87	33.6041	100	0	92	4.032277	-5.871793	-112.6651	
13:06:15	47.05783	-122.5917	60.042	59.97687	-390.5296	34.11	33.73309	100	0	92	3.88021	-6.196818	-109.1376	
13:06:16	47.05767	-122.5925	53.765	53.71252	-370.5861	34.27	33.91013	100	0	92	3.824884	-5.863427	-105.6808	
13:06:18	47.05753	-122.5932	47.175	47.36515	-368.4097	34.35	34.0362	100	0	92	3.815355	-5.805436	-102.2524	
13:06:20	47.05742	-122.5941	40.224	41.416	-396.8271	34.37	34.04862	100	0	92	4.284119	-5.931577	-98.80032	
13:06:22	47.05735	-122.5948	34.636	34.70183	-401.4762	34.38	34.07804	100	0	92	3.762954	-5.986246	-95.47794	
13:06:23	47.05731	-122.5955	28.692	28.77852	-376.8011	34.39	34.098	100	0	92	3.366873	-5.976151	-92.15301	
13:06:25	47.05729	-122.5964	14.475	18.77506	-312.3311	34.4	34.21766	100	0	92	-3.344659	-1.011558	-90.4286	
13:06:27	47.05728	-122.5971	17.56	12.76262	-300.2711	32.96	32.69087	100	0	92	-5.88348	1.217056	-91.3196	
13:06:28	47.05726	-122.5978	26.292	20.20433	161.9028	32.32	32.0822	100	0	92	-6.524181	0.8905266	-92.94329	
13:06:30	47.05722	-122.5985	28.443	28.92518	389.6778	31.97	31.68971	100	0	92	-6.730824	1.298699	-94.82278	
13:06:32	47.05717	-122.5992	31.488	32.93711	328.5037	31.63	31.35898	100	0	92	-9.066775	1.767224	-97.59654	
13:06:33	47.05709	-122.5999	34.504	35.15691	226.9981	31.39	31.14612	100	0	92	-8.738931	1.982841	-100.7593	
13:06:35	47.05699	-122.6005	36.082	37.30576	168.0271	31.21	31.01692	100	0	92	-8.466094	1.902745	-104.07	
13:06:37	47.05686	-122.6012	35.487	36.71093	33.38086	31.11	30.93233	100	0	92	-9.168608	1.78086	-107.2986	
13:06:38	47.05669	-122.6019	40.044	37.43082	53.0924	31.07	30.91513	100	0	92	-9.103629	1.768454	-110.8592	
13:06:40	47.05651	-122.6026	45.631	43.37626	252.7095	31.06	30.84484	100	0	92	-9.295957	1.947304	-114.3583	
13:06:42	47.05632	-122.6031	51.12	50.46457	362.7893	31.01	30.79641	100	0	92	-9.334949	1.716246	-118.1619	
13:06:44	47.05608	-122.6038	58.26	57.63498	421.3795	30.95	30.75533	100	0	92	-9.707469	1.893388	-122.028	
13:06:45	47.05582	-122.6043	60.458	62.37989	337.6593	30.9	30.71581	100	0	92	-9.779939	1.987336	-125.8989	
13:06:47	47.05553	-122.6049	62.705	63.73674	180.6485	30.86	30.67435	100	0	92	-9.714748	1.881832	-129.814	
13:06:49	47.05525	-122.6054	64.741	64.93167	108.8009	30.84	30.65956	100	0	92	-9.766187	1.89579	-133.5686	
13:06:50	47.0549	-122.6059	67.217	66.88669	111.032	30.82	30.64235	100	0	92	-9.61865	1.973011	-137.4657	
13:06:52	47.05453	-122.6064	69.963	69.25799	127.2996	30.81	30.64824	100	0	92	-9.802603	2.028263	-141.4309	
13:06:54	47.05415	-122.6068	73.415	72.59207	170.8473	30.79	30.64339	100	0	92	-10.11352	1.973489	-145.3429	
13:06:55	47.0538	-122.6071	76.356	76.20174	184.3911	30.81	30.65636	100	0	92	-10.36593	1.618284	-149.4071	
13:06:57	47.05341	-122.6075	79.328	79.35275	185.474	30.9	30.75581	100	0	92	-10.05466	1.485344	-153.2649	
13:06:59	47.05295	-122.6078	82.587	82.55821	190.6336	30.94	30.81149	100	0	92	-10.33372	1.524424	-157.475	
13:07:00	47.05259	-122.608	85.171	85.47948	178.6865	30.97	30.79319	100	0	92	-10.62446	1.457597	-161.8385	
13:07:02	47.05205	-122.6082	85.899	86.98155	111.6593	30.99	30.85847	100	0	92	-10.6595	1.46952	-166.1738	
13:07:04	47.05158	-122.6084	85.862	86.46678	19.38911	31.02	30.87826	100	0	92	-11.41535	1.480938	-170.6926	
13:07:06	47.05112	-122.6085	85.922	85.86916	-28.11172	31.02	30.94957	100	0	92	-11.34944	1.418703	-175.1292	
13:07:07	47.05069	-122.6085	85.716	85.48253	-60.34516	31.01	30.94962	100	0	92	-12.34634	0.9154142	-179.7903	
13:07:09	47.05019	-122.6085	85.244	85.09377	-30.42014	31.11	31.00327	100	0	92	-13.58165	1.363037	174.351	
13:07:11	47.04967	-122.6084	85.414	84.93764	-28.51535	31.09	31.03018	100	0	92	-13.15204	1.310919	168.7439	
13:07:12	47.04933	-122.6083	86.525	85.89238	24.64361	31.09	30.97108	100	0	92	-12.75691	1.390369	163.0592	
13:07:14	47.04882	-122.608	87.882	87.56675	70.70339	31.11	31.0001	100	0	92	-13.21204	1.163723	156.8477	
13:07:16	47.04834	-122.6077	89.031	88.93063	73.36549	31.13	30.99049	100	0	92	-13.39156	1.172088	151.489	
13:07:17	47.048	-122.6074	89.757	89.90031	65.53402	31.14	31.13419	100	0	92	-13.09895	1.315313	146.0696	
13:07:19	47.04762	-122.607	90.603	90.94382	154.8927	31.08	31.01515	100	0	92	-16.41245	3.711992	139.5289	
13:07:21	47.04727	-122.6065	94.586	94.03133	218.4019	30.3	30.28048	100	0	92	-16.75847	5.178108	131.5484	
13:07:22	47.04698	-122.6059	99.237	98.5762	215.7399	29.89	29.92661	100	0	92	-16.03002	4.438571	124.4119	
13:07:24	47.04674	-122.6054	102.992	102.8136	241.4618	29.72	29.85187	100	0	92	-16.462	4.681885	116.991	
13:07:26	47.04657	-122.6048	105.918	106.3213	218.7861	29.61	29.74637	100	0	92	-16.67267	4.702594	109.4513	
13:07:28	47.04644	-122.6041	108.106	108.669	182.7678	29.48	29.60302	100	0	92	-17.49216	5.277137	101.1957	
13:07:29	47.04638	-122.6034	111.527	111.2388	257.7994	29	29.293	100	0	92	-21.34495	8.225236	91.07101	
13:07:31	47.04641	-122.6029	116.024	115.7067	264.5082	28.29	28.5418	100	0	92	-22.86884	8.870172	79.29575	
13:07:33	47.04654	-122.6022	121.586	120.7528	289.7354	27.71	28.08915	100	0	92	-23.08291	9.281821	66.51902	
13:07:34	47.04674	-122.6017	127.182	126.266	295.2209	27.37	27.81535	100	0	92	-23.10726	9.173478	53.87049	
13:07:36	47.04698	-122.6013	132.113	132.0442	320.2888	27.25	27.73319	100	0	92	-23.24761	9.249107	40.83733	
13:07:38	47.04736	-122.6009	139.412	138.0273	336.3309	27.15	27.62293	100	0	92	-23.28263	9.038696	27.35752	
13:07:39	47.04768	-122.6007	145.785	145.5461	414.6629	27.12	27.65391	100	0	92	-23.25323	9.221416	13.76223	
13:07:41	47.04813	-122.6006	153.79	153.4154	451.6158	27.09	27.64018	100	0	92	-23.61367	9.204167	-0.01221718	
13:07:43	47.04855	-122.6007	161.487	160.9426	456.0043	27.05	27.58768	100	0	92	-23.43875	9.234076	-13.73444	
13:07:44	47.04897	-122.6009	169.431	168.2278	439.5369	27.03	27.49447	100	0	92	-23.05634	9.060028	-27.04591	
13:07:46	47.04928	-122.6012	179.425	176.1138	474.4463	27.05	27.4611	100	0	92	-22.53653	9.177056	-40.14447	
13:07:48	47.04956	-122.6016	193.884	190.6771	736.2952	27.02	27.27757	100	0	92	-23.0056	9.068352	-53.78321	
13:07:49	47.04978	-122.6021	207.923	206.5483	887.8374	26.98	27.13655	100	0	92	-23.57344	9.075554	-67.55898	
13:07:51	47.0499	-122.6027	219.235	220.1509	868.5293	26.91	27.00111	100	0	92	-23.74541	9.191938	-81.23569	
13:07:53	47.04992	-122.6033	225.735	228.3666	691.0042	26.54	26.58724	100	0	92	-24.6592	11.26351	-96.82732	
13:07:55	47.04985	-122.6039	233.13	233.5789	514.8802	25.77	25.62778	100	0	92	-25.17329	13.03935	-113.0662	
13:07:56	47.04968	-122.6043	244.136	242.9225	551.6321	25.16	24.84485	100	0	92	-25.78463	13.41017	-130.0744	
13:07:58	47.0494	-122.6048	256.169	255.1964	704.942	24.3	24.25215	100	0	92	-28.25669	15.76414	-149.1286	
13:08:00	47.04905	-122.6049	269.991	268.1757	859.6278	21.92	22.06414	100	0	92	-37.42999	21.9002	-176.8651	
13:08:01	47.04877	-122.6049	281.187	281.1038	748.8866	20.58	20.78391	100	0	92	-36.94965	22.00131	153.8611	
13:08:03	47.0485	-122.6046	295.412	292.7534	741.9537	19.45	20.27444	100	0	92	-16.29845	24.07076	126.5265	
13:08:05	47.04834	-122.6043	307.742	306.3499	659.4471	18.95	19.56539	100	0	92	41.58781	22.11611	134.2827	
13:08:06	47.04807	-122.6041	319.995	318.2096	675.6703	19.42	19.33378	100	0	92	43.23219	21.38248	-177.073	
13:08:08	47.04782	-122.6042	331.375	330.1629	411.9378	19.67	18.78669	100	0	92	22.20642	8.52646	-145.0966	
13:08:10	47.04757	-122.6046	332.111	331.555	-197.3277	24.81	23.85812	100	0	92	2.61451	-4.940194	-136.7313	
13:08:11	47.04726	-122.605	326.623	327.6237	-201.4666	29.48	28.76224	100	0	92	3.07638	-5.37765	-131.5526	
13:08:13	47.04692	-122.6055	321.552	322.7022	-235.6186	32.07	31.07249	100	0	92	3.338091	-5.503291	-127.2355	
13:08:15	47.04661	-122.6061	316.997	317.6479	-259.7883	32.76	32.13414	100	0	77	4.31901	-5.745979	-123.6663	
13:08:17	47.04632	-122.6067	312.459	313.11	-263.972	32.25	31.60886	100	0	69	4.56955	-6.198241	-119.2247	
13:08:18	47.04609	-122.6073	308.534	308.7523	-245.3246	31.79	31.09758	100	0	69	3.876222	-6.155747	-115.8339	
13:08:20	47.04586	-122.6079	304.442	305.3808	-238.4523	31.45	30.84536	100	0	69	4.417222	-6.071611	-112.5134	
13:08:22	47.04566	-122.6086	300.687	301.2728	-264.1431	31.18	30.62436	100	0	69	4.054773	-6.22419	-109.4847	
13:08:23	47.0455	-122.6092	297.84	297.6356	-224.1553	31.02	30.7417	100	0	69	3.754813	-6.108146	-106.8196	
13:08:25	47.04537	-122.6099	295.25	295.1635	-171.7265	30.88	30.68268	100	0	69	3.466559	-5.98816	-104.3523	
13:08:27	47.04525	-122.6105	292.533	292.8029	-153.7903	30.75	30.45341	100	0	68	4.194331	-6.029987	-101.6619	
13:08:28	47.04517	-122.6112	290.107	290.2418	-148.5004	30.62	30.1923	100	0	68	3.885172	-6.040163	-98.51781	
13:08:30	47.0451	-122.6118	286.606	287.1814	-174.8742	30.51	30.04859	100	0	68	4.193687	-5.948922	-95.60399	
13:08:32	47.04507	-122.6126	282.184	283.8724	-218.6479	30.46	30.2761	100	0	69	3.353257	-5.864333	-92.65837	
13:08:33	47.04506	-122.6132	279.09	278.8982	-270.9887	30.49	30.15035	100	0	69	3.761782	-6.023017	-89.78133	
13:08:35	47.04507	-122.6139	275.8	275.5363	-244.9393	30.52	30.12704	100	0	68	3.621706	-5.964255	-86.63844	
13:08:37	47.04512	-122.6146	272.003	272.2022	-219.1946	30.45	30.04807	100	0	69	3.973327	-5.901783	-83.31794	
13:08:39	47.04517	-122.6151	269.375	268.8491	-212.4604	30.51	30.08818	100	0	69	3.099594	-5.908595	-80.27579	
13:08:40	47.04528	-122.6159	265.25	265.6408	-202.9993	30.56	30.08771	100	0	69	3.607988	-5.775871	-77.08715	
13:08:42	47.04541	-122.6166	260.395	261.2039	-247.9286	30.61	30.08141	100	0	69	3.374072	-5.835532	-74.23022	
13:08:44	47.04552	-122.6171	256.887	256.5736	-280.332	30.64	30.15462	100	0	69	4.20068	-5.932463	-70.02784	
13:08:45	47.04573	-122.6179	250.971	251.7706	-325.8123	30.69	30.17737	100	0	69	3.730939	-5.775106	-66.44504	
13:08:47	47.04591	-122.6185	246.774	246.52	-324.0272	30.68	30.16467	100	0	69	3.725691	-5.823116	-63.86071	
13:08:49	47.04609	-122.619	242.887	242.0568	-296.2055	30.67	30.10351	100	0	68	3.72313	-5.874283	-60.73621	
13:08:50	47.04636	-122.6197	237.796	237.8787	-275.7772	30.65	30.08182	100	0	69	3.723001	-5.918639	-57.49401	
13:08:52	47.04664	-122.6203	230.175	233.2496	-285.1279	30.66	30.10908	100	0	69	3.341703	-5.949926	-54.40815	
13:08:54	47.04691	-122.6208	217.008	221.4225	-574.1748	30.71	30.19936	100	0	69	3.630472	-5.911757	-50.99586	
13:08:55	47.04721	-122.6213	203.266	206.0344	-827.8173	30.68	30.23802	100	0	69	4.024133	-5.917067	-47.80917	
13:08:57	47.04753	-122.6218	191.684	191.9614	-938.0753	30.7	30.25773	100	0	69	4.050626	-5.874077	-44.12737	
13:08:59	47.04784	-122.6222	188.964	183.9312	-677.8308	30.67	30.21887	100	0	69	3.7658	-5.994836	-41.04328	
13:09:01	47.04824	-122.6227	184.391	182.5843	-325.9669	30.67	30.22442	100	0	69	3.87764	-5.923447	-37.907	
13:09:02	47.04857	-122.6231	180	179.9089	-228.2785	30.66	30.23994	100	0	69	3.67169	-5.91761	-34.65343	
13:09:04	47.049	-122.6235	174.45	175.3755	-255.5309	30.67	30.24751	100	0	69	3.690844	-5.975454	-31.30634	
13:09:06	47.04943	-122.6239	169.142	170.1111	-282.4282	30.69	30.26347	100	0	69	3.877774	-5.878102	-28.00806	
13:09:07	47.0498	-122.6241	165.08	165.41	-285.9017	30.69	30.28296	100	0	69	3.989709	-5.910547	-24.53399	
13:09:09	47.05028	-122.6244	159.815	161.3647	-295.2435	30.73	30.32811	100	0	69	3.928429	-5.97806	-21.10963	
13:09:11	47.05068	-122.6246	155.608	155.6484	-318.1209	30.71	30.31314	100	0	68	3.755449	-6.054768	-17.54825	
13:09:12	47.05117	-122.6249	148.745	150.38	-320.873	30.67	30.2643	100	0	69	3.969362	-5.989289	-14.19223	
13:09:14	47.05162	-122.625	141.688	143.6963	-370.7522	30.72	30.31875	100	0	69	4.066817	-5.863559	-10.76832	
13:09:16	47.05207	-122.6251	135.063	135.9792	-426.1238	30.72	30.33771	100	0	69	3.736043	-5.947704	-7.472751	
13:09:17	47.05249	-122.6252	128.789	128.9439	-427.6017	30.75	30.38895	100	0	69	3.8769	-5.970945	-4.030782	
13:09:19	47.05301	-122.6252	121.135	122.1973	-423.7339	30.76	30.42754	100	0	68	3.925458	-5.941225	-0.615947	
13:09:21	47.05333	-122.6252	116.759	117.1963	-411.7275	30.73	30.42028	100	0	69	4.167834	-6.040795	2.661178	
13:09:22	47.05394	-122.6252	111.439	110.5447	-394.6987	30.74	30.41979	100	0	69	3.951728	-5.946392	5.960376	
13:09:24	47.05441	-122.6251	107.953	107.3678	-260.3093	30.72	30.4014	100	0	69	4.040762	-5.798023	9.19517	
13:09:26	47.05476	-122.625	105.396	104.7415	-186.6395	30.67	30.41887	100	0	69	3.426527	-5.815361	12.37356	
13:09:28	47.05526	-122.6248	101.314	101.527	-187.5809	30.66	30.3886	100	0	69	3.773004	-5.956406	15.47688	
13:09:29	47.0557	-122.6246	97.285	97.69527	-205.6335	30.73	30.43726	100	0	69	3.51966	-5.945714	18.97113	
13:09:31	47.05616	-122.6244	92.623	93.42745	-222.4116	30.74	30.53481	100	0	69	3.858034	-5.831893	22.34705	
13:09:33	47.0565	-122.6242	86.866	87.14736	-320.7549	30.76	30.55468	100	0	69	3.912235	-5.915325	25.98139	
13:09:34	47.05702	-122.6238	77.647	79.43053	-445.6664	30.75	30.49354	100	0	69	4.227105	-5.835569	29.48872	
13:09:36	47.05743	-122.6234	70.146	70.76926	-520.0207	30.73	30.44917	100	0	69	3.831112	-6.068952	32.94593	
13:09:38	47.05782	-122.623	66.162	63.76914	-442.3495	30.74	30.43787	100	0	69	4.065018	-5.866137	36.07911	
13:09:39	47.0581	-122.6227	66.324	63.58094	-165.6122	30.71	30.40653	100	0	68	3.483149	-5.926418	39.55942	
13:09:41	47.05853	-122.6222	66.86	65.82738	37.05508	30.6	30.30688	100	0	68	3.769501	-5.898489	42.9443	
13:09:43	47.05886	-122.6217	66.627	67.2962	82.57222	30.62	30.3463	100	0	69	3.983657	-6.055351	46.28431	
13:09:44	47.05917	-122.6212	62.883	65.87585	-5.175618	30.69	30.4414	100	0	68	3.6389	-5.871708	49.69534	
13:09:46	47.05947	-122.6206	57.264	61.05492	-196.0792	30.61	30.34789	100	0	69	4.094468	-6.021467	53.15008	
13:09:48	47.05971	-122.6201	52.533	53.44157	-337.7574	30.68	30.33945	100	0	69	3.81089	-5.857702	56.5233	
13:09:50	47.05997	-122.6195	47.207	47.14328	-374.1792	30.68	30.34301	100	0	69	3.647767	-6.029571	59.77974	
13:09:51	47.06022	-122.6189	41.228	41.86575	-343.3219	30.7	30.40989	100	0	69	3.873903	-5.86668	62.90417	
13:09:53	47.06042	-122.6183	36.199	36.4377	-342.7259	30.65	30.385	100	0	69	3.630073	-6.017782	65.90631	
13:09:55	47.06058	-122.6178	34.788	32.94038	-251.0054	30.67	30.44598	100	0	69	3.694392	-5.911564	69.03149	
13:09:56	47.06077	-122.617	33.707	32.72031	-104.8965	30.69	30.47006	100	0	69	3.744853	-5.989638	72.20794	
13:09:58	47.06091	-122.6163	32.922	32.85231	-26.31641	30.7	30.52085	100	0	68	3.665994	-5.804642	75.46954	
13:10:00	47.06101	-122.6157	32.09	32.48713	-12.22601	30.63	30.42928	100	0	69	3.948647	-5.914303	78.86333	
13:10:01	47.06108	-122.615	31.412	31.76922	-15.90304	30.67	30.5508	100	0	69	3.850287	-5.866953	82.26678	
13:10:03	47.06113	-122.6144	28.186	30.47552	-31.04556	30.7	30.56861	100	0	68	-4.66953	-4.929432	84.45094	
13:10:05	47.06118	-122.6137	20.618	23.75038	-312.4543	30.45	30.27235	100	0	69	-17.20625	-5.916177	80.82368	
13:10:06	47.0613	-122.613	12.073	14.42471	-448.8722	30.58	30.42161	100	0	68	-3.948923	-5.749569	71.85387	
13:10:08	47.06142	-122.6123	5.47	5.895551	-475.1637	31.85	31.51329	100	0	92	4.150131	-5.442303	75.00594	
13:10:10	47.06152	-122.6117	0.989	1.63215	153.4295	32.58	32.4757	100	0	92	2.180884	6.8555	78.69743	
13:10:12	47.0616	-122.6111	7.456	5.095069	34.58844	30.01	29.88193	100	0	92	-1.253626	9.142027	80.66717	
13:10:13	47.06167	-122.6104	14.65	12.38688	407.0742	28.3	28.08123	100	0	92	-5.544373	13.54279	79.28259	
13:10:15	47.06175	-122.6098	24.967	22.83846	660.6709	26.22	26.23556	100	0	92	-7.157546	17.79532	75.0283	
13:10:17	47.06184	-122.6092	38.335	35.73842	810.3802	24.04	23.88949	100	0	92	14.70752	21.49368	74.61077	
13:10:18	47.06187	-122.6087	51.424	50.50458	904.718	22.45	22.44577	100	0	92	2.432883	23.97352	91.69749	
13:10:20	47.06186	-122.6082	64.01	63.94068	727.7242	21.88	21.56181	100	0	92	-48.86567	20.35429	75.14632	
13:10:22	47.06199	-122.6078	71.365	72.59246	542.5269	21.69	20.81915	100	0	92	-53.04856	18.50891	22.73451	
13:10:23	47.06235	-122.6077	80.578	78.98089	363.3717	22.63	22.21131	100	0	92	-0.448767	11.66065	1.122159	
13:10:25	47.06267	-122.6076	84.678	84.15373	126.0038	24.82	24.44918	100	0	92	47.23923	5.266743	20.34839	
13:10:27	47.063	-122.6072	86.346	86.08244	120.0282	26.84	25.76163	100	0	92	34.78759	4.613854	51.78815	
13:10:28	47.06318	-122.6067	91.83	89.08721	-21.32082	28.67	27.33764	100	0	92	43.96519	-0.1948959	74.1357	
13:10:30	47.06319	-122.6061	92.742	92.02939	70.08517	30.64	29.41567	100	0	92	43.85702	0.5828732	104.799	
13:10:32	47.06292	-122.6056	98.274	99.51843	972.6857	28.36	27.34249	100	0	92	25.07215	22.62415	157.6698	
13:10:33	47.0625	-122.6053	112.344	110.7148	487.4815	27.17	26.2724	100	0	92	-39.98238	14.23861	149.248	
13:10:35	47.06221	-122.605	121.375	116.6114	591.9714	26.64	25.44035	100	0	92	-56.43217	11.75731	108.8978	
13:10:37	47.06219	-122.6044	133.368	133.8071	1328.962	22.81	22.59786	100	0	92	-17.94761	26.92826	62.37245	
13:10:39	47.0623	-122.604	151.766	150.9448	998.343	20.53	20.32316	100	0	92	21.5852	24.68621	68.87054	
13:10:40	47.06232	-122.6035	164.427	163.8286	828.9074	20.77	19.84843	100	0	92	24.63025	23.30518	90.46327	
13:10:42	47.06222	-122.6031	176.642	175.81	746.8885	21.26	20.34101	100	0	92	25.14204	23.28761	112.5957	
13:10:44	47.06199	-122.6027	189.257	187.6531	707.611	21.8	20.96829	100	0	92	25.8451	23.2745	133.6549	
13:10:45	47.06173	-122.6025	200.648	199.5306	712.052	22.1	21.40704	100	0	92	25.13	23.49388	152.8653	
13:10:47	47.06144	-122.6024	207.419	209.3768	653.6439	21.99	21.65013	100	0	92	-21.26657	23.31572	159.4293	
13:10:49	47.06106	-122.6022	213.75	214.5813	363.1194	22.65	21.72277	100	0	92	-55.89555	18.85057	122.0919	
13:10:50	47.06095	-122.6018	222.009	220.197	526.8492	21.13	21.50406	100	0	92	-34.28166	24.31201	69.79974	
13:10:52	47.06103	-122.6014	239.602	235.0958	732.6292	18.8	19.58223	100	0	92	21.24107	25.58437	63.524	
13:10:54	47.06105	-122.6009	253.547	250.8972	729.9608	19.77	19.28546	100	0	92	41.24269	22.39699	102.7397	
13:10:55	47.06092	-122.6006	261.427	263.4277	796.3945	19.65	18.64029	100	0	92	1.300336	25.02279	127.7148	
13:10:57	47.06067	-122.6003	273.283	273.4845	667.1516	20.16	19.0972	100	0	92	-1.88433	23.23778	125.2842	
13:10:59	47.06046	-122.6	283.712	283.6123	632.7631	20.14	19.05565	100	0	92	24.96123	22.99476	131.7986	
13:11:01	47.06019	-122.5997	294.723	292.7922	755.6721	19.43	18.6055	100	0	92	10.42303	26.68105	150.7224	
13:11:02	47.05993	-122.5996	306.426	305.6088	666.6641	19.1	18.02379	100	0	92	-2.796314	23.36014	137.1541	
13:11:04	47.05969	-122.5993	317.174	316.9485	677.0363	19.32	18.30436	100	0	92	-2.677714	22.67406	128.216	
13:11:06	47.05947	-122.5991	329.001	328.0776	694.6349	19.12	18.44933	100	0	92	0.7042173	23.0355	124.0054	
13:11:07	47.05925	-122.5988	342.21	340.8529	739.9113	18.82	18.15534	100	0	92	6.95499	23.44978	127.771	
13:11:09	47.05903	-122.5985	358.806	355.0155	799.2114	18.52	17.74712	100	0	92	4.298112	23.41247	131.7039	
13:11:11	47.05881	-122.5983	377.093	373.4155	990.5962	18.35	17.55113	100	0	92	4.928856	23.37883	136.2035	
13:11:12	47.05857	-122.598	395.504	391.3022	1110.467	18.27	17.41987	100	0	92	5.481111	23.18746	141.0428	
13:11:14	47.05832	-122.5978	412.667	412.6069	1217.533	18.04	17.06608	100	0	92	6.105004	23.65364	146.9975	
13:11:16	47.05811	-122.5977	423.484	426.7372	973.6598	17.94	16.82133	100	0	92	4.427088	23.28335	153.3748	
13:11:17	47.05786	-122.5976	435.421	437.098	759.103	17.92	16.75135	100	0	92	4.645519	23.31925	158.62	
13:11:19	47.05758	-122.5974	448.552	448.262	684.3213	17.88	16.60238	100	0	92	5.086019	23.2678	164.5443	
13:11:21	47.0573	-122.5974	465.691	462.172	775.8536	17.9	16.66939	100	0	92	5.456191	23.20634	171.6874	
13:11:23	47.05705	-122.5973	481.983	480.2683	962.7469	17.9	16.62184	100	0	92	4.626542	23.30383	177.7466	
13:11:24	47.05677	-122.5973	496.753	496.834	1006.15	17.88	16.73039	100	0	92	4.753572	23.33494	-175.9594	
13:11:26	47.0565	-122.5974	510.327	511.1939	925.2643	17.88	16.73619	100	0	92	-2.156892	23.43673	-171.3291	
13:11:28	47.05622	-122.5974	524.612	524.3322	827.2005	17.85	16.94071	100	0	92	-2.375124	23.39843	-171.4818	
13:11:29	47.05595	-122.5975	538.111	537.357	794.1057	17.82	17.04289	100	0	92	-1.800251	23.29352	-171.2424	
13:11:31	47.0557	-122.5975	550.855	550.6094	778.4137	17.88	17.17116	100	0	92	-0.9068957	23.31742	-169.8141	
13:11:33	47.05541	-122.5976	565.285	564.007	787.4833	17.82	17.12666	100	0	92	-0.05684182	23.31861	-167.8179	
13:11:34	47.05516	-122.5976	577.998	577.6981	796.4734	17.87	17.21423	100	0	92	-0.7539518	23.22035	-165.7122	
13:11:36	47.05487	-122.5977	592.826	591.0239	793.9312	17.87	17.2056	100	0	92	-3.694187	23.31462	-165.737	
13:11:38	47.0546	-122.5978	606.728	604.8163	821.3489	17.79	17.11998	100	0	92	-2.556944	23.49455	-165.9571	
13:11:39	47.05435	-122.5979	620.024	618.7601	816.1353	17.83	17.14375	100	0	92	-0.6138828	23.30712	-165.2309	
13:11:41	47.05407	-122.598	634.303	632.5132	807.7974	17.81	17.08967	100	0	92	-20.42442	23.09891	-167.8822	
13:11:43	47.05381	-122.598	646.811	646.1784	806.4556	17.61	16.66483	100	0	92	-16.19105	24.12957	174.6769	
13:11:44	47.05353	-122.5979	659.26	657.1921	36.70198	19.9	17.8863	100	0	92	4.185424	-2.907937	172.1432	
13:11:46	47.0532	-122.5978	655.558	656.0959	-203.1682	25.78	24.11095	100	0	92	6.490649	-6.147372	177.5611	
13:11:48	47.05277	-122.5978	648.287	650.787	-239.0179	30.08	28.36606	100	0	92	6.579979	-5.646976	-176.0166	
13:11:50	47.0523	-122.5978	640.608	642.8046	-393.4532	32.34	31.25368	100	0	92	5.903548	-5.747236	-170.63	
13:11:51	47.0518	-122.5979	632.831	633.7626	-468.9444	33.59	32.51197	100	0	92	5.403381	-5.693224	-165.5811	
13:11:53	47.05127	-122.598	624.932	625.7886	-455.1237	34.22	33.32571	100	0	92	4.776239	-5.626451	-161.4126	
13:11:55	47.05078	-122.5982	616.363	618.3915	-444.0814	34.45	33.6258	100	0	92	4.665615	-5.715762	-157.5084	
13:11:56	47.05031	-122.5985	595.54	602.29	-814.4161	34.54	33.65609	100	0	92	4.362861	-5.872508	-153.5561	
13:11:58	47.0498	-122.5988	578.748	579.0592	-1193.719	34.55	33.83471	100	0	92	3.971542	-5.919729	-150.1061	
13:12:00	47.04937	-122.5992	572.931	567.5479	-880.073	34.52	33.80145	100	0	92	4.019691	-5.821857	-146.8701	
13:12:01	47.04896	-122.5995	569.141	565.2438	-435.6634	34.46	33.61016	100	0	92	3.768693	-5.889931	-143.9546	
13:12:03	47.04849	-122.6	564.511	564.1144	-214.7377	34.41	33.49125	100	0	92	3.575837	-5.921281	-140.7253	
13:12:05	47.04806	-122.6005	559.868	560.9616	-186.8936	34.38	33.74541	100	0	92	3.76046	-5.781728	-137.5266	
13:12:06	47.0477	-122.601	555.779	556.447	-230.5678	34.35	33.63614	100	0	92	3.98216	-5.892989	-134.2532	
13:12:08	47.04731	-122.6016	553.498	553.2101	-190.5078	34.33	33.4509	100	0	92	3.889051	-5.808105	-131.0476	
13:12:10	47.04704	-122.6021	552.037	551.5464	-125.9915	34.31	33.52809	100	0	92	3.853235	-5.88243	-127.6971	
13:12:12	47.04668	-122.6028	549.997	550.2998	-84.90411	34.3	33.59427	100	0	92	3.780118	-5.826108	-124.5059	
13:12:13	47.04652	-122.6031	548.832	549.3235	-93.1526	34.32	33.52321	100	0	92	3.546409	-6.051801	-121.5255	
13:12:15	47.04613	-122.6041	545.808	546.4694	-127.1704	34.33	33.46539	100	0	92	4.162572	-5.754408	-118.1285	
13:12:17	47.04589	-122.6048	543.854	544.2683	-148.4645	34.34	33.45636	100	0	92	4.409045	-5.932899	-114.9631	
13:12:18	47.04572	-122.6053	542.361	542.0737	-125.7506	34.36	33.51073	100	0	92	3.710885	-5.790202	-112.4061	
13:12:20	47.04549	-122.6062	539.353	540.0984	-115.3682	34.34	33.40081	100	0	92	3.902799	-5.74982	-109.4372	
13:12:22	47.04534	-122.6069	536.023	537.0515	-159.746	34.34	33.3263	100	0	92	3.579848	-5.860666	-106.5353	
13:12:23	47.04522	-122.6076	532.841	533.4089	-198.226	34.36	33.5529	100	0	92	3.830631	-5.857873	-103.2903	
13:12:25	47.04511	-122.6084	528.913	529.4626	-227.5773	34.38	33.57076	100	0	92	4.095807	-5.995636	-100.0378	
13:12:27	47.04504	-122.6092	525.192	525.7244	-230.582	34.43	33.50115	100	0	92	3.567667	-5.83638	-96.72056	
13:12:28	47.045	-122.6099	522.514	522.4554	-202.0273	34.42	33.43572	100	0	92	3.833965	-5.777922	-93.44879	
13:12:30	47.04499	-122.6106	519.847	519.8451	-172.8736	34.42	33.42268	100	0	92	3.794767	-5.863078	-89.88115	
13:12:32	47.04501	-122.6113	517.256	517.1548	-165.0816	34.43	33.42144	100	0	92	3.804445	-5.968379	-86.15568	
13:12:34	47.04506	-122.6122	511.82	513.2292	-207.7472	34.45	33.42436	100	0	92	3.776281	-5.919076	-82.58689	
13:12:35	47.04515	-122.613	507.79	508.431	-258.7884	34.48	33.46927	100	0	92	3.749866	-5.951356	-79.22421	
13:12:37	47.04525	-122.6137	504.104	504.217	-255.9483	34.48	33.47052	100	0	92	3.683252	-5.938868	-75.78574	
13:12:39	47.04539	-122.6144	500.457	500.4804	-255.3093	34.48	33.48427	100	0	92	4.256606	-5.975732	-72.31946	
13:12:40	47.04555	-122.6151	496.583	496.3946	-257.0356	34.48	33.49128	43	0	92	3.635846	-6.011956	-68.98209	
13:12:42	47.04579	-122.6159	491.718	492.423	-236.7733	34.49	33.56305	33	0	92	4.127309	-5.91618	-65.23464	
13:12:44	47.04599	-122.6165	487.247	487.8225	-269.4546	34.49	33.54694	35	0	92	3.646297	-5.886655	-61.86341	
13:12:45	47.04627	-122.6173	481.715	482.4773	-296.178	34.52	33.54462	36	0	92	3.71517	-5.832382	-58.37227	
13:12:47	47.04653	-122.6179	477.029	477.1075	-318.3621	34.51	33.57726	38	0	92	3.970752	-5.94975	-54.90733	
13:12:49	47.04686	-122.6185	471.616	471.9688	-310.9526	34.51	33.59627	40	0	92	3.990196	-5.965043	-51.48528	
13:12:50	47.0472	-122.6191	466.397	467.8312	-314.8835	34.51	33.60346	42	0	92	3.777623	-6.097862	-47.80964	
13:12:52	47.04755	-122.6197	455.632	459.9097	-426.3548	34.48	33.60203	43	0	92	3.714458	-5.911794	-44.70417	
13:12:54	47.04792	-122.6202	441.102	444.8458	-757.2506	34.49	33.63339	45	0	92	3.31267	-5.957776	-41.38174	
13:12:55	47.04833	-122.6207	425.7	427.7532	-945.0361	34.49	33.62839	47	0	92	3.789725	-5.907502	-38.20663	
13:12:57	47.04877	-122.6212	420.307	415.6651	-796.2555	34.49	33.6278	49	0	92	3.784496	-5.973883	-34.98311	
13:12:59	47.04915	-122.6216	417.223	413.9001	-371.1983	34.49	33.67585	51	0	92	4.000877	-5.879653	-31.56358	
13:13:01	47.04965	-122.622	413.506	413.023	-173.4211	34.47	33.68099	53	0	92	3.762608	-5.918245	-28.36146	
13:13:02	47.04994	-122.6222	411.357	411.2077	-124.3884	34.48	33.65129	55	0	92	3.735772	-5.875281	-25.18225	
13:13:04	47.05059	-122.6227	405.948	407.619	-195.3103	34.41	33.58163	56	0	92	3.289602	-5.984538	-22.12764	
13:13:06	47.05104	-122.6229	400.164	401.9777	-279.9578	34.43	33.69096	58	0	92	3.774123	-6.051467	-18.70667	
13:13:07	47.05155	-122.6232	392.476	394.0648	-406.2581	34.45	33.68962	60	0	92	3.7565	-6.143112	-15.22887	
13:13:09	47.05207	-122.6234	384.502	385.7911	-449.9936	34.46	33.70111	62	0	92	3.689683	-5.934801	-12.12205	
13:13:11	47.05262	-122.6235	376.644	377.6821	-475.0604	34.44	33.55903	64	0	92	3.806312	-5.976338	-8.60116	
13:13:12	47.0531	-122.6236	369.836	370.097	-458.8696	34.44	33.61129	65	0	92	3.990014	-5.84269	-5.794842	
13:13:14	47.05359	-122.6237	363.265	363.064	-439.5507	34.43	33.61855	67	0	92	3.899106	-5.981087	-2.358612	
13:13:16	47.0541	-122.6237	356.299	356.4599	-453.8627	34.41	33.61608	69	0	92	3.933859	-5.904912	0.7187315	
13:13:17	47.0547	-122.6237	348.547	349.3869	-452.6614	34.4	33.71547	70	0	92	3.604611	-6.048788	3.916263	
13:13:19	47.05518	-122.6237	344.703	343.4692	-380.0951	34.39	33.7246	72	0	92	3.873036	-5.896567	6.882821	
13:13:21	47.05567	-122.6236	341.35	340.4476	-254.3989	34.4	33.69178	73	0	92	4.033361	-5.94246	10.06074	
13:13:23	47.05614	-122.6234	336.719	337.2996	-206.7433	34.39	33.66506	75	0	92	4.118115	-5.81162	13.3058	
13:13:24	47.05674	-122.6232	328.085	330.4381	-339.3394	34.43	33.8098	76	0	92	3.861979	-5.964562	16.60822	
13:13:26	47.05723	-122.623	321.651	322.1198	-436.6853	34.46	33.82367	77	0	92	4.006859	-5.911973	19.86769	
13:13:28	47.05772	-122.6227	320.386	318.2525	-311.4598	34.48	33.8149	79	0	92	3.966724	-5.891988	22.57885	
13:13:29	47.0582	-122.6224	319.579	318.1162	-115.1603	34.45	33.77772	80	0	92	4.180068	-5.979763	26.37345	
13:13:31	47.05868	-122.622	318.84	318.8227	-1.687886	34.46	33.78412	81	0	92	3.846669	-5.950771	29.02281	
13:13:33	47.05913	-122.6216	317.521	318.3576	-3.540032	34.42	33.71771	82	0	92	4.051552	-5.983303	32.62295	
13:13:34	47.05951	-122.6212	314.61	316.3902	-64.32927	34.42	33.72385	83	0	92	3.501678	-5.907674	35.96255	
13:13:36	47.05995	-122.6208	309.211	311.0129	-216.9385	34.44	33.83803	84	0	92	3.794362	-5.976953	39.27891	
13:13:38	47.06035	-122.6202	304.123	305.2981	-299.7053	34.47	33.88057	85	0	92	3.970841	-5.922759	42.50889	
13:13:39	47.06071	-122.6197	299.049	299.3009	-341.844	34.47	33.84745	86	0	92	3.550864	-5.92693	45.68567	
13:13:41	47.06109	-122.6191	293.328	293.7026	-351.1956	34.49	33.82202	87	0	92	3.933554	-5.905596	49.08955	
13:13:43	47.06141	-122.6186	288.343	288.3564	-334.3249	34.48	33.83627	88	0	92	3.781117	-5.940802	52.0945	
13:13:45	47.06174	-122.6179	282.451	283.1659	-336.311	34.49	33.84042	88	0	92	3.988469	-5.9726	55.51927	
13:13:46	47.062	-122.6173	280.699	279.1503	-262.993	34.51	33.85336	89	0	92	4.017922	-5.917154	58.78573	
13:13:48	47.06228	-122.6166	279.428	278.5585	-116.1667	34.53	33.96633	90	0	92	3.695322	-5.980069	62.25136	
13:13:50	47.06249	-122.6159	281.836	281.2848	100.5474	33.84	33.38892	90	0	92	4.30266	-4.077981	65.3373	
13:13:51	47.06264	-122.6154	280.938	281.1981	-35.43101	33.96	33.27638	91	0	92	4.302655	-6.004233	67.90514	
13:13:53	47.06286	-122.6145	269.27	274.5609	-272.2574	34.44	33.83127	92	0	92	3.910108	-6.080751	71.57401	
13:13:55	47.06299	-122.6138	260.341	262.5467	-544.348	34.55	34.09517	92	0	92	4.012383	-6.020418	74.86945	
13:13:56	47.0631	-122.613	251.355	251.952	-623.9802	34.54	34.03397	93	0	92	4.51553	-6.019806	78.4127	
13:13:58	47.06319	-122.6122	241.63	241.9313	-617.1663	34.53	33.96347	93	0	92	3.85765	-5.968706	82.14001	
13:14:00	47.06324	-122.6114	233.633	233.9088	-511.3837	34.52	33.85561	94	0	92	3.806061	-5.123199	85.41517	
13:14:01	47.06326	-122.6107	229.969	229.1936	-184.3059	34.08	33.51423	94	0	92	3.967536	-0.2958615	89.06002	
13:14:03	47.06326	-122.6101	229.613	228.5529	-117.3411	33.24	32.5576	94	0	92	3.79056	-0.3801521	92.48908	
13:14:05	47.06322	-122.6093	229.443	228.7983	-23.5972	32.61	31.76485	95	0	92	4.126135	0.3721224	95.77328	
13:14:07	47.06316	-122.6086	229.917	229.6841	44.95499	32.15	31.36156	95	0	92	3.640144	0.9895878	99.54465	
13:14:08	47.06307	-122.6079	228.49	229.9457	27.56262	31.73	31.03511	95	0	92	3.932838	1.373568	103.1449	
13:14:10	47.06294	-122.6071	227.356	226.9178	-106.9271	31.48	30.89182	96	0	92	3.855042	1.358645	106.6331	
13:14:12	47.0628	-122.6065	232.2	229.297	55.57167	31.33	30.81564	96	0	92	4.060686	1.328237	109.8834	
13:14:13	47.06262	-122.6059	237.144	235.6205	256.7054	31.29	30.79231	96	0	92	3.798661	1.216357	113.458	
13:14:15	47.06242	-122.6052	241.905	241.6158	332.7495	31.26	30.7653	96	0	92	3.277986	1.326121	116.5077	
13:14:17	47.06219	-122.6046	245.296	245.9736	318.4468	31.23	30.78498	97	0	92	3.232207	1.33329	119.6237	
13:14:18	47.06198	-122.6041	247.373	248.7361	233.4131	31.24	30.80443	97	0	92	2.948548	1.26782	122.1138	
13:14:20	47.0617	-122.6034	250.772	250.7757	183.9758	31.27	30.81616	97	0	92	3.277185	1.396754	124.8942	
13:14:22	47.06144	-122.6029	249.252	251.3323	75.03801	31.2	30.71621	97	0	92	3.117033	1.349442	127.6526	
13:14:23	47.06112	-122.6023	246.215	247.8025	-114.6002	31.23	30.73936	97	0	92	3.162907	1.252962	130.4822	
13:14:25	47.06081	-122.6018	243.115	243.6904	-211.879	31.19	30.75764	97	0	92	2.750228	1.425547	132.8591	
13:14:27	47.06047	-122.6013	239.694	239.7594	-248.9241	31.23	30.76056	98	0	92	3.416881	1.323721	136.0544	
13:14:29	47.06014	-122.6008	236.079	237.037	-256.9394	31.24	30.74664	98	0	92	3.59509	1.17966	139.9447	
13:14:30	47.05975	-122.6004	236.794	234.2866	-203.1766	31.25	30.75106	98	0	92	2.999198	1.314672	141.8973	
13:14:32	47.05944	-122.6	240.918	237.9568	68.73277	31.25	30.75783	98	0	92	3.027939	1.479179	144.3092	
13:14:34	47.05906	-122.5996	246.053	245.2807	311.4662	31.29	30.79263	98	0	92	3.12647	1.4175	146.7072	
13:14:35	47.05861	-122.5992	253.901	252.6875	427.4092	31.39	30.86648	98	0	92	1.646771	1.380027	147.1807	
13:14:37	47.05816	-122.5988	264.123	261.7977	536.5091	31.29	30.77362	98	0	92	0.4558146	1.381209	145.3545	
13:14:39	47.05777	-122.5984	273.447	272.0976	617.2059	31.24	30.70736	98	0	92	1.916474	1.238018	144.8464	
13:14:40	47.05738	-122.5981	279.757	281.2486	619.1608	31.31	30.76126	98	0	92	3.24566	1.440447	145.8605	
13:14:42	47.057	-122.5977	283.288	285.849	442.6674	31.43	30.8515	99	0	92	3.651971	1.516008	147.7813	
13:14:44	47.05655	-122.5973	286.814	287.7613	255.3909	31.52	30.91049	99	0	92	3.671075	1.318744	150.0598	
13:14:45	47.05614	-122.597	289.863	289.8771	179.3786	31.61	31.01395	99	0	92	3.395326	1.318592	151.5249	
13:14:47	47.05571	-122.5967	293.145	292.675	182.1097	31.64	31.04088	99	0	92	3.457058	1.464392	153.4009	
13:14:49	47.05528	-122.5964	295.865	295.8369	174.7033	31.68	31.06129	99	0	92	3.417163	1.258185	154.9609	
13:14:51	47.05479	-122.5961	298.81	298.3087	157.8045	31.7	31.07822	99	0	92	3.197467	1.133866	156.8006	
13:14:52	47.05442	-122.5959	301.003	301.0002	160.0497	31.71	31.07239	99	0	92	3.072336	1.148998	159.049	
13:14:54	47.05392	-122.5957	304.576	303.965	191.1107	31.69	31.05822	99	0	92	2.778339	1.291685	161.1776	
13:14:56	47.05343	-122.5954	308.208	307.5592	209.6276	31.65	31.03899	99	0	92	-0.7891538	1.34648	161.2902	
13:14:57	47.05301	-122.5952	311.146	311.0225	204.4546	31.67	31.06872	99	0	92	-0.6491545	1.279822	161.107	
13:14:59	47.05254	-122.595	314.495	313.9814	201.4743	31.68	31.07415	99	0	92	-0.6540795	1.347189	160.7915	
13:15:01	47.05208	-122.5947	317.646	317.2636	200.9339	31.68	31.07759	99	0	92	-0.7354285	1.272639	160.5104	
13:15:02	47.0516	-122.5945	315.818	320.0712	180.9208	31.66	31.07582	99	0	92	-0.7467971	1.385735	160.1126	
13:15:04	47.0512	-122.5943	307.789	312.4242	-257.3737	31.65	31.05183	99	0	92	-0.639433	1.261883	159.6669	
13:15:06	47.05077	-122.5941	301.567	302.4809	-503.8729	31.63	31.03776	99	0	92	-0.9811128	1.312749	159.1931	
13:15:07	47.05029	-122.5938	294.421	294.1785	-543.201	31.66	31.06141	99	0	92	-0.7309259	1.313446	158.7484	
13:15:09	47.04981	-122.5935	290.967	288.2278	-465.9567	31.68	31.07796	99	0	92	-0.7768557	1.232147	158.2014	
13:15:11	47.04945	-122.5933	290.322	287.6883	-228.3279	31.68	31.07878	99	0	92	2.707255	1.288566	158.6605	
13:15:13	47.04897	-122.5931	292.917	290.2651	3.423639	31.68	31.06889	99	0	92	2.784101	1.179596	160.178	
13:15:14	47.04847	-122.5928	296.371	295.0218	192.7422	31.7	31.07789	99	0	92	-0.816125	1.359304	160.2915	
13:15:16	47.04805	-122.5926	299.355	299.328	264.3384	31.68	31.07604	99	0	92	-0.229302	1.649222	159.8518	
13:15:18	47.04763	-122.5924	302.489	302.862	242.4968	31.68	31.05141	99	0	92	-0.8718349	1.241394	159.3737	
13:15:19	47.04709	-122.5921	306.135	305.9216	229.44	31.7	31.08375	99	0	92	-0.5156066	1.358497	158.8701	
13:15:21	47.04673	-122.5919	308.821	309.0743	223.7417	31.7	31.07783	99	0	92	-0.4874435	1.346171	158.366	
13:15:23	47.04625	-122.5916	312.274	312.3823	215.2947	31.69	31.07118	99	0	92	0.1535792	1.283066	158.0941	
13:15:24	47.04577	-122.5914	314.88	315.0645	194.2185	31.66	31.037	99	0	92	1.435483	1.256128	158.7405	
13:15:26	47.0453	-122.5911	317.509	317.3506	176.0767	31.63	31.01207	99	0	92	-1.058143	1.386377	157.9198	
13:15:28	47.04488	-122.5909	319.68	319.6292	160.1233	31.65	31.01943	99	0	92	-0.5800989	1.330367	156.7008	
13:15:29	47.04442	-122.5906	322.861	322.4666	171.4211	31.65	31.02413	99	0	92	-0.5728266	1.136393	155.4263	
13:15:31	47.04403	-122.5904	325.624	325.7299	206.1876	31.63	31.01581	99	0	92	-1.091483	1.498121	154.4457	
13:15:33	47.04354	-122.5901	329.226	328.8138	198.0267	31.61	30.99966	99	0	92	-1.002194	1.439959	153.9682	
13:15:34	47.04309	-122.5898	332.456	332.1236	209.52	31.59	30.98146	99	0	92	-0.8774168	1.528638	153.4512	
13:15:36	47.04269	-122.5895	335.511	335.4999	200.8559	31.56	30.9395	99	0	92	-0.7871761	1.258459	153.1139	
13:15:38	47.04229	-122.5892	336.553	337.4336	154.6984	31.6	30.96282	99	0	92	1.19623	1.409476	152.8291	
13:15:40	47.04183	-122.5889	337.372	337.9547	74.60222	31.63	30.99836	99	0	92	-0.9163138	1.305228	152.4061	
13:15:41	47.04135	-122.5886	338.314	338.3037	37.60017	31.67	31.02402	99	0	92	-0.09949776	1.253519	151.9809	
13:15:43	47.04097	-122.5883	339.195	339.0215	37.65116	31.66	31.03946	99	0	92	-0.6930202	1.346234	151.9208	
13:15:45	47.04055	-122.588	340.218	340.0386	50.12054	31.68	31.036	99	0	92	-0.5253813	1.318621	151.4985	
13:15:46	47.04007	-122.5876	341.158	341.0555	54.06924	31.71	31.05451	99	0	92	-0.7525352	1.313217	151.1982	
13:15:48	47.03964	-122.5873	341.955	341.9167	51.84001	31.71	31.05384	99	0	92	-0.4896874	1.366144	150.9632	
13:15:50	47.03923	-122.587	342.731	342.6426	43.1091	31.74	31.06337	99	0	92	0.7677551	1.298536	151.0984	
13:15:51	47.03881	-122.5867	343.707	343.5423	45.58133	31.72	31.04264	99	0	92	-0.135308	1.286462	151.1926	
13:15:53	47.03838	-122.5863	344.674	344.5751	54.73076	31.71	31.03678	99	0	92	-0.3286856	1.313682	151.4634	
13:15:55	47.03793	-122.586	347.117	346.304	95.28875	31.7	31.0177	99	0	92	0.0481842	1.418781	151.8083	
13:15:56	47.03749	-122.5857	349.465	348.8413	130.6256	31.69	30.99428	99	0	92	-0.1050902	1.361522	152.2869	
13:15:58	47.03707	-122.5853	351.778	351.6316	153.5676	31.68	30.9943	99	0	92	-0.1984793	1.300697	152.7839	
13:16:00	47.03663	-122.585	353.285	353.5034	134.0338	31.68	30.98682	99	0	92	-0.4951887	1.391911	153.0368	
13:16:02	47.03626	-122.5847	352.736	353.8828	55.59803	31.65	30.95421	99	0	92	-0.2610851	1.354978	153.0613	
13:16:03	47.03579	-122.5844	363.928	357.9958	187.4723	31.68	30.95805	99	0	92	0.9031341	1.081254	153.5147	
13:16:05	47.03537	-122.5841	374.851	371.5471	608.4833	31.62	30.91321	99	0	92	-0.2652495	1.398786	153.6435	
13:16:07	47.03493	-122.5838	390.135	388.9662	915.6323	31.61	30.90372	99	0	92	-0.3029905	1.374434	153.0887	
