Date	Latitude(deg) 	Longitude(deg)	hamsl(m)	hafl(m)	climbrate(cm/s)	GroundSpeed(m/s)	Airspeed(m/s)	Mav_Link(%)	Rssi_Link(%)	Throttle	Roll(deg)	Pitch(deg)	Yaw(deg)
12:56:29	0	0	0	-0.568313	-25.37483	0	3	40	0	50	0.504259	0.293079	56.68316	
12:56:30	0	0	0	-0.2184791	2.764847	0	3	50	0	50	0.5342042	0.3785988	56.92866	
12:56:32	0	0	0	-0.1723305	-1.479025	0	3	58	0	50	0.5448816	0.3860986	57.12552	
12:56:34	0	0	0	-0.07706966	0.3478079	0	3	64	0	50	0.6199	0.3847752	57.17673	
12:56:35	0	0	0	0.1817239	6.430089	0	3	68	0	50	0.632238	0.3802713	57.12362	
12:56:37	0	0	0	0.2870796	1.169824	0	3	72	0	50	0.6147277	0.3462227	57.03384	
12:56:39	0	0	0	-0.1288525	-14.8272	0	3	75	0	50	0.5519418	0.2887962	56.96257	
12:56:41	0	0	0	-0.0765072	-7.989916	0	3	78	0	50	0.527729	0.2558465	56.42383	
12:56:42	0	0	0	-0.1603708	-7.799891	0	3	80	0	50	0.5008563	0.2610953	56.45195	
12:56:44	0	0	0	-0.04914347	1.053199	0	3	82	0	50	0.4537896	0.2782878	56.44155	
12:56:46	0	0	0	-0.0990167	-4.590194	0	3	84	0	50	0.423052	0.2035917	56.4003	
12:56:47	0	0	0	-0.2252202	-7.661019	0	3	86	0	50	0.3685724	0.1552404	56.3696	
12:56:49	0	0	0	-0.2696123	-6.319286	0	3	87	0	50	0.4002103	0.101287	56.25818	
12:56:51	0	0	0	-0.05163082	3.130985	0	3	88	0	50	0.4104994	0.1396243	56.18425	
12:56:52	0	0	0	-0.04657715	0.3256586	0	3	89	0	4	0.4228624	0.1478613	56.07614	
12:56:54	0	0	0	0.03370753	3.783378	0	3	90	0	4	0.3770261	0.06805167	55.95697	
12:56:56	0	0	0	-0.2433819	-10.77187	0	3	91	0	4	0.3621143	0.1219373	55.88306	
12:56:57	0	0	0	-0.1373968	-2.591455	0	3	92	0	4	0.3331584	0.1517605	55.87058	
12:56:59	0	0	0	-0.1134763	-0.4971812	0	3	92	0	4	0.3361593	0.2277957	55.89589	
12:57:01	0	0	0	0.02224712	2.933514	0	3	93	0	4	0.3689605	0.1453367	55.90163	
12:57:02	0	0	0	-0.1349994	-0.9702598	0	3	94	0	7	0.4759348	0.2015079	55.81097	
12:57:04	0	0	0	-0.3188499	-7.267311	0	3	94	0	7	0.4623281	0.1317061	55.76831	
12:57:06	0	0	0	-0.2547396	-1.809489	0	3	94	0	7	0.4432865	0.093496	55.69902	
12:57:07	0	0	0	-0.2673861	0.539134	0	3	95	0	7	0.415808	0.07049585	55.57826	
12:57:09	0	0	0	-0.1856752	0.9540422	0	3	95	0	7	0.4201089	0.08293735	55.5297	
12:57:11	0	0	0	-0.195706	-1.608244	0	3	96	0	7	0.3949534	0.0719907	55.51668	
12:57:13	0	0	0	-0.5282722	-13.15572	0	3	96	0	7	0.3675581	0.0717092	55.47889	
12:57:14	0	0	0	-0.4676397	-3.352897	0	3	96	0	7	0.3875474	0.1256871	55.42989	
12:57:16	0	0	0	-0.5677531	-4.49213	0	3	96	0	7	0.3796907	0.1307263	55.44073	
12:57:18	0	0	0	-0.4859146	0.8833133	0	3	97	0	8	0.3457502	0.08440594	55.43623	
12:57:19	0	0	0	-0.2565446	5.732145	0	3	97	0	7	0.3550606	0.06961145	55.45303	
12:57:21	0	0	0	-0.6141149	-8.940766	0	3	97	0	8	0.3411674	0.0850732	55.4239	
12:57:23	0	0	0	-0.5180578	0.4178761	0	3	97	0	7	0.3347457	0.06508324	55.43504	
12:57:24	0	0	0	-0.2553088	8.850563	0	3	97	0	8	0.3861245	0.05124356	55.43156	
12:57:26	0	0	0	-0.5937606	-6.053397	0	3	98	0	7	0.377401	0.05293895	55.41121	
12:57:28	0	0	0	-0.4555394	2.114528	0	3	98	0	7	0.4261166	0.06810092	55.43769	
12:57:29	0	0	0	-0.4618237	0.8383738	0	3	98	0	7	0.4338228	0.1022132	55.4016	
12:57:31	0	0	0	-0.7731565	-9.737784	0	3	98	0	7	0.3840638	0.07282839	55.39432	
12:57:33	0	0	0	-0.7226609	-4.118079	0	3	98	0	7	0.3567926	0.05413045	55.36443	
12:57:34	0	0	0	-0.7290785	0.5551273	0	3	98	0	7	0.3541178	0.005620658	55.34315	
12:57:36	0	0	0	-0.2142295	19.97679	0	3	98	0	7	0.3544592	0.02059924	55.32992	
12:57:38	0	0	0	-0.4366961	-1.277246	0	3	98	0	7	0.3771822	0.08807369	55.31491	
12:57:40	0	0	0	-0.237861	9.130343	0	3	98	0	7	0.350247	0.08407147	55.34946	
12:57:41	0	0	0	-0.2855408	1.544756	0	3	99	0	7	0.363856	0.1118764	55.35731	
12:57:43	0	0	0	-0.383932	-1.420816	0	3	99	0	7	0.3827277	0.1655928	55.43732	
12:57:45	0	0	0	-0.4830501	-3.465863	0	3	99	0	7	0.3459179	0.1566981	55.46415	
12:57:46	0	0	0	-0.4869583	-2.718487	0	3	99	0	7	0.332461	0.1650549	55.48718	
12:57:48	0	0	0	-0.4835744	-3.166215	0	3	99	0	7	0.325857	0.1074026	55.5034	
12:57:50	0	0	0	-0.5095604	-3.581197	0	3	99	0	7	0.3376977	0.122431	55.53203	
12:57:51	0	0	0	-0.3819907	0.3400299	0	3	99	0	7	0.3434465	0.1101336	55.56729	
12:57:53	0	0	0	-0.5716422	-4.454782	0	3	99	0	7	0.3785261	0.1515136	55.57469	
12:57:55	0	0	0	-0.8538688	-12.47041	0	3	99	0	7	0.3888221	0.134323	55.59397	
12:57:56	0	0	0	-0.6475773	3.699978	0	3	99	0	7	0.3919975	0.1306328	55.59917	
12:57:58	0	0	0	-0.8045533	-6.618492	0	3	99	0	7	0.3997776	0.1323183	55.5937	
12:58:00	0	0	0	-0.5414519	9.429099	0	3	99	0	7	0.4440001	0.1507452	55.57325	
12:58:02	0	0	0	-0.5185322	8.699848	0	3	99	0	7	0.4293862	0.166729	55.52657	
12:58:03	0	0	0	-0.6444649	0.1005727	0	3	99	0	8	0.4349604	0.1597808	55.50751	
12:58:05	0	0	0	-0.5706816	1.202767	0	3	99	0	7	0.5009953	0.1771435	55.52702	
12:58:06	0	0	0	-0.600022	-3.585371	0	3	99	0	7	0.4989422	0.2092844	55.52215	
12:58:08	0	0	0	-0.6999641	-5.118284	0	3	99	0	7	0.3937963	0.08876256	55.47561	
12:58:10	0	0	0	-0.630834	2.505466	0	3	99	0	7	0.411351	0.1042994	55.44468	
12:58:11	0	0	0	-0.4161572	6.262225	0	3	99	0	7	0.4036105	0.1170228	55.44094	
12:58:13	0	0	0	-0.5110498	1.76966	0	3	99	0	7	0.3510715	0.07590099	55.4737	
12:58:15	0	0	0	-0.5503738	-1.730854	0	3	99	0	7	0.3204337	0.1308685	55.48262	
12:58:17	0	0	0	-0.6337754	-5.855243	0	3	99	0	7	0.3288994	0.2070579	55.49043	
12:58:19	0	0	0	-0.757011	-6.899009	0	3	99	0	7	0.3340942	0.1954967	55.529	
12:58:20	0	0	0	-0.4965878	7.215775	0	3	99	0	7	0.3484417	0.1791386	55.58392	
12:58:22	0	0	0	-0.4820212	2.604175	0	3	99	0	7	0.3569683	0.174395	55.56603	
12:58:23	0	0	0	-0.439338	0.9939713	0	3	99	0	7	0.3207966	0.1397644	55.5531	
12:58:25	0	0	0	-0.7505382	-12.68523	0	3	99	0	7	0.2767341	0.07213075	55.54292	
12:58:27	0	0	0	-0.8368433	-8.851132	0	3	99	0	7	0.2552281	0.01652786	55.55211	
12:58:28	0	0	0	-0.3709958	15.91867	0	3	99	0	7	0.2720128	0.04040152	55.54262	
12:58:30	0	0	0	0.1111656	25.34399	0	3	99	0	7	0.2636819	0.03387678	55.5526	
12:58:32	0	0	0	0.4286319	21.90584	0	3	99	0	7	0.2524984	0.0530039	55.55621	
12:58:33	0	0	0	-0.01710993	-8.647407	0	3	99	0	7	0.3062923	0.02085648	55.49603	
12:58:35	0	0	0	-0.1837876	-10.56332	0	3	99	0	7	0.3326646	0.0814954	55.49997	
12:58:37	0	0	0	-0.4714296	-13.07345	0	3	99	0	7	0.3332375	0.07068513	55.47103	
12:58:38	0	0	0	-0.5639462	-10.42553	0	3	99	0	7	0.3166546	0.03809675	55.43974	
12:58:40	0	0	0	-0.6495768	-8.370681	0	3	99	0	7	0.2775185	0.01417156	55.43887	
12:58:42	0	0	0	-0.6809003	-3.042168	0	3	99	0	7	0.3374326	0.0690145	55.48241	
12:58:44	0	0	0	-0.341178	13.31742	0	3	99	0	7	0.3239216	0.07050386	55.43296	
12:58:46	0	0	0	-0.1808865	12.27701	0	3	99	0	7	0.2874098	-0.01968018	55.44543	
12:58:47	0	0	0	-0.1237879	6.639413	0	3	99	0	7	0.3136539	-0.01067212	55.42133	
12:58:49	0	0	0	-0.320596	-5.439146	0	3	99	0	7	0.280841	-0.08410442	55.39252	
12:58:50	0	0	0	-0.527843	-9.783077	0	3	99	0	7	0.2641189	-0.05156015	55.35762	
12:58:52	0	0	0	-0.5670111	-60.32626	0	3	99	0	7	0.3098554	-0.02564874	54.77515	
12:58:54	0	0	0	-8.012199	-1380.743	0	3	99	0	7	0.2661765	0.02630858	45.06822	
12:58:55	0	0	0	-15.63326	-1821.542	0	3	99	0	7	0.2188364	0.05351268	37.55332	
12:58:57	0	0	0	-17.28187	-1695.717	0	3	99	0	7	0.1722593	0.064174	33.13652	
12:58:59	0	0	0	-17.26776	-1690.054	0	3	99	0	7	0.1291682	0.06219687	32.10976	
12:59:00	0	0	0	-16.05828	-1486.422	0	3	99	0	7	0.08241723	0.06517733	27.8125	
12:59:02	47.46364	-122.3078	0.02	-11.32437	-496.0379	0	3	99	0	7	0.00212564	0.1099875	28.55054	
12:59:04	47.46364	-122.3078	0.02	0.2816981	580.1841	0	3	99	0	7	0.01259042	0.279925	34.38642	
12:59:05	47.46364	-122.3078	0.02	6.274606	785.7357	0	3	99	0	7	0.01331957	0.2882003	43.03835	
12:59:07	47.46364	-122.3078	0.02	6.943142	647.6676	0	3	99	0	7	0.01866915	0.2443291	54.82953	
12:59:09	47.46364	-122.3078	0.02	5.758581	496.7471	0	3	99	0	7	0.01315737	0.1738391	69.02996	
12:59:10	47.46364	-122.3078	0.02	4.621827	409.1047	0	3	99	0	7	0.008113589	0.1028676	87.87147	
12:59:12	47.46364	-122.3078	0.02	3.966105	366.4191	0	3	99	0	7	-0.01265193	0.04310146	108.4907	
12:59:14	47.46364	-122.3078	0.02	3.581731	337.6542	0	3	99	0	7	-0.04378171	0.009693054	127.4031	
12:59:16	47.46364	-122.3078	0.02	3.282677	308.7803	0	3	99	0	7	-0.07031023	-0.002281222	146.4812	
12:59:17	47.46364	-122.3078	0.02	2.971718	276.6049	0	3	99	0	7	-0.09221789	-0.02212023	162.7168	
12:59:19	47.46364	-122.3078	0.02	2.655183	245.7065	0	3	99	0	7	-0.1080834	-0.02663893	174.8665	
12:59:21	47.46364	-122.3078	0.02	2.376951	220.7378	0	3	99	0	6	-0.1160954	-0.03641101	-174.9144	
12:59:22	47.46364	-122.3078	0.02	2.131684	197.7222	0	3	99	0	7	-0.118945	-0.04863778	-166.9292	
12:59:24	47.46364	-122.3078	0.02	1.915115	177.6712	0	3	99	0	7	-0.1212504	-0.05976806	-161.0729	
12:59:26	47.46364	-122.3078	0.02	1.724347	159.7746	0	3	99	0	7	-0.117078	-0.06880581	-157.1165	
12:59:27	47.46364	-122.3078	0.02	1.55424	144.0734	0	3	99	0	7	-0.1109507	-0.06590087	-154.3222	
12:59:29	47.46364	-122.3078	0.02	1.399504	129.4716	0	3	99	0	7	-0.1046624	-0.06690411	-152.2748	
12:59:31	47.46364	-122.3078	0.02	1.259721	116.1937	0	3	99	0	7	-0.09626389	-0.07344849	-151.8557	
12:59:32	47.46364	-122.3078	0.02	1.132538	104.2069	0	3	99	0	7	-0.08510349	-0.07774132	-151.9426	
12:59:34	47.46364	-122.3078	0.02	1.019973	93.68748	0	3	99	0	7	-0.07817596	-0.07484525	-151.9613	
12:59:36	47.46364	-122.3078	0.02	0.9168316	83.9057	0	3	99	0	7	-0.0675942	-0.076069	-153.2047	
12:59:37	47.46364	-122.3078	0.02	0.822774	75.15926	0	3	99	0	7	-0.05705878	-0.07238873	-154.6861	
12:59:39	47.46364	-122.3078	0.02	0.7408069	67.63313	0	3	99	0	7	-0.05127623	-0.07008964	-155.7745	
12:59:41	47.46364	-122.3078	0.02	0.6667356	60.49059	0	3	99	0	7	-0.0444191	-0.06267833	-157.6717	
12:59:43	47.46364	-122.3078	0.02	0.5967127	53.69565	0	3	99	0	7	-0.03606026	-0.05623466	-159.5778	
12:59:44	47.46364	-122.3078	0.02	0.5347937	48.15287	0	3	99	0	7	-0.0323759	-0.05350501	-160.9845	
12:59:46	47.46364	-122.3078	0.02	0.4813204	43.24539	0	3	99	0	7	-0.0291677	-0.0568944	-162.7632	
12:59:48	47.46364	-122.3078	0.02	0.4396486	41.24169	0.05	3	99	0	7	0.2475975	-0.0536448	-165.2515	
12:59:49	47.46363	-122.3078	0.02	0.4260818	39.50277	0.58	3	99	0	7	0.4691408	0.6686003	-174.9947	
12:59:51	47.46362	-122.3078	0.021	0.4016522	36.29684	0.84	3	99	0	7	0.4139542	1.250713	172.1355	
12:59:53	47.4636	-122.3077	0.021	0.3801761	38.77003	2.22	3	99	0	99	-0.2013857	2.414545	159.2527	
12:59:54	47.4635	-122.3077	0.028	0.5445873	62.36234	13.05	12.16905	99	0	99	-0.347874	2.6797	159.2704	
12:59:56	47.46331	-122.3075	0.675	1.458405	183.4931	18.29	18.70424	99	0	99	7.751235	6.48826	166.4492	
12:59:58	47.463	-122.3074	2.208	2.506451	112.7609	23.55	24.12404	99	0	100	3.985444	3.944089	172.5461	
12:59:59	47.4626	-122.3072	3.644	3.830954	107.8235	27.06	27.28611	99	0	100	3.164976	3.131869	176.2576	
13:00:01	47.46222	-122.3072	4.867	4.985343	86.63495	29.08	29.61919	99	0	98	2.147509	2.441217	179.2558	
13:00:03	47.46173	-122.3071	5.739	5.838347	47.31872	30.58	31.11925	99	0	98	1.900939	1.431647	-178.5831	
13:00:04	47.46129	-122.307	6.568	6.394376	56.96481	31.41	31.8684	99	0	100	1.293097	1.298705	-176.5797	
13:00:06	47.46083	-122.307	7.378	7.274924	42.99011	31.97	32.26475	99	0	100	1.20377	0.808166	-175.3369	
13:00:08	47.46041	-122.3071	7.757	7.940687	38.03132	32.35	32.53061	99	0	98	1.129315	0.4223533	-174.2521	
13:00:10	47.46	-122.3071	7.782	7.983898	17.88596	32.52	32.61586	99	0	100	0.0455838	0.2241964	-173.003	
13:00:11	47.45934	-122.3072	9.847	9.302991	63.11973	32.69	32.81653	99	0	98	0.5010737	0.243175	-171.6781	
13:00:13	47.45882	-122.3073	11.364	11.08337	84.75339	32.71	32.8779	99	0	98	0.4833744	0.08754465	-170.8125	
13:00:15	47.45831	-122.3074	12.51	12.57746	94.73056	32.71	32.73687	99	0	98	0.4389943	0.2847281	-170.1148	
13:00:16	47.45792	-122.3075	13.586	13.72106	76.60493	32.74	32.68985	99	0	98	0.5569061	0.1432872	-169.3395	
13:00:18	47.45739	-122.3076	14.956	14.91243	82.58627	32.83	32.71569	99	0	100	0.3852894	0.2380087	-168.6761	
13:00:20	47.4569	-122.3078	16.518	16.44688	100.3444	32.93	32.77802	99	0	100	0.7594055	0.3415485	-167.7431	
13:00:21	47.45635	-122.308	18.499	18.12942	112.7683	32.89	32.7223	99	0	98	0.4977831	0.4313704	-167.0044	
13:00:23	47.45589	-122.3082	19.711	19.74636	102.482	32.91	32.73175	99	0	98	0.3468316	0.1883306	-166.1081	
13:00:25	47.45544	-122.3084	20.838	20.92908	92.62788	32.95	32.73763	99	0	98	-0.3869787	0.2786293	-165.3822	
13:00:26	47.45498	-122.3086	21.836	21.97516	73.20242	33.04	32.88293	99	0	100	-30.56831	0.4263169	-173.8039	
13:00:28	47.45443	-122.3085	24.756	25.00283	402.7466	32.47	32.28394	99	0	100	-46.5406	6.782888	156.8419	
13:00:30	47.45406	-122.3082	31.763	31.91995	477.0722	31.05	31.64462	99	0	100	-45.81922	8.862088	125.7141	
13:00:32	47.45382	-122.3076	39.955	38.93337	168.8299	30.46	31.29101	99	0	98	-4.311288	0.8216182	107.8556	
13:00:33	47.45366	-122.3069	41.327	41.30357	82.75941	30.75	31.49807	99	0	79	1.781867	-0.9048358	109.56	
13:00:35	47.45345	-122.3063	40.881	41.50336	211.6483	30.32	30.05099	99	0	77	45.86111	3.010334	134.119	
13:00:37	47.45309	-122.306	42.815	42.67106	75.52937	29.93	29.13465	99	0	79	45.45288	1.407578	165.4276	
13:00:38	47.45261	-122.306	44.704	44.15559	34.83787	29.87	29.22743	99	0	79	44.81551	0.2711064	-162.6155	
13:00:40	47.45225	-122.3062	45.828	45.75798	26.97814	29.78	29.16801	99	0	79	2.711075	-0.7530996	-146.992	
13:00:42	47.45185	-122.3066	45.451	45.72566	3.568491	29.69	29.57089	99	0	29	0.5520017	-1.14425	-144.4421	
13:00:43	47.45153	-122.307	43.901	43.71727	-265.6166	26.14	26.21014	99	0	5	1.564731	-7.946198	-142.1	
13:00:45	47.45119	-122.3074	37.482	38.46254	-334.8378	23.81	23.48178	99	0	5	-16.81906	-9.153473	-144.4921	
13:00:47	47.45087	-122.3076	30.305	31.61823	-458.4929	22.99	22.58524	99	0	4	-18.34598	-12.10635	-156.5668	
13:00:48	47.45062	-122.3077	23.78	23.34452	-478.3717	22.91	22.46794	99	0	4	-15.19811	-12.1326	-167.4732	
13:00:50	47.45021	-122.3078	14.683	16.04333	-410.0394	22.72	22.26085	99	0	5	-4.109005	-10.90758	179.1754	
13:00:52	47.4499	-122.3078	9.504	10.01359	-248.211	22.24	21.7604	99	0	4	-0.04434852	-6.054292	179.9704	
13:00:54	47.44953	-122.3078	5.502	6.107405	-163.5373	20.8	20.67975	99	0	4	1.107315	-3.133445	178.7782	
13:00:55	47.44926	-122.3079	3.841	3.655755	-167.2328	19.43	19.09328	99	0	4	0.4851398	-3.380056	177.7314	
13:00:57	47.44897	-122.3079	1.525	1.538263	-132.1916	18.35	18.20013	99	0	4	-0.1400686	-2.699628	177.6584	
13:00:59	47.4487	-122.3079	0.214	0.4462515	25.01671	17.06	17.0689	99	0	4	-1.401056	2.508245	176.0086	
13:01:00	47.44847	-122.3079	0.034	-0.493315	-96.39941	15.72	15.65054	99	0	19	0.1328342	-1.277513	177.1882	
13:01:02	47.44824	-122.3079	0.038	-0.4644777	26.62476	17.34	16.26472	99	0	100	-1.415759	3.737143	178.353	
13:01:04	47.44796	-122.3079	4.433	4.839564	456.2945	21.53	20.5619	99	0	98	-1.273507	11.31184	176.9654	
13:01:05	47.44756	-122.3079	13.88	12.48469	408.208	22.9	21.17961	99	0	98	-2.21826	8.538816	-178.9503	
13:01:07	47.44722	-122.3079	19.811	18.99102	320.4029	25.36	23.71594	99	0	92	3.740967	5.237705	-164.4017	
13:01:09	47.44687	-122.308	24.775	24.66367	286.5541	24.43	21.3256	99	0	98	-2.733691	4.150923	-159.6976	
13:01:10	47.44649	-122.3082	28.659	28.67621	230.826	27.39	25.20946	99	0	98	-2.560755	2.629801	-160.7856	
13:01:12	47.44606	-122.3083	31.965	31.85191	180.193	26.22	24.89182	99	0	97	-15.78594	-0.6848524	169.7394	
13:01:14	47.44566	-122.3083	35.197	34.73159	120.8227	26.88	25.2866	99	0	97	4.20383	1.508654	177.5125	
13:01:16	47.44524	-122.3083	36.932	36.7695	117.4625	29.15	28.10413	99	0	97	3.337561	1.295205	179.2489	
13:01:17	47.44481	-122.3083	38.667	38.5067	101.7751	30.5	29.7458	99	0	97	2.482623	0.7324781	-178.3638	
13:01:19	47.44432	-122.3083	40.475	40.17416	46.50734	31.45	30.86838	99	0	97	-39.83035	0.6437491	177.1328	
13:01:21	47.44389	-122.3082	43.271	43.43615	527.0034	31.2	30.83759	99	0	97	-46.22103	11.32095	141.5522	
13:01:22	47.44357	-122.3077	52.855	51.02074	65.43968	29.82	29.90353	99	0	97	0.09534873	0.08002091	128.8772	
13:01:24	47.44331	-122.3072	54.073	53.92794	125.1186	30.98	31.15509	99	0	97	1.412433	0.1870442	132.8146	
13:01:26	47.44297	-122.3066	55.323	55.52173	8.675878	31.76	31.73887	99	0	97	22.297	-2.256157	136.6547	
13:01:27	47.4426	-122.3063	57.559	58.8973	537.9401	30.79	29.29855	99	0	17	48.70753	8.915425	177.5569	
13:01:29	47.44211	-122.3063	57.99	58.37319	-436.7608	25.16	23.62839	99	0	5	43.24678	-15.35617	-165.7055	
13:01:31	47.44183	-122.3065	51.017	52.60647	-192.4751	24.1	23.6726	99	0	43	43.97418	-9.518168	-120.4519	
13:01:32	47.44172	-122.307	45.525	47.96292	41.75078	27.14	27.50383	99	0	100	43.12378	-0.7426129	-74.8158	
13:01:34	47.44195	-122.3076	47.134	47.73457	185.0908	29.66	30.97011	99	0	98	45.69732	3.828772	-35.67145	
13:01:36	47.44236	-122.3078	50.594	49.99752	216.3861	30.38	31.56454	99	0	98	12.77111	4.53843	-6.044505	
13:01:38	47.44279	-122.3079	53.217	52.46406	46.50944	30.84	32.00242	99	0	85	0.0752316	1.041889	-3.959488	
13:01:39	47.44328	-122.3079	54.282	53.82355	54.74901	30.57	31.30251	99	0	79	3.926803	1.052213	2.952303	
13:01:41	47.44372	-122.3079	54.759	54.59377	-2.064399	30.12	30.87235	99	0	77	0.4838454	-0.1179952	4.430451	
13:01:43	47.44418	-122.3078	54.673	54.60918	-10.36163	29.92	30.14511	99	0	79	0.5948255	-0.0215278	5.821012	
13:01:44	47.44449	-122.3078	54.675	54.54408	-17.2149	29.83	29.85552	99	0	79	0.6426228	0.006163525	6.982946	
13:01:46	47.44478	-122.3077	54.654	54.50875	-10.45084	29.81	29.74924	99	0	79	0.3006518	0.1529322	8.059007	
13:01:48	47.44492	-122.3077	54.62	54.52776	-6.347156	29.8	29.72838	99	0	79	0.00717505	0.2476746	8.68774	
13:01:49	47.44593	-122.3074	54.999	54.84138	-5.29272	29.77	29.62782	99	0	79	0.5269262	-0.0262816	10.33014	
13:01:51	47.4464	-122.3073	54.741	54.83519	-3.519154	29.76	29.6238	99	0	79	0.2235356	0.08666688	12.2085	
13:01:53	47.44687	-122.3071	54.463	54.45549	-44.71631	29.72	29.53708	99	0	79	-20.58953	-0.06454506	10.52551	
13:01:54	47.44725	-122.307	54.288	54.12199	-27.86174	29.72	29.58057	99	0	79	-23.77988	0.2072529	0.6640478	
13:01:56	47.44773	-122.3071	54.103	53.88671	-39.74883	29.69	29.70478	99	0	79	-41.0855	0.518788	-19.33829	
13:01:58	47.44815	-122.3074	54.058	53.95647	33.13676	29.69	30.05282	99	0	79	-24.38298	1.144472	-41.49461	
13:02:00	47.44842	-122.3079	53.863	53.72351	-68.58749	29.71	30.1249	99	0	65	-43.67729	-0.08952498	-61.10965	
13:02:01	47.44857	-122.3085	53.687	53.68882	7.095765	28.77	29.22989	99	0	64	-0.7288477	-0.1697652	-77.11337	
13:02:03	47.44868	-122.3092	53.123	53.24377	-32.61897	28.14	28.48487	99	0	64	1.091254	-0.7368466	-75.02735	
13:02:05	47.44878	-122.3097	52.699	52.77201	-17.03953	27.84	27.8564	99	0	64	0.959841	-0.3913231	-73.16457	
13:02:06	47.44887	-122.3102	52.643	52.5501	-14.47156	27.59	27.49603	99	0	64	0.7814991	-0.317094	-71.8174	
13:02:08	47.44904	-122.3109	52.56	52.48939	-7.166413	27.29	27.1622	99	0	64	0.7029527	-0.1862471	-70.7481	
13:02:10	47.44916	-122.3114	52.641	52.57648	5.259782	27.14	26.9419	99	0	64	0.2806451	0.01276548	-69.84057	
13:02:11	47.44932	-122.3121	53.199	52.91725	14.33849	26.97	26.76971	99	0	64	0.6323041	0.08696244	-69.00993	
13:02:13	47.44948	-122.3127	53.859	53.59697	28.71376	26.85	26.65845	100	0	64	0.3661584	0.1002264	-68.18193	
13:02:15	47.44962	-122.3132	54.491	54.33047	35.57573	26.79	26.56215	100	0	64	0.1622148	0.108323	-67.70773	
13:02:16	47.44979	-122.3137	55.684	55.30938	48.49275	26.72	26.51402	100	0	64	0.08868723	0.1395234	-66.86125	
13:02:18	47.44995	-122.3143	57.073	56.76554	71.18856	26.69	26.46955	100	0	64	0.1592655	0.1149163	-66.26553	
13:02:20	47.45013	-122.3148	58.657	58.3664	90.73928	26.62	26.39304	100	0	65	0.4777845	0.2855657	-65.40381	
13:02:21	47.45031	-122.3154	60.709	60.34025	106.2464	26.61	26.37532	100	0	64	0.3020465	0.21054	-64.62015	
13:02:23	47.45047	-122.3159	62.295	62.36055	113.0031	26.58	26.35245	100	0	64	0.3894919	0.1663106	-63.70364	
13:02:25	47.45066	-122.3164	64.136	64.14141	106.6651	26.57	26.3402	100	0	64	0.4274689	0.09168384	-62.90508	
13:02:27	47.45089	-122.317	66.365	64.82758	72.25182	26.55	26.34646	100	0	64	-0.3932946	0.1179724	-62.34413	
13:02:28	47.4511	-122.3176	69.117	68.27254	130.4913	26.47	26.20409	100	0	65	-29.33875	0.3259744	-62.02901	
13:02:30	47.45122	-122.3181	70.336	70.1571	113.1986	26.56	26.16879	100	0	68	-45.37613	0.1278576	-92.34985	
13:02:32	47.45113	-122.3186	72.156	72.28529	171.3237	26.86	26.93035	100	0	74	-46.17936	0.5118595	-129.1719	
13:02:34	47.45081	-122.319	74.126	74.74725	199.0541	27.11	27.85754	100	0	76	-45.96053	0.6832691	-166.235	
13:02:35	47.45043	-122.3191	75.381	76.52961	208.3489	27.35	28.09195	100	0	74	-30.58597	1.335752	162.5495	
13:02:37	47.45	-122.3188	76.608	77.34232	92.04942	27.5	28.40551	100	0	74	-4.545739	0.4378637	151.6836	
13:02:39	47.4496	-122.3185	77.979	77.66808	31.87948	27.75	28.43348	100	0	74	2.109486	0.3330633	151.662	
13:02:40	47.44926	-122.3183	79.095	78.64197	26.2631	27.99	28.24818	100	0	76	0.6340252	0.2789576	152.9934	
13:02:42	47.44886	-122.318	80.134	79.72892	30.4841	28.2	28.22196	100	0	76	-0.6195801	0.2352951	153.7375	
13:02:44	47.4485	-122.3178	80.68	80.33842	-53.90212	28.38	28.33286	100	0	74	-39.02033	-0.4964352	144.7556	
13:02:45	47.44818	-122.3173	80.531	80.66933	50.18845	28.44	28.41721	100	0	74	-23.53651	1.105247	122.7905	
13:02:47	47.44795	-122.3167	80.935	80.98501	-0.5018617	28.41	28.99169	100	0	74	-3.401317	0.1432869	117.1894	
13:02:49	47.44777	-122.3162	81.061	80.93156	-9.154343	28.55	29.02015	100	0	76	-1.563059	0.1932069	117.3478	
13:02:51	47.44757	-122.3156	81.303	81.12392	-6.512103	28.66	28.81834	100	0	74	-1.95641	0.1901529	117.5614	
13:02:52	47.44735	-122.315	81.39	81.26698	-4.030032	28.72	28.68622	100	0	76	-2.108119	0.1623959	117.5808	
13:02:54	47.44715	-122.3144	81.356	81.3799	0.9156949	28.82	28.68985	100	0	76	-2.04272	0.2379693	117.5169	
13:02:56	47.44697	-122.3139	81.432	81.37817	-11.5504	28.87	28.68765	100	0	76	-1.914502	0.0752751	117.4147	
13:02:57	47.44675	-122.3133	81.412	81.2547	-26.64279	28.92	28.72303	100	0	74	11.71626	-0.3085879	119.3719	
13:02:59	47.44654	-122.3128	81.755	81.52115	14.56918	28.94	28.56985	100	0	74	23.30739	0.1794558	131.9568	
13:03:01	47.44621	-122.3123	82.47	82.32714	42.48999	28.95	28.79446	100	0	74	18.29036	0.4006934	146.3836	
13:03:02	47.44582	-122.312	83.362	83.22119	40.72401	28.98	28.851	100	0	76	10.60916	0.1470151	156.0992	
13:03:04	47.44537	-122.3117	84.222	84.04731	41.47477	29.08	28.98451	100	0	76	3.127859	0.02815763	160.561	
13:03:06	47.44495	-122.3115	84.92	84.73364	-23.77378	29.14	28.96895	100	0	74	-40.10172	-0.7850527	155.5812	
13:03:07	47.44461	-122.3112	83.609	84.28918	32.40752	29.33	28.67323	100	0	76	-46.0658	0.2839766	120.444	
13:03:09	47.44447	-122.3105	82.203	83.41323	10.74397	29.5	29.16775	100	0	74	-46.04754	0.4276723	86.85788	
13:03:11	47.44455	-122.31	81.082	81.7643	-26.13378	29.47	29.82582	100	0	74	-39.38438	0.5974618	56.25032	
13:03:13	47.44487	-122.3094	80.777	80.96118	22.19558	29.12	30.09169	100	0	74	2.020443	0.6585054	42.06087	
13:03:14	47.44517	-122.3089	80.536	80.31689	-49.97275	29.05	29.66521	100	0	76	18.94022	-0.3136126	50.2255	
13:03:16	47.44542	-122.3083	80.82	80.28992	-21.06794	29.1	29.19911	100	0	76	16.64787	0.04890344	62.67289	
13:03:18	47.44558	-122.3077	81.455	80.95889	5.732362	29.07	28.80938	100	0	76	10.51126	0.0327511	72.13393	
13:03:19	47.44569	-122.3071	81.828	81.71512	21.74543	29.08	28.72501	100	0	76	4.861354	0.08617473	77.83244	
13:03:21	47.44576	-122.3065	82.14	82.04352	-3.754343	28.9	28.62621	100	0	62	0.5726436	-0.2798029	80.48845	
13:03:23	47.44584	-122.306	81.862	81.30859	-121.0499	28.09	27.73469	100	0	61	-45.11415	-1.193655	63.22917	
13:03:24	47.4461	-122.3054	79.761	79.9315	-59.59603	27.63	27.83145	100	0	61	-45.27693	0.07226794	27.99415	
13:03:26	47.44654	-122.3052	77.845	78.35945	-48.19906	27.26	27.97796	100	0	61	-36.84346	0.558788	-4.163839	
13:03:28	47.44692	-122.3053	77.094	77.25012	-35.75548	26.94	28.03671	100	0	61	-4.619699	0.01837995	-19.21423	
13:03:30	47.44732	-122.3055	76.527	76.44665	-58.82824	26.77	27.63268	100	0	61	16.13499	-0.4539225	-14.61732	
13:03:31	47.4477	-122.3056	75.913	75.81782	-35.7146	26.72	27.02707	100	0	61	16.77033	-0.05768774	-2.375691	
13:03:33	47.44812	-122.3056	75.524	75.4568	-22.2832	26.58	26.46229	100	0	61	9.917813	0.1235605	7.137181	
13:03:35	47.44848	-122.3056	75.328	75.23802	-19.3135	26.45	26.35798	100	0	61	3.168878	0.1260838	12.14143	
13:03:36	47.44863	-122.3055	75.271	75.07399	-16.96139	26.4	26.40429	100	0	61	-0.9079061	0.1374129	13.9856	
13:03:38	47.44928	-122.3053	74.939	74.89275	-16.97635	26.27	26.22273	100	0	61	-2.226296	0.1290207	14.0148	
13:03:40	47.44968	-122.3051	74.692	74.59203	-73.35536	26.23	26.07802	100	0	61	-36.20966	-0.4793597	9.640818	
13:03:41	47.45003	-122.3051	73.368	73.27862	-57.02665	26.3	25.62856	100	0	61	-46.22254	-0.2040206	-24.49021	
13:03:43	47.45038	-122.3055	72.859	72.78838	-7.561825	25.98	25.99372	100	0	61	-45.98704	0.1097666	-62.2716	
13:03:45	47.45049	-122.306	73.415	73.20502	25.52339	25.61	25.89892	100	0	61	-45.7126	-0.4771242	-99.49203	
13:03:47	47.45043	-122.3064	73.835	74.49865	147.0462	25.44	26.10203	100	0	59	-27.93671	0.9188595	-132.4833	
13:03:48	47.45007	-122.307	77.107	76.6226	95.65359	24.74	24.95707	100	0	59	-11.8566	0.1860877	-146.5028	
13:03:50	47.45004	-122.307	77.234	77.23396	-84.96777	24.78	25.01538	100	0	59	55.65709	-1.886467	-143.9521	
13:03:52	47.44961	-122.3077	71.578	73.23327	-988.3715	26.11	26.27369	100	0	59	58.28476	-15.72508	175.8875	
13:03:53	47.44932	-122.3082	59.541	58.95625	-458.607	26.97	26.28277	100	0	61	19.83736	15.32704	165.2575	
13:03:55	47.44897	-122.3085	57.812	53.38867	-738.8706	27.37	25.89065	100	0	64	33.31905	11.46252	148.8896	
13:03:57	47.4486	-122.3089	52.886	49.40277	-458.4083	29.19	27.48587	100	0	77	37.93273	6.246296	163.9828	
13:03:58	47.44827	-122.3094	55.199	51.26255	-60.42363	28.75	25.25466	100	0	77	40.08841	6.445435	-171.864	
13:04:00	47.44808	-122.3099	61.591	58.21904	122.9695	27.41	23.08361	100	0	77	41.11458	6.38713	-150.4456	
13:04:02	47.44801	-122.3105	67.648	65.45826	243.7144	26.91	22.857	100	0	77	40.94669	4.23798	-119.0039	
13:04:03	47.44812	-122.3111	71.836	72.02271	323.9452	27.06	23.8332	100	0	77	24.43953	2.803222	-86.4035	
13:04:05	47.44839	-122.3116	72.659	74.57352	200.3376	27.97	25.17574	100	0	77	5.513626	1.041055	-66.30642	
13:04:07	47.44867	-122.312	71.578	73.50798	41.37666	28.86	26.26706	100	0	77	-8.217655	0.741121	-55.05966	
13:04:09	47.44894	-122.3124	69.148	69.86539	-139.2647	29.66	27.30804	100	0	77	-45.71077	2.528202	-66.64512	
13:04:10	47.44912	-122.3131	67.232	66.74859	-189.3734	30.11	29.5791	100	0	77	-45.17172	3.367518	-87.13441	
13:04:12	47.4491	-122.3138	66.894	65.14079	-231.1975	30.19	30.52779	100	0	77	-45.06544	3.191135	-103.4305	
13:04:14	47.44893	-122.3144	65.854	64.22771	-240.3024	30.5	31.66494	100	0	77	-44.38295	3.430021	-117.7756	
13:04:15	47.44863	-122.3149	63.253	62.03289	-307.2259	30.97	32.64388	100	0	77	-44.11881	3.823822	-130.5399	
13:04:17	47.44822	-122.3153	58.302	57.26495	-456.9758	31.62	33.87548	100	0	77	-43.73275	4.417861	-141.0669	
13:04:19	47.44773	-122.3154	49.984	49.31629	-693.3617	32.37	34.36784	100	0	77	-43.24463	4.261878	-147.4501	
13:04:20	47.44717	-122.3154	35.716	36.74327	-920.0493	33.42	33.48786	100	0	77	-43.38978	3.117783	-156.6629	
13:04:22	47.44671	-122.3152	21.597	25.30763	-728.0098	34.71	33.57098	100	0	77	-43.58793	1.904105	-176.9507	
13:04:24	47.44671	-122.3152	21.597	24.46304	-387.2928	34.71	33.57098	100	0	77	-53.02397	6.785972	162.5933	
13:04:26	47.44596	-122.3141	5.38	5.086496	-1297.863	33.57	29.53905	100	0	77	-10.94816	-0.4749351	157.8675	
13:04:27	47.44584	-122.3139	0.546	-7.327948	-884.9108	33.27	29.50152	100	0	77	-21.7324	-1.437457	156.9872	
13:04:29	47.44584	-122.3139	0.546	-4.057443	-157.5892	33.27	28.43946	100	0	8	-28.5547	3.911683	167.725	
13:04:31	47.44584	-122.3139	0.546	0.04765268	29.52408	33.27	27.43058	100	0	5	-31.12768	8.64574	179.4375	
13:04:32	47.44071	-122.3181	0.02	0.304869	59.57042	0	6.83684	100	0	4	-19.57231	9.694127	-166.9023	
13:04:34	47.44071	-122.3181	0.02	1.178792	176.2771	0	6.494998	100	0	4	-8.787239	9.70135	-151.6589	
13:04:36	47.44071	-122.3181	0.02	2.079557	245.0087	0	6.170248	100	0	4	-0.7779351	7.300137	-134.6676	
13:04:37	47.44071	-122.3181	0.02	2.453046	249.3047	0	5.568648	100	0	4	4.173371	3.936365	-116.1607	
13:04:39	47.44071	-122.3181	0.02	2.358643	219.9794	0	5.290216	100	0	4	6.770547	-0.09521896	-93.67719	
13:04:41	47.44071	-122.3181	0.02	2.069181	186.4693	0	4.77442	100	0	4	7.176047	-3.895591	-67.66005	
13:04:42	47.44071	-122.3181	0.02	1.761585	158.0117	0	4.308914	100	0	4	6.322473	-6.291745	-42.12944	
13:04:44	47.44071	-122.3181	0.02	1.523875	138.585	0	3.888794	100	0	4	5.034057	-7.232203	-18.51036	
13:04:46	47.44071	-122.3181	0.02	1.354617	123.8054	0.11	3.509637	100	0	4	4.443754	-7.123064	-0.007039894	
13:04:47	47.44071	-122.3181	0.02	1.169618	105.3893	0.71	3.680851	100	0	33	5.2256	-5.543752	7.293185	
13:04:49	47.44075	-122.3181	0.038	0.8616158	59.77315	6.17	6.926015	100	0	99	2.063212	10.73829	-2.126637	
13:04:51	47.4409	-122.3182	0.791	1.897139	412.213	15.05	15.95858	100	0	99	-2.719038	16.05515	-13.36977	
13:04:53	47.44107	-122.3185	4.998	5.99471	389.5413	20.09	20.88198	100	0	99	10.28491	11.46548	-9.699872	
13:04:54	47.44132	-122.3189	10.335	10.57225	412.7039	24.1	23.83142	100	0	100	-4.889287	8.766306	-2.623356	
13:04:56	47.44156	-122.3193	15.122	15.47572	298.0005	26.66	25.83628	100	0	100	-4.265941	6.404669	-1.507536	
13:04:58	47.4418	-122.3197	17.358	18.22758	257.2996	28.96	25.74599	100	0	98	-47.49497	10.29489	-20.18129	
13:04:59	47.44184	-122.3204	21.126	24.16494	560.1863	28.72	16.60799	100	0	100	-39.72625	31.01694	-63.69974	
13:05:01	47.44165	-122.321	24.683	23.21988	-854.5309	29.93	17.5041	100	0	98	-12.51042	5.323613	-60.83926	
13:05:03	47.44146	-122.3216	15.817	17.72639	55.21997	33.06	19.56846	100	0	98	-10.52307	22.15033	-68.66527	
13:05:04	47.44119	-122.3222	18.523	18.42145	254.5255	32.57	19.14759	100	0	98	-19.59492	25.70257	-76.37478	
13:05:06	47.44085	-122.3228	25.368	22.91644	-54.1952	31.8	18.46933	100	0	100	-10.60679	15.42581	-82.33874	
13:05:08	47.44051	-122.3234	23.191	22.59296	-558.4493	32.57	19.30279	100	0	98	-0.3027451	0.1260191	-87.834	
13:05:09	47.44018	-122.3239	12.684	14.44402	-256.7277	34.88	21.27736	100	0	98	-0.6013641	3.004741	-90.28637	
13:05:11	47.43978	-122.3245	10.183	11.24466	62.10193	34.97	24.54328	100	0	98	-15.40486	6.292058	-95.03631	
13:05:13	47.43936	-122.3249	14.693	14.7041	366.7708	32.78	20.79445	100	0	98	-22.31307	13.36485	-112.7706	
13:05:15	47.439	-122.3252	19.42	19.77189	290.8858	31.79	17.77685	100	0	100	-17.00471	10.57648	-128.2531	
13:05:16	47.43851	-122.3254	20.176	20.24346	41.45145	32.49	17.59622	100	0	100	-20.25347	2.801404	-143.3826	
13:05:18	47.438	-122.3255	18.092	18.88395	-64.17859	33.27	18.0701	100	0	100	0.4477781	0.02571462	-156.5266	
13:05:20	47.43748	-122.3255	16.473	17.01409	-12.73967	33.74	18.76052	100	0	98	-0.4096588	0.06247444	-162.6194	
13:05:21	47.43696	-122.3256	16.545	16.764	46.51463	33.64	24.3141	100	0	98	-0.1839597	0.04611642	-168.0338	
13:05:23	47.43642	-122.3256	17.743	17.74203	102.6899	33.37	24.14515	100	0	98	-0.2791477	0.1432993	-174.4183	
13:05:25	47.43592	-122.3256	16.179	17.75646	74.32305	33.13	26.37889	100	0	100	-0.3506127	0.326788	-179.6703	
13:05:26	47.4354	-122.3256	16.007	16.78817	52.05381	32.62	26.2091	100	0	98	-0.3881278	1.569001	176.4581	
13:05:28	47.43497	-122.3255	18.949	19.16321	383.4118	31.37	26.58765	100	0	98	-1.575446	9.073179	171.8755	
13:05:30	47.43447	-122.3254	28.586	26.88416	461.8157	29.24	24.44768	100	0	98	0.512977	10.93156	168.7325	
13:05:31	47.43409	-122.3254	39.554	38.97553	782.8087	26.83	23.2088	100	0	100	-0.2352139	17.48807	166.8691	
13:05:33	47.43368	-122.3253	55.317	53.95126	833.4966	25.11	23.2449	100	0	98	-0.5159692	17.76359	164.462	
13:05:35	47.43331	-122.3252	70.185	68.71087	873.8951	23.8	22.53378	100	0	100	0.5136955	19.07958	162.5469	
13:05:37	47.43298	-122.3251	84.877	84.16387	944.989	22.38	21.21834	100	0	98	0.7512686	21.89045	161.3581	
13:05:38	47.43263	-122.325	101.708	100.2488	939.6416	21.3	20.79981	100	0	98	1.519302	22.37964	160.5098	
13:05:40	47.43232	-122.3248	116.129	113.8375	141.666	22.57	21.60677	100	0	98	-0.04287988	0.7391483	159.9504	
13:05:42	47.43198	-122.3247	117.25	117.1391	117.8235	26.78	25.63907	100	0	98	1.025888	0.4910164	159.3853	
13:05:43	47.43155	-122.3246	117.836	118.9049	166.6691	29.61	28.65336	100	0	100	0.5228084	0.7120349	158.8509	
13:05:45	47.43107	-122.3244	107.807	109.687	-1248.061	30.32	28.93083	100	0	98	7.080428	-26.54777	158.6873	
13:05:47	47.43064	-122.3243	91.62	95.86013	348.868	35.87	34.58096	100	0	100	0.7155474	2.654603	162.4595	
13:05:48	47.43009	-122.3242	96.462	95.56633	56.61964	33.8	32.66951	100	0	98	-0.2480041	0.3029967	163.0779	
13:05:50	47.42964	-122.324	99.108	98.14558	100.9588	33.24	32.6269	100	0	98	-44.11465	0.399419	144.2141	
13:05:52	47.42922	-122.3235	100.564	101.3731	232.9368	33.1	35.08011	100	0	98	-44.63945	0.8737982	114.1128	
13:05:53	47.42906	-122.3228	100.925	102.6166	168.8763	33.23	36.43729	100	0	98	-44.96479	0.8376204	85.94403	
13:05:55	47.42915	-122.3221	101.763	102.2717	75.53638	33.43	36.89179	100	0	100	-44.53456	1.161635	58.48415	
13:05:57	47.42949	-122.3215	104.421	103.844	111.2092	33.68	36.83197	100	0	98	-44.39934	1.059127	31.8587	
13:05:59	47.42997	-122.3212	106.497	106.6124	178.349	33.73	35.80317	100	0	100	-44.50558	1.524445	5.50672	
13:06:00	47.43047	-122.3213	108.133	108.8547	196.3042	33.63	34.38385	100	0	98	-44.47156	2.220114	-21.58874	
13:06:02	47.43087	-122.3216	109.193	110.1847	155.4988	33.25	32.64309	100	0	98	-44.91543	2.79803	-48.83572	
13:06:04	47.43113	-122.3223	110.393	110.9417	104.3176	32.65	31.05463	100	0	98	-44.97968	2.970065	-77.03988	
13:06:05	47.43114	-122.323	111.224	111.2907	-11.03357	32.18	30.43435	100	0	98	-44.69469	0.7687641	-104.4361	
13:06:07	47.43093	-122.3236	110.92	111.1221	12.29989	32	30.11113	100	0	98	-45.14307	0.446874	-135.3004	
13:06:09	47.4306	-122.324	111.104	111.5427	143.9285	31.83	30.5667	100	0	98	-3.105037	1.104012	-161.8751	
13:06:10	47.43013	-122.3243	115.039	113.7971	87.58849	31.61	30.45131	100	0	100	0.03322805	-0.08252855	-165.3278	
13:06:12	47.4296	-122.3245	120.023	118.2621	169.2982	31.54	30.80984	100	0	100	17.10781	-0.1943491	-165.1607	
13:06:14	47.42922	-122.3248	122.805	122.3043	221.7191	31.96	30.38908	100	0	100	45.41405	0.846945	-137.2995	
13:06:15	47.42896	-122.3255	126.378	126.2754	193.9904	32.11	30.43855	100	0	98	45.65276	0.9629481	-105.8429	
13:06:17	47.42897	-122.3262	128.071	128.4113	111.9421	32.57	31.16123	100	0	89	45.27127	0.6307797	-74.55844	
13:06:19	47.42925	-122.3269	127.606	128.5004	0.2476009	32.46	31.75293	100	0	86	45.18217	0.004097085	-43.35557	
13:06:21	47.42963	-122.3271	125.782	126.4606	-102.0257	32.4	32.29648	100	0	86	45.02546	-0.2740181	-12.26177	
13:06:22	47.43011	-122.3271	123.512	123.5658	-153.8168	32.53	33.11088	100	0	86	44.68894	-0.06949962	18.53573	
13:06:24	47.43055	-122.3267	121.58	121.2729	-171.1735	32.51	33.29989	100	0	86	45.35885	-0.3654836	48.34181	
13:06:26	47.43075	-122.3261	120.633	119.8121	-140.0716	32.38	33.22787	100	0	86	45.01352	-0.1199924	78.19417	
13:06:27	47.43075	-122.3254	120.244	119.413	-90.02158	32.27	33.0189	100	0	85	45.01342	-0.01689368	107.4896	
13:06:29	47.43052	-122.3248	120.19	119.9083	-39.26602	32.05	32.42742	100	0	86	0.9652225	-0.5313401	123.5831	
13:06:31	47.43021	-122.3242	119.928	119.7613	-18.07409	31.91	32.1254	100	0	86	-0.1155778	-0.6262279	123.337	
13:06:32	47.4299	-122.3236	120.136	120.0188	18.14462	31.69	31.61496	100	0	86	0.2144493	-0.3385985	124.2413	
13:06:34	47.4296	-122.323	120.457	120.2317	-57.90665	31.54	31.43311	100	0	86	-45.47672	-0.7169219	111.731	
13:06:36	47.4295	-122.3224	122.047	121.4948	94.87878	31.53	32.8274	100	0	86	-45.17831	0.5673288	80.76487	
13:06:38	47.42962	-122.3217	124.928	124.6809	195.7046	31.53	33.52691	100	0	93	-38.71718	0.8415068	52.87778	
13:06:39	47.42999	-122.3211	130.408	129.7946	298.0495	31.81	33.95751	100	0	93	-14.51882	0.2548356	37.60549	
13:06:41	47.43035	-122.3207	135.2	135.2068	319.0222	31.8	34.08941	100	0	93	-2.546785	-0.03868255	34.84364	
13:06:43	47.43077	-122.3203	140.848	140.5343	324.6233	31.75	33.00744	100	0	93	-2.04608	0.1713625	35.05482	
13:06:44	47.43116	-122.3198	146.402	146.0292	312.2732	31.68	32.23162	100	0	93	-2.553134	-0.1316133	35.2146	
13:06:46	47.4315	-122.3195	151.137	151.3662	321.8157	31.64	31.75035	100	0	93	-2.872986	0.1715199	35.21154	
13:06:48	47.43188	-122.3191	156.896	157.1121	338.7619	31.56	31.46416	100	0	93	-2.988095	0.3857022	35.10603	
13:06:49	47.4323	-122.3186	157.021	159.0293	172.7445	31.51	31.32125	100	0	93	-3.148972	0.2640055	34.97006	
13:06:51	47.4327	-122.3182	157.173	157.9478	14.12619	31.5	31.30153	100	0	93	-3.131785	0.372835	34.83557	
13:06:53	47.43303	-122.3178	157.318	157.1044	-42.98901	31.49	31.22332	100	0	93	-3.029091	0.411185	34.75906	
13:06:54	47.43346	-122.3173	157.4	156.8927	-45.9038	31.54	31.22733	100	0	93	-3.132794	0.3471557	34.66954	
13:06:56	47.43382	-122.3169	157.39	157.0088	-36.96689	31.56	31.22924	100	0	93	-3.020291	0.2291173	34.61636	
13:06:58	47.43423	-122.3165	157.277	157.0021	-32.86924	31.61	31.25815	100	0	93	-3.011881	0.2398982	34.5991	
13:07:00	47.4346	-122.3161	157.042	156.8552	-31.19197	31.65	31.29934	100	0	93	-3.001405	0.2986259	34.59686	
13:07:01	47.43494	-122.3157	156.909	156.6459	-30.84208	31.68	31.33484	100	0	93	-2.855844	0.3344648	34.61832	
13:07:03	47.43542	-122.3152	157.451	156.6577	-27.29703	31.7	31.33111	100	0	93	-2.831001	0.2443822	34.65139	
13:07:05	47.43575	-122.3148	158.325	157.748	21.19623	31.75	31.38531	100	0	93	-2.839447	0.2387834	34.70933	
13:07:06	47.43612	-122.3144	159.218	159.0956	54.73282	31.79	31.41916	100	0	93	-2.613678	0.3005072	34.78681	
13:07:08	47.43651	-122.314	159.889	159.9485	42.70102	31.81	31.43874	100	0	93	-2.5705	0.2642814	34.87281	
13:07:10	47.43692	-122.3135	160.451	160.4804	25.00386	31.86	31.4796	100	0	93	-2.732701	0.1247074	34.94106	
13:07:11	47.43735	-122.3131	160.978	160.7056	25.23546	31.87	31.4941	100	0	93	-2.457516	0.3276461	34.95286	
13:07:13	47.43776	-122.3126	162.046	161.5017	16.19083	31.77	31.40006	100	0	93	-2.423586	0.1136948	35.1521	
13:07:15	47.43811	-122.3122	162.389	162.3187	33.74447	31.86	31.46525	100	0	93	-2.698942	0.3005046	35.1472	
13:07:17	47.43856	-122.3118	162.803	162.6514	23.79266	31.94	31.54911	100	0	93	-2.617363	0.2210353	35.11713	
13:07:18	47.43891	-122.3114	163.212	163.1552	28.49681	31.98	31.58065	100	0	93	-2.442581	0.2897947	35.18836	
13:07:20	47.43927	-122.311	163.735	163.6743	23.15369	31.99	31.59021	100	0	93	-2.409736	0.2216822	35.25012	
13:07:22	47.43972	-122.3105	164.219	164.1339	28.99843	32.04	31.63117	100	0	95	-2.369675	0.3981002	35.32107	
13:07:23	47.44009	-122.3101	164.599	164.5304	9.078442	32.13	31.73559	100	0	93	-2.369758	0.01326999	35.36928	
13:07:25	47.4405	-122.3097	164.829	164.8037	13.23298	32.16	31.76131	100	0	93	-2.167819	0.08109304	35.47397	
13:07:27	47.44086	-122.3093	165.115	165.1528	20.71268	32.13	31.72863	100	0	93	-2.21474	0.2362945	35.52961	
13:07:28	47.44127	-122.3089	165.434	165.4686	11.74176	32.13	31.71054	100	0	93	-2.127337	0.05567629	35.59986	
13:07:30	47.44167	-122.3084	165.783	165.7284	24.97146	32.14	31.71866	100	0	93	-2.164471	0.2866293	35.62592	
13:07:32	47.44197	-122.3081	166.019	166.0455	10.16609	32.13	31.71052	100	0	93	-2.11454	-0.006428275	35.70152	
13:07:33	47.44209	-122.308	166.083	165.958	-58.99241	32.13	31.71632	100	0	93	-1.584113	-1.446769	35.66598	
13:07:35	47.44242	-122.3076	165.309	165.3977	-137.582	32.33	31.9133	100	0	93	-1.073811	-5.303069	36.02373	
13:07:37	47.44329	-122.3067	167.964	166.5555	149.253	31.36	31.06137	100	0	93	-0.967253	2.084735	36.73237	
13:07:39	47.44364	-122.3064	172.09	170.9551	160.3565	30.81	30.38687	100	0	93	-0.21375	1.524196	37.61106	
13:07:40	47.44403	-122.306	175.368	174.8858	154.7848	30.73	30.32312	100	0	93	-0.5122297	0.9474337	38.20353	
13:07:42	47.44442	-122.3056	177.285	177.0221	-13.62912	31.05	30.49749	100	0	93	-46.48871	0.7486537	28.48465	
13:07:44	47.44491	-122.3054	174.042	175.7741	-65.22112	32.29	31.20813	100	0	93	-40.1148	2.457723	-2.052592	
13:07:45	47.4454	-122.3056	167.444	169.6263	-323.9625	33.46	32.19324	100	0	95	-1.887368	-0.2344993	-13.3799	
13:07:47	47.4459	-122.3059	160.037	161.4876	-338.4128	34.52	33.72993	100	0	93	20.75837	-0.7764531	-6.302324	
13:07:49	47.44643	-122.306	155.821	156.0375	-235.2713	34.48	34.47733	100	0	93	20.85855	-0.387747	5.233916	
13:07:50	47.4469	-122.306	154.554	153.873	-122.357	33.96	33.64437	100	0	93	11.94181	-0.1467881	13.55718	
13:07:52	47.44745	-122.3059	154.337	153.6795	-46.58252	33.31	33.3986	100	0	93	6.444757	-0.2389982	17.75062	
13:07:54	47.44796	-122.3058	154.646	154.2455	9.981457	32.84	32.83483	100	0	93	1.401485	-0.1009235	19.34175	
13:07:56	47.44844	-122.3056	155.311	155.0841	37.12251	32.5	32.35028	100	0	93	-1.712404	-0.03187889	18.90907	
13:07:57	47.44878	-122.3054	155.937	155.9848	47.25938	32.31	32.00934	100	0	93	-3.243814	-0.01141975	17.51654	
13:07:59	47.44936	-122.3052	157.257	157.0685	71.05098	32.07	31.67441	100	0	93	-3.983768	0.333391	15.58193	
13:08:01	47.44983	-122.3051	158.29	157.9141	-32.86322	31.98	31.395	100	0	93	-45.8668	-0.2395594	4.538005	
13:08:02	47.45026	-122.3052	159.167	159.2034	101.1204	31.87	30.00783	100	0	93	-45.84821	0.950471	-26.32498	
13:08:04	47.45063	-122.3055	161.363	161.5537	161.4879	31.52	29.59647	100	0	93	-45.57042	0.6274732	-57.34524	
13:08:06	47.45085	-122.3063	165.351	164.9426	224.4803	31.04	29.72359	100	0	93	-45.13603	0.2126859	-90.0407	
13:08:07	47.45077	-122.3069	169.377	169.4291	326.6822	30.7	30.18618	100	0	93	-39.38301	0.0624796	-123.8557	
13:08:09	47.45052	-122.3074	174.226	174.6435	355.9886	30.28	30.2804	100	0	93	-13.50113	-0.3157827	-143.7995	
13:08:11	47.45015	-122.3079	179.665	179.781	302.5432	30.14	30.2799	100	0	93	6.196964	0.002940546	-148.1221	
13:08:12	47.4498	-122.3084	184.547	184.1341	213.0764	30.26	29.9242	100	0	93	26.82476	0.3032549	-137.8498	
13:08:14	47.44954	-122.309	188.633	188.0896	185.711	30.71	29.4726	100	0	93	25.24898	0.6132688	-119.7299	
13:08:16	47.44941	-122.3096	190.912	190.9722	133.9039	31.16	29.36761	100	0	95	15.41564	0.3199468	-104.9357	
13:08:18	47.44935	-122.3104	191.868	192.1876	56.81893	31.87	29.72682	100	0	93	4.516759	0.04165283	-95.83594	
13:08:19	47.44935	-122.3107	191.866	192.0828	-0.4302629	32.08	29.99338	100	0	93	-2.492985	-0.1978639	-92.61722	
13:08:21	47.44935	-122.3117	191.508	191.6148	-16.76098	32.47	30.74208	100	0	93	-2.04653	-0.1642775	-91.91063	
13:08:23	47.44933	-122.3125	191.669	191.2534	-72.99732	32.61	31.71483	100	0	93	-45.28193	-0.1691276	-105.8828	
13:08:24	47.44915	-122.3131	191.284	191.4513	33.15083	32.83	32.64697	100	0	93	-45.00746	0.8058254	-135.9508	
13:08:26	47.44867	-122.3136	191.497	191.5646	35.96243	32.93	33.65095	100	0	93	-45.13274	0.7220163	-163.9103	
13:08:28	47.44822	-122.3137	192.344	192.2493	45.61255	32.77	33.93362	100	0	93	-26.49999	0.4837698	175.2733	
13:08:29	47.44772	-122.3136	193.216	192.959	14.29951	32.67	34.17623	100	0	93	4.233582	-0.6750793	172.1397	
13:08:31	47.44728	-122.3135	193.431	193.2546	10.20333	32.77	34.04432	100	0	92	-37.1706	-0.02283689	159.0273	
13:08:33	47.44683	-122.3132	194.001	194.265	80.85985	32.65	33.86987	100	0	93	-14.07965	0.2748352	143.2008	
13:08:35	47.4464	-122.3127	194.939	195.0004	52.60836	32.51	33.76017	100	0	93	4.255721	-0.1240417	142.8119	
13:08:36	47.44603	-122.3123	195.703	195.6507	35.1199	32.47	32.93277	100	0	93	9.43653	-0.2712795	149.0729	
13:08:38	47.44553	-122.3119	196.755	196.5571	44.27982	32.45	32.49665	100	0	93	6.190004	-0.1454487	155.8224	
13:08:40	47.4451	-122.3117	197.817	197.5926	47.84408	32.41	32.03653	100	0	93	-12.82278	0.1078021	159.5062	
13:08:41	47.44471	-122.3114	198.261	198.1851	53.8234	32.51	32.10593	100	0	93	-45.16575	1.743912	139.1759	
13:08:43	47.44438	-122.3109	200.21	199.7064	41.80854	32.12	31.58875	100	0	93	-44.82689	1.549352	114.2393	
13:08:45	47.44424	-122.3101	202.249	201.6794	62.64873	31.82	31.66373	100	0	93	-45.1005	1.326664	88.13396	
13:08:46	47.44438	-122.3093	204.751	203.9102	83.41172	31.55	31.99071	100	0	93	-42.19037	1.204082	61.33641	
13:08:48	47.44464	-122.3088	206.684	206.3667	110.7554	31.36	31.98906	100	0	93	-18.31506	0.6406459	44.23408	
13:08:50	47.44497	-122.3084	208.274	208.165	65.1097	31.36	31.90091	100	0	93	12.39721	-0.413243	43.1651	
13:08:52	47.44533	-122.3079	209.451	209.4153	74.86726	31.76	31.82063	100	0	95	22.29345	0.1326926	54.17006	
13:08:53	47.44558	-122.3072	210.139	210.4001	74.84674	32.14	32.13702	100	0	93	16.6973	0.5066643	66.60812	
13:08:55	47.44574	-122.3065	209.977	210.3463	-3.64715	32.35	32.30262	100	0	93	8.585499	-0.2317187	74.12048	
13:08:57	47.44584	-122.3059	209.356	209.1997	-149.1083	32.57	32.65086	100	0	93	-48.02039	-1.025828	65.23815	
13:08:58	47.44615	-122.3052	207.845	208.1586	-14.97831	32.8	32.44881	100	0	93	-45.29667	0.7040395	35.03802	
13:09:00	47.44661	-122.3049	207.91	207.8854	13.15087	32.6	32.48897	100	0	93	-44.95852	0.7030877	7.155237	
13:09:02	47.44705	-122.3049	208.978	208.9163	106.8226	32.21	32.14829	100	0	93	-24.9141	0.7609779	-16.00347	
13:09:03	47.44755	-122.3052	211.345	210.9871	91.09032	31.8	31.92867	100	0	93	6.482542	-0.1933804	-20.5065	
13:09:05	47.44802	-122.3053	212.777	212.6278	66.47733	31.77	31.77451	100	0	93	16.24318	0.08941986	-13.124	
13:09:07	47.44854	-122.3054	213.207	213.3743	26.9437	32.01	31.79601	100	0	93	13.0326	0.09604608	-3.32886	
13:09:09	47.44898	-122.3053	212.886	213.1502	-11.53439	32.28	31.9632	100	0	95	6.529647	0.01897292	3.934835	
13:09:10	47.44942	-122.3052	212.175	212.3031	-43.23181	32.51	32.08561	100	0	93	1.317164	-0.1702801	8.109623	
13:09:12	47.44993	-122.3051	210.822	210.6671	-112.1388	32.73	32.44872	100	0	93	-44.86243	0.155314	-4.656347	
13:09:14	47.4504	-122.3052	209.831	209.8541	-30.22209	32.78	32.92437	100	0	93	-45.33311	0.6587121	-31.94845	
13:09:15	47.45079	-122.3056	210.064	209.8598	11.77589	32.59	33.61729	100	0	93	-44.55098	0.672578	-59.44156	
13:09:17	47.45102	-122.3063	211.227	210.8423	60.53608	32.3	33.63017	100	0	93	-45.15034	0.0779065	-87.22503	
13:09:19	47.45097	-122.3071	213.051	212.8167	134.4254	32.04	33.34723	100	0	95	-42.58389	-0.08124299	-116.8355	
13:09:20	47.45073	-122.3077	215.899	216.0305	227.142	31.68	32.99018	100	0	93	-17.02419	0.1694254	-136.0449	
13:09:22	47.45044	-122.3081	218.787	219.0996	180.4173	31.47	32.71157	100	0	93	-4.410089	-0.2186116	-141.3236	
13:09:24	47.45006	-122.3086	222.094	221.9605	140.0596	31.38	32.33234	100	0	93	13.44998	-0.4895302	-140.1216	
13:09:25	47.44975	-122.3091	224.81	224.7349	156.0417	31.55	31.78386	100	0	93	24.8078	0.2357461	-127.0202	
13:09:27	47.44951	-122.3098	227.393	227.5086	140.6998	31.72	31.41656	100	0	93	20.93013	0.3468252	-112.4214	
13:09:29	47.44938	-122.3105	228.883	229.0695	82.89957	31.9	31.56135	100	0	93	12.21889	0.09610853	-101.8717	
13:09:31	47.44933	-122.3113	229.591	229.6943	33.0022	32.13	31.67916	100	0	95	5.174486	-0.1937518	-95.51784	
13:09:32	47.44931	-122.312	230.091	230.054	23.69969	32.31	31.84819	100	0	93	-3.11392	-0.04303205	-92.8504	
13:09:34	47.44926	-122.3127	230.336	230.1406	19.92027	32.61	32.3779	100	0	93	-45.78989	0.9542884	-112.5731	
13:09:36	47.44905	-122.3132	231.448	231.2739	62.07315	32.47	32.35332	100	0	86	-44.58223	1.065083	-139.9746	
13:09:37	47.44865	-122.3137	233.283	232.9934	63.86073	31.78	32.29414	100	0	84	-45.02582	-0.1265813	-167.0699	
13:09:39	47.44811	-122.3137	234.705	234.9323	163.2502	31.19	32.37222	100	0	83	-20.51009	0.6823331	169.6392	
13:09:41	47.44762	-122.3136	236.359	236.3686	74.34961	30.78	32.29499	100	0	83	7.437696	-0.7003627	169.7852	
13:09:42	47.44721	-122.3134	236.979	237.0685	42.76317	30.77	31.55584	100	0	83	-33.56511	-0.2016098	157.1842	
13:09:44	47.44677	-122.3131	238.093	238.0834	86.56167	30.54	31.53153	100	0	81	-11.15793	0.1936215	143.695	
13:09:46	47.44643	-122.3127	239.066	239.1256	62.83532	30.41	31.35061	100	0	83	5.358273	-0.1196105	144.5442	
13:09:48	47.44604	-122.3123	240.086	240.0546	62.74382	30.43	30.72028	100	0	83	8.639862	0.01283006	150.3774	
13:09:49	47.44567	-122.312	240.893	240.972	57.99857	30.45	30.38489	100	0	83	5.951793	0.003630881	156.0677	
13:09:51	47.44521	-122.3117	242.023	241.96	61.76846	30.46	30.13733	100	0	81	2.38048	0.1879772	159.804	
13:09:53	47.44477	-122.3114	242.786	242.5346	-42.73857	30.47	30.05086	100	0	83	-45.05067	-0.4683075	148.5069	
13:09:54	47.44442	-122.3109	242.759	242.9781	62.03122	30.52	29.93936	100	0	81	-46.08673	0.9468384	116.251	
13:09:56	47.44432	-122.3104	243.223	243.4444	34.83032	30.27	30.20642	100	0	81	-45.27069	0.8813524	85.99545	
13:09:58	47.44443	-122.3097	243.063	243.3523	27.0843	30.21	30.38108	100	0	83	-40.17035	1.055585	56.55956	
13:09:59	47.44466	-122.3093	243.126	243.4354	20.91577	30.2	30.6223	100	0	83	-8.321212	-0.0486537	39.67815	
13:10:01	47.4451	-122.3087	243.516	243.3945	-23.19275	30.2	30.51934	100	0	83	21.76392	-0.4316361	43.77349	
13:10:03	47.44538	-122.3082	243.896	243.6449	14.53138	30.35	30.27847	100	0	83	23.00724	0.2337854	58.95493	
13:10:05	47.44559	-122.3076	244.649	244.3815	22.00178	30.4	29.91126	100	0	83	14.81365	0.1246356	70.99924	
13:10:06	47.44571	-122.3069	244.807	244.9214	22.2099	30.46	30.12355	100	0	83	5.265793	0.08413647	77.73055	
13:10:08	47.4458	-122.3062	244.98	244.9149	-21.59388	30.53	30.12623	100	0	83	-28.8968	-0.03698537	78.43567	
13:10:10	47.44588	-122.3058	244.221	244.2517	43.40408	30.73	29.66395	100	0	83	-43.61136	2.642966	48.87079	
13:10:11	47.44602	-122.3055	242.128	243.4754	-298.0093	30.81	29.84836	100	0	83	-44.95359	0.399357	29.03843	
13:10:13	47.44635	-122.305	230.482	232.6036	-538.2446	32.39	32.11233	100	0	83	-44.72776	0.1907459	5.36167	
13:10:15	47.44688	-122.3049	214.017	217.1157	-711.8994	34.38	34.63549	100	0	83	-37.58183	0.5884101	-15.06086	
13:10:16	47.44733	-122.305	202.693	202.7004	-878.6876	33.08	33.92032	100	0	81	-0.06667445	-1.690499	-16.00123	
13:10:18	47.44783	-122.3052	190.912	190.8675	-595.5905	32.43	34.35439	100	0	81	11.32797	-1.076531	-8.5154	
13:10:20	47.44831	-122.3054	185.499	184.6474	-292.8698	30.63	33.34327	100	0	83	18.33068	-0.9626526	2.563519	
13:10:22	47.44873	-122.3054	185.554	184.0961	-36.22492	28.6	31.20359	100	0	83	15.91017	-0.4891937	13.05825	
13:10:23	47.44914	-122.3054	188.385	187.0995	131.2629	26.69	29.41686	100	0	83	11.37875	-0.1723083	20.62522	
13:10:25	47.44953	-122.3053	192.523	191.6634	218.5269	25.25	28.3276	100	0	83	4.19594	-0.04455683	25.18355	
13:10:27	47.44991	-122.3053	196.075	195.6631	132.3883	24.99	27.14738	100	0	81	-46.72776	1.188279	6.585418	
13:10:28	47.45026	-122.3055	196.268	197.1492	58.43815	27.32	26.64281	100	0	83	-46.69061	2.724972	-27.40668	
13:10:30	47.45046	-122.3061	193.716	194.7661	-156.1265	30.61	28.28566	100	0	81	-45.6372	2.598392	-56.43536	
13:10:32	47.45045	-122.3068	188.468	189.513	-349.4447	33.9	30.19048	100	0	83	-44.92786	2.788862	-81.24443	
13:10:33	47.45027	-122.3075	182.72	182.354	-494.3138	35.97	32.15246	100	0	83	-20.08134	1.942612	-95.70844	
13:10:35	47.44998	-122.3082	175.174	174.2809	-487.925	36.84	33.55698	100	0	83	9.403815	-1.338495	-93.18443	
13:10:37	47.44969	-122.309	169.436	169.4254	-167.1278	36.64	33.24649	100	0	81	17.12346	-0.9332416	-84.7983	
13:10:39	47.44952	-122.3098	169.076	168.8076	34.34813	34.84	32.37958	100	0	81	11.00104	-0.248089	-79.58624	
13:10:40	47.44942	-122.3105	170.516	170.2595	95.6162	33.4	31.23917	100	0	81	7.354959	-0.3940966	-78.09607	
13:10:42	47.44936	-122.3113	173.127	172.3173	135.3523	32.17	30.58726	100	0	83	4.732295	-0.2844276	-76.92509	
13:10:44	47.44932	-122.3119	176.053	175.7773	200.6348	31.37	29.83604	100	0	83	-0.4646091	0.1463461	-78.60809	
13:10:45	47.44925	-122.3127	179.57	179.1098	188.823	32.28	28.48446	100	0	83	-45.44202	-0.713842	-103.7258	
13:10:47	47.44894	-122.3133	182.3	183.0218	325.6687	33.92	26.58309	100	0	81	-46.6264	-0.358303	-144.0007	
13:10:49	47.44851	-122.3135	184.621	186.4228	367.5701	33.88	26.81656	100	0	83	-35.67822	0.8602948	178.1781	
13:10:50	47.44797	-122.3134	187.626	188.8761	263.7724	33.21	27.58487	100	0	83	3.285329	-0.03647364	163.1373	
13:10:52	47.44743	-122.3133	191.299	190.8141	194.6929	33.32	27.64198	100	0	83	-12.24998	0.9579406	167.4878	
13:10:54	47.44699	-122.3131	194.499	193.8363	155.7988	32.63	28.30928	100	0	83	-29.32571	0.4660162	150.7876	
13:10:56	47.4466	-122.3128	197.576	197.5895	205.2504	31.66	28.95976	100	0	83	-6.042298	0.4335629	138.9237	
13:10:57	47.44613	-122.3124	201.553	200.9746	182.99	31.44	28.83261	100	0	83	9.518414	0.1935674	140.5064	
13:10:59	47.44577	-122.312	204.986	204.7277	202.793	31.66	28.45238	100	0	83	10.26192	0.6211079	147.4984	
13:11:01	47.44531	-122.3117	209.88	208.9898	216.3021	31.78	27.82217	100	0	83	5.502226	0.5975106	153.8231	
13:11:02	47.44484	-122.3114	214.592	213.463	129.33	31.64	27.71156	100	0	83	-41.85359	-0.5990521	150.6378	
13:11:04	47.44447	-122.311	216.641	216.5708	185.4705	29.54	27.71709	100	0	83	-46.90946	1.119408	114.8129	
13:11:06	47.44435	-122.3104	217.798	218.4958	127.931	27.07	28.22014	100	0	81	-45.43567	1.21142	80.81036	
13:11:07	47.44446	-122.3099	217.009	218.1603	59.12907	25.59	28.89629	100	0	83	-34.43855	1.479179	50.52432	
13:11:09	47.44475	-122.3095	215.56	216.4254	-58.86873	25.57	29.77201	100	0	83	-5.252486	-0.09809255	37.56195	
13:11:11	47.44503	-122.3092	214.52	214.5005	-77.11097	25.89	30.06839	100	0	81	18.53149	-0.3515076	41.43245	
13:11:13	47.44532	-122.3087	215.018	214.3847	-10.62666	26.24	30.05427	100	0	81	22.65672	-0.04210432	54.02703	
13:11:14	47.44551	-122.3082	217.492	216.3729	80.40149	26.45	29.64799	100	0	81	14.80779	0.1565923	66.18025	
13:11:16	47.44563	-122.3076	220.661	219.6443	134.5305	26.55	29.33524	100	0	83	6.729707	0.0164684	74.0125	
13:11:18	47.4457	-122.307	223.956	223.4618	181.8839	26.49	29.03151	100	0	83	0.4591253	0.4918789	77.82313	
13:11:19	47.44576	-122.3064	227.386	226.6692	161.8555	26.33	28.84117	100	0	81	-10.65477	0.4811895	78.69728	
13:11:21	47.44586	-122.3059	229.605	229.1035	93.72644	25.14	27.86048	100	0	81	-46.51435	0.8136289	55.68323	
13:11:23	47.44614	-122.3055	230.902	231.1159	105.8162	24.26	27.47341	100	0	83	-42.50172	1.637858	22.4829	
13:11:24	47.44646	-122.3055	231.524	232.0175	67.24057	24.93	27.79183	100	0	81	-19.70989	1.148103	1.003929	
13:11:26	47.44687	-122.3056	231.706	231.8735	-8.673303	25.59	28.27095	100	0	83	4.981934	-0.2304758	-4.200028	
13:11:28	47.44726	-122.3057	231.853	231.7237	4.685751	25.54	28.67315	100	0	83	14.93159	-0.0004392918	1.675241	
13:11:30	47.44766	-122.3058	232.853	232.464	31.74312	25.28	29.14602	100	0	81	9.788044	0.2169169	8.939207	
13:11:31	47.44799	-122.3057	233.922	233.6442	43.74825	25.06	29.20684	100	0	83	3.584121	0.1262835	13.04591	
13:11:33	47.44839	-122.3056	235.48	235.1694	63.65542	24.96	29.22711	100	0	83	-0.9067103	0.2388095	14.49289	
13:11:35	47.44875	-122.3054	237.022	236.7778	71.38264	24.87	29.1699	100	0	83	-2.660667	0.1932072	13.95309	
13:11:36	47.44915	-122.3053	238.82	238.5108	87.63309	24.79	29.10166	100	0	83	-2.933508	0.3090498	13.00243	
13:11:38	47.44952	-122.3052	240.616	240.2619	96.54095	24.71	29.03724	100	0	83	-8.881408	0.4864224	11.96184	
13:11:40	47.44992	-122.3051	240.832	240.9607	-9.030705	25.71	29.46372	100	0	83	-45.81178	0.9396486	-9.908972	
13:11:41	47.45023	-122.3054	238.985	239.8399	-48.52049	28.15	30.91964	100	0	83	-45.69838	1.241389	-41.17971	
13:11:43	47.45043	-122.3059	236.44	236.8071	-153.4169	30.96	31.49624	100	0	83	-45.18251	0.8248945	-69.41293	
13:11:45	47.45043	-122.3067	233.307	233.3073	-186.8043	33.93	32.38268	100	0	83	-44.14853	1.082036	-97.08194	
13:11:46	47.45023	-122.3074	231.744	231.1707	-122.3697	35.28	32.5398	100	0	81	-14.15651	0.8822031	-114.1917	
13:11:48	47.4499	-122.3081	230.899	230.2338	-98.8017	35.04	32.08928	100	0	81	15.59945	-0.8642157	-109.8721	
13:11:50	47.44965	-122.3088	230.756	230.4603	35.76835	34.17	31.64649	100	0	83	16.85854	-0.2142442	-98.08346	
13:11:52	47.44952	-122.3095	231.616	231.6483	76.02163	33.34	31.2148	100	0	83	10.30957	-0.2925066	-89.98608	
13:11:53	47.44943	-122.3102	232.568	232.7943	89.17524	32.5	31.01244	100	0	81	4.475879	-0.1411506	-85.41886	
13:11:55	47.44939	-122.311	234.194	234.1107	88.88788	31.77	30.30357	100	0	81	0.04410011	0.01342239	-83.53573	
13:11:57	47.44936	-122.3117	235.981	235.7135	99.964	31.39	29.75858	100	0	81	-1.960759	0.2398214	-84.08146	
13:11:58	47.44934	-122.3123	238.285	237.6895	26.0566	31.37	29.30564	100	0	81	-42.95625	-0.7680626	-91.55714	
13:12:00	47.44918	-122.313	240.258	239.9089	167.2691	33.26	28.65975	100	0	81	-46.41704	0.2736202	-125.8799	
13:12:02	47.44878	-122.3135	243.884	243.5894	239.9657	33.9	28.90658	100	0	81	-45.86917	0.2110268	-160.3255	
13:12:03	47.44832	-122.3137	246.931	247.5218	315.0016	33.46	29.62326	100	0	81	-31.53557	0.8433619	167.2537	
13:12:05	47.44779	-122.3135	250.539	251.0512	262.0304	32.73	30.32897	100	0	83	9.623597	-0.03896002	156.7213	
13:12:07	47.44733	-122.3134	253.847	253.7343	126.7955	32.8	30.35844	100	0	81	-29.82292	-0.418063	154.8702	
13:12:09	47.44686	-122.3131	255.734	255.8738	167.2042	31.95	30.01413	100	0	81	-20.15162	0.1947034	134.7835	
13:12:10	47.4465	-122.3127	257.617	258.0734	146.7031	31.61	30.56209	100	0	83	5.652701	-0.1017928	129.7913	
13:12:12	47.44611	-122.3123	259.868	259.8499	119.2686	31.99	30.22961	100	0	83	14.76453	0.2945803	136.2883	
13:12:14	47.44567	-122.3119	262.871	262.2779	120.0775	32.48	29.14017	100	0	83	12.03364	0.4769806	145.2827	
13:12:15	47.44521	-122.3116	266.154	265.4457	135.6551	32.73	28.95157	100	0	83	6.433856	0.4360584	151.9163	
13:12:17	47.44474	-122.3113	268.537	267.9378	41.47232	32.24	29.0067	100	0	81	-45.45903	-0.2411696	137.8218	
13:12:19	47.44443	-122.3109	269.478	269.6699	98.37561	30.14	29.7703	100	0	81	-46.11882	0.6566088	105.0121	
13:12:20	47.44431	-122.3102	269.625	270.0615	-66.13349	27.64	30.13847	100	0	83	-42.92112	-2.320124	65.94362	
13:12:22	47.4444	-122.3098	266.857	268.2711	-30.43874	22.43	26.73869	100	0	83	-31.325	1.895319	38.77872	
13:12:24	47.44459	-122.3095	263.93	264.2382	-184.2209	21.07	26.39827	100	0	83	-6.1373	-0.6050719	29.45037	
13:12:26	47.44491	-122.3091	259.857	260.1979	-175.9941	20.85	28.172	100	0	83	3.215754	-0.388486	29.15315	
13:12:27	47.44518	-122.3089	258.201	257.8189	-136.7837	20.7	29.45277	100	0	81	15.74469	-0.2775024	35.15604	
13:12:29	47.44537	-122.3085	258.02	257.2357	-64.63666	21.12	29.86	100	0	81	15.66522	-0.2367852	45.09818	
13:12:31	47.44552	-122.3081	258.86	258.2394	17.07169	21.91	29.00121	100	0	83	11.99133	-0.1743782	53.98207	
13:12:32	47.44562	-122.3076	260.385	259.9573	76.84524	22.73	28.99348	100	0	83	5.203693	0.1562634	60.38795	
13:12:34	47.44569	-122.3071	262.246	261.9789	86.95295	22.95	28.9759	100	0	83	-0.5889764	0.1705807	63.32738	
13:12:36	47.44573	-122.3066	263.765	263.7016	84.17577	22.81	28.88902	100	0	83	-3.286671	0.2612928	63.72606	
13:12:37	47.44579	-122.3061	265.482	265.0262	9.598608	21.17	28.81446	100	0	83	-44.51417	0.3251668	48.2594	
13:12:39	47.446	-122.3058	266.55	266.5204	102.9493	18.19	27.95616	100	0	83	-35.69714	1.514881	20.52633	
13:12:41	47.44628	-122.3058	268.146	268.0841	85.19657	18.68	28.06314	100	0	83	-16.82231	0.4563554	4.814393	
13:12:43	47.44655	-122.3058	269.745	269.5091	59.87304	18.91	28.08069	100	0	83	2.298096	-0.350782	1.108242	
13:12:44	47.44684	-122.3059	271.223	271.0031	84.5699	18.56	28.51266	100	0	83	7.113548	0.3333267	4.658403	
13:12:46	47.44712	-122.3059	272.78	272.5427	73.62392	18.27	28.78693	100	0	83	4.684949	0.3056259	8.70852	
13:12:48	47.44737	-122.3058	273.994	273.9138	60.88823	18.17	28.93826	100	0	83	1.117481	0.2141085	11.32086	
13:12:49	47.44769	-122.3058	275.418	275.1776	59.5512	18.15	29.02645	100	0	83	-1.713065	0.2627134	12.51554	
13:12:51	47.44794	-122.3057	276.582	276.3538	54.60898	18.17	29.09823	100	0	81	-3.073521	0.2407355	12.49801	
13:12:53	47.44822	-122.3056	277.82	277.5567	59.06203	18.09	29.05516	100	0	81	-3.670166	0.2948467	11.98234	
13:12:54	47.44846	-122.3055	278.884	278.7763	61.49613	18.09	29.04209	100	0	83	-3.208228	0.3032545	11.47584	
13:12:56	47.44873	-122.3054	280.142	280.0004	55.26884	18.15	29.11579	100	0	81	-3.163301	0.2160606	11.16551	
13:12:58	47.44902	-122.3053	281.279	281.1012	54.74403	18.11	29.08179	100	0	83	-3.020507	0.2076508	10.97805	
13:13:00	47.44925	-122.3052	282.228	282.203	53.50407	18.19	29.1644	100	0	83	-3.155969	0.2624763	10.82138	
13:13:01	47.44953	-122.3051	283.354	283.2506	10.62914	18.2	29.17986	100	0	81	-34.17889	0.1493923	8.113829	
13:13:03	47.44983	-122.3052	283.61	283.6019	38.61179	20.09	29.53861	100	0	83	-41.28376	0.6372594	-16.57703	
