Date	Latitude(deg) 	Longitude(deg)	hamsl(m)	hafl(m)	climbrate(cm/s)	GroundSpeed(m/s)	Airspeed(m/s)	Mav_Link(%)	Rssi_Link(%)	Throttle	Roll(deg)	Pitch(deg)	Yaw(deg)
15:18:10	0	0	0	0	0	0	0	58	0	0	1.2615	-3.572858	-52.43583	
15:18:12	0	0	0	-0.3684024	90.62746	0	3	66	0	45	1.254768	-3.545381	-52.37766	
15:18:14	0	0	0	0.4855274	66.45473	0	3	73	0	43	1.278576	-3.42688	-52.29809	
15:18:15	0	0	0	0.286757	19.76478	0	3	78	0	41	1.239621	-3.494782	-52.22932	
15:18:17	0	0	0	-0.2624323	-13.88515	0	3	81	0	39	1.271572	-3.362649	-52.19243	
15:18:19	0	0	0	-0.4799289	-14.10646	0	3	84	0	37	1.240304	-3.297048	-52.145	
15:18:20	0	0	0	-0.5511	-11.45192	0	3	86	0	35	1.21454	-3.227208	-52.12691	
15:18:22	0	0	0	-0.3789244	3.412914	0	3	88	0	33	1.238953	-3.246604	-52.07332	
15:18:24	0	0	0	-0.02817637	12.61309	0	3	89	0	31	1.272322	-3.186469	-52.02508	
15:18:26	0	0	0	-0.06735314	3.969082	0	3	90	0	29	1.288224	-3.084025	-51.99032	
15:18:27	0	0	0	-0.02109294	1.823882	0	3	91	0	28	1.286087	-3.170584	-52.00858	
15:18:29	0	0	0	-0.1347715	-3.842002	0	3	92	0	25	1.307795	-3.152927	-52.04059	
15:18:31	0	0	0	-0.1234713	-1.848001	0	3	93	0	24	1.316366	-3.145839	-52.03164	
15:18:32	0	0	0	0.2857564	14.41126	0	3	94	0	22	1.323332	-3.201431	-52.0151	
15:18:34	0	0	0	0.1014219	-1.925357	0	3	94	0	20	1.290117	-3.205268	-51.98663	
15:18:36	0	0	0	0.218001	1.8067	0	3	95	0	18	1.289179	-3.108016	-51.9675	
15:18:38	0	0	0	-0.01664366	-9.227624	0	3	95	0	16	1.236298	-3.161932	-51.98396	
15:18:39	0	0	0	-0.09948982	-5.768634	0	3	95	0	14	1.249382	-3.12332	-51.96616	
15:18:41	0	0	0	-0.04677178	-0.7923229	0	3	96	0	14	1.268472	-2.994059	-51.94186	
15:18:43	0	0	0	-0.07608866	-0.1325982	0	3	96	0	14	1.219506	-3.023688	-51.95822	
15:18:44	0	0	0	-0.2512337	-6.560821	0	3	96	0	14	1.230698	-3.02258	-51.9555	
15:18:46	0	0	0	-0.1061371	2.301243	0	3	97	0	14	1.265889	-2.939435	-51.95184	
15:18:48	0	0	0	-0.1093605	2.493199	0	3	97	0	14	1.271601	-2.943175	-51.92642	
15:18:50	0	0	0	0.09058347	7.183288	0	3	97	0	14	1.230672	-2.877685	-51.93467	
15:18:51	0	0	0	-0.06726412	-2.003662	0	3	97	0	14	1.200099	-2.941397	-51.92649	
15:18:53	0	0	0	-0.08899644	-0.9441091	0	3	98	0	14	1.220251	-2.919933	-51.93208	
15:18:55	0	0	0	-0.1023924	-2.213653	0	3	98	0	14	1.24485	-2.8622	-51.93073	
15:18:56	0	0	0	-0.2316153	-5.876681	0	3	98	0	14	1.275852	-2.848604	-51.94389	
15:18:58	0	0	0	-0.2529137	-5.217495	0	3	98	0	14	1.219071	-2.907866	-51.96331	
15:19:00	0	0	0	-0.4269416	-9.801712	0	3	98	0	14	1.273101	-2.718988	-51.95385	
15:19:02	0	0	0	-0.5296903	-5.775763	0	3	98	0	14	1.313933	-2.75021	-52.02878	
15:19:03	0	0	0	-0.4446918	0.7703879	0	3	98	0	14	1.321265	-2.792678	-52.03807	
15:19:05	0	0	0	-0.4624846	0.45511	0	3	98	0	14	1.285241	-2.754406	-52.0211	
15:19:07	0	0	0	-0.3517852	6.245575	0	3	98	0	14	1.226809	-2.828062	-51.98891	
15:19:08	0	0	0	-0.4618468	0.407075	0	3	99	0	14	1.253424	-2.892523	-51.94084	
15:19:10	0	0	0	-0.2198645	9.413327	0	3	99	0	14	1.253717	-2.834607	-51.80561	
15:19:12	0	0	0	-0.3641593	-2.242324	0	3	99	0	14	1.261126	-3.027995	-51.66869	
15:19:13	0	0	0	-0.488631	-4.497455	0	3	99	0	14	1.289867	-3.08567	-51.57435	
15:19:15	0	0	0	-0.2631308	6.96777	0	3	99	0	14	1.257884	-3.030919	-51.41969	
15:19:17	0	0	0	-0.2437117	3.640121	0	3	99	0	14	1.229806	-2.932083	-51.313	
15:19:19	0	0	0	-0.2827173	-1.690862	0	3	99	0	14	1.23112	-3.012143	-51.28737	
15:19:20	0	0	0	-0.4207794	-25.84403	0	3	99	0	14	1.892334	-2.902143	-51.08791	
15:19:22	0	0	0	-0.5548059	-2.058282	0	3	99	0	14	2.007955	-2.858009	-50.73779	
15:19:24	0	0	0	-0.1239068	18.2852	0	3	99	0	14	1.896352	-2.910469	-50.71128	
15:19:26	0	0	0	0.06888659	12.92724	0	3	99	0	14	1.840644	-2.842108	-50.71503	
15:19:27	0	0	0	0.01746832	5.117502	0	3	99	0	14	1.786296	-2.817792	-50.74987	
15:19:29	0	0	0	-0.03586768	1.887399	0	3	99	0	14	1.70134	-2.787633	-50.75432	
15:19:31	0	0	0	0.1053286	7.841497	0	3	99	0	14	1.680805	-2.892119	-50.76959	
15:19:32	0	0	0	0.2685648	10.21776	0	3	99	0	14	1.655678	-2.905216	-50.72857	
15:19:34	0	0	0	0.4181607	12.399	0	3	99	0	14	1.654662	-2.916296	-50.72815	
15:19:36	0	0	0	0.3024526	2.561488	0	3	99	0	14	1.641802	-3.003185	-50.7921	
15:19:38	0	0	0	0.0900439	-4.598325	0	3	99	0	14	1.674297	-3.005249	-50.77983	
15:19:39	0	0	0	0.1282766	1.044207	0	3	99	0	14	1.630863	-3.023591	-50.73352	
15:19:41	0	0	0	-0.0565537	-5.317662	0	3	99	0	14	1.618985	-3.042324	-50.69457	
15:19:43	0	0	0	0.1327067	6.574715	0	3	99	0	14	1.659231	-2.90504	-50.67131	
15:19:44	0	0	0	0.3023289	9.158227	0	3	99	0	14	1.691785	-2.831212	-50.71228	
15:19:46	0	0	0	0.2547148	1.279874	0	3	99	0	14	1.720164	-2.971978	-50.75629	
15:19:48	0	0	0	0.2361885	0.548337	0	3	99	0	14	1.642588	-3.045219	-50.76293	
15:19:49	0	0	0	0.1257827	-3.365421	0	3	99	0	14	1.663796	-3.145291	-50.72684	
15:19:51	0	0	0	0.1392917	-0.02945387	0	3	99	0	14	1.670962	-3.004843	-50.73359	
15:19:53	0	0	0	0.0807508	-4.064483	0	3	99	0	14	1.627768	-2.926669	-50.76327	
15:19:55	0	0	0	-0.1313644	-10.21798	0	3	99	0	14	1.640718	-2.790533	-50.77361	
15:19:56	0	0	0	-0.131584	-2.112725	0	3	99	0	14	1.621079	-2.814084	-50.78683	
15:19:58	0	0	0	-0.1553092	-0.2558738	0	3	99	0	14	1.676575	-2.800957	-50.81631	
15:20:00	0	0	0	-0.1530512	-0.2044042	0	3	99	0	14	1.696	-2.866723	-50.84591	
15:20:01	0	0	0	-0.2578955	-4.409372	0	3	99	0	14	1.663017	-2.84974	-50.79889	
15:20:03	0	0	0	-0.3464183	-4.490522	0	3	99	0	14	1.618037	-2.886319	-50.74912	
15:20:05	0	0	0	-0.5747035	-8.278511	0	3	99	0	14	1.573719	-2.905447	-50.74463	
15:20:07	0	0	0	-0.3782125	2.137514	0	3	99	0	14	1.554468	-3.000969	-50.7006	
15:20:08	0	0	0	-0.2697624	4.584833	0	3	99	0	14	1.54931	-3.026239	-50.67259	
15:20:10	0	0	0	-0.3241897	-1.851852	0	3	99	0	14	1.561416	-3.154197	-50.66385	
15:20:12	0	0	0	-0.3346023	-0.9608259	0	3	99	0	14	1.518896	-3.168861	-50.62349	
15:20:13	0	0	0	-0.4003192	-2.523351	0	3	99	0	14	1.551353	-3.05239	-50.61065	
15:20:15	0	0	0	-0.191883	5.981583	0	3	99	0	14	1.600098	-2.858899	-50.62365	
15:20:17	0	0	0	0.02552401	9.579304	0	3	99	0	14	1.639456	-2.878327	-50.65504	
15:20:19	0	0	0	-0.05877263	1.143932	0	3	99	0	14	1.669847	-2.96411	-50.68734	
15:20:20	0	0	0	-0.08872883	0.3679912	0	3	99	0	14	1.651139	-3.03477	-50.64215	
15:20:22	0	0	0	-0.1906271	-4.636152	0	3	99	0	14	1.61524	-3.024203	-50.64495	
15:20:24	0	0	0	-0.1993297	-2.688045	0	3	99	0	14	1.616212	-3.00701	-50.64676	
15:20:25	0	0	0	-0.09646168	3.416885	0	3	99	0	14	1.596215	-2.995577	-50.63504	
15:20:27	0	0	0	-0.182763	0.2122049	0	3	99	0	14	1.577476	-3.055227	-50.64156	
15:20:29	0	0	0	-0.1498724	1.923371	0	3	99	0	14	1.563519	-3.151105	-50.63481	
15:20:31	0	0	0	-0.108243	1.326328	0	3	99	0	14	1.632779	-3.050879	-50.61911	
15:20:32	0	0	0	-0.276455	-4.625613	0	3	99	0	14	1.67822	-2.958117	-50.58286	
15:20:34	0	0	0	-0.2733823	-0.8662853	0	3	99	0	14	1.611137	-2.919589	-50.61858	
15:20:36	0	0	0	-0.514005	-7.645525	0	3	99	0	14	1.668807	-2.954526	-50.62891	
15:20:37	0	0	0	-0.4728615	-2.566969	0	3	99	0	14	1.656168	-2.923482	-50.63779	
15:20:39	0	0	0	-0.2756854	6.307645	0	3	99	0	14	1.703969	-2.96096	-50.62024	
15:20:41	0	0	0	-0.1129845	9.782829	0	3	99	0	14	1.666782	-3.05759	-50.61935	
15:20:43	0	0	0	-0.1469219	3.124115	0	3	99	0	14	1.727164	-2.982524	-50.60344	
15:20:44	0	0	0	-0.1536425	0.07177836	0	3	99	0	14	1.698821	-2.914482	-50.58945	
15:20:46	0	0	0	0.06087973	8.025529	0	3	99	0	14	1.714993	-2.807326	-50.61239	
15:20:48	0	0	0	0.02612156	2.223526	0	3	99	0	14	1.736414	-2.767029	-50.65296	
15:20:49	0	0	0	-0.1492687	-6.386015	0	3	99	0	14	1.743256	-2.993606	-50.6939	
15:20:51	0	0	0	-0.03443463	3.763685	0	3	99	0	14	1.750829	-3.006769	-50.70613	
15:20:53	0	0	0	-0.1241358	-3.131288	0	3	99	0	14	1.720018	-2.984995	-50.7306	
15:20:54	0	0	0	-0.3805701	-11.04129	0	3	99	0	14	1.66563	-3.033539	-50.67089	
15:20:56	0	0	0	-0.66659	-15.51218	0	3	99	0	14	1.620132	-3.028609	-50.65608	
15:20:58	0	0	0	-0.3607273	5.675658	0	3	99	0	14	1.547482	-3.019464	-50.62043	
15:21:00	0	0	0	-0.4447998	-3.074706	0	3	99	0	14	1.594112	-2.984649	-50.62337	
15:21:01	0	0	0	-0.3166896	4.888316	0	3	99	0	14	1.610153	-2.995666	-50.61016	
15:21:03	0	0	0	-0.1383093	8.638119	0	3	99	0	14	1.605495	-3.029932	-50.61701	
15:21:05	0	0	0	-0.1889791	1.948175	0	3	99	0	14	1.592336	-3.036178	-50.61372	
15:21:06	0	0	0	-0.3931499	-7.007114	0	3	99	0	14	1.592788	-3.008659	-50.56569	
15:21:08	0	0	0	-0.589769	-10.5308	0	3	99	0	14	1.628184	-2.915631	-50.60072	
15:21:10	0	0	0	-0.6200334	-0.4577995	0	3	99	0	14	1.722167	-2.925577	-50.61284	
15:21:12	0	0	0	-0.05388385	19.88471	0	3	99	0	14	1.778866	-2.921849	-50.62278	
15:21:13	0	0	0	0.03689455	9.599087	0	3	99	0	14	1.745399	-2.860984	-50.64875	
15:21:15	0	0	0	-0.08321253	-0.5098886	0	3	99	0	14	1.745146	-2.885134	-50.6894	
15:21:17	0	0	0	-0.1109943	0.1533962	0	3	99	0	14	1.683241	-2.992259	-50.71628	
15:21:18	0	0	0	-0.3019944	-8.132681	0	3	99	0	14	1.720798	-2.961053	-50.66404	
15:21:20	0	0	0	-0.5989066	-14.5509	0	3	99	0	14	1.753134	-2.758113	-50.64825	
15:21:22	0	0	0	-0.3170145	2.496995	0	3	99	0	14	1.693572	-2.745677	-50.66685	
15:21:24	0	0	0	-0.0961415	9.22541	0	3	99	0	14	1.696485	-2.754351	-50.68967	
15:21:25	0	0	0	-0.1292767	2.28484	0	3	99	0	14	1.700863	-2.766831	-50.71406	
15:21:27	0	0	0	-0.1851507	-0.6295694	0	3	99	0	14	1.691421	-2.920564	-50.72763	
15:21:29	0	0	0	-0.3608061	-5.79447	0	3	99	0	14	1.6873	-2.870596	-50.7023	
15:21:30	0	0	0	-0.3194129	0.04698595	0	3	99	0	14	1.729687	-2.896173	-50.71825	
15:21:32	0	0	0	-0.315325	-0.09014612	0	3	99	0	14	1.715579	-2.900486	-50.73782	
15:21:34	0	0	0	-0.2328928	3.615787	0	3	99	0	14	1.704658	-2.855517	-50.73291	
15:21:36	0	0	0	-0.1717115	1.108471	0	3	99	0	14	1.682715	-2.935916	-50.72749	
15:21:37	0	0	0	-0.09918781	3.304639	0	3	99	0	14	1.623751	-2.959693	-50.7021	
15:21:39	0	0	0	0.03059003	6.190713	0	3	99	0	14	1.581247	-3.004633	-50.67672	
15:21:41	0	0	0	-0.083689	-1.752773	0	3	99	0	14	1.58514	-2.953543	-50.67169	
15:21:42	0	0	0	-0.1508424	-2.224206	0	3	99	0	14	1.595638	-3.098785	-50.59515	
15:21:44	0	0	0	-0.1030048	1.798101	0	3	99	0	14	1.621715	-3.001257	-50.61023	
15:21:46	0	0	0	0.09216104	4.790977	0	3	99	0	14	1.58502	-2.999261	-50.62735	
15:21:47	0	0	0	-0.124486	-9.549696	0	3	99	0	14	1.581263	-3.029931	-50.57886	
15:21:49	0	0	0	-0.4255762	-13.1753	0	3	99	0	14	1.60582	-3.061029	-50.58941	
15:21:51	0	0	0	-0.1370457	4.697153	0	3	99	0	14	1.617384	-3.073712	-50.58178	
15:21:53	0	0	0	-0.1590825	0.4136978	0	3	99	0	14	1.689418	-2.872917	-50.56262	
15:21:54	0	0	0	-0.3328412	-5.929486	0	3	99	0	14	1.665637	-2.897127	-50.55641	
15:21:56	0	0	0	-0.215789	3.274369	0	3	99	0	14	1.661003	-2.834307	-50.58399	
15:21:58	0	0	0	-0.1589558	2.119407	0	3	99	0	14	1.699949	-2.920135	-50.63547	
15:21:59	0	0	0	-0.06207842	3.805283	0	3	99	0	14	1.736928	-2.811696	-50.62442	
15:22:01	0	0	0	-0.01539923	2.150794	0	3	99	0	14	1.79256	-2.692321	-50.65588	
15:22:03	0	0	0	-0.1105507	-2.630219	0	3	99	0	14	1.791336	-2.637028	-50.69505	
15:22:05	0	0	0	-0.3423682	-9.403471	0	3	99	0	14	1.831886	-2.750682	-50.74891	
15:22:06	0	0	0	-0.285334	0.08762091	0	3	99	0	14	1.778123	-2.717152	-50.75577	
15:22:08	0	0	0	-0.2367787	2.135643	0	3	99	0	14	1.707682	-2.796473	-50.74603	
15:22:10	0	0	0	-0.04679894	7.075239	0	3	99	0	14	1.655841	-2.961046	-50.74623	
15:22:11	0	0	0	-0.2727561	-5.669097	0	3	99	0	14	1.626032	-2.904888	-50.72468	
15:22:13	0	0	0	-0.2041574	2.934553	0	3	99	0	14	1.689827	-2.960416	-50.7253	
15:22:15	0	0	0	0.06513016	12.23026	0	3	99	0	14	1.647085	-2.942252	-50.69682	
15:22:17	0	0	0	-0.2099483	-8.769973	0	3	99	0	14	1.593602	-2.973397	-50.68668	
15:22:18	0	0	0	-0.4667473	-14.12968	0	3	99	0	14	1.588655	-2.935055	-50.67054	
15:22:20	0	0	0	-0.6249997	-7.460463	0	3	99	0	14	1.643656	-2.91486	-50.62989	
15:22:22	0	0	0	-0.4528259	-1.47961	0	3	99	0	14	1.624858	-2.98572	-50.63132	
15:22:23	0	0	0	-0.4656707	0.4650427	0	3	99	0	14	1.657706	-2.998752	-50.63081	
15:22:25	0	0	0	-0.179805	9.358974	0	3	99	0	14	1.620588	-3.039708	-50.59969	
15:22:27	0	0	0	-0.1275932	6.78955	0	3	99	0	14	1.636752	-2.965743	-50.61087	
15:22:29	0	0	0	-0.319881	-3.687864	0	3	99	0	14	1.620545	-3.018152	-50.5906	
15:22:30	0	0	0	-0.3664642	-2.374616	0	3	99	0	14	1.622519	-3.06572	-50.60239	
15:22:32	0	0	0	-0.1215082	9.326499	0	3	99	0	14	1.632475	-3.043218	-50.56145	
15:22:34	0	0	0	0.225193	15.94197	0	3	99	0	14	1.61841	-3.012461	-50.5447	
15:22:35	0	0	0	0.2185942	5.054831	0	3	99	0	14	1.661067	-2.946568	-50.53558	
15:22:37	0	0	0	0.1410109	0.03238172	0	3	99	0	14	1.658126	-2.963826	-50.54849	
15:22:39	0	0	0	0.1139079	-0.6836466	0	3	99	0	14	1.72078	-2.944159	-50.57978	
15:22:40	0	0	0	0.2384636	0.09103038	0	3	99	0	14	1.715981	-2.963455	-50.58741	
15:22:42	0	0	0	0.3100163	2.19493	0	3	99	0	14	1.666287	-2.898314	-50.59793	
15:22:44	0	0	0	0.01718083	-9.345802	0	3	99	0	14	1.646393	-2.905822	-50.64812	
15:22:46	0	0	0	0.02641856	-1.840003	0	3	99	0	14	1.682728	-2.919027	-50.68488	
15:22:47	0	0	0	0.2079015	3.559896	0	3	99	0	14	1.660776	-2.965152	-50.64225	
15:22:49	0	0	0	-0.2142148	-13.89485	0	3	99	0	14	1.625536	-2.98183	-50.66211	
15:22:51	0	0	0	-0.5227229	-16.464	0	3	99	0	14	1.63407	-3.074641	-50.67582	
15:22:52	0	0	0	-0.5635843	-7.384896	0	3	99	0	14	1.70486	-2.950902	-50.65237	
15:22:54	0	0	0	-0.3203319	4.751008	0	3	99	0	14	1.691247	-2.967739	-50.64992	
15:22:56	0	0	0	-0.2125862	8.481941	0	3	99	0	14	1.614665	-3.027342	-50.61902	
15:22:58	0	0	0	-0.1422561	4.873	0	3	99	0	14	1.625378	-2.972975	-50.61761	
15:22:59	0	0	0	-0.691384	-16.7193	0	3	99	0	14	1.663771	-2.930534	-50.62794	
15:23:01	0	0	0	-0.3419709	8.349682	0	3	99	0	14	1.67326	-2.972758	-50.62444	
15:23:03	0	0	0	-0.2872989	4.818961	0	3	99	0	14	1.65096	-3.032703	-50.62421	
15:23:04	0	0	0	-0.4453184	-4.689487	0	3	99	0	14	1.585314	-3.064252	-50.54757	
15:23:06	0	0	0	-0.5370263	-5.055085	0	3	99	0	14	1.614972	-2.975436	-50.53016	
15:23:08	0	0	0	-0.5124348	-0.9034712	0	3	99	0	14	1.673913	-2.950578	-50.54141	
15:23:10	0	0	0	-0.6128131	-4.724833	0	3	99	0	14	1.735034	-2.875758	-50.55254	
15:23:11	0	0	0	-0.7330827	-5.934095	0	3	99	0	14	1.735029	-2.911136	-50.59493	
15:23:13	0	0	0	-0.6108367	0.1234078	0	3	99	0	14	1.807074	-2.92357	-50.64454	
15:23:15	0	0	0	-0.7567413	-4.604286	0	3	99	0	14	1.811913	-2.966178	-50.66314	
15:23:16	0	0	0	-0.4798068	11.22822	0	3	99	0	14	1.874713	-2.779658	-50.70206	
15:23:18	0	0	0	-0.4740106	4.461241	0	3	99	0	14	1.807889	-2.753555	-50.75277	
15:23:20	0	0	0	-0.4216882	3.08104	0	3	99	0	14	1.763721	-2.788407	-50.78548	
15:23:22	0	0	0	-0.25777	8.429768	0	3	99	0	14	1.780664	-2.759957	-50.77772	
15:23:23	0	0	0	-0.1853146	7.160118	0	3	99	0	14	1.815693	-2.767001	-50.80057	
15:23:25	0	0	0	-0.1932983	4.262018	0	3	99	0	14	1.739457	-2.868689	-50.81233	
15:23:27	0	0	0	-0.1522384	3.435415	0	3	99	0	14	1.689063	-2.943269	-50.83094	
15:23:28	0	0	0	-0.04867654	4.924096	0	3	99	0	14	1.68874	-2.995163	-50.84776	
15:23:30	0	0	0	0.07799106	5.838523	0	3	99	0	14	1.64574	-3.024543	-50.7733	
15:23:32	0	0	0	0.1940245	5.993484	0	3	99	0	14	1.656316	-2.921002	-50.74578	
15:23:34	0	0	0	0.2436981	4.035761	0	3	99	0	14	1.662539	-2.890875	-50.71822	
15:23:35	0	0	0	0.09185362	-4.644484	0	3	99	0	14	1.669421	-2.974233	-50.69311	
15:23:37	0	0	0	-0.0008752993	-6.14797	0	3	99	0	14	1.641503	-3.060595	-50.68426	
15:23:39	0	0	0	0.1437688	3.659722	0	3	99	0	14	1.661132	-3.005655	-50.61422	
15:23:40	0	0	0	0.02404375	-4.282012	0	3	99	0	14	1.673977	-3.104401	-50.57858	
15:23:42	0	0	0	0.02410913	-0.7232945	0	3	99	0	14	1.65117	-3.039721	-50.55158	
15:23:44	0	0	0	0.06015457	-0.3685826	0	3	99	0	14	1.633139	-3.0255	-50.5433	
15:23:46	0	0	0	9.90706E-05	-0.5305638	0	3	99	0	14	1.657924	-3.050271	-50.53896	
15:23:47	0	0	0	-0.2032911	-9.757198	0	3	99	0	14	1.660445	-3.051024	-50.53418	
15:23:49	0	0	0	0.1571494	11.62966	0	3	100	0	14	1.651945	-3.150677	-50.54984	
15:23:51	0	0	0	0.4792247	15.58932	0	3	100	0	14	1.631832	-3.158231	-50.51485	
15:23:52	0	0	0	0.3123814	1.312397	0	3	100	0	14	1.609543	-3.191613	-50.48316	
15:23:54	0	0	0	0.1377016	-5.447518	0	3	100	0	14	1.687367	-3.03769	-50.4892	
15:23:56	0	0	0	0.04344749	-6.578822	0	3	100	0	14	1.670131	-3.077003	-50.51195	
15:23:58	0	0	0	-0.08077929	-10.00107	0	3	100	0	14	1.661766	-2.980195	-50.53227	
15:23:59	0	0	0	-0.3590543	-14.87412	0	3	100	0	14	1.637426	-2.957152	-50.50465	
15:24:01	0	0	0	-0.3557334	-5.246397	0	3	100	0	14	1.645408	-3.032882	-50.54797	
15:24:03	0	0	0	-0.2678388	1.245736	0	3	100	0	14	1.615649	-2.971011	-50.54573	
15:24:04	0	0	0	-0.2122134	2.498803	0	3	100	0	14	1.627217	-3.026489	-50.53668	
15:24:06	0	0	0	-0.3431724	-3.271807	0	3	100	0	14	1.652657	-2.969022	-50.52288	
15:24:08	0	0	0	-0.2345626	3.210023	0	3	100	0	14	1.650869	-3.001886	-50.50756	
15:24:09	0	0	0	-0.209025	3.138012	0	3	100	0	14	1.61762	-3.058021	-50.54354	
15:24:11	0	0	0	-0.236121	2.206342	0	3	100	0	14	1.590302	-3.027191	-50.54435	
15:24:13	0	0	0	-0.1903106	1.574728	0	3	100	0	14	1.599513	-2.87189	-50.53096	
15:24:15	0	0	0	-0.06896535	5.94066	0	3	100	0	14	1.606511	-2.980056	-50.57147	
15:24:16	0	0	0	0.01713239	5.297665	0	3	100	0	14	1.641767	-2.861501	-50.5415	
15:24:18	0	0	0	0.03321406	2.967571	0	3	100	0	14	1.579452	-2.874086	-50.54419	
15:24:20	0	0	0	-0.07005744	-3.009876	0	3	100	0	14	1.579749	-2.847658	-50.55412	
15:24:21	0	0	0	0.02684619	2.113358	0	3	100	0	14	1.555598	-2.914799	-50.57434	
15:24:23	0	0	0	-0.02298017	1.627593	0	3	100	0	14	1.597019	-2.910033	-50.57671	
15:24:25	0	0	0	-0.1504861	-6.158786	0	3	100	0	14	1.678136	-2.775291	-50.56041	
15:24:27	0	0	0	-0.3520042	-7.984176	0	3	100	0	14	1.71809	-2.920729	-50.58431	
15:24:28	0	0	0	-0.3266304	-2.572995	0	3	100	0	14	1.693512	-2.977071	-50.59095	
15:24:30	0	0	0	-0.2075532	4.280331	0	3	100	0	14	1.685242	-2.991745	-50.58574	
15:24:32	0	0	0	-0.1897771	-0.1516623	0	3	100	0	14	1.654675	-2.930809	-50.61282	
15:24:33	0	0	0	-0.5068816	-10.92833	0	3	100	0	14	1.6577	-2.909476	-50.6198	
15:24:35	0	0	0	-0.3348686	1.856491	0	3	100	0	14	1.670977	-2.876412	-50.64871	
15:24:37	0	0	0	-0.1244725	8.243944	0	3	100	0	14	1.703022	-2.744155	-50.6722	
15:24:39	0	0	0	0.06559458	10.27859	0	3	100	0	14	1.767281	-2.781575	-50.68612	
15:24:40	0	0	0	0.1683265	9.105756	0	3	100	0	14	1.758511	-2.726825	-50.69962	
15:24:42	0	0	0	-0.05766667	-8.614161	0	3	100	0	14	1.747407	-2.736891	-50.68759	
15:24:44	0	0	0	-0.3485651	-13.75921	0	3	100	0	14	1.733192	-2.847047	-50.67551	
15:24:45	0	0	0	-0.5644081	-12.56071	0	3	100	0	14	1.769085	-2.847752	-50.66747	
15:24:47	0	0	0	-0.3839119	1.560968	0	3	100	0	14	1.710898	-2.871464	-50.6861	
15:24:49	0	0	0	-0.4575472	-3.46461	0	3	100	0	14	1.721592	-3.003326	-50.65396	
15:24:50	0	0	0	-0.2926612	4.665672	0	3	100	0	14	1.702271	-3.00494	-50.66444	
15:24:52	0	0	0	0.008404731	12.81506	0	3	100	0	14	1.657817	-2.984407	-50.63844	
15:24:54	0	0	0	-0.03231679	4.276611	0	3	100	0	14	1.670519	-3.063753	-50.61256	
15:24:56	0	0	0	-0.01843903	2.907886	0	3	100	0	14	1.650784	-3.075966	-50.59389	
15:24:57	0	0	0	0.1106265	5.926806	0	3	100	0	14	1.66453	-3.008972	-50.59845	
15:24:59	0	0	0	0.02196725	-1.815671	0	3	100	0	14	1.680544	-3.196949	-50.58385	
15:25:01	0	0	0	-0.2976779	-10.98192	0	3	100	0	14	1.656025	-3.153924	-50.55279	
15:25:02	0	0	0	-0.1893646	-0.836678	0	3	100	0	14	1.692072	-3.059298	-50.5156	
15:25:04	0	0	0	-0.2052925	-2.282237	0	3	100	0	14	1.689277	-3.056299	-50.5106	
15:25:06	0	0	0	-0.04310546	5.446153	0	3	100	0	14	1.660367	-3.070364	-50.49686	
15:25:08	0	0	0	0.08278413	5.156809	0	3	100	0	14	1.66823	-2.903127	-50.48067	
15:25:09	0	0	0	-0.1577272	-7.81602	0	3	100	0	14	1.691652	-2.774273	-50.54513	
15:25:11	0	0	0	0.001338625	3.612716	0	3	100	0	14	1.681399	-2.802175	-50.57453	
15:25:13	0	0	0	-0.02021774	1.945068	0	3	100	0	14	1.715488	-2.804161	-50.60893	
15:25:14	0	0	0	0.2092077	7.676529	0	3	100	0	14	1.655663	-2.85975	-50.62195	
15:25:16	0	0	0	0.1628718	0.1614535	0	3	100	0	14	1.56834	-2.908729	-50.63668	
15:25:18	0	0	0	0.1357656	0.1346403	0	3	100	0	14	1.587693	-2.911996	-50.60883	
15:25:20	0	0	0	0.1409733	-2.092446	0	3	100	0	14	1.571425	-3.014935	-50.61106	
15:25:21	0	0	0	-0.08599465	-9.374702	0	3	100	0	14	1.544275	-2.986608	-50.56149	
15:25:23	0	0	0	-0.0880346	-5.661782	0	3	100	0	14	1.570092	-3.144876	-50.56258	
15:25:25	0	0	0	-0.1427894	-5.58977	0	3	100	0	14	1.602511	-3.155863	-50.5699	
15:25:27	0	0	0	-0.1482994	-2.420554	0	3	100	0	14	1.615441	-3.198499	-50.5281	
15:25:28	0	0	0	-0.08136232	1.608031	0	3	100	0	14	1.665453	-3.213946	-50.51604	
15:25:30	0	0	0	-0.1387585	-0.4495206	0	3	100	0	14	1.668569	-3.125573	-50.48383	
15:25:32	0	0	0	-0.4137563	-9.538916	0	3	100	0	14	1.738376	-3.161711	-50.48375	
15:25:33	0	0	0	-0.4893699	-6.29578	0	3	100	0	14	1.733819	-3.043222	-50.49981	
15:25:35	0	0	0	-0.7396291	-11.4663	0	3	100	0	14	1.673515	-3.114549	-50.53519	
15:25:37	0	0	0	-0.4156759	6.688972	0	3	100	0	14	1.716248	-3.024491	-50.52066	
15:25:38	0	0	0	-0.193635	10.48177	0	3	100	0	14	1.700257	-3.103858	-50.55811	
15:25:40	0	0	0	-0.2018033	5.05231	0	3	100	0	14	1.700586	-2.998976	-50.54897	
15:25:42	0	0	0	-0.2248525	0.4470106	0	3	100	0	14	1.742015	-2.900657	-50.54799	
15:25:44	0	0	0	-0.1370412	3.428236	0	3	100	0	14	1.74459	-2.920242	-50.57436	
15:25:45	0	0	0	-0.06529414	3.163463	0	3	100	0	14	1.66638	-3.029664	-50.60502	
15:25:47	0	0	0	-0.0163957	2.198379	0	3	100	0	14	1.65314	-2.998924	-50.58244	
15:25:49	0	0	0	-0.02999852	0.4609426	0	3	100	0	14	1.674273	-2.899079	-50.57968	
15:25:50	0	0	0	-0.1436466	-3.963559	0	3	100	0	14	1.694527	-2.851329	-50.6026	
15:25:52	0	0	0	-0.1801594	-2.759008	0	3	100	0	14	1.603166	-2.867493	-50.61411	
15:25:54	0	0	0	-0.1289902	2.042211	0	3	100	0	14	1.651548	-2.785408	-50.62218	
15:25:56	0	0	0	-0.2255249	-2.487265	0	3	100	0	14	1.676217	-3.005953	-50.64082	
15:25:57	0	0	0	-0.2445243	-2.951801	0	3	100	0	14	1.713492	-2.969443	-50.6227	
15:25:59	0	0	0	-0.222344	0.08999645	0	3	100	0	14	1.627919	-2.944318	-50.60721	
15:26:01	0	0	0	-0.02277151	8.007036	0	3	100	0	14	1.621955	-2.947783	-50.62079	
15:26:02	0	0	0	0.0084583	5.266149	0	3	100	0	14	1.623536	-2.939632	-50.6114	
15:26:04	0	0	0	-0.1346389	-4.74815	0	3	100	0	14	1.581833	-3.038051	-50.63233	
15:26:06	0	0	0	-0.2032468	-5.921864	0	3	100	0	14	1.597915	-3.023987	-50.56482	
15:26:08	0	0	0	-0.1724954	-1.191586	0	3	100	0	14	1.667532	-2.999409	-50.57795	
15:26:09	0	0	0	-0.0475549	4.319812	0	3	100	0	14	1.70253	-2.886807	-50.59869	
15:26:11	0	0	0	-0.05628998	1.659954	0	3	100	0	14	1.7416	-2.92483	-50.64157	
15:26:13	0	0	0	0.01682154	0.3499958	0	3	100	0	14	1.742692	-2.941722	-50.62493	
15:26:14	0	0	0	-0.3029185	-12.48881	0	3	100	0	14	1.727121	-2.927571	-50.5732	
15:26:16	0	0	0	-0.3147805	-4.682534	0	3	100	0	14	1.722991	-2.826745	-50.59372	
15:26:18	0	0	0	-0.5902035	-10.97441	0	3	100	0	14	1.725011	-2.795723	-50.63081	
15:26:20	0	0	0	-0.4136372	2.384805	0	3	100	0	14	1.663814	-2.859066	-50.64088	
15:26:21	0	0	0	-0.4733363	-3.677838	0	3	100	0	14	1.659901	-2.984118	-50.60401	
15:26:23	0	0	0	-0.5809886	-4.149897	0	3	100	0	14	1.618202	-2.965091	-50.5711	
15:26:25	0	0	0	-0.5346242	-1.425596	0	3	100	0	14	1.681275	-2.988877	-50.57627	
15:26:26	0	0	0	-0.4608819	-0.3705131	0	3	100	0	14	1.679056	-2.949705	-50.53863	
15:26:28	0	0	0	-0.4885184	-0.02896795	0	3	100	0	14	1.605072	-3.02224	-50.56355	
15:26:30	0	0	0	-0.1865961	9.134044	0	3	100	0	14	1.638547	-3.076974	-50.60303	
15:26:32	0	0	0	-0.1713718	3.06009	0	3	100	0	14	1.590209	-3.127017	-50.55931	
15:26:33	0	0	0	-0.0897877	5.992323	0	3	100	0	14	1.595516	-3.09029	-50.51913	
15:26:35	0	0	0	0.1032161	10.11268	0	3	100	0	14	1.60225	-3.037751	-50.50898	
15:26:37	0	0	0	0.1572395	6.503968	0	3	100	0	14	1.650197	-3.052851	-50.48322	
15:26:38	0	0	0	-0.008278266	-3.755997	0	3	100	0	14	1.65064	-2.985998	-50.49004	
15:26:40	0	0	0	-0.3472654	-12.52763	0	3	100	0	14	1.621145	-3.04444	-50.50858	
15:26:42	0	0	0	-0.1005928	4.51627	0	3	100	0	14	1.659154	-3.025197	-50.49054	
15:26:44	0	0	0	-0.3589071	-6.200304	0	3	100	0	14	1.638536	-2.984484	-50.501	
15:26:45	0	0	0	-0.353077	-1.780645	0	3	100	0	14	1.670543	-2.960762	-50.52224	
15:26:47	0	0	0	0.01418565	11.49204	0	3	100	0	14	1.633657	-2.952384	-50.49446	
15:26:49	0	0	0	0.02851858	3.681565	0	3	100	0	14	1.61739	-2.962596	-50.49371	
15:26:50	0	0	0	0.06199352	4.063134	0	3	100	0	14	1.646143	-2.907234	-50.50047	
15:26:52	0	0	0	0.07072354	0.3272703	0	3	100	0	14	1.636046	-2.901103	-50.52459	
15:26:54	0	0	0	-0.1316011	-8.741136	0	3	100	0	14	1.56623	-2.997544	-50.53622	
15:26:56	0	0	0	-0.177183	-5.647149	0	3	100	0	14	1.579301	-2.958076	-50.53511	
15:26:57	0	0	0	-0.3294035	-8.036577	0	3	100	0	14	1.639838	-2.875907	-50.53355	
15:26:59	0	0	0	-0.1678411	3.760394	0	3	100	0	14	1.650086	-2.951748	-50.57299	
15:27:01	0	0	0	-0.1043518	5.244378	0	3	100	0	14	1.666849	-2.830177	-50.5924	
15:27:02	0	0	0	0.08792254	9.24873	0	3	100	0	14	1.703747	-2.885155	-50.62181	
15:27:04	0	0	0	0.0284404	1.507028	0	3	100	0	14	1.74114	-2.884398	-50.57098	
15:27:06	0	0	0	-0.2168261	-8.563984	0	3	100	0	14	1.776889	-2.867307	-50.58614	
15:27:07	0	0	0	-0.3251122	-5.588529	0	3	100	0	14	1.748157	-2.750355	-50.6054	
15:27:09	0	0	0	-0.04608392	7.840033	0	3	100	0	14	1.78907	-2.791686	-50.63596	
15:27:11	0	0	0	0.04893577	5.266534	0	3	100	0	14	1.737358	-2.827101	-50.68456	
15:27:13	0	0	0	0.127431	4.103838	0	3	100	0	14	1.72488	-2.812145	-50.72641	
15:27:14	0	0	0	0.2635073	6.497799	0	3	100	0	14	1.763102	-2.817247	-50.71965	
15:27:16	0	0	0	0.1077198	-3.960144	0	3	100	0	14	1.753685	-2.843446	-50.76988	
15:27:18	0	0	0	0.2061547	5.951463	0	3	100	0	14	1.731434	-2.817742	-50.73244	
15:27:19	0	0	0	0.3936808	7.511629	0	3	100	0	14	1.681165	-2.738488	-50.72406	
15:27:21	0	0	0	0.1267981	-6.620803	0	3	100	0	14	1.712942	-2.833376	-50.74226	
15:27:23	0	0	0	0.01191456	-6.080774	0	3	100	0	14	1.658514	-2.903872	-50.71906	
15:27:25	0	0	0	0.007755714	-2.28646	0	3	100	0	14	1.633279	-2.994254	-50.72804	
15:27:26	0	0	0	0.2094818	7.361914	0	3	100	0	14	1.558678	-3.089001	-50.68516	
15:27:28	0	0	0	0.4007658	10.69778	0	3	100	0	14	1.584059	-3.117133	-50.62367	
15:27:30	0	0	0	0.3829253	4.75869	0	3	100	0	14	1.624064	-3.026529	-50.58362	
15:27:31	0	0	0	0.4504656	2.891068	0	3	100	0	14	1.676456	-3.032551	-50.55808	
15:27:33	0	0	0	0.2523637	-7.067737	0	3	100	0	14	1.649187	-3.018841	-50.54382	
15:27:35	0	0	0	0.1455206	-5.315782	0	3	100	0	14	1.634984	-3.085879	-50.5232	
15:27:37	0	0	0	0.2900345	2.604264	0	3	100	0	14	1.62677	-3.149853	-50.52809	
15:27:38	0	0	0	0.08657778	-7.614438	0	3	100	0	14	1.638205	-3.092003	-50.50805	
15:27:40	0	0	0	0.04013117	-4.154962	0	3	100	0	14	1.666334	-3.060066	-50.52449	
15:27:42	0	0	0	0.1663497	0.2583724	0	3	100	0	14	1.618576	-3.046616	-50.55273	
15:27:43	0	0	0	-0.1492479	-11.77601	0	3	100	0	14	1.56499	-3.071827	-50.52527	
15:27:45	0	0	0	-0.1293991	-4.517431	0	3	100	0	14	1.601136	-3.012708	-50.51661	
15:27:47	0	0	0	-0.07823252	1.342141	0	3	100	0	14	1.593259	-3.054853	-50.44468	
15:27:49	0	0	0	-0.3015446	-7.994591	0	3	100	0	14	1.629413	-2.902716	-50.45984	
15:27:50	0	0	0	-0.1797981	1.848105	0	3	100	0	14	1.689457	-2.882318	-50.50385	
15:27:52	0	0	0	-0.3381822	-6.866029	0	3	100	0	14	1.70399	-2.830163	-50.52123	
15:27:54	0	0	0	-0.3607764	-3.772818	0	3	100	0	14	1.641675	-2.98366	-50.54745	
15:27:55	0	0	0	-0.2778869	3.795791	0	3	100	0	14	1.611711	-2.929972	-50.51482	
15:27:57	0	0	0	-0.1164757	8.925022	0	3	100	0	14	1.600948	-2.809504	-50.55912	
15:27:59	0	0	0	-0.2962619	-2.430073	0	3	100	0	14	1.591482	-2.726394	-50.59787	
15:28:01	0	0	0	-0.4730723	-9.213717	0	3	100	0	14	1.580175	-2.721749	-50.61925	
15:28:02	0	0	0	-0.2831582	3.347505	0	3	100	0	14	1.577968	-2.824283	-50.66337	
15:28:04	0	0	0	0.01728123	13.59188	0	3	100	0	14	1.596131	-2.808359	-50.62395	
15:28:06	0	0	0	-0.0926367	0.06231824	0	3	100	0	14	1.605822	-2.745549	-50.63383	
15:28:07	0	0	0	-0.3114819	-6.826711	0	3	100	0	14	1.585333	-2.846206	-50.6537	
15:28:09	0	0	0	-0.1980506	0.8492604	0	3	100	0	14	1.634639	-2.790075	-50.69378	
15:28:11	0	0	0	-0.3598278	-3.46313	0	3	100	0	14	1.584943	-2.760723	-50.70645	
15:28:12	0	0	0	-0.2092679	3.137094	0	3	100	0	14	1.646506	-2.898804	-50.6919	
15:28:14	0	0	0	-0.1836997	0.4917597	0	3	100	0	14	1.665982	-2.971456	-50.67891	
15:28:16	0	0	0	-0.3396466	-4.375859	0	3	100	0	14	1.691686	-2.885792	-50.67554	
15:28:18	0	0	0	-0.2530494	0.06460615	0	3	100	0	14	1.629598	-2.90834	-50.65082	
15:28:19	0	0	0	-0.2234072	-1.445208	0	3	100	0	14	1.622007	-2.952196	-50.62561	
15:28:21	0	0	0	-0.4154893	-8.657429	0	3	100	0	14	1.55378	-2.958252	-50.5914	
15:28:23	0	0	0	-0.1814997	4.759941	0	3	100	0	14	1.541127	-3.086945	-50.56825	
15:28:24	0	0	0	-0.1383187	2.518677	0	3	100	0	14	1.600068	-3.022651	-50.52996	
15:28:26	0	0	0	0.007913465	7.865363	0	3	100	0	14	1.62301	-2.994335	-50.51466	
15:28:28	0	0	0	-0.1561363	-3.68366	0	3	100	0	14	1.623232	-3.020726	-50.53613	
15:28:30	0	0	0	-0.2899515	-6.359985	0	3	100	0	14	1.636822	-3.021836	-50.51898	
15:28:31	0	0	0	-0.06032284	7.530506	0	3	100	0	14	1.671599	-2.990422	-50.51906	
15:28:33	0	0	0	-0.1002072	-1.088814	0	3	100	0	14	1.647811	-2.856298	-50.54044	
15:28:35	0	0	0	-0.1609013	-1.693603	0	3	100	0	14	1.693497	-2.76704	-50.51513	
15:28:36	0	0	0	-0.259864	-0.8764507	0	3	100	0	14	1.676772	-2.726455	-50.52703	
15:28:38	0	0	0	-0.04657082	6.684165	0	3	100	0	14	1.673369	-2.770412	-50.57626	
15:28:40	0	0	0	0.119852	8.486122	0	3	100	0	14	1.624019	-2.863965	-50.59335	
15:28:42	0	0	0	-0.04753754	-1.31151	0	3	100	0	14	1.627408	-3.025316	-50.60266	
15:28:43	0	0	0	-0.1259076	-4.532312	0	3	100	0	14	1.586268	-2.987871	-50.62475	
15:28:45	0	0	0	0.04566314	2.211631	0	3	100	0	14	1.604014	-3.007396	-50.64588	
15:28:47	0	0	0	0.01246926	-1.249465	0	3	100	0	14	1.643108	-3.019203	-50.60763	
15:28:48	0	0	0	-0.1268858	-5.996547	0	3	100	0	14	1.610775	-3.08147	-50.5648	
15:28:50	0	0	0	-0.03254305	1.956329	0	3	100	0	14	1.608801	-3.020122	-50.58243	
15:28:52	0	0	0	0.07972887	3.862837	0	3	100	0	14	1.57903	-3.004135	-50.60355	
15:28:54	0	0	0	-0.1213928	-3.865559	0	3	100	0	14	1.582218	-2.948856	-50.59282	
15:28:55	0	0	0	-0.1125482	-1.047116	0	3	100	0	14	1.570085	-2.823515	-50.59174	
15:28:57	0	0	0	-0.3946545	-8.024078	0	3	100	0	14	1.641085	-2.92948	-50.6398	
15:28:59	0	0	0	-0.2542096	2.008926	0	3	100	0	14	1.609469	-2.996582	-50.6452	
15:29:00	0	0	0	-0.2634516	1.027144	0	3	100	0	14	1.557441	-3.004594	-50.62569	
15:29:02	0	0	0	-0.1513941	3.792325	0	3	100	0	14	1.614414	-3.042793	-50.60926	
15:29:04	0	0	0	-0.2714456	-3.748149	0	3	100	0	14	1.615215	-3.061501	-50.60817	
15:29:06	0	0	0	-0.04057434	6.882579	0	3	100	0	14	1.624841	-2.988443	-50.57013	
15:29:07	0	0	0	0.1077723	6.806855	0	3	100	0	14	1.674036	-2.880131	-50.54102	
15:29:09	0	0	0	0.1781173	6.384253	0	3	100	0	14	1.65954	-2.961411	-50.5806	
15:29:11	0	0	0	0.1879233	0.7381952	0	3	100	0	14	1.676759	-2.999848	-50.59098	
15:29:12	0	0	0	0.1557111	0.3090098	0	3	100	0	14	1.652529	-3.035367	-50.60096	
15:29:14	0	0	0	0.3618141	6.983849	0	3	100	0	14	1.590074	-3.053196	-50.55608	
15:29:16	0	0	0	0.4191818	5.506763	0	3	100	0	14	1.602687	-3.03627	-50.50729	
15:29:18	0	0	0	0.2255609	-3.878303	0	3	100	0	14	1.636456	-3.04216	-50.48936	
15:29:19	0	0	0	0.1289252	-4.602966	0	3	100	0	14	1.575566	-3.061774	-50.51399	
15:29:21	0	0	0	0.3251821	4.48419	0	3	100	0	14	1.584459	-2.961957	-50.4611	
15:29:23	0	0	0	0.2887883	1.701837	0	3	100	0	14	1.608931	-2.956863	-50.482	
15:29:24	0	0	0	0.2921356	-0.8477267	0	3	100	0	14	1.601442	-3.075566	-50.50115	
15:29:26	0	0	0	0.2037263	-3.186176	0	3	100	0	14	1.612042	-3.066809	-50.49898	
15:29:28	0	0	0	0.1400361	-3.807282	0	3	100	0	14	1.625156	-2.978884	-50.47223	
15:29:29	0	0	0	-0.07520705	-9.332499	0	3	100	0	14	1.62604	-2.90196	-50.49688	
15:29:31	0	0	0	-0.05049342	-2.453862	0	3	100	0	14	1.609912	-2.952794	-50.5307	
15:29:33	0	0	0	0.06604922	4.453571	0	3	100	0	14	1.661146	-2.869439	-50.55418	
15:29:35	0	0	0	0.270007	10.19617	0	3	100	0	14	1.627796	-2.868549	-50.6033	
15:29:36	0	0	0	0.3454745	6.370717	0	3	100	0	14	1.604255	-2.86527	-50.62465	
15:29:38	0	0	0	0.158437	-6.086721	0	3	100	0	14	1.588061	-2.805566	-50.64424	
15:29:40	0	0	0	-0.05271418	-9.386704	0	3	100	0	14	1.662147	-2.800144	-50.63264	
15:29:41	0	0	0	-0.06274114	-2.830712	0	3	100	0	14	1.647973	-2.86836	-50.61757	
15:29:43	0	0	0	-0.09735227	-4.484506	0	3	100	0	14	1.649802	-2.963733	-50.59868	
15:29:45	0	0	0	-0.06050103	-0.9059604	0	3	100	0	14	1.640089	-2.869648	-50.60769	
15:29:47	0	0	0	0.1034859	7.079001	0	3	100	0	14	1.624012	-2.889642	-50.62398	
15:29:48	0	0	0	-0.08150872	-3.33708	0	3	100	0	14	1.621166	-2.859867	-50.62473	
15:29:50	0	0	0	-0.2950778	-8.610773	0	3	100	0	14	1.613837	-2.808152	-50.62579	
15:29:52	0	0	0	-0.4110915	-7.805993	0	3	100	0	14	1.628055	-2.862915	-50.63528	
15:29:53	0	0	0	-0.05558152	8.81775	0	3	100	0	14	1.657921	-2.866425	-50.64299	
15:29:55	0	0	0	0.2309993	13.49067	0	3	100	0	14	1.665005	-2.888471	-50.63862	
15:29:57	0	0	0	0.1569878	2.74973	0	3	100	0	14	1.647238	-2.919437	-50.63885	
15:29:59	0	0	0	-0.1131369	-8.089931	0	3	100	0	14	1.65952	-2.947034	-50.62654	
15:30:00	0	0	0	0.07486113	3.7614	0	3	100	0	14	1.665549	-2.952833	-50.61816	
15:30:02	0	0	0	-0.005891097	-2.338852	0	3	100	0	14	1.641333	-2.939693	-50.65724	
15:30:04	0	0	0	-0.1413717	-5.235198	0	3	100	0	14	1.658923	-2.897251	-50.67154	
15:30:05	0	0	0	-0.4034431	-11.52834	0	3	100	0	14	1.66614	-2.876097	-50.70775	
15:30:07	0	0	0	-0.4018767	-4.632078	0	3	100	0	14	1.622503	-2.933881	-50.66851	
15:30:09	0	0	0	-0.3681793	-2.826419	0	3	100	0	14	1.621006	-2.99595	-50.66445	
15:30:11	0	0	0	-0.5932968	-9.353641	0	3	100	0	14	1.672246	-3.053796	-50.63334	
15:30:12	0	0	0	-0.7618557	-9.878617	0	3	100	0	14	1.733836	-2.959027	-50.6125	
15:30:14	0	0	0	-0.7203842	-2.84445	0	3	100	0	14	1.776538	-3.000594	-50.61946	
15:30:16	0	0	0	-0.4704226	9.443619	0	3	100	0	14	1.71107	-2.952073	-50.59813	
15:30:17	0	0	0	-0.02273255	19.83535	0	3	100	0	14	1.711641	-2.890017	-50.62048	
15:30:19	0	0	0	0.0748594	11.73967	0	3	100	0	14	1.690943	-2.83176	-50.60254	
15:30:21	0	0	0	-0.003489812	1.804361	0	3	100	0	14	1.674659	-2.900308	-50.6116	
15:30:22	0	0	0	0.002776284	0.239448	0	3	100	0	14	1.689194	-2.848562	-50.61073	
15:30:24	0	0	0	-0.2286696	-10.29721	0	3	100	0	14	1.671899	-2.939713	-50.63709	
15:30:26	0	0	0	-0.3296122	-6.529808	0	3	100	0	14	1.675779	-2.925125	-50.62709	
15:30:28	0	0	0	-0.03607872	7.996786	0	3	100	0	14	1.648402	-2.922762	-50.63086	
15:30:29	0	0	0	0.1152724	8.353953	0	3	100	0	14	1.617107	-2.842013	-50.61275	
15:30:31	0	0	0	0.03153958	-0.4625325	0	3	100	0	14	1.621103	-2.887907	-50.62261	
15:30:33	0	0	0	-0.03550579	-0.4325736	0	3	100	0	14	1.668962	-2.849593	-50.62989	
15:30:35	0	0	0	0.2715135	9.842199	0	3	100	0	14	1.576872	-2.811168	-50.64405	
15:30:36	0	0	0	0.2926358	2.949969	0	3	100	0	14	1.622794	-2.745189	-50.6681	
15:30:38	0	0	0	0.2380145	-1.316804	0	3	100	0	14	1.616531	-2.81633	-50.6792	
15:30:40	0	0	0	0.3437922	5.505245	0	3	100	0	14	1.616276	-2.828202	-50.64288	
15:30:41	0	0	0	0.559558	9.91844	0	3	100	0	14	1.634324	-2.90663	-50.68201	
15:30:43	0	0	0	0.36077	-4.83781	0	3	100	0	14	1.643749	-2.871279	-50.67074	
15:30:45	0	0	0	0.001805726	-17.41469	0	3	100	0	14	1.620586	-2.834285	-50.6709	
15:30:46	0	0	0	-0.1944618	-14.27482	0	3	100	0	14	1.635184	-2.889106	-50.67823	
15:30:48	0	0	0	0.08076631	1.802745	0	3	100	0	14	1.611775	-2.887571	-50.66753	
15:30:50	0	0	0	-0.06852118	-4.41318	0	3	100	0	14	1.646754	-2.8281	-50.63113	
15:30:52	0	0	0	-0.08512003	-4.496831	0	3	100	0	14	1.668069	-2.93109	-50.64638	
15:30:53	0	0	0	-0.08018572	-2.59599	0	3	100	0	14	1.636552	-2.929538	-50.63376	
15:30:55	0	0	0	-0.1825202	-5.731647	0	3	100	0	14	1.585823	-2.94637	-50.59969	
15:30:57	0	0	0	-0.2570777	-6.028789	0	3	100	0	14	1.638657	-3.022823	-50.60848	
15:30:58	0	0	0	-0.03543844	6.085412	0	3	100	0	14	1.60534	-2.966608	-50.59794	
15:31:00	0	0	0	-0.2111878	-6.613664	0	3	100	0	14	1.609081	-2.914062	-50.54463	
15:31:02	0	0	0	-0.2364227	-1.396848	0	3	100	0	14	1.638484	-2.853556	-50.53117	
15:31:04	0	0	0	-0.3246493	-3.805022	0	3	100	0	14	1.641089	-2.902896	-50.53732	
15:31:05	0	0	0	-0.3541726	-0.7829214	0	3	100	0	14	1.642745	-2.935826	-50.51795	
15:31:07	0	0	0	-0.4677545	-4.384043	0	3	100	0	14	1.623859	-2.955243	-50.5186	
15:31:09	0	0	0	-0.6446478	-7.062264	0	3	100	0	14	1.596586	-3.020205	-50.53178	
15:31:10	0	0	0	-0.5153353	2.243718	0	3	100	0	14	1.585905	-3.054782	-50.53198	
15:31:12	0	0	0	-0.2058227	12.12796	0	3	100	0	14	1.592861	-3.076784	-50.53385	
15:31:14	0	0	0	-0.2878606	1.029937	0	3	100	0	14	1.588187	-3.069191	-50.4869	
15:31:16	0	0	0	-0.2449969	3.568536	0	3	100	0	14	1.589294	-3.016879	-50.47194	
15:31:17	0	0	0	-0.145533	4.032623	0	3	100	0	14	1.615361	-2.929899	-50.49171	
15:31:19	0	0	0	0.01286971	6.980374	0	3	100	0	14	1.586418	-3.039633	-50.57501	
15:31:21	0	0	0	-0.2476827	-8.333184	0	3	100	0	14	1.641917	-2.954967	-50.55558	
15:31:22	0	0	0	-0.3217757	-8.240623	0	3	100	0	14	1.656329	-2.850166	-50.56394	
15:31:24	0	0	0	-0.2968159	-1.064286	0	3	100	0	14	1.637839	-2.824616	-50.58536	
15:31:26	0	0	0	-0.2100821	5.045157	0	3	100	0	14	1.626976	-2.863964	-50.59219	
15:31:28	0	0	0	-0.1854131	2.483636	0	3	100	0	14	1.624754	-2.910145	-50.61669	
15:31:29	0	0	0	0.007859062	8.370479	0	3	100	0	14	1.642186	-2.962031	-50.5949	
15:31:31	0	0	0	0.07039085	6.055027	0	3	100	0	14	1.674391	-2.94765	-50.58952	
15:31:33	0	0	0	0.004149197	0.4154522	0	3	100	0	14	1.658965	-2.863201	-50.55766	
15:31:34	0	0	0	-0.3161273	-10.48953	0	3	100	0	14	1.661606	-2.891182	-50.56866	
15:31:36	0	0	0	-0.2153843	0.401603	0	3	100	0	14	1.65041	-2.983439	-50.55831	
15:31:38	0	0	0	0.2550888	16.54536	0	3	100	0	14	1.638699	-3.029392	-50.56909	
15:31:39	0	0	0	0.3271215	8.894248	0	3	100	0	14	1.663963	-2.924844	-50.55587	
15:31:41	0	0	0	0.1977368	-2.75589	0	3	100	0	14	1.682021	-2.900616	-50.56182	
15:31:43	0	0	0	0.253071	2.862382	0	3	100	0	14	1.676607	-2.882575	-50.58259	
15:31:45	0	0	0	0.2414962	0.3772974	0	3	100	0	14	1.698956	-2.866796	-50.60641	
15:31:46	0	0	0	0.2746249	1.252894	0	3	100	0	14	1.701417	-2.898608	-50.63567	
15:31:48	0	0	0	0.4779973	8.955129	0	3	100	0	14	1.674306	-2.972647	-50.65614	
15:31:50	0	0	0	0.6435146	8.521204	0	3	100	0	14	1.717551	-2.884642	-50.60388	
15:31:51	0	0	0	0.5713573	3.25738	0	3	100	0	14	1.710511	-2.965423	-50.58852	
15:31:53	0	0	0	0.3099144	-10.52424	0	3	100	0	14	1.653623	-2.960506	-50.59641	
15:31:55	0	0	0	0.1436454	-10.40398	0	3	100	0	14	1.652385	-2.893946	-50.60744	
15:31:57	0	0	0	0.1398691	-4.198285	0	3	100	0	14	1.659728	-2.865422	-50.63877	
15:31:58	0	0	0	0.03052793	-5.880363	0	3	100	0	14	1.615666	-3.00414	-50.6149	
15:32:00	0	0	0	0.1183744	2.245713	0	3	100	0	14	1.679837	-2.986645	-50.63121	
15:32:02	0	0	0	0.2118665	3.333246	0	3	100	0	14	1.62724	-3.027447	-50.59883	
15:32:03	0	0	0	0.2095956	0.1228653	0	3	100	0	14	1.616427	-3.063979	-50.55658	
15:32:05	0	0	0	0.03333595	-6.933304	0	3	100	0	14	1.638113	-3.073931	-50.54325	
15:32:07	0	0	0	0.2227964	4.837938	0	3	100	0	14	1.601913	-3.143813	-50.54557	
15:32:09	0	0	0	0.3142245	3.952558	0	3	100	0	14	1.613116	-3.135126	-50.51821	
15:32:10	0	0	0	0.1977233	-4.403933	0	3	100	0	14	1.593706	-3.153216	-50.52408	
15:32:12	0	0	0	0.1968261	-3.798221	0	3	100	0	14	1.539399	-3.131257	-50.48593	
15:32:14	0	0	0	0.1967295	-0.08035141	0	3	100	0	14	1.585462	-3.081093	-50.46304	
15:32:15	0	0	0	0.4699761	11.32343	0	3	100	0	14	1.582423	-3.132374	-50.46378	
15:32:17	0	0	0	0.540144	8.204131	0	3	100	0	14	1.612278	-3.118247	-50.43549	
15:32:19	0	0	0	0.3918728	-4.472863	0	3	100	0	14	1.637583	-3.172877	-50.40529	
15:32:21	0	0	0	0.266153	-4.082781	0	3	100	0	14	1.677754	-3.06073	-50.44255	
15:32:22	0	0	0	0.3467665	0.7076877	0	3	100	0	14	1.693032	-2.997188	-50.46611	
15:32:24	0	0	0	0.5027337	7.139439	0	3	100	0	14	1.719093	-2.919557	-50.51429	
15:32:26	0	0	0	0.5189569	2.494725	0	3	100	0	14	1.726903	-2.903269	-50.56082	
15:32:27	0	0	0	0.4382575	-2.537148	0	3	100	0	14	1.717516	-2.923392	-50.57977	
15:32:29	0	0	0	0.4389727	-1.017831	0	3	100	0	14	1.784483	-2.788612	-50.57906	
15:32:31	0	0	0	0.323873	-4.461954	0	3	100	0	14	1.726919	-2.70682	-50.6163	
15:32:33	0	0	0	0.1730033	-5.521227	0	3	100	0	14	1.745705	-2.727807	-50.65622	
15:32:34	0	0	0	0.1891644	-2.952782	0	3	100	0	14	1.727609	-2.845875	-50.72128	
15:32:36	0	0	0	0.2708676	2.582861	0	3	100	0	14	1.660485	-2.978556	-50.693	
15:32:38	0	0	0	0.261633	1.094217	0	3	100	0	14	1.72483	-2.869129	-50.69223	
15:32:39	0	0	0	0.2141802	-0.02438171	0	3	100	0	14	1.670641	-2.840454	-50.65168	
15:32:41	0	0	0	0.3034976	2.915145	0	3	100	0	14	1.692387	-2.94885	-50.6302	
15:32:43	0	0	0	0.398269	8.483899	0	3	100	0	14	1.725439	-2.864125	-50.65116	
15:32:45	0	0	0	0.4610805	3.633053	0	3	100	0	14	1.677504	-2.92211	-50.64024	
15:32:46	0	0	0	0.3220453	-4.553613	0	3	100	0	14	1.698089	-2.86962	-50.61644	
15:32:48	0	0	0	-0.04230493	-15.60421	0	3	100	0	14	1.665109	-3.001907	-50.64586	
15:32:50	0	0	0	0.206444	3.286124	0	3	100	0	14	1.616447	-3.064957	-50.64496	
15:32:51	0	0	0	0.3250908	3.851737	0	3	100	0	14	1.612607	-3.178746	-50.63813	
15:32:53	0	0	0	0.2443269	-1.706407	0	3	100	0	14	1.56126	-3.135504	-50.57872	
15:32:55	0	0	0	0.2804013	0.8035478	0	3	100	0	14	1.604601	-3.125892	-50.54123	
15:32:57	0	0	0	0.1929732	-3.166104	0	3	100	0	14	1.562602	-3.153602	-50.52645	
15:32:58	0	0	0	0.1713034	-3.102787	0	3	100	0	14	1.595568	-3.146811	-50.50438	
15:33:00	0	0	0	0.231755	1.895325	0	3	100	0	14	1.569027	-3.216469	-50.46296	
15:33:02	0	0	0	0.2888172	3.700609	0	3	100	0	14	1.620813	-3.163686	-50.43649	
15:33:03	0	0	0	0.2125913	-3.457668	0	3	100	0	14	1.58147	-3.103988	-50.47604	
15:33:05	0	0	0	0.1032441	-4.777168	0	3	100	0	14	1.644303	-2.988158	-50.48044	
15:33:07	0	0	0	0.02665175	-6.308028	0	3	100	0	14	1.597935	-3.005687	-50.49755	
15:33:09	0	0	0	-0.09156288	-7.183421	0	3	100	0	14	1.593297	-3.045368	-50.51089	
15:33:10	0	0	0	0.1192234	5.688281	0	3	100	0	14	1.643905	-2.982746	-50.53078	
15:33:12	0	0	0	0.4049154	14.7029	0	3	100	0	14	1.677372	-2.974409	-50.55532	
15:33:14	0	0	0	0.142382	-7.341884	0	3	100	0	14	1.682827	-3.047733	-50.55315	
15:33:15	0	0	0	-0.3667012	-23.16628	0	3	100	0	14	1.623956	-3.050696	-50.5561	
15:33:17	0	0	0	-0.506035	-12.52523	0	3	100	0	14	1.637342	-3.093521	-50.53032	
15:33:19	0	0	0	-0.308435	3.491269	0	3	100	0	14	1.60576	-3.09333	-50.50994	
15:33:21	0	0	0	-0.2726205	3.158392	0	3	100	0	14	1.593475	-3.042388	-50.47538	
15:33:22	0	0	0	0.02886397	14.52678	0	3	100	0	14	1.615221	-3.074856	-50.48072	
15:33:24	0	0	0	0.1527401	9.361763	0	3	100	0	14	1.579402	-3.097436	-50.47429	
15:33:26	0	0	0	0.3971522	11.33616	0	3	100	0	14	1.570297	-3.150406	-50.46941	
15:33:27	0	0	0	0.2819978	0.9113939	0	3	100	0	14	1.615639	-2.997431	-50.46709	
15:33:29	0	0	0	0.1458034	-5.974655	0	3	100	0	14	1.665316	-2.977361	-50.49196	
15:33:31	0	0	0	-0.06232516	-10.49451	0	3	100	0	14	1.695836	-2.905966	-50.50787	
15:33:33	0	0	0	-0.4401411	-15.89633	0	3	100	0	14	1.689067	-2.835277	-50.56784	
15:33:34	0	0	0	-0.1288104	4.739543	0	3	100	0	14	1.663667	-2.81919	-50.61751	
15:33:36	0	0	0	-0.01634694	5.27976	0	3	100	0	14	1.684362	-2.686347	-50.61696	
15:33:38	0	0	0	0.01759262	3.072911	0	3	100	0	14	1.684491	-2.757007	-50.64949	
15:33:39	0	0	0	0.2163616	7.52245	0	3	100	0	14	1.668345	-2.78908	-50.64987	
15:33:41	0	0	0	-0.000170429	-3.958369	0	3	100	0	14	1.680969	-2.785195	-50.66029	
15:33:43	0	0	0	0.05639183	0.9423125	0	3	100	0	14	1.653188	-2.870134	-50.67783	
15:33:45	0	0	0	0.01951232	0.2128365	0	3	100	0	14	1.677514	-2.81001	-50.68573	
15:33:46	0	0	0	0.07292692	3.680218	0	3	100	0	14	1.658091	-2.852393	-50.69046	
15:33:48	0	0	0	0.1848047	6.046008	0	3	100	0	14	1.671484	-2.831648	-50.68843	
15:33:50	0	0	0	0.2183276	3.910067	0	3	100	0	14	1.641502	-2.826911	-50.70969	
15:33:51	0	0	0	0.3079594	5.897697	0	3	100	0	14	1.624248	-2.941535	-50.70522	
15:33:53	0	0	0	0.4297039	6.104321	0	3	100	0	14	1.611521	-2.919822	-50.67951	
15:33:55	0	0	0	0.2654006	-4.354422	0	3	100	0	14	1.579377	-2.986295	-50.68239	
15:33:56	0	0	0	0.1491447	-5.464061	0	3	100	0	14	1.567178	-3.03307	-50.5857	
