Date	Latitude(deg) 	Longitude(deg)	hamsl(m)	hafl(m)	climbrate(cm/s)	GroundSpeed(m/s)	Airspeed(m/s)	Mav_Link(%)	Rssi_Link(%)	Throttle	Roll(deg)	Pitch(deg)	Yaw(deg)
13:42:00	0	0	0	1.340464	-1.666861	0	0	54	0	4	0.7674287	-0.5478781	70.77128	
13:42:02	0	0	0	1.759967	21.8121	0	0	65	0	4	0.7283964	-0.572421	70.74392	
13:42:03	0	0	0	1.666656	0.2688878	0	0	72	0	4	0.7310149	-0.5070317	70.72369	
13:42:05	0	0	0	1.305556	-17.51128	0	0	77	0	4	0.7667972	-0.4756135	70.7596	
13:42:07	0	0	0	1.048769	-20.14443	0	0	81	0	4	0.7777171	-0.4309701	70.77917	
13:42:09	0	0	0	1.149946	-9.03514	0	0	84	0	4	0.7771468	-0.36637	70.82118	
13:42:10	47.45875	-122.3111	57.43	48.26864	1917.732	28.35	0	86	0	4	-0.4365207	-0.6772601	77.38836	
13:42:12	47.45875	-122.3111	57.43	70.71218	1539.214	28.35	0	88	0	5	-1.55722	2.877938	81.93057	
13:42:14	47.45875	-122.3111	57.43	66.56107	457.6323	28.35	0	89	0	5	-2.406446	5.301186	82.82021	
13:42:15	47.45875	-122.3111	57.43	59.6345	-74.08174	28.35	0	90	0	4	-3.165409	6.978327	82.03996	
13:42:17	47.45875	-122.3111	57.43	56.65164	-150.9204	28.35	0	91	0	4	-3.898324	8.333921	80.02156	
13:42:19	47.45875	-122.3111	57.43	56.37484	-85.97549	28.35	0	92	0	4	-4.467225	9.20297	77.00123	
13:42:20	47.45875	-122.3111	57.43	56.83797	-32.49591	28.35	0	93	0	4	-4.877025	9.799653	74.15602	
13:42:22	47.45875	-122.3111	57.43	57.1777	-13.56405	28.35	0	94	0	4	-5.100728	10.193	71.18904	
13:42:24	47.45875	-122.3111	57.43	57.28344	-12.82403	28.35	0	94	0	4	-5.145142	10.48694	68.41039	
13:42:25	47.45875	-122.3111	57.43	57.28735	-14.9787	28.35	0	95	0	4	-5.082154	10.73981	66.25729	
13:42:27	47.45875	-122.3111	57.43	57.27982	-15.11863	28.35	0	95	0	4	-4.869571	10.89662	64.36942	
13:42:29	47.45875	-122.3111	57.43	57.28777	-13.38093	28.35	0	96	0	4	-4.537174	11.00714	62.88843	
13:42:31	47.45875	-122.3111	57.43	57.30618	-11.24242	28.35	0	96	0	4	-4.19938	11.1333	61.95117	
13:42:32	47.45875	-122.3111	57.43	57.325	-9.435359	28.35	0	96	0	4	-3.799878	11.1807	61.28105	
13:42:34	47.45875	-122.3111	57.43	57.34251	-7.764222	28.35	0	97	0	4	-3.297565	11.17441	60.85691	
13:42:36	47.45875	-122.3111	57.43	57.35752	-6.421635	28.35	0	97	0	4	-2.92942	11.19463	60.85759	
13:42:37	47.45875	-122.3111	57.43	57.36931	-5.443575	28.35	0	97	0	4	-2.618313	11.17389	61.02554	
13:42:39	47.45875	-122.3111	57.43	57.37852	-4.584606	28.35	0	97	0	4	-2.237829	11.06529	61.44207	
13:42:41	47.45875	-122.3111	57.43	57.38657	-3.842281	28.35	0	97	0	4	-1.953956	11.00498	62.12527	
13:42:42	47.45875	-122.3111	57.43	57.38965	-3.568767	28.35	0	98	0	4	-1.902745	10.91627	61.77484	
13:42:44	47.45875	-122.3111	57.43	57.38965	-3.563567	28.35	0	98	0	4	-1.901567	10.81887	61.15643	
13:42:46	47.45875	-122.3111	57.43	57.38484	-7.595953	28.35	0	98	0	4	0.6167327	-0.2417511	25.79293	
13:42:47	47.45875	-122.3111	57.43	57.30652	-13.06266	28.35	0	98	0	4	-1.259799	10.97099	74.08083	
13:42:49	47.45875	-122.3111	57.43	57.34667	-4.335827	28.35	0	98	0	4	-1.418824	9.323225	69.68008	
13:42:51	47.45875	-122.3111	57.43	57.40672	0.3455465	28.35	0	98	0	4	-1.758118	9.4477	70.30658	
13:42:53	47.45875	-122.3111	57.43	57.43302	1.077029	28.35	0	98	0	4	-1.687866	9.475845	70.35401	
13:42:54	47.45875	-122.3111	57.43	57.43591	0.5753645	28.35	0	98	0	4	-1.700149	9.473207	70.355	
13:42:56	47.45875	-122.3111	57.43	57.43228	0.1421571	28.35	0	99	0	4	-1.693415	9.470576	70.35342	
13:42:58	47.45875	-122.3111	57.43	57.42969	-0.002503407	28.35	0	99	0	4	-1.688071	9.468614	70.36884	
13:42:59	47.45875	-122.3111	57.43	57.42899	0.01083784	28.35	0	99	0	4	-1.68888	9.46853	70.36791	
13:43:01	47.45875	-122.3111	57.43	57.42916	0.05472612	28.35	0	99	0	5	-1.823044	9.566833	70.65476	
13:43:03	47.45875	-122.3111	57.43	57.42882	-0.05871934	28.35	0	99	0	5	-2.369937	9.860676	70.99269	
13:43:04	47.45875	-122.3111	57.43	57.42679	-0.3484121	28.35	0	99	0	4	-2.822959	10.04761	70.87708	
13:43:06	47.45875	-122.3111	57.43	57.4236	-0.7037573	28.35	0	99	0	4	-3.171048	10.14967	70.44872	
13:43:08	47.45875	-122.3111	57.43	57.42054	-0.9508688	28.35	0	99	0	4	-3.397738	10.18306	69.82545	
13:43:09	47.45875	-122.3111	57.43	57.41854	-1.093747	28.35	0	99	0	4	-3.546572	10.20744	69.26581	
13:43:11	47.45875	-122.3111	57.43	57.41769	-1.127469	28.35	0	99	0	4	-3.608207	10.20003	68.68568	
13:43:13	47.45875	-122.3111	57.43	57.41816	-0.9752093	28.35	0	99	0	4	-3.533727	10.1673	68.27476	
13:43:15	47.45875	-122.3111	57.43	57.4188	-0.8564584	28.35	0	99	0	4	-3.35435	10.17596	68.48778	
13:43:16	47.45875	-122.3111	57.43	57.42158	-0.5327364	28.35	0	99	0	5	-3.28879	10.1359	68.15932	
13:43:18	47.45875	-122.3111	57.43	57.42431	-0.2823042	28.35	0	99	0	4	-3.14825	10.06956	67.8588	
