Date	Latitude(deg) 	Longitude(deg)	hamsl(m)	hafl(m)	climbrate(cm/s)	GroundSpeed(m/s)	Airspeed(m/s)	Mav_Link(%)	Rssi_Link(%)	Throttle	Roll(deg)	Pitch(deg)	Yaw(deg)
14:48:51	0	0	0	-1.143323	-45.56514	0	3	46	0	4	0.2250352	0.2556707	58.89284	
14:48:53	0	0	0	-0.06317548	13.50971	0	3	56	0	4	0.3008184	0.5145454	59.29403	
14:48:55	0	0	0	-0.006362002	0.002252543	0	3	63	0	5	0.3081458	0.6219714	59.66051	
14:48:56	0	0	0	-0.4198485	-20.4908	0	3	68	0	5	0.3063527	0.6961796	59.90812	
14:48:58	0	0	0	-0.2641602	-8.404967	0	3	72	0	4	0.3497575	0.7888694	60.10654	
14:49:00	47.43814	-122.3112	0.02	-0.3023992	-17.91752	0	3	76	0	4	0.119377	0.6997162	47.92427	
14:49:01	47.43814	-122.3112	0.02	-0.05344466	4.531423	0	3	78	0	4	-0.03690029	0.5820903	37.45636	
14:49:03	47.43814	-122.3112	0.02	0.07783094	9.349331	0	3	81	0	4	-0.1220896	0.463756	27.86378	
14:49:05	47.43814	-122.3112	0.02	0.09733339	7.221632	0	3	83	0	4	-0.1574538	0.3469577	19.35544	
14:49:06	47.43814	-122.3112	0.02	0.07919163	4.711861	0	3	85	0	4	-0.1628107	0.2705972	12.17354	
14:49:08	47.43814	-122.3112	0.02	0.06210286	3.464722	0	3	86	0	4	-0.1525329	0.2152822	6.173595	
14:49:10	47.43814	-122.3112	0.02	0.05331158	3.01483	0	3	88	0	4	-0.130836	0.1633837	0.8924986	
14:49:11	47.43814	-122.3112	0.02	0.04962246	2.811453	0	3	89	0	5	-0.1095822	0.1318286	-2.959016	
14:49:13	47.43814	-122.3112	0.02	0.04725313	2.587862	0	3	90	0	4	-0.08849107	0.1087626	-5.79057	
14:49:15	47.43814	-122.3112	0.02	0.04479927	2.335596	0	3	91	0	5	-0.06618528	0.08741143	-7.901871	
14:49:17	47.43814	-122.3112	0.02	0.0423219	2.091222	0	3	91	0	4	-0.04947004	0.07369616	-9.43577	
14:49:18	47.43814	-122.3112	0.02	0.03862099	1.673318	0	3	92	0	4	-0.02871035	0.2501153	-10.41893	
14:49:20	47.43814	-122.3112	0.02	0.03657517	1.516998	0	3	93	0	4	-0.01750065	0.02012141	-10.74076	
14:49:22	47.43814	-122.3112	0.02	0.03518089	1.468911	0	3	93	0	4	-0.006521075	-0.124303	-10.98977	
14:49:23	47.43814	-122.3112	0.02	0.03386817	1.301182	0	3	94	0	4	0.01082377	-0.2163611	-11.01742	
14:49:25	47.43814	-122.3112	0.02	0.03265971	1.20093	0	3	94	0	4	0.01279507	-0.2902967	-10.49087	
14:49:27	47.43814	-122.3112	0.02	0.03135318	0.9208772	0	3	95	0	37	-0.0453666	-0.3104317	-10.11533	
14:49:28	47.43814	-122.3112	0.02	-0.001872131	-3.999246	0	3	95	0	5	0.05543748	-0.1865908	-9.68924	
14:49:30	47.43814	-122.3112	0.02	-0.002836986	-0.9979917	0.47	3	96	0	4	0.1691037	-0.4943741	-13.69559	
14:49:32	47.43815	-122.3112	0.02	0.02443884	2.119915	0.87	3	96	0	5	0.1002143	-0.01951997	-23.12955	
14:49:34	47.43816	-122.3112	0.02	0.04805858	3.486484	1.72	3	96	0	4	-0.04535717	0.4115272	-30.57869	
14:49:35	47.43819	-122.3112	0.02	0.05426722	3.656589	2.18	3	96	0	4	-0.3299949	0.3473164	-29.61423	
14:49:37	47.43823	-122.3113	0.02	0.05741389	3.708847	2.51	3	97	0	4	-0.441776	0.5795212	-26.97333	
14:49:39	47.43826	-122.3113	0.02	0.0544012	3.385011	2.76	3	97	0	4	-0.5381945	0.9077928	-24.36741	
14:49:40	47.4383	-122.3113	0.02	0.04414404	1.967678	3.02	3.052617	97	0	20	-0.6319771	0.8080761	-21.76804	
14:49:42	47.43836	-122.3113	0.021	0.04606965	3.465851	4.53	4.715246	97	0	67	-0.5669859	1.214029	-20.00173	
14:49:44	47.43848	-122.3114	0.026	0.08394846	8.825399	11.26	10.8141	97	0	62	0.5505686	0.8612322	-16.70513	
14:49:45	47.43869	-122.3114	0.027	0.1109977	9.935731	15.47	15.26581	98	0	62	0.3744833	0.5921631	-0.6862865	
14:49:47	47.43894	-122.3114	0.031	0.1157725	4.804408	18.68	18.35512	98	0	71	1.592339	0.7778568	3.83899	
14:49:49	47.43922	-122.3114	0.035	0.06210395	3.396661	21.41	21.50053	98	0	71	2.404495	0.3695913	11.43638	
14:49:50	47.43956	-122.3113	0.05	0.2296824	112.023	23.23	22.95219	98	0	71	10.33951	4.27619	18.89401	
14:49:52	47.4399	-122.3111	1.655	1.469674	29.20399	24.05	23.32036	98	0	71	10.91435	1.207826	30.19031	
14:49:54	47.44019	-122.3108	2.155	2.10537	23.37937	24.94	23.9126	98	0	71	6.702402	0.878723	38.12022	
14:49:56	47.44051	-122.3104	2.607	2.769042	96.59135	25.71	24.88806	98	0	71	3.676446	2.546376	43.32146	
14:49:57	47.44083	-122.31	3.65	3.612316	120.1813	26.03	25.20884	98	0	71	2.996305	3.55942	48.24099	
14:49:59	47.44107	-122.3096	5.238	5.220599	105.5568	26.22	25.6557	98	0	71	0.4571022	3.12886	49.04681	
14:50:01	47.44132	-122.3091	7.151	7.149836	109.4875	26.4	26.04928	99	0	71	-0.09458573	3.102027	49.54638	
14:50:02	47.44159	-122.3087	9.112	8.950822	94.99801	26.71	26.44391	99	0	71	-0.4265521	2.660676	49.27439	
14:50:04	47.44184	-122.3082	10.529	10.58905	87.92505	27	26.84012	99	0	71	-0.9188947	2.369465	48.49562	
14:50:06	47.44211	-122.3078	11.865	11.71447	-1.499538	27.24	27.10044	99	0	71	0.1426195	0.2939571	48.66897	
14:50:07	47.4424	-122.3073	11.776	11.81366	21.77979	27.94	27.63017	99	0	85	1.876338	0.7329681	51.22215	
14:50:09	47.4427	-122.3067	12.748	12.55801	42.90573	28.72	28.61555	99	0	79	2.189912	0.7644266	54.85814	
14:50:11	47.44291	-122.3063	13.407	13.34842	35.7658	28.87	28.73814	99	0	82	0.5535982	0.4420488	56.36947	
14:50:12	47.44314	-122.3057	13.661	13.76292	-9.746139	29.33	29.21088	99	0	82	0.4079776	-0.577301	57.64867	
14:50:14	47.44335	-122.3052	13.108	13.32811	20.03324	29.78	29.67054	99	0	82	18.02838	0.4233188	61.05459	
14:50:16	47.44356	-122.3045	13.332	13.16558	43.20884	30.08	29.73645	99	0	82	18.60595	1.712753	75.14179	
14:50:18	47.44368	-122.3038	18.415	16.50878	-0.2419408	28.96	28.41208	99	0	82	-2.914857	0.01463708	76.10634	
14:50:19	47.44384	-122.3032	19.854	19.16987	71.35321	29.34	28.85595	99	0	82	-8.559171	0.311051	71.27798	
14:50:21	47.44403	-122.3026	19.892	20.33322	50.96582	29.86	29.37366	99	0	82	-12.56462	0.002128025	64.10191	
14:50:23	47.44428	-122.3021	18.54	19.3608	-57.69772	30.46	30.05132	99	0	83	-14.14042	-1.214457	56.18655	
14:50:24	47.44462	-122.3015	16.62	17.51874	-34.25654	31	30.53119	99	0	82	-14.39046	-0.01970761	47.18415	
14:50:26	47.44494	-122.3011	15.66	15.99068	-48.70931	31.07	30.54084	99	0	82	0.4133519	-0.2042332	44.72236	
14:50:28	47.44533	-122.3006	14.83	14.97568	-35.72042	31.02	30.68212	99	0	82	0.3652197	-0.0786107	44.60536	
14:50:29	47.44568	-122.3001	14.538	14.34091	-66.98424	30.78	30.55984	99	0	82	-1.144842	-1.319748	45.01358	
14:50:31	47.44602	-122.2997	13.659	13.61705	-49.77762	30.83	30.62877	99	0	82	-6.652733	-1.443036	44.60175	
14:50:33	47.4463	-122.2993	12.766	12.79211	-21.35524	30.87	30.65863	99	0	82	-8.733244	-1.219231	41.61589	
14:50:34	47.44666	-122.2988	12.446	12.45255	-13.35674	30.69	30.46159	99	0	82	-13.46224	-1.12471	38.329	
14:50:36	47.44707	-122.2983	11.551	11.61572	-112.0348	30.54	30.30744	99	0	82	-13.86486	-3.289147	33.62561	
14:50:38	47.44746	-122.2979	9.665	9.978222	-65.27554	30.62	30.43402	99	0	82	-15.76556	-2.166348	28.41748	
14:50:40	47.44785	-122.2976	8.769	9.03229	-11.96763	30.3	30.03054	99	0	82	-22.656	-0.722249	20.63986	
14:50:41	47.44829	-122.2974	9.136	9.112976	40.48421	29.45	29.38902	99	0	82	-29.07382	0.6173653	8.969337	
14:50:43	47.44868	-122.2973	8.222	7.914123	-142.3573	29.22	29.21007	99	0	82	-29.77216	-2.940526	-1.773822	
14:50:45	47.44916	-122.2973	5.595	6.792279	-104.5033	29.12	28.75384	99	0	82	-34.76152	-2.150243	-16.34761	
14:50:46	47.44957	-122.2976	3.481	3.950255	-99.44948	28.71	29.44331	99	0	82	-31.94507	-1.751099	-31.65581	
14:50:48	47.44995	-122.298	2.281	2.229712	-14.32239	27.82	28.95165	99	0	82	-33.52396	0.5608405	-46.86932	
14:50:50	47.45019	-122.2984	3.47	3.078042	50.82993	26.53	27.77255	99	0	82	-32.18494	1.366856	-62.36899	
14:50:51	47.45036	-122.2989	5.021	4.566921	61.91603	25.34	26.53367	99	0	82	-31.64853	1.118351	-76.8416	
14:50:53	47.45043	-122.2995	6.288	6.157907	81.13237	24.61	25.83118	99	0	82	-31.26881	1.081388	-92.14462	
14:50:55	47.45042	-122.3	7.455	7.544675	97.36076	24.17	25.3135	99	0	82	-30.67559	1.111577	-107.9056	
14:50:56	47.45031	-122.3006	8.092	8.119182	-5.792544	24.2	25.2304	99	0	82	-28.40184	-1.714419	-119.1464	
14:50:58	47.45015	-122.301	7.299	7.378006	-99.41245	25.06	25.56024	99	0	80	-35.56013	-6.039285	-143.1136	
14:51:00	47.44984	-122.3014	8.522	8.840446	254.3772	26.49	26.3962	99	0	82	-6.60716	0.4476112	-160.4393	
14:51:02	47.44948	-122.3018	10.872	10.43373	-128.2186	27.79	27.32398	99	0	82	-3.327653	-5.97356	-162.8564	
14:51:03	47.44913	-122.302	11.503	11.4718	66.55272	28.72	28.59344	99	0	82	-3.010932	-2.209564	-166.1706	
14:51:05	47.44872	-122.3023	12.892	12.6967	89.87241	29.08	29.08329	99	0	82	-0.9702334	-1.00192	-168.853	
14:51:07	47.44827	-122.3026	14.128	13.82398	37.87059	29.14	29.57337	99	0	82	1.395754	-1.707512	-170.0472	
14:51:08	47.44789	-122.3028	13.696	13.7882	-27.69879	29.2	29.51081	99	0	82	-0.2436096	-2.610435	-172.5137	
14:51:10	47.44751	-122.3029	13.716	14.19777	86.62277	28.84	29.18471	99	0	76	-1.60617	0.1109417	-174.5814	
14:51:12	47.44705	-122.3031	14.729	14.71398	28.23634	28.29	28.58313	99	0	77	-0.5961331	-0.1918277	-176.5793	
14:51:13	47.44666	-122.3032	15.213	15.1827	47.15807	28.02	28.227	99	0	79	-8.639248	-0.9224974	170.7934	
14:51:15	47.44624	-122.3032	16.463	16.15699	-4.585603	27.02	27.672	99	0	85	5.555095	-0.5979979	-177.3143	
14:51:17	47.44579	-122.3032	15.572	15.49645	-91.63869	29.09	28.99245	99	0	85	4.578601	-2.505105	-171.4686	
14:51:18	47.4454	-122.3033	14.605	14.73484	-61.19225	30.24	30.23426	99	0	85	3.532749	-2.295418	-166.1603	
14:51:20	47.44492	-122.3035	13.004	13.23059	-58.04493	31.08	30.94414	99	0	85	2.571358	-1.996365	-161.8832	
14:51:22	47.44444	-122.3037	11.979	12.15532	-65.12759	31.4	30.98963	99	0	85	1.593294	-1.780695	-158.4434	
14:51:24	47.44394	-122.304	10.631	10.83586	-62.92957	31.7	31.27109	99	0	85	0.7869767	-1.567237	-156.3319	
14:51:25	47.44349	-122.3042	9.526	9.676199	-69.56819	31.92	31.62477	99	0	76	0.06321336	-1.655693	-155.2923	
14:51:27	47.44303	-122.3045	8.243	8.420424	-90.46635	31.48	31.28023	99	0	83	2.098631	-2.231537	-150.6652	
14:51:29	47.44265	-122.3048	7.121	7.051459	-72.94357	31.74	31.4242	99	0	88	-0.8578185	-2.022632	-149.6006	
14:51:30	47.44252	-122.3049	6.855	6.684432	-24.7249	32.02	31.71173	99	0	89	-0.1208438	-1.520141	-151.4358	
14:51:32	47.44177	-122.3054	7.198	7.023541	88.2702	32.02	31.79646	99	0	89	0.9338202	0.7443032	-150.2615	
14:51:34	47.44131	-122.3058	9.599	8.796942	76.84583	31.65	31.49538	99	0	89	0.6992241	0.3997295	-148.2374	
14:51:35	47.44116	-122.3059	10.27	10.86485	126.7461	31.58	31.42137	99	0	89	-0.1444182	0.7666425	-146.6136	
14:51:37	47.44116	-122.3059	10.27	11.21478	83.85471	31.58	31.42159	99	0	89	-1.148719	0.8630774	-144.789	
14:51:39	47.44116	-122.3059	10.27	10.87678	39.38144	31.58	31.41824	99	0	89	-1.819922	0.9570743	-142.9722	
14:51:40	47.44116	-122.3059	10.27	10.59246	21.24115	31.58	31.41223	99	0	89	-2.284526	1.032248	-141.2957	
14:51:42	47.44116	-122.3059	10.27	10.481	18.03913	31.58	31.38912	99	0	89	-2.586409	1.064008	-139.861	
14:51:44	47.44116	-122.3059	10.27	10.45701	18.28132	31.58	31.38754	99	0	89	-2.785315	1.067032	-138.6864	
14:51:46	47.44116	-122.3059	10.27	10.45137	17.71035	31.58	31.39326	99	0	89	-2.925526	1.062207	-137.7356	
14:51:47	47.44116	-122.3059	10.27	10.44008	16.13275	31.58	31.40115	99	0	89	-2.961219	1.019719	-137.0994	
14:51:49	47.44116	-122.3059	10.27	10.42296	14.26837	31.58	31.4053	99	0	89	-2.946407	0.9623098	-136.7171	
14:51:51	47.44116	-122.3059	10.27	10.40587	12.65808	31.58	31.40592	99	0	89	-2.938317	0.9170399	-136.4606	
14:51:52	47.44116	-122.3059	10.27	10.39152	11.39941	31.58	31.41258	99	0	89	-2.859865	0.8505909	-136.4789	
14:51:54	47.44116	-122.3059	10.27	10.37966	10.32969	31.58	31.41906	99	0	89	-2.759814	0.783144	-136.6878	
14:51:56	47.44116	-122.3059	10.27	10.36899	9.292182	31.58	31.42318	99	0	89	-2.690942	0.7370684	-136.8985	
14:51:57	47.44116	-122.3059	10.27	10.35904	8.358759	31.58	31.4252	99	0	89	-2.571862	0.680329	-137.3272	
14:51:59	47.44116	-122.3059	10.27	10.35037	7.571254	31.58	31.42583	99	0	89	-2.450521	0.630487	-137.8528	
14:52:01	47.44116	-122.3059	10.27	10.34283	6.875673	31.58	31.4256	99	0	89	-2.365916	0.6000311	-138.2977	
14:52:02	47.44116	-122.3059	10.27	10.33607	6.216354	31.58	31.42494	99	0	89	-2.248479	0.5649583	-138.8988	
14:52:04	47.44116	-122.3059	10.27	10.32959	5.605059	31.58	31.42457	99	0	89	-2.133731	0.5364851	-139.5283	
14:52:06	47.44116	-122.3059	10.27	10.32382	5.066663	31.58	31.42469	99	0	89	-2.053529	0.5215661	-140.0423	
14:52:08	47.44116	-122.3059	10.27	10.31862	4.576621	31.58	31.42508	99	0	89	-1.955862	0.5056199	-140.6214	
14:52:09	47.44116	-122.3059	10.27	10.31404	4.157426	31.58	31.42512	99	0	88	-1.857988	0.4928172	-141.2065	
14:52:11	47.44116	-122.3059	10.27	10.31005	3.782844	31.58	31.42401	99	0	89	-1.789399	0.4877959	-141.6837	
14:52:13	47.44116	-122.3059	10.27	10.30638	3.424945	31.58	31.42292	99	0	89	-1.711253	0.4822945	-142.1748	
14:52:14	47.44116	-122.3059	10.27	10.30285	3.092149	31.58	31.42347	99	0	89	-1.636216	0.4784291	-142.6492	
14:52:16	47.44116	-122.3059	10.27	10.29968	2.789856	31.58	31.42455	99	0	89	-1.583714	0.4784679	-143.0325	
14:52:18	47.44116	-122.3059	10.27	10.29675	2.51103	31.58	31.42564	99	0	89	-1.52501	0.4777234	-143.4029	
14:52:19	47.44116	-122.3059	10.27	10.29403	2.24913	31.58	31.42596	99	0	89	-1.470118	0.4774687	-143.7453	
14:52:21	47.44116	-122.3059	10.27	10.29152	2.016475	31.58	31.4257	99	0	89	-1.431712	0.4790619	-144.0224	
14:52:23	47.44116	-122.3059	10.27	10.28937	1.817664	31.58	31.42592	99	0	89	-1.389876	0.4796712	-144.2728	
14:52:24	47.44116	-122.3059	10.27	10.28739	1.629626	31.58	31.42659	99	0	89	-1.350832	0.4799778	-144.4976	
14:52:26	47.44116	-122.3059	10.27	10.28558	1.459949	31.58	31.42735	99	0	89	-1.323483	0.4811979	-144.6819	
14:52:28	47.44116	-122.3059	10.27	10.28403	1.318132	31.58	31.42789	99	0	89	-1.295452	0.4815484	-144.8331	
14:52:30	47.44116	-122.3059	10.27	10.28264	1.187204	31.58	31.42807	99	0	89	-1.268319	0.4812716	-144.964	
14:52:31	47.44116	-122.3059	10.27	10.28139	1.069967	31.58	31.42813	99	0	89	-1.249377	0.481568	-145.0733	
14:52:33	47.44116	-122.3059	10.27	10.28024	0.9598724	31.58	31.42842	99	0	89	-1.230295	0.4811092	-145.154	
14:52:35	47.44116	-122.3059	10.27	10.2792	0.8620269	31.58	31.42867	99	0	89	-1.212347	0.4801384	-145.2178	
14:52:36	47.44116	-122.3059	10.27	10.27822	0.7686367	31.58	31.42889	99	0	89	-1.199914	0.479633	-145.2737	
14:52:38	47.44116	-122.3059	10.27	10.27737	0.689865	31.58	31.42904	99	0	89	-1.187905	0.4786297	-145.3069	
14:52:40	47.44116	-122.3059	10.27	10.27661	0.6207451	31.58	31.42908	99	0	89	-1.176133	0.4770525	-145.3265	
14:52:41	47.44116	-122.3059	10.27	10.27596	0.5585507	31.58	31.42911	99	0	89	-1.168019	0.4759483	-145.3472	
14:52:43	47.44116	-122.3059	10.27	10.27534	0.5000047	31.58	31.42918	99	0	89	-1.160588	0.474582	-145.3551	
14:52:45	47.44116	-122.3059	10.27	10.27479	0.4480758	31.58	31.42922	99	0	89	-1.153115	0.4727344	-145.3482	
14:52:47	47.44116	-122.3059	10.27	10.27429	0.4019814	31.58	31.42925	99	0	89	-1.148013	0.4713565	-145.3472	
14:52:48	47.44116	-122.3059	10.27	10.27385	0.3607738	31.58	31.42927	99	0	89	-1.143364	0.4698214	-145.3373	
14:52:50	47.44116	-122.3059	10.27	10.27345	0.3232281	31.58	31.42928	99	0	89	-1.138894	0.4679652	-145.32	
14:52:52	47.44116	-122.3059	10.27	10.27309	0.2888637	31.58	31.42929	99	0	89	-1.135875	0.4665588	-145.31	
14:52:53	47.44116	-122.3059	10.27	10.27277	0.2577572	31.58	31.4293	99	0	89	-1.133182	0.4650889	-145.2948	
14:52:55	47.44116	-122.3059	10.27	10.27246	0.2295537	31.58	31.42931	99	0	89	-1.130584	0.4633956	-145.2745	
14:52:57	47.44116	-122.3059	10.27	10.27219	0.204458	31.58	31.42932	99	0	89	-1.12885	0.4621112	-145.261	
14:52:58	47.44116	-122.3059	10.27	10.27195	0.1818421	31.58	31.42933	99	0	89	-1.127325	0.4608109	-145.2449	
14:53:00	47.44116	-122.3059	10.27	10.27174	0.1626341	31.58	31.42933	99	0	89	-1.125885	0.4593879	-145.2257	
14:53:02	47.44116	-122.3059	10.27	10.27156	0.1459161	31.58	31.42933	99	0	89	-1.124933	0.458288	-145.2128	
14:53:03	47.44116	-122.3059	10.27	10.2714	0.1314095	31.58	31.42934	99	0	89	-1.124121	0.4572217	-145.1991	
14:53:05	47.44116	-122.3059	10.27	10.27126	0.1182434	31.58	31.42935	99	0	89	-1.123356	0.4560814	-145.1833	
14:53:07	47.44116	-122.3059	10.27	10.27113	0.1058506	31.58	31.42935	99	0	89	-1.122864	0.4552095	-145.1724	
14:53:09	47.44116	-122.3059	10.27	10.27101	0.09477594	31.58	31.42936	99	0	89	-1.122467	0.4544045	-145.1621	
14:53:10	47.44116	-122.3059	10.27	10.27091	0.08473447	31.58	31.42936	99	0	89	-1.122076	0.4535251	-145.15	
14:53:12	47.44116	-122.3059	10.27	10.27081	0.07546806	31.58	31.42936	99	0	89	-1.121834	0.4528518	-145.1416	
14:53:14	47.44116	-122.3059	10.27	10.27073	0.067229	31.58	31.42937	99	0	89	-1.121648	0.4522556	-145.1339	
14:53:15	47.44116	-122.3059	10.27	10.27065	0.06016662	31.58	31.42937	99	0	89	-1.121469	0.4516191	-145.1256	
14:53:17	47.44116	-122.3059	10.27	10.27058	0.05431478	31.58	31.42938	99	0	89	-1.121365	0.4511431	-145.1197	
14:53:19	47.44116	-122.3059	10.27	10.27052	0.04870668	31.58	31.42938	99	0	89	-1.121288	0.4507207	-145.1145	
14:53:20	47.44116	-122.3059	10.27	10.27047	0.04362366	31.58	31.42938	99	0	89	-1.121219	0.4502882	-145.1093	
14:53:22	47.44116	-122.3059	10.27	10.27042	0.03900369	31.58	31.42938	99	0	89	-1.121182	0.4499633	-145.1056	
14:53:24	47.44116	-122.3059	10.27	10.27037	0.03510368	31.58	31.42938	99	0	89	-1.121157	0.4496814	-145.1024	
14:53:25	47.44116	-122.3059	10.27	10.27034	0.03164723	31.58	31.42938	99	0	89	-1.121136	0.4494011	-145.0993	
14:53:27	47.44116	-122.3059	10.27	10.27031	0.02824173	31.58	31.42939	99	0	89	-1.121127	0.449192	-145.0972	
14:53:29	47.44116	-122.3059	10.27	10.27027	0.02499499	31.58	31.42939	99	0	89	-1.121124	0.4490173	-145.0954	
14:53:31	47.44116	-122.3059	10.27	10.27024	0.0222877	31.58	31.42939	99	0	89	-1.12112	0.448848	-145.0938	
14:53:32	47.44116	-122.3059	10.27	10.27021	0.01997696	31.58	31.42939	99	0	89	-1.121122	0.4487224	-145.0927	
14:53:34	47.44116	-122.3059	10.27	10.27019	0.01809789	31.58	31.42939	99	0	89	-1.121125	0.4486247	-145.0919	
14:53:36	47.44116	-122.3059	10.27	10.27017	0.01618903	31.58	31.42939	99	0	89	-1.121126	0.448529	-145.0912	
14:53:37	47.44116	-122.3059	10.27	10.27016	0.01441148	31.58	31.42939	99	0	89	-1.12113	0.4484584	-145.0907	
14:53:39	47.44116	-122.3059	10.27	10.27014	0.01277715	31.58	31.42939	99	0	89	-1.121134	0.4484087	-145.0904	
14:53:41	47.44116	-122.3059	10.27	10.27013	0.01135792	31.58	31.42939	99	0	89	-1.121135	0.4483627	-145.0903	
14:53:42	47.44116	-122.3059	10.27	10.27011	0.01007414	31.58	31.42939	99	0	89	-1.121138	0.4483273	-145.0903	
14:53:44	47.44116	-122.3059	10.27	10.2701	0.008941403	31.58	31.42939	99	0	89	-1.121141	0.4483034	-145.0903	
14:53:46	47.44116	-122.3059	10.27	10.27009	0.007916427	31.58	31.42939	99	0	89	-1.12114	0.4482888	-145.0903	
14:53:47	47.44116	-122.3059	10.27	10.27008	0.006983532	31.58	31.42939	99	0	89	-1.121138	0.4482774	-145.0903	
14:53:49	47.44116	-122.3059	10.27	10.27007	0.006165828	31.58	31.4294	99	0	89	-1.121141	0.448273	-145.0903	
14:53:51	47.44116	-122.3059	10.27	10.27007	0.005426299	31.58	31.42939	69	0	89	-1.121141	0.4482722	-145.0906	
14:53:53	47.44116	-122.3059	10.27	10.27006	0.004786051	31.58	31.42939	71	0	91	-1.12114	0.4482746	-145.0907	
14:53:54	47.44116	-122.3059	10.27	10.27005	0.004155803	31.58	31.4294	72	0	89	-1.121138	0.448278	-145.0908	
14:53:56	47.44116	-122.3059	10.27	10.27005	0.003605111	31.58	31.42939	74	0	89	-1.121134	0.448282	-145.0911	
14:53:58	47.44116	-122.3059	10.27	10.27004	0.003134859	31.58	31.4294	75	0	89	-1.12113	0.4482879	-145.0912	
14:53:59	47.44116	-122.3059	10.27	10.27004	0.002669324	31.58	31.4294	77	0	71	-1.121127	0.4482935	-145.0913	
14:54:01	47.44107	-122.306	10.134	8.518213	-739.7698	30.54	31.21749	78	0	43	42.19966	-13.36444	-152.2308	
14:54:03	47.44074	-122.3064	0.033	1.715825	371.8214	28.67	29.20756	79	0	48	-17.50618	10.68024	-97.35973	
14:54:04	47.44055	-122.3066	10.086	10.33023	98.33136	13.6	11.43883	80	0	99	-42.10825	5.023651	176.1156	
14:54:06	47.44034	-122.3066	7.363	7.758099	-444.7239	12.93	10.99896	81	0	99	17.29913	-18.4418	165.0487	
14:54:08	47.44014	-122.3066	2.566	3.243007	-88.13742	13.73	10.94331	82	0	99	7.758629	2.781725	165.1711	
14:54:10	47.43993	-122.3065	0.033	-1.3698	-336.2966	13	10.10242	84	0	99	8.617944	13.49514	172.462	
14:54:11	47.43977	-122.3066	2.083	-1.369383	-457.2357	9.17	5.05029	85	0	99	-3.742753	-11.73631	171.4772	
14:54:13	47.43972	-122.3066	-0.001	15.80302	3637.136	9.64	5.067025	85	0	82	-44.82732	4.311157	-160.5862	
14:54:15	47.43972	-122.3066	-0.001	33.13102	2784.595	9.64	4.682497	86	0	4	-83.85806	37.2132	-155.371	
14:54:16	47.43814	-122.3112	0.02	3.560792	-1679.652	0	5.209768	87	0	4	-96.98884	45.50099	-154.6602	
14:54:18	47.43814	-122.3112	0.02	-20.40289	-2714.315	0	3.732243	88	0	4	-70.03745	43.52106	-136.4141	
14:54:20	47.43814	-122.3112	0.02	-22.11242	-1881.956	0	3.545631	89	0	4	-43.31283	38.78854	-117.5934	
14:54:21	47.43814	-122.3112	0.02	-13.61957	-811.3256	0	3.36835	89	0	4	-22.34602	32.04713	-100.3557	
14:54:23	47.43814	-122.3112	0.02	-5.35951	-166.6016	0	3.199932	90	0	4	-7.96719	24.22325	-84.27347	
14:54:25	47.43814	-122.3112	0.02	-0.887278	76.22646	0	3	91	0	4	2.732905	13.9592	-66.1928	
14:54:26	47.43814	-122.3112	0.02	0.8026352	120.3298	0	3	91	0	4	7.592996	4.723953	-48.99102	
14:54:28	47.43814	-122.3112	0.02	1.010466	90.76294	0	3	92	0	4	8.855286	-2.258517	-33.01576	
14:54:30	47.43814	-122.3112	0.02	0.7461958	54.06294	0	3	92	0	4	7.857318	-7.907144	-15.49223	
14:54:31	47.43814	-122.3112	0.02	0.4500519	27.95297	0	3	93	0	4	6.707767	-11.02546	-2.293464	
14:54:33	47.43814	-122.3112	0.02	0.241797	12.54834	0	3	93	0	4	6.275501	-12.5991	6.46968	
14:54:35	47.43814	-122.3112	0.02	0.1216054	5.973946	0	3	94	0	4	5.687117	-12.91115	13.75222	
14:54:37	47.43814	-122.3112	0.02	0.08462349	5.770562	0	3	94	0	4	5.701517	-12.88343	18.65285	
14:54:38	47.43814	-122.3112	0.02	0.08007428	3.403403	0	3	94	0	4	5.92058	-12.82048	22.44569	
14:54:40	47.43815	-122.3112	0.019	-0.0175077	-7.177304	0.51	3	95	0	4	6.819733	-9.973147	19.26649	
14:54:42	47.43816	-122.3112	0.02	0.001323384	2.981742	0.85	3	95	0	25	8.008884	-8.225743	10.85676	
14:54:43	47.43819	-122.3112	0.024	-0.1114987	-36.87215	4.81	4.954317	95	0	93	7.951954	2.701031	-2.403967	
14:54:45	47.43832	-122.3113	0.166	-0.02218119	163.4258	13.89	13.8416	96	0	93	-1.250026	8.281858	-6.037857	
14:54:47	47.43851	-122.3115	2.435	2.050858	96.27846	18.92	18.26024	96	0	93	-0.7096925	0.06942288	-11.33683	
14:54:48	47.4388	-122.3118	4.67	4.634548	158.2221	22.8	22.79731	96	0	93	24.29728	-1.761517	-5.252429	
14:54:50	47.4391	-122.3119	8.661	8.861786	214.871	24.18	26.63185	96	0	93	29.18868	-3.641376	15.55431	
14:54:52	47.43948	-122.3119	11.479	11.52377	127.5961	26.35	29.98765	97	0	93	28.72736	-5.743083	34.42349	
14:54:53	47.43986	-122.3116	11.417	12.38261	165.0444	28.57	33.22815	97	0	94	36.73027	-5.044805	57.71152	
14:54:55	47.44011	-122.3109	10.66	12.3273	100.9894	30.41	34.80431	97	0	93	38.54059	-6.744809	85.40845	
14:54:57	47.44011	-122.3103	10.347	12.31365	169.0428	31.45	34.60472	97	0	93	38.91724	-7.18921	119.0638	
14:54:59	47.43986	-122.3097	8.32	10.60494	277.4059	32.39	33.36081	97	0	93	27.05545	-5.996173	148.9467	
14:55:00	47.43947	-122.3092	9.8	10.9043	22.93259	31.81	32.23807	98	0	93	-3.721567	-11.26729	159.4665	
14:55:02	47.43909	-122.3088	10.324	10.18632	-50.12893	31.04	30.59977	98	0	72	4.171048	-10.60174	165.9167	
14:55:04	47.43869	-122.3084	9.313	9.124569	-70.76654	30.19	28.93938	98	0	70	5.796524	-10.61154	169.4208	
14:55:05	47.43832	-122.3081	8.564	8.481799	-47.08403	29.58	28.22766	98	0	73	5.509562	-9.484474	172.5056	
14:55:07	47.43792	-122.3078	8.591	8.403111	8.325524	29.75	28.87691	98	0	84	5.686288	-7.787578	175.9292	
14:55:09	47.4376	-122.3076	8.802	7.875594	-184.7144	30.38	29.94208	98	0	84	18.58124	-10.40291	179.3821	
14:55:10	47.43755	-122.3076	8.558	7.151731	-125.1847	30.52	30.16023	98	0	85	43.26852	-8.520537	-163.9623	
14:55:12	47.43667	-122.3077	21.796	12.11332	-9.985457	26.65	33.64299	98	0	84	5.294518	-13.34823	-139.2719	
14:55:14	47.43643	-122.3081	27.611	23.50694	107.4229	27.59	34.29176	98	0	84	-31.2697	-19.13934	-150.9745	
14:55:15	47.43605	-122.3085	26.166	26.7629	67.40646	29.29	32.6176	99	0	49	-22.23254	-18.42314	-179.0674	
14:55:17	47.43565	-122.3085	27.967	33.13949	779.1976	26.21	25.34508	99	0	45	-4.59433	-1.906506	162.4488	
14:55:19	47.43525	-122.3084	23.708	25.64162	-636.2516	24.98	23.33558	99	0	45	4.369793	-27.20146	154.301	
14:55:20	47.43484	-122.3083	9.968	12.46973	-382.8479	28.4	26.18267	99	0	45	23.21133	-14.76618	162.6702	
14:55:22	47.43444	-122.3082	7.304	6.993753	-90.86601	27.24	24.84542	99	0	45	3.785534	-5.854055	166.0486	
14:55:24	47.43403	-122.3082	7.383	6.549187	-84.19124	25.48	23.60035	99	0	45	6.025375	-6.699225	169.732	
14:55:26	47.43365	-122.3081	7.544	7.392622	-7.151898	24.12	22.88508	99	0	24	6.533662	-6.185763	170.976	
14:55:27	47.43328	-122.3081	6.704	7.26245	63.84076	22.84	21.59989	99	0	43	3.850216	-3.679361	174.4686	
14:55:29	47.43293	-122.3081	7.135	7.573642	73.95979	22.31	21.13369	99	0	42	4.322604	-2.27	-179.7331	
14:55:31	47.43263	-122.3081	7.608	7.903337	46.11521	21.76	20.66807	99	0	49	3.129464	-2.027303	-174.1563	
14:55:32	47.4323	-122.3082	8.072	7.948934	-120.5643	21.98	20.90359	99	0	51	-0.3504746	-6.962411	-172.6954	
14:55:34	47.43207	-122.3082	6.428	6.791827	29.61714	22.89	22.11642	99	0	49	-3.646361	-3.288176	-171.6265	
14:55:36	47.4316	-122.3083	3.407	5.010185	85.70305	23.98	23.54368	99	0	51	-0.06122084	0.3980269	-170.6788	
14:55:37	47.43119	-122.3084	4.004	4.578868	27.06812	23.56	23.2576	99	0	51	-3.234344	0.5727718	-169.7393	
14:55:39	47.43087	-122.3085	4.138	4.145115	-19.92596	23.21	23.02414	99	0	40	-0.8973527	-0.1941886	-171.1009	
14:55:41	47.4305	-122.3085	3.767	3.774061	-23.4802	23	22.77771	99	0	45	-1.558344	-0.4879693	-171.5708	
14:55:42	47.43019	-122.3086	3.451	3.580414	12.57903	23.26	23.04383	99	0	55	-1.566653	0.2800506	-173.2139	
14:55:44	47.42981	-122.3087	3.958	4.020735	53.45554	24	23.8699	99	0	55	0.2258285	1.040718	-172.3479	
14:55:46	47.42945	-122.3087	6.076	5.090127	60.96637	24.23	24.13452	99	0	51	0.2936061	0.7465059	-171.4314	
14:55:48	47.42912	-122.3088	8.761	8.157032	131.9605	24.2	24.10252	99	0	51	-5.285904	0.3097686	-170.4854	
14:55:49	47.42873	-122.3088	11.377	10.7752	82.80699	24.23	24.00627	99	0	51	-44.07615	-0.5997882	169.2152	
14:55:51	47.42843	-122.3086	13.05	13.89224	238.0744	23.76	23.03831	99	0	51	-45.44475	3.301678	129.4364	
14:55:53	47.42826	-122.3081	14.35	15.51842	142.2044	22.94	22.79132	99	0	51	-43.33886	3.753997	94.80042	
14:55:54	47.42833	-122.3076	12.871	14.34027	-19.84311	22.1	22.37464	99	0	51	-41.58733	4.027633	63.62151	
14:55:56	47.42856	-122.3072	9.986	11.06484	-166.2063	21.43	22.0067	99	0	51	-40.49567	4.072091	35.74492	
14:55:58	47.42883	-122.3071	6.877	6.779455	-257.2188	20.9	21.65152	99	0	51	-39.48213	3.641653	9.665936	
14:55:59	47.42915	-122.3072	3.175	2.961748	-238.8053	21.42	21.49905	99	0	51	-34.73061	-1.482613	-35.92469	
14:56:01	47.4294	-122.3075	0.037	0.3178209	-48.22422	22.31	22.96843	99	0	51	10.22736	5.805881	-47.90092	
14:56:03	47.4296	-122.3078	0.037	0.05118765	249.4137	22.67	23.05678	99	0	72	2.445672	13.54329	-47.27742	
14:56:05	47.42988	-122.3083	5.552	3.95733	-30.84499	23.45	22.32722	99	0	99	-2.814567	2.31615	-50.50842	
14:56:06	47.43011	-122.3087	6.156	5.692992	-34.02458	26.25	25.08392	99	0	99	16.62933	1.064336	-55.40937	
14:56:08	47.43039	-122.3092	6.627	6.015503	51.90721	27.87	26.79912	99	0	99	24.44323	3.102911	-47.67356	
14:56:10	47.43072	-122.3096	8.752	8.420673	41.61671	28.42	27.76312	99	0	99	33.89836	1.72124	-39.02236	
14:56:11	47.43107	-122.3099	7.423	8.673091	202.3624	28.83	27.6958	99	0	99	33.49678	5.640513	-20.30183	
14:56:13	47.4315	-122.31	6.978	7.759598	-65.98578	28.66	27.43414	99	0	99	43.47837	3.16517	-4.402003	
14:56:15	47.43192	-122.3099	3.769	4.442016	-254.4012	28.97	27.66649	99	0	100	48.10468	-5.84694	21.83786	
14:56:16	47.43227	-122.3095	4.939	5.512048	705.6783	27.96	27.12809	99	0	98	12.49939	13.27941	66.38654	
14:56:18	47.43246	-122.3089	5.321	5.388361	138.3697	30.34	28.56667	99	0	100	4.728845	7.418861	69.02012	
14:56:20	47.43263	-122.3083	6.426	6.107921	-155.5523	29.94	28.62794	99	0	76	-17.34154	1.907499	67.65385	
14:56:21	47.43284	-122.3078	6.839	7.584425	241.5892	29.41	28.06803	99	0	95	-29.99434	9.22016	52.14933	
14:56:23	47.43317	-122.3074	11.591	11.65819	242.7231	28.78	27.22862	99	0	100	-36.36295	9.37118	34.97753	
14:56:25	47.43359	-122.3071	13.273	13.28887	212.3697	29.16	27.04064	99	0	100	-42.63908	10.33054	13.63827	
14:56:27	47.43404	-122.307	16.069	15.43668	-67.65065	29.2	26.49332	99	0	100	-47.1724	3.298909	-10.11451	
14:56:28	47.43446	-122.3073	16.04	15.36773	-630.9116	30.08	28.80286	99	0	98	-3.098949	-12.38937	-28.96292	
14:56:30	47.43488	-122.3076	8.117	9.441087	-96.25502	32.09	30.85378	99	0	89	5.065204	-2.973776	-30.35872	
14:56:32	47.43529	-122.3079	5.489	5.95634	-33.9791	31.83	30.42689	99	0	89	14.38362	0.8285132	-26.04867	
14:56:33	47.43572	-122.3081	4.234	4.336118	9.602729	31.2	30.11716	99	0	89	14.87577	3.395758	-20.04021	
14:56:35	47.43623	-122.3083	3.164	3.07449	-153.5862	30.25	29.31332	99	0	89	21.38108	0.143658	-15.10823	
14:56:37	47.43666	-122.3083	1.091	1.202401	-105.3783	29.65	28.64989	99	0	89	19.07618	1.194086	-8.359823	
14:56:38	47.43713	-122.3083	3.206	2.824554	-195.8602	27.76	26.8735	99	0	89	-2.811968	-2.783184	-7.351383	
14:56:40	47.43751	-122.3083	0.786	3.947949	714.9826	27.18	25.82574	99	0	100	14.50129	15.20945	-10.89575	
14:56:42	47.43798	-122.3083	0.925	2.216687	-192.0042	27.87	26.56358	99	0	98	16.18227	2.142145	-14.57705	
14:56:43	47.43825	-122.3083	1.177	1.188486	-290.3047	27.63	26.21673	99	0	98	11.42252	-1.806309	-9.046045	
14:56:45	47.43832	-122.3083	1.558	-4.531991	-1032.688	27.64	26.32711	99	0	100	-5.310214	-28.90707	-11.12836	
14:56:47	47.4385	-122.3083	0.339	-11.07113	-1383.73	27.91	24.83481	99	0	88	-6.256553	-46.78769	-24.13174	
14:56:48	47.43814	-122.3112	0.02	-11.86064	-976.8145	0	4.952881	99	0	5	1.83771	-44.28538	-37.81817	
14:56:50	47.43814	-122.3112	0.02	-6.341995	-271.291	0	4.952881	99	0	4	9.020272	-30.67963	-50.99463	
14:56:52	47.43814	-122.3112	0.019	-0.8679452	156.5238	0	4.469975	99	0	4	10.53503	-18.02582	-60.87963	
14:56:54	47.43814	-122.3112	0.019	2.012001	293.8121	0	4.469975	99	0	4	5.52217	-12.20717	-49.50235	
14:56:55	47.43814	-122.3112	0.019	2.824049	292.3145	0	4.246477	99	0	4	2.940572	-7.231117	-40.03472	
14:56:57	47.43814	-122.3112	0.019	2.752105	259.512	0	4.034153	99	0	4	1.558536	-2.60506	-31.93251	
14:56:59	47.43814	-122.3112	0.02	2.472039	228.3388	0	3.52585	99	0	4	1.094153	0.8716068	-25.43747	
14:57:00	47.43814	-122.3112	0.02	2.194315	201.7388	0	3.243783	99	0	4	1.019857	3.144987	-19.66102	
14:57:02	47.43815	-122.3112	0.02	1.978466	184.8953	0.5	3	99	0	34	0.8026228	4.927824	-18.44463	
14:57:04	47.43817	-122.3112	0.021	1.905955	191.0939	2.98	3	99	0	23	0.6292093	6.118749	-25.40472	
14:57:05	47.43824	-122.3112	0.022	1.831497	165.662	5.69	4.800169	99	0	23	1.18776	5.376909	-0.5337216	
14:57:07	47.43832	-122.3112	0.022	1.226583	77.21513	6.29	4.60284	99	0	5	5.336627	2.273359	58.43086	
14:57:09	47.43837	-122.3111	0.022	0.8602229	88.55355	6.41	4.901393	99	0	4	4.234489	5.052325	44.88415	
14:57:11	47.43844	-122.311	0.022	0.9521579	85.67359	5.72	4.968964	99	0	4	-2.141603	5.852751	-13.51277	
14:57:12	47.43851	-122.3111	0.021	0.5835558	31.70722	5.12	5.814877	99	0	4	-5.038231	1.800618	-71.87807	
14:57:14	47.43852	-122.3112	0.022	0.4452827	53.11325	5.17	6.399506	99	0	5	-5.741944	2.786358	-84.00517	
14:57:16	47.43853	-122.3113	0.022	0.7629065	92.81399	5.29	5.979463	99	0	5	-2.460838	5.53355	-53.09064	
14:57:17	47.43857	-122.3114	0.022	0.8887288	80.99942	5.2	5.126832	99	0	4	1.650239	5.072005	-11.53966	
14:57:19	47.43866	-122.3114	0.022	0.740572	65.26395	5.15	4.829831	99	0	14	2.645818	5.420115	-2.025118	
14:57:21	47.43873	-122.3115	0.022	0.6990369	63.85061	5.82	5.596394	99	0	16	-0.8709064	5.650869	-37.87352	
14:57:22	47.43877	-122.3116	0.021	0.457275	18.54042	6.62	6.801938	99	0	16	-5.130559	3.698556	-81.94781	
14:57:24	47.43875	-122.3118	0.015	0.8852493	253.4622	7.2	7.690069	99	0	16	-4.434966	3.182562	-69.71107	
14:57:26	47.43877	-122.3119	-0.007	1.552437	-36.62072	5.4	5.502693	99	0	65	1.62674	10.31452	-25.48462	
14:57:27	47.43882	-122.312	0.018	-0.05393644	-2.697313	3.74	3.938106	99	0	98	-0.7740163	6.230051	8.725203	
14:57:29	47.43886	-122.312	0.022	-0.8801456	-91.77508	1.85	3	99	0	98	15.22488	0.2799838	21.46428	
14:57:31	47.43887	-122.312	0.022	-0.2925984	22.32345	0.82	3	99	0	98	12.76102	-39.97387	22.01801	
14:57:33	47.43887	-122.312	0.022	-2.429279	-622.2861	0.82	3	99	0	28	-153.5551	-87.35351	-173.4085	
14:57:34	47.43814	-122.3112	0.019	-10.59163	-1394.132	0	3	99	0	5	-7.749791	-71.04571	41.04844	
14:57:36	47.43814	-122.3112	0.019	-11.5403	-963.1721	0	3	99	0	4	-5.549226	-49.08532	39.63906	
14:57:38	47.43814	-122.3112	0.019	-6.154444	-247.4933	0	3	99	0	4	-3.465265	-31.53816	38.03295	
14:57:39	47.43814	-122.3112	0.019	-0.5136034	213.7777	0	3	99	0	4	0.4496831	-18.56929	29.29771	
14:57:41	47.43814	-122.3112	0.02	2.723907	381.5744	0	3	99	0	4	2.399773	-6.758387	18.60209	
14:57:43	47.43814	-122.3112	0.02	3.677926	376.924	0	3	99	0	5	1.856931	1.486175	15.10713	
14:57:44	47.43814	-122.3112	0.02	3.450798	312.9364	0	3	99	0	4	1.229687	7.212214	13.19647	
14:57:46	47.43814	-122.3112	0.02	2.843153	245.0022	0	3	99	0	4	0.4307136	11.51516	10.60258	
14:57:48	47.43814	-122.3112	0.021	2.23177	188.1411	0	3	99	0	4	-0.1616886	14.59684	8.580491	
14:57:49	47.43814	-122.3112	0.021	1.717759	143.7517	0	3	99	0	4	-0.5272844	16.73064	7.074056	
14:57:51	47.43814	-122.3112	0.021	1.345461	114.5262	0	3	99	0	4	-0.7821392	17.55922	5.734767	
14:57:53	47.43814	-122.3112	0.021	1.09781	96.28318	0	3	99	0	4	-0.8988894	18.06995	4.68918	
14:57:54	47.43814	-122.3112	0.021	1.010458	99.54466	0.31	3	99	0	4	-1.779171	18.08557	1.254205	
14:57:56	47.43815	-122.3112	0.021	0.9958383	95.4968	0.66	3	99	0	4	-3.630581	17.14082	-6.882368	
14:57:58	47.43816	-122.3112	0.02	0.9514679	90.24044	0.97	3	99	0	4	-5.025107	16.60562	-15.54714	
14:58:00	47.43818	-122.3112	0.021	0.8777301	80.66199	1.33	3	99	0	4	-5.271085	16.0092	-21.4091	
14:58:01	47.43821	-122.3112	0.022	0.9910482	131.9796	3.61	3	99	0	49	-3.594081	13.16487	-19.96675	
14:58:03	47.43829	-122.3113	0.021	1.752391	204.7307	8.25	7.754996	99	0	49	-0.2746679	9.603043	-7.883985	
14:58:05	47.4384	-122.3113	0.019	1.834416	166.5038	11.01	11.38201	99	0	50	2.204356	9.073846	3.700958	
14:58:06	47.43864	-122.3113	0.019	1.489172	125.513	14.41	14.42273	99	0	50	1.725608	7.776397	0.2341898	
14:58:08	47.43886	-122.3114	0.016	1.094949	88.4448	16.26	16.10921	99	0	53	1.220284	7.329295	-0.448771	
14:58:10	47.43914	-122.3114	0.016	0.8248428	69.55293	17.91	17.78737	99	0	55	1.05786	6.354668	-0.7607532	
14:58:11	47.43937	-122.3115	0.015	0.660557	60.32109	18.83	18.89002	99	0	55	1.379792	5.241612	4.413208	
14:58:13	47.4397	-122.3115	0.015	0.52451	40.78383	19.63	19.76275	99	0	55	1.768273	4.179376	8.899304	
14:58:15	47.43998	-122.3114	0.013	0.4582909	49.1507	20.09	20.27419	99	0	53	1.837594	3.685757	11.65895	
14:58:17	47.4403	-122.3114	0.015	0.4495787	38.77877	20.41	20.5156	99	0	53	1.716085	2.897219	13.05644	
14:58:18	47.44059	-122.3113	0.013	0.3732873	27.8904	20.64	20.67067	99	0	55	1.33927	2.375791	13.04031	
14:58:20	47.44094	-122.3112	0.013	0.3423885	35.99036	20.85	20.8017	99	0	55	1.184043	2.033015	12.03207	
14:58:22	47.44121	-122.3112	0.014	0.3847583	30.66448	20.97	20.87301	99	0	55	0.9628075	1.428691	10.29029	
14:58:23	47.44159	-122.3111	0.015	0.2815721	22.6174	21.09	20.9414	99	0	55	0.8171445	1.075973	8.149194	
14:58:25	47.44186	-122.3111	0.016	0.2516551	22.23263	21.16	20.99006	99	0	55	0.7293102	0.667069	5.910583	
14:58:27	47.44218	-122.311	0.013	0.2175842	19.03303	21.23	21.0325	99	0	55	0.6263712	0.3573529	3.680374	
14:58:28	47.44251	-122.311	0.016	0.2447482	22.56241	21.29	21.11557	99	0	55	0.4610205	-0.2168552	1.723411	
14:58:30	47.44283	-122.311	0.015	0.2609499	26.08745	21.36	21.19535	99	0	55	0.4489059	-0.3860467	0.2083039	
14:58:32	47.44318	-122.311	0.015	0.2791576	28.86773	21.41	21.25168	99	0	55	0.4739321	-0.6996547	-2.11777	
14:58:33	47.44353	-122.311	0.015	0.3240326	31.42795	21.4	21.00649	99	0	55	0.8478894	-1.008661	-7.216988	
14:58:35	47.4436	-122.311	0.017	0.1119325	-13.3903	21.4	21.03064	99	0	53	0.6734591	-1.4309	-15.07558	
14:58:37	47.4436	-122.311	0.017	0.09318712	-15.52642	21.4	21.03064	99	0	55	0.5609944	-1.995887	-23.2056	
14:58:39	47.44443	-122.3114	0.017	-0.03578936	-7.115445	21.4	20.63462	99	0	53	-0.6081586	-1.905184	-28.50266	
14:58:40	47.44471	-122.3116	0.018	0.06848196	11.27319	21.57	20.96913	99	0	55	1.59932	0.5329422	-31.4064	
14:58:42	47.44501	-122.3118	0.587	1.382017	403.7912	18.82	18.51615	99	0	64	4.284671	11.27285	-29.73646	
14:58:44	47.44517	-122.312	0.109	-1.452428	-499.245	16.68	15.4828	99	0	5	4.59192	-17.20548	-27.92512	
14:58:45	47.44517	-122.312	0.109	-5.337091	-659.274	16.68	15.02223	99	0	4	2.872551	-28.10315	-32.05951	
14:58:47	47.44517	-122.312	0.109	-6.117989	-620.0005	16.68	14.4796	99	0	4	4.020302	-36.50423	-40.25088	
14:58:49	47.43814	-122.3112	0.02	-5.463899	-404.9884	0	3	99	0	4	8.581436	-30.53466	-51.48123	
14:58:50	47.43814	-122.3112	0.019	-2.253006	-31.58256	0	3	99	0	4	9.932857	-18.29519	-62.05295	
14:58:52	47.43814	-122.3112	0.019	-0.6168613	104.5244	0	3	99	0	4	6.529274	-8.586748	-61.75683	
14:58:54	47.43814	-122.3112	0.019	1.568148	235.5249	0	3	99	0	4	3.029321	-2.734385	-51.91169	
14:58:55	47.43814	-122.3112	0.019	2.257168	230.9424	0	3	99	0	4	1.426968	0.3618311	-38.74811	
14:58:57	47.43814	-122.3112	0.019	2.095988	188.2389	0	3	99	0	4	0.6431361	3.130222	-27.55762	
14:58:59	47.43814	-122.3112	0.019	1.733926	151.2337	0	3	99	0	4	0.3357005	5.146415	-18.91779	
14:59:01	47.43814	-122.3112	0.019	1.429689	126.1123	0	3	99	0	4	0.2486334	6.46832	-10.93518	
14:59:02	47.43814	-122.3112	0.019	1.216298	109.2658	0	3	99	0	4	0.1523354	7.327272	-4.108022	
14:59:04	47.43814	-122.3112	0.019	1.058559	95.93367	0	3	99	0	4	-0.04629561	7.939775	0.9393451	
14:59:06	47.43814	-122.3112	0.019	0.9301928	84.28065	0	3	99	0	4	-0.2814176	8.085052	4.976143	
14:59:07	47.43814	-122.3112	0.019	0.8253197	75.16759	0	3	99	0	5	-0.5688153	7.998901	8.051748	
14:59:09	47.43814	-122.3112	0.019	0.7415726	67.83321	0	3	99	0	5	-0.8905496	7.942066	10.12791	
14:59:11	47.43814	-122.3112	0.019	0.6701943	61.37946	0	3	99	0	4	-1.211315	7.552189	11.3048	
14:59:12	47.43814	-122.3112	0.019	0.6137782	56.55432	0	3	99	0	4	-1.505655	7.074183	11.76034	
14:59:14	47.43814	-122.3112	0.019	0.5673544	52.2726	0	3	99	0	4	-1.736499	6.741915	11.95205	
14:59:16	47.43814	-122.3112	0.019	0.5245671	48.22219	0	3	99	0	4	-1.922677	6.234943	11.40592	
14:59:17	47.43814	-122.3112	0.019	0.4889848	45.12207	0	3	99	0	4	-2.022697	5.615792	10.49195	
14:59:19	47.43814	-122.3112	0.019	0.4576584	42.06012	0	3	99	0	4	-2.084151	5.186719	9.579508	
14:59:21	47.43814	-122.3112	0.019	0.4256781	38.80775	0	3	99	0	4	-2.076839	4.7196	8.521579	
14:59:22	47.43814	-122.3112	0.019	0.3971231	36.33813	0	3	99	0	4	-1.999368	4.149733	7.093595	
14:59:24	47.43814	-122.3112	0.019	0.3734417	34.10456	0	3	99	0	4	-1.919158	3.768711	5.956365	
14:59:26	47.43814	-122.3112	0.019	0.3500878	31.66538	0	3	99	0	5	-1.813031	3.41139	4.831109	
14:59:28	47.43814	-122.3112	0.019	0.3253012	29.27196	0	3	99	0	4	-1.643584	2.962304	3.512459	
14:59:29	47.43814	-122.3112	0.019	0.3028381	27.0732	0	3	99	0	5	-1.503764	2.662133	2.540049	
14:59:31	47.43814	-122.3112	0.019	0.2795725	24.66436	0	3	99	0	4	-1.370861	2.412887	1.748852	
14:59:33	47.43814	-122.3112	0.019	0.2558067	22.36508	0	3	99	0	5	-1.190976	2.081702	0.8319493	
14:59:34	47.43814	-122.3112	0.019	0.2346223	20.38171	0	3	99	0	5	-1.054408	1.859326	0.1966162	
14:59:36	47.43814	-122.3112	0.019	0.2150599	18.49657	0	3	99	0	4	-0.9384465	1.681065	-0.2905049	
14:59:38	47.43814	-122.3112	0.019	0.1968941	16.80515	0	3	99	0	4	-0.7921239	1.444104	-0.8147566	
14:59:39	47.43814	-122.3112	0.019	0.1809712	15.31884	0	3	99	0	4	-0.6846602	1.281427	-1.162453	
14:59:41	47.43814	-122.3112	0.019	0.1663074	13.87037	0	3	99	0	4	-0.6000466	1.155219	-1.413933	
14:59:43	47.43814	-122.3112	0.019	0.1519868	12.52345	0	3	99	0	4	-0.4964601	0.9879584	-1.647714	
14:59:44	47.43814	-122.3112	0.019	0.1395223	11.34972	0	3	99	0	4	-0.4225883	0.8722441	-1.798612	
14:59:46	47.43814	-122.3112	0.019	0.1275698	10.19231	0	3	99	0	4	-0.3647428	0.7806492	-1.895232	
14:59:48	47.43814	-122.3112	0.019	0.1165488	9.130203	0	3	99	0	4	-0.2977988	0.6645669	-1.963766	
14:59:50	47.43814	-122.3112	0.019	0.1063187	8.152637	0	3	100	0	5	-0.2508863	0.5840609	-2.000686	
14:59:51	47.43814	-122.3112	0.019	0.09697434	7.289031	0	3	100	0	5	-0.2142161	0.5194885	-2.013694	
14:59:53	47.43814	-122.3112	0.019	0.08881229	6.533732	0	3	100	0	4	-0.1729445	0.4396884	-2.000446	
14:59:55	47.43814	-122.3112	0.019	0.08150917	5.855098	0	3	100	0	5	-0.1442222	0.3841518	-1.984282	
14:59:56	47.43814	-122.3112	0.019	0.07506954	5.248195	0	3	100	0	4	-0.1218923	0.3394499	-1.962424	
14:59:58	47.43814	-122.3112	0.019	0.06928979	4.710966	0	3	100	0	4	-0.09741371	0.2856411	-1.922241	
15:00:00	47.43814	-122.3112	0.019	0.0640053	4.216211	0	3	100	0	4	-0.08047624	0.2482485	-1.889709	
15:00:01	47.43814	-122.3112	0.019	0.05935744	3.78399	0	3	100	0	4	-0.06705603	0.2173273	-1.858837	
15:00:03	47.43814	-122.3112	0.019	0.05519865	3.388207	0	3	100	0	5	-0.05302671	0.1819579	-1.817034	
15:00:05	47.43814	-122.3112	0.019	0.0514733	3.047309	0	3	100	0	4	-0.04342384	0.157613	-1.786597	
15:00:06	47.43814	-122.3112	0.019	0.04827961	2.754284	0	3	100	0	4	-0.03580952	0.1373896	-1.757379	
15:00:08	47.43814	-122.3112	0.019	0.04541462	2.480963	0	3	100	0	4	-0.02780619	0.114059	-1.725101	
15:00:10	47.43814	-122.3112	0.019	0.04270778	2.219129	0	3	100	0	4	-0.02239091	0.09819683	-1.700995	
15:00:12	47.43814	-122.3112	0.019	0.04023328	1.989186	0	3	100	0	4	-0.0183073	0.08580451	-1.683145	
15:00:13	47.43814	-122.3112	0.019	0.03809023	1.788522	0	3	100	0	5	-0.01391487	0.07073227	-1.660541	
15:00:15	47.43814	-122.3112	0.019	0.03609398	1.600516	0	3	100	0	5	-0.01085954	0.06020308	-1.64508	
15:00:17	47.43814	-122.3112	0.019	0.03432036	1.436083	0	3	100	0	4	-0.008677787	0.05248328	-1.633155	
15:00:18	47.43814	-122.3112	0.019	0.03279101	1.294348	0	3	100	0	4	-0.006345571	0.04290701	-1.620748	
15:00:20	47.43814	-122.3112	0.019	0.0314167	1.167265	0	3	100	0	4	-0.004735387	0.03627542	-1.612125	
15:00:22	47.43814	-122.3112	0.019	0.03020355	1.052763	0	3	100	0	4	-0.00357146	0.03131252	-1.606008	
15:00:23	47.43814	-122.3112	0.019	0.02908712	0.947316	0	3	100	0	4	-0.002413286	0.0254507	-1.600524	
15:00:25	47.43814	-122.3112	0.019	0.02807169	0.8500841	0	3	100	0	4	-0.00161426	0.02139604	-1.597052	
15:00:27	47.43814	-122.3112	0.019	0.02712138	0.7588327	0	3	100	0	4	-0.001042936	0.0183881	-1.594842	
15:00:28	47.43814	-122.3112	0.019	0.02625228	0.677693	0	3	100	0	4	-0.0005102336	0.01480513	-1.593704	
15:00:30	47.43814	-122.3112	0.019	0.02548677	0.6064612	0	3	100	0	5	-0.0001419209	0.0123231	-1.593263	
15:00:32	47.43814	-122.3112	0.019	0.02480079	0.5425712	0	3	100	0	4	0.0001142699	0.01051545	-1.593324	
15:00:34	47.43814	-122.3112	0.019	0.02418493	0.4841	0	3	100	0	4	0.0003181884	0.008383244	-1.594358	
15:00:35	47.43814	-122.3112	0.019	0.02362737	0.4329585	0	3	100	0	4	0.0004598097	0.006898979	-1.595433	
15:00:37	47.43814	-122.3112	0.019	0.02314089	0.3878952	0	3	100	0	5	0.0005542119	0.005835834	-1.596552	
15:00:39	47.43814	-122.3112	0.019	0.02271658	0.3482431	0	3	100	0	4	0.0005976623	0.004607257	-1.598528	
15:00:40	47.43814	-122.3112	0.019	0.02233916	0.3129729	0	3	100	0	5	0.0006277748	0.00374874	-1.600142	
15:00:42	47.43814	-122.3112	0.019	0.02199076	0.2798372	0	3	100	0	5	0.0006432541	0.003119164	-1.601652	
15:00:44	47.43814	-122.3112	0.019	0.02167257	0.2496166	0	3	100	0	4	0.0006185084	0.00242259	-1.603581	
15:00:45	47.43814	-122.3112	0.019	0.02138711	0.2230483	0	3	100	0	5	0.0006013418	0.001941128	-1.605169	
15:00:47	47.43814	-122.3112	0.019	0.02113224	0.1993689	0	3	100	0	4	0.0005830915	0.001585291	-1.606523	
15:00:49	47.43814	-122.3112	0.019	0.02090884	0.1784767	0	3	100	0	4	0.0005351958	0.001204888	-1.608142	
15:00:50	47.43814	-122.3112	0.019	0.02070938	0.1603464	0	3	100	0	5	0.0005019075	0.0009409255	-1.609442	
15:00:52	47.43814	-122.3112	0.019	0.02053712	0.1441921	0	3	100	0	4	0.0004752327	0.0007510569	-1.610503	
15:00:54	47.43814	-122.3112	0.019	0.02038096	0.1293409	0	3	100	0	4	0.0004235592	0.0005464289	-1.611678	
15:00:56	47.43814	-122.3112	0.019	0.02023315	0.1150695	0	3	100	0	4	0.0003878898	0.0004054845	-1.612601	
15:00:57	47.43814	-122.3112	0.019	0.0200986	0.1024332	0	3	100	0	5	0.0003598274	0.0003044392	-1.613353	
15:00:59	47.43814	-122.3112	0.019	0.01997937	0.09153562	0	3	100	0	5	0.0003154932	0.0002031612	-1.614088	
15:01:01	47.43814	-122.3112	0.019	0.01987563	0.0818245	0	3	100	0	4	0.0002850679	0.0001337966	-1.614671	
15:01:02	47.43814	-122.3112	0.019	0.01978285	0.07303534	0	3	100	0	5	0.0002631403	8.565987E-05	-1.61513	
15:01:04	47.43814	-122.3112	0.019	0.01969793	0.06531669	0	3	100	0	4	0.000227509	3.967726E-05	-1.615528	
15:01:06	47.43814	-122.3112	0.019	0.01962725	0.05892043	0	3	100	0	4	0.0002029381	8.079077E-06	-1.615852	
15:01:07	47.43814	-122.3112	0.019	0.01956397	0.05287626	0	3	100	0	5	0.0001854919	-1.4132E-05	-1.616103	
15:01:09	47.43814	-122.3112	0.019	0.01950602	0.04736381	0	3	100	0	5	0.0001583827	-3.165758E-05	-1.61627	
15:01:11	47.43814	-122.3112	0.019	0.0194519	0.04216846	0	3	100	0	5	0.0001396347	-4.364759E-05	-1.616404	
15:01:12	47.43814	-122.3112	0.019	0.01940243	0.03754955	0	3	100	0	4	0.0001267048	-5.191674E-05	-1.616518	
15:01:14	47.43814	-122.3112	0.019	0.01935882	0.03350863	0	3	100	0	4	0.0001074774	-5.528399E-05	-1.61654	
15:01:16	47.43814	-122.3112	0.019	0.01932117	0.03005464	0	3	100	0	4	9.391848E-05	-5.748133E-05	-1.616565	
15:01:18	47.43814	-122.3112	0.019	0.01928777	0.02695611	0	3	100	0	4	8.460366E-05	-5.899095E-05	-1.616593	
15:01:19	47.43814	-122.3112	0.019	0.01925832	0.02420245	0	3	100	0	5	7.153834E-05	-5.645199E-05	-1.616545	
15:01:21	47.43814	-122.3112	0.019	0.01923119	0.02163448	0	3	100	0	4	6.192324E-05	-5.44027E-05	-1.616511	
15:01:23	47.43814	-122.3112	0.019	0.01920694	0.01936224	0	3	100	0	5	5.538677E-05	-5.300965E-05	-1.616493	
15:01:24	47.43814	-122.3112	0.019	0.01918552	0.01740131	0	3	100	0	4	4.663005E-05	-4.859252E-05	-1.616417	
15:01:26	47.43814	-122.3112	0.019	0.01916723	0.01569915	0	3	100	0	4	4.012025E-05	-4.514615E-05	-1.616353	
15:01:28	47.43814	-122.3112	0.019	0.01915011	0.01405759	0	3	100	0	5	3.559812E-05	-4.275202E-05	-1.61631	
15:01:29	47.43814	-122.3112	0.019	0.01913472	0.01260834	0	3	100	0	4	2.977891E-05	-3.821454E-05	-1.616228	
15:01:31	47.43814	-122.3112	0.019	0.0191204	0.01125492	0	3	100	0	4	2.545507E-05	-3.476336E-05	-1.616176	
15:01:33	47.43814	-122.3112	0.019	0.01910793	0.01011141	0	3	100	0	4	2.246085E-05	-3.237346E-05	-1.61613	
15:01:34	47.43814	-122.3112	0.019	0.01909681	0.009067708	0	3	100	0	5	1.872371E-05	-2.851928E-05	-1.616058	
15:01:36	47.43814	-122.3112	0.019	0.01908666	0.008100723	0	3	100	0	5	1.588402E-05	-2.552969E-05	-1.616009	
15:01:38	47.43814	-122.3112	0.019	0.01907749	0.007245477	0	3	100	0	4	1.394019E-05	-2.348323E-05	-1.615972	
15:01:39	47.43814	-122.3112	0.019	0.01906936	0.006482626	0	3	100	0	5	1.155182E-05	-2.044289E-05	-1.615917	
15:01:41	47.43814	-122.3112	0.019	0.01906204	0.005797895	0	3	100	0	5	9.758858E-06	-1.812022E-05	-1.615873	
15:01:43	47.43814	-122.3112	0.019	0.01905538	0.005179335	0	3	100	0	5	8.514878E-06	-1.650871E-05	-1.615843	
15:01:45	47.43814	-122.3112	0.019	0.01904966	0.004651145	0	3	100	0	5	7.006816E-06	-1.423364E-05	-1.615807	
15:01:46	47.43814	-122.3112	0.019	0.01904452	0.004167364	0	3	100	0	5	5.877551E-06	-1.250201E-05	-1.615777	
15:01:48	47.43814	-122.3112	0.019	0.01903986	0.003729034	0	3	100	0	5	5.09272E-06	-1.129856E-05	-1.615756	
15:01:50	47.43814	-122.3112	0.019	0.01903566	0.003329966	0	3	100	0	4	4.182255E-06	-9.684845E-06	-1.615731	
15:01:51	47.43814	-122.3112	0.019	0.01903181	0.002971626	0	3	100	0	5	3.482273E-06	-8.418692E-06	-1.615713	
15:01:53	47.43814	-122.3112	0.019	0.01902846	0.002659981	0	3	100	0	4	2.996604E-06	-7.540197E-06	-1.615698	
