Date	Latitude(deg) 	Longitude(deg)	hamsl(m)	hafl(m)	climbrate(cm/s)	GroundSpeed(m/s)	Airspeed(m/s)	Mav_Link(%)	Rssi_Link(%)	Throttle	Roll(deg)	Pitch(deg)	Yaw(deg)
14:27:39	0	0	0	-0.7284527	-30.23392	0	3	39	0	4	0.2028668	-0.04563202	58.09071	
14:27:41	0	0	0	0.1276933	11.52557	0	3	49	0	5	0.1887306	-0.004074435	58.02335	
14:27:43	0	0	0	0.137268	0.06818596	0	3	56	0	4	0.1726668	0.008332164	58.01751	
14:27:44	0	0	0	0.1510456	-6.018745	0	3	62	0	4	0.2037021	0.01053734	57.99854	
14:27:46	0	0	0	-0.2699915	-19.54768	0	3	67	0	4	0.2022137	0.1343862	58.0407	
14:27:48	0	0	0	-0.3885824	-16.4284	0	3	71	0	4	0.2224613	0.1223335	58.06641	
14:27:50	0	0	0	-0.1028998	2.283718	0	3	74	0	4	0.2187225	0.1127718	58.07642	
14:27:51	0	0	0	0.149683	6.549957	0	3	77	0	4	0.1890702	0.1111922	58.0826	
14:27:53	0	0	0	0.01609202	-4.264769	0	3	80	0	4	0.1756144	0.02965507	58.08273	
14:27:55	0	0	0	0.07907542	-3.020779	0	3	82	0	4	0.173657	0.007716866	58.07303	
14:27:56	0	0	0	-0.369485	-22.62695	0	3	83	0	5	0.1809721	-0.02459448	58.07599	
14:27:58	47.45472	-122.3078	25.933	11.39963	542.0211	29.68	29.68118	85	0	4	2.420533	2.690949	65.04477	
14:28:00	47.45472	-122.3078	25.933	31.18674	993.0515	29.68	29.68118	86	0	4	2.058643	5.418679	80.81341	
14:28:01	47.45472	-122.3078	25.933	32.70356	527.5698	29.68	29.68118	88	0	4	2.587861	7.132533	100.0712	
14:28:03	47.45472	-122.3078	25.933	29.3234	155.9339	29.68	29.68118	89	0	4	3.446247	8.15372	120.4723	
14:28:05	47.45472	-122.3078	25.933	27.07864	37.13181	29.68	29.68118	90	0	4	3.923929	8.798018	138.2045	
14:28:06	47.45472	-122.3078	25.933	26.41174	36.96347	29.68	29.68118	91	0	4	3.683903	9.42353	151.4209	
14:28:08	47.45472	-122.3078	25.933	26.43073	56.81193	29.68	29.68118	91	0	4	3.197757	9.933322	163.4249	
14:28:10	47.45472	-122.3078	25.933	26.53602	64.07713	29.68	29.68118	92	0	4	2.500421	10.51301	172.5991	
14:28:12	47.45472	-122.3078	25.933	26.55173	60.34747	29.68	29.68118	93	0	4	1.693655	10.99294	179.9055	
14:28:13	47.45472	-122.3078	25.933	26.50304	53.44667	29.68	29.50566	93	0	4	0.7980769	11.26351	-173.5694	
14:28:15	47.45472	-122.3078	25.933	26.44126	47.2525	29.68	29.42883	94	0	4	0.05529584	11.53108	-167.8589	
14:28:17	47.45472	-122.3078	25.933	26.38259	41.76534	29.68	27.99391	94	0	4	-0.6524564	11.65926	-163.0179	
14:28:18	47.45472	-122.3078	25.933	26.33446	37.74392	29.68	27.99391	95	0	4	-1.372229	11.56764	-158.8539	
14:28:20	47.45472	-122.3078	25.933	26.29625	34.18439	29.68	28.10125	95	0	5	-1.910121	11.53652	-154.8398	
14:28:22	47.45472	-122.3078	25.933	26.25929	30.50715	29.68	27.18743	95	0	5	-2.407328	11.40555	-151.4522	
14:28:23	47.45472	-122.3078	25.933	26.22646	27.63812	29.68	27.18743	96	0	4	-2.906238	11.07077	-148.8019	
14:28:25	47.45472	-122.3078	25.933	26.19918	25.1464	29.68	27.8228	96	0	5	-3.277312	10.85124	-146.2154	
14:28:27	47.45472	-122.3078	25.933	26.17497	22.83013	29.68	28.21789	96	0	4	-3.605488	10.6107	-144.087	
14:28:28	47.45472	-122.3078	25.933	26.15406	21.00895	29.68	28.5303	97	0	4	-3.926594	10.14194	-142.9221	
14:28:30	47.45472	-122.3078	25.933	26.13664	19.39287	29.68	28.71291	97	0	5	-4.158222	9.820069	-141.7618	
14:28:32	47.45472	-122.3078	25.933	26.11979	17.72914	29.68	28.81895	97	0	5	-4.33856	9.51343	-140.9288	
14:28:34	47.45472	-122.3078	25.933	26.10432	16.29618	29.68	28.81895	97	0	4	-4.476499	9.051535	-140.9883	
14:28:35	47.45472	-122.3078	25.933	26.09081	15.00686	29.68	28.94123	97	0	4	-4.557878	8.74039	-140.9538	
14:28:37	47.45472	-122.3078	25.933	26.07768	13.73975	29.68	29.02011	98	0	5	-4.599936	8.448036	-141.2048	
14:28:39	47.45472	-122.3078	25.933	26.06661	12.79978	29.68	29.07057	98	0	5	-4.582242	8.069475	-142.1728	
14:28:40	47.45472	-122.3078	25.933	26.05765	11.96509	29.68	29.11182	98	0	5	-4.544911	7.8208	-142.9773	
14:28:42	47.45472	-122.3078	25.933	26.0488	11.05128	29.68	29.13041	98	0	4	-4.477874	7.596419	-143.9691	
14:28:44	47.45472	-122.3078	25.933	26.04007	10.21471	29.68	29.13317	98	0	4	-4.349741	7.330065	-145.4867	
14:28:45	47.45472	-122.3078	25.933	26.03196	9.456854	29.68	29.15488	98	0	5	-4.230588	7.164542	-146.7789	
14:28:47	47.45472	-122.3078	25.933	26.02466	8.753986	29.68	29.17142	98	0	4	-4.088877	7.020069	-148.1554	
14:28:49	47.45472	-122.3078	25.933	26.01804	8.15534	29.68	29.18488	98	0	4	-3.908074	6.862054	-149.8893	
14:28:51	47.45472	-122.3078	25.933	26.01236	7.607708	29.68	29.19537	98	0	4	-3.75018	6.773891	-151.3496	
14:28:52	47.45472	-122.3078	25.933	26.00661	7.034413	29.68	29.20015	99	0	4	-3.581001	6.69758	-152.8524	
14:28:54	47.45472	-122.3078	25.933	26.00131	6.538775	29.68	29.19685	99	0	4	-3.388394	6.621288	-154.5223	
14:28:56	47.45472	-122.3078	25.933	25.9965	6.070359	29.68	29.19098	99	0	4	-3.226792	6.586604	-155.9309	
14:28:57	47.45472	-122.3078	25.933	25.99154	5.56644	29.68	29.19988	99	0	4	-3.058851	6.556546	-157.3427	
14:28:59	47.45472	-122.3078	25.933	25.98686	5.130752	29.68	29.20778	99	0	4	-2.880603	6.527773	-158.8042	
14:29:01	47.45472	-122.3078	25.933	25.98268	4.731027	29.68	29.2157	99	0	4	-2.734377	6.521308	-160.0441	
14:29:02	47.45472	-122.3078	25.933	25.97862	4.335901	29.68	29.21946	99	0	5	-2.588129	6.515869	-161.2226	
14:29:04	47.45472	-122.3078	25.933	25.97493	3.981538	29.68	29.21624	99	0	4	-2.437412	6.50842	-162.4001	
14:29:06	47.45472	-122.3078	25.933	25.97134	3.624399	29.68	29.21604	99	0	5	-2.314828	6.512297	-163.4017	
14:29:07	47.45472	-122.3078	25.933	25.96777	3.279593	29.68	29.22273	99	0	5	-2.1967	6.514906	-164.3227	
14:29:09	47.45472	-122.3078	25.933	25.96461	2.987689	29.68	29.22853	99	0	4	-2.077485	6.513319	-165.2107	
14:29:11	47.45472	-122.3078	25.933	25.96175	2.716604	29.68	29.2339	99	0	5	-1.982241	6.517786	-165.9673	
14:29:13	47.45472	-122.3078	25.933	25.95907	2.454311	29.68	29.23609	99	0	5	-1.892091	6.519688	-166.6338	
14:29:14	47.45472	-122.3078	25.933	25.95652	2.208643	29.68	29.23562	99	0	5	-1.805247	6.51753	-167.2405	
14:29:16	47.45472	-122.3078	25.933	25.95415	1.984159	29.68	29.23646	99	0	4	-1.73666	6.519163	-167.7621	
14:29:18	47.45472	-122.3078	25.933	25.95202	1.780735	29.68	29.23982	99	0	4	-1.672537	6.517692	-168.1971	
14:29:19	47.45472	-122.3078	25.933	25.95002	1.594424	29.68	29.24312	99	0	4	-1.61468	6.512902	-168.5657	
14:29:21	47.45472	-122.3078	25.933	25.94825	1.426911	29.68	29.24537	99	0	4	-1.569493	6.511133	-168.887	
14:29:23	47.45472	-122.3078	25.933	25.94664	1.27443	29.68	29.24638	99	0	4	-1.52879	6.506505	-169.1273	
14:29:24	47.45472	-122.3078	25.933	25.94519	1.140185	29.68	29.24668	99	0	4	-1.494102	6.499353	-169.3087	
14:29:26	47.45472	-122.3078	25.933	25.9439	1.017996	29.68	29.24801	99	0	4	-1.467951	6.495033	-169.469	
14:29:28	47.45472	-122.3078	25.933	25.94273	0.9085546	29.68	29.24943	99	0	5	-1.446406	6.488585	-169.567	
14:29:29	47.45472	-122.3078	25.933	25.9417	0.8120067	29.68	29.25055	99	0	4	-1.42987	6.480051	-169.6079	
14:29:31	47.45472	-122.3078	25.933	25.94075	0.7221252	29.68	29.25155	99	0	4	-1.41852	6.474156	-169.6502	
14:29:33	47.45472	-122.3078	25.933	25.9399	0.642761	29.68	29.25194	99	0	5	-1.411254	6.466919	-169.6474	
14:29:35	47.45472	-122.3078	25.933	25.93916	0.5763204	29.68	29.25222	99	0	4	-1.407748	6.458224	-169.5951	
14:29:36	47.45472	-122.3078	25.933	25.93851	0.5151639	29.68	29.25303	99	0	5	-1.406955	6.45184	-169.5589	
14:29:38	47.45472	-122.3078	25.933	25.93792	0.4600012	29.68	29.25369	99	0	5	-1.408867	6.444725	-169.487	
14:29:40	47.45472	-122.3078	25.933	25.9374	0.4115683	29.68	29.25426	99	0	5	-1.414094	6.436615	-169.3821	
14:29:41	47.45472	-122.3078	25.933	25.93694	0.3682165	29.68	29.25469	99	0	4	-1.420015	6.430539	-169.2994	
14:29:43	47.45472	-122.3078	25.933	25.93651	0.3277816	29.68	29.2549	99	0	4	-1.427652	6.42411	-169.1946	
14:29:45	47.45472	-122.3078	25.933	25.93614	0.2926339	29.68	29.25498	99	0	5	-1.437956	6.416912	-169.0666	
14:29:46	47.45472	-122.3078	25.933	25.9358	0.2608843	29.68	29.25559	99	0	4	-1.447497	6.411417	-168.9617	
14:29:48	47.45472	-122.3078	25.933	25.9355	0.2346938	29.68	29.256	99	0	4	-1.457942	6.405935	-168.8504	
14:29:50	47.45472	-122.3078	25.933	25.93525	0.2126172	29.68	29.25642	99	0	4	-1.470382	6.399765	-168.7189	
14:29:51	47.45472	-122.3078	25.933	25.93504	0.1920373	29.68	29.2568	99	0	4	-1.481445	6.394959	-168.6111	
14:29:53	47.45472	-122.3078	25.933	25.93484	0.1718944	29.68	29.25694	99	0	5	-1.492629	6.390295	-168.5009	
14:29:55	47.45472	-122.3078	25.933	25.93465	0.1535346	29.68	29.25703	99	0	4	-1.504915	6.385309	-168.3821	
14:29:56	47.45472	-122.3078	25.933	25.93448	0.1368233	29.68	29.25743	99	0	5	-1.515563	6.381371	-168.283	
14:29:58	47.45472	-122.3078	25.933	25.93432	0.1222852	29.68	29.25781	99	0	5	-1.526038	6.377604	-168.1875	
14:30:00	47.45472	-122.3078	25.933	25.93418	0.11071	29.68	29.2581	99	0	4	-1.537123	6.373631	-168.0878	
14:30:02	47.45472	-122.3078	25.933	25.93407	0.09999931	29.68	29.25838	99	0	4	-1.546423	6.370512	-168.0041	
14:30:03	47.45472	-122.3078	25.933	25.93396	0.08984891	29.68	29.25848	99	0	4	-1.555239	6.367616	-167.9279	
14:30:05	47.45472	-122.3078	25.933	25.93386	0.08095735	29.68	29.25863	99	0	4	-1.564599	6.364501	-167.8508	
14:30:07	47.45472	-122.3078	25.933	25.93378	0.07301535	29.68	29.25887	99	0	4	-1.572286	6.362063	-167.7854	
14:30:08	47.45472	-122.3078	25.933	25.9337	0.06519712	29.68	29.25911	99	0	4	-1.579398	6.359827	-167.7273	
14:30:10	47.45472	-122.3078	25.933	25.93362	0.0580703	29.68	29.25931	99	0	5	-1.586454	6.357572	-167.6725	
14:30:12	47.45472	-122.3078	25.933	25.93356	0.05177743	29.68	29.25948	99	0	5	-1.592203	6.355801	-167.6256	
14:30:13	47.45472	-122.3078	25.933	25.9335	0.04606253	29.68	29.25952	99	0	5	-1.597305	6.354239	-167.5856	
14:30:15	47.45472	-122.3078	25.933	25.93344	0.04072733	29.68	29.25961	99	0	5	-1.602344	6.352644	-167.55	
14:30:17	47.45472	-122.3078	25.933	25.93339	0.03685771	29.68	29.25976	99	0	5	-1.606326	6.351422	-167.5194	
14:30:18	47.45472	-122.3078	25.933	25.93336	0.03321289	29.68	29.25987	99	0	4	-1.60975	6.35037	-167.4944	
14:30:20	47.45472	-122.3078	25.933	25.93332	0.02966374	29.68	29.25997	99	0	5	-1.612934	6.349343	-167.475	
14:30:22	47.45472	-122.3078	25.933	25.93329	0.02635067	29.68	29.26005	99	0	5	-1.615386	6.348577	-167.458	
14:30:24	47.45472	-122.3078	25.933	25.93326	0.02329938	29.68	29.26007	99	0	4	-1.617372	6.347954	-167.4444	
14:30:25	47.45472	-122.3078	25.933	25.93323	0.02068691	29.68	29.2601	99	0	4	-1.619086	6.347367	-167.4375	
14:30:27	47.45472	-122.3078	25.933	25.93321	0.01829772	29.68	29.26017	99	0	5	-1.620306	6.346952	-167.4309	
14:30:29	47.45472	-122.3078	25.933	25.93319	0.01617234	29.68	29.26021	99	0	4	-1.621213	6.346633	-167.4265	
14:30:30	47.45472	-122.3078	25.933	25.93317	0.01432926	29.68	29.26025	99	0	5	-1.621798	6.346384	-167.4277	
14:30:32	47.45472	-122.3078	25.933	25.93315	0.01257703	29.68	29.26027	99	0	5	-1.622113	6.346232	-167.4282	
14:30:34	47.45472	-122.3078	25.933	25.93313	0.01106651	29.68	29.26027	99	0	4	-1.622233	6.346142	-167.4298	
14:30:35	47.45472	-122.3078	25.933	25.93312	0.009745411	29.68	29.26028	99	0	5	-1.622039	6.346129	-167.436	
14:30:37	47.45472	-122.3078	25.933	25.93311	0.008568823	29.68	29.26029	99	0	5	-1.621769	6.34615	-167.4407	
14:30:39	47.45472	-122.3078	25.933	25.9331	0.007330064	29.68	29.2603	99	0	5	-1.621419	6.346199	-167.4457	
14:30:41	47.45472	-122.3078	25.933	25.93308	0.006087433	29.68	29.2603	99	0	4	-1.620775	6.346318	-167.4548	
14:30:42	47.45472	-122.3078	25.933	25.93308	0.005261784	29.68	29.26029	99	0	4	-1.62015	6.34645	-167.4621	
14:30:44	47.45472	-122.3078	25.933	25.93307	0.004576807	29.68	29.26029	99	0	4	-1.619509	6.346588	-167.4693	
14:30:46	47.45472	-122.3078	25.933	25.93306	0.003971882	29.68	29.26029	99	0	4	-1.618629	6.346782	-167.4789	
14:30:47	47.45472	-122.3078	25.933	25.93306	0.003342977	29.68	29.26027	99	0	5	-1.617841	6.346969	-167.4869	
14:30:49	47.45472	-122.3078	25.933	25.93305	0.002735614	29.68	29.26027	99	0	5	-1.617077	6.347149	-167.4943	
14:30:51	47.45472	-122.3078	25.933	25.93304	0.002149891	29.68	29.26025	99	0	5	-1.616149	6.34737	-167.5035	
14:30:52	47.45472	-122.3078	25.933	25.93304	0.001485618	29.68	29.26024	99	0	4	-1.615349	6.347561	-167.511	
14:30:54	47.45472	-122.3078	25.933	25.93303	0.0009174161	29.68	29.26024	99	0	4	-1.614593	6.347744	-167.5182	
14:30:56	47.45472	-122.3078	25.933	25.93303	0.000502571	29.68	29.26023	99	0	5	-1.613721	6.347949	-167.5261	
14:30:57	47.45472	-122.3078	25.933	25.93303	0.0004440894	29.68	29.26021	99	0	5	-1.612994	6.348124	-167.5326	
14:30:59	47.45472	-122.3078	25.933	25.93303	0.0004908064	29.68	29.2602	99	0	4	-1.612328	6.348289	-167.5385	
14:31:01	47.45472	-122.3078	25.933	25.93303	0.0004351434	29.68	29.26019	99	0	4	-1.611582	6.348473	-167.5448	
14:31:02	47.45472	-122.3078	25.933	25.93303	0.0003618812	29.68	29.26018	99	0	4	-1.610959	6.348624	-167.5502	
14:31:04	47.45472	-122.3078	25.933	25.93303	0.0002673959	29.68	29.26018	99	0	5	-1.610395	6.34877	-167.5549	
14:31:06	47.45472	-122.3078	25.933	25.93303	0.0001735306	29.68	29.26017	99	0	4	-1.609802	6.348916	-167.5596	
14:31:08	47.45472	-122.3078	25.933	25.93302	0.0002729651	29.68	29.26016	99	0	5	-1.609326	6.349035	-167.5636	
14:31:09	47.45472	-122.3078	25.933	25.93302	0.0003772985	29.68	29.26015	99	0	4	-1.608908	6.349135	-167.5671	
14:31:11	47.45472	-122.3078	25.933	25.93302	0.0004804526	29.68	29.26014	99	0	4	-1.608466	6.349254	-167.5703	
14:31:13	47.45472	-122.3078	25.933	25.93302	0.0006014897	29.68	29.26013	99	0	5	-1.608114	6.349341	-167.573	
14:31:14	47.45472	-122.3078	25.933	25.93302	0.0006934506	29.68	29.26013	99	0	4	-1.607824	6.349405	-167.5754	
14:31:16	47.45472	-122.3078	25.933	25.93302	0.0008193897	29.68	29.26013	99	0	4	-1.607517	6.34949	-167.5773	
14:31:18	47.45472	-122.3078	25.933	25.93302	0.0009153664	29.68	29.26012	99	0	4	-1.607282	6.349552	-167.579	
14:31:19	47.45472	-122.3078	25.933	25.93302	0.001037209	29.68	29.26011	99	0	5	-1.607094	6.349596	-167.5804	
14:31:21	47.45472	-122.3078	25.933	25.93302	0.001186083	29.68	29.26011	99	0	4	-1.606916	6.349622	-167.5813	
14:31:23	47.45472	-122.3078	25.933	25.93302	0.001422164	29.68	29.26011	99	0	5	-1.60678	6.349648	-167.5822	
14:31:24	47.45472	-122.3078	25.933	25.93302	0.001648928	29.68	29.26011	99	0	4	-1.606673	6.349672	-167.5829	
14:31:26	47.45472	-122.3078	25.933	25.93302	0.001899011	29.68	29.26011	99	0	4	-1.606591	6.349697	-167.583	
14:31:28	47.45472	-122.3078	25.933	25.93302	0.002143264	29.68	29.2601	99	0	5	-1.606536	6.349717	-167.5832	
14:31:30	47.45472	-122.3078	25.933	25.93302	0.00233957	29.68	29.2601	99	0	5	-1.606499	6.349741	-167.5834	
14:31:31	47.45472	-122.3078	25.933	25.93302	0.002487712	29.68	29.2601	99	0	4	-1.606482	6.349743	-167.5831	
14:31:33	47.45472	-122.3078	25.933	25.93302	0.00264947	29.68	29.2601	99	0	4	-1.606476	6.349747	-167.5829	
14:31:35	47.45472	-122.3078	25.933	25.93302	0.002751901	29.68	29.2601	99	0	4	-1.606477	6.349752	-167.5827	
14:31:36	47.45472	-122.3078	25.933	25.93302	0.002855811	29.68	29.2601	99	0	5	-1.606508	6.349743	-167.5822	
14:31:38	47.45472	-122.3078	25.933	25.93302	0.002957521	29.68	29.2601	99	0	4	-1.60654	6.349724	-167.5817	
14:31:40	47.45472	-122.3078	25.933	25.93302	0.00318341	29.68	29.2601	99	0	5	-1.606575	6.349704	-167.5814	
14:31:41	47.45472	-122.3078	25.933	25.93302	0.003439514	29.68	29.2601	99	0	5	-1.606635	6.349684	-167.5806	
14:31:43	47.45472	-122.3078	25.933	25.93302	0.003682215	29.68	29.2601	99	0	4	-1.606687	6.34967	-167.5801	
14:31:45	47.45472	-122.3078	25.933	25.93302	0.003912606	29.68	29.2601	99	0	5	-1.606732	6.349655	-167.5796	
14:31:46	47.45472	-122.3078	25.933	25.93302	0.004161802	29.68	29.2601	99	0	4	-1.606802	6.349641	-167.5789	
14:31:48	47.45472	-122.3078	25.933	25.93302	0.004409109	29.68	29.26011	99	0	5	-1.606858	6.349624	-167.5783	
14:31:50	47.45472	-122.3078	25.933	25.93302	0.004635393	29.68	29.26011	99	0	5	-1.606906	6.349609	-167.5779	
14:31:52	47.45472	-122.3078	25.933	25.93303	0.004539733	29.68	29.26011	99	0	4	-1.606975	6.349592	-167.5772	
14:31:53	47.45472	-122.3078	25.933	25.93303	0.00441692	29.68	29.26011	99	0	4	-1.607029	6.349581	-167.5767	
14:31:55	47.45472	-122.3078	25.933	25.93303	0.004244184	29.68	29.26011	99	0	4	-1.607075	6.349565	-167.5763	
14:31:57	47.45472	-122.3078	25.933	25.93303	0.00398792	29.68	29.26011	99	0	4	-1.60713	6.349551	-167.5758	
14:31:58	47.45472	-122.3078	25.933	25.93303	0.003742263	29.68	29.26011	99	0	4	-1.607181	6.349537	-167.5753	
14:32:00	47.45472	-122.3078	25.933	25.93303	0.003498575	29.68	29.26011	99	0	5	-1.607224	6.349521	-167.575	
14:32:02	47.45472	-122.3078	25.933	25.93303	0.003304331	29.68	29.26011	99	0	5	-1.607271	6.349504	-167.5746	
14:32:03	47.45472	-122.3078	25.933	25.93303	0.003119881	29.68	29.26011	99	0	4	-1.607315	6.349486	-167.5742	
14:32:05	47.45472	-122.3078	25.933	25.93303	0.002907311	29.68	29.26011	99	0	4	-1.60735	6.349496	-167.5739	
14:32:07	47.45472	-122.3078	25.933	25.93303	0.002666485	29.68	29.26011	99	0	4	-1.607389	6.349487	-167.5736	
14:32:08	47.45472	-122.3078	25.933	25.93303	0.002552144	29.68	29.26011	99	0	4	-1.607413	6.349498	-167.5734	
14:32:10	47.45472	-122.3078	25.933	25.93303	0.002409637	29.68	29.26011	99	0	4	-1.607443	6.3495	-167.5732	
14:32:12	47.45472	-122.3078	25.933	25.93303	0.002184134	29.68	29.26011	99	0	5	-1.607469	6.349495	-167.573	
14:32:14	47.45472	-122.3078	25.933	25.93303	0.001936683	29.68	29.26011	99	0	5	-1.607486	6.349502	-167.5728	
14:32:15	47.45472	-122.3078	25.933	25.93303	0.001716806	29.68	29.26011	99	0	4	-1.607505	6.349508	-167.5727	
14:32:17	47.45472	-122.3078	25.933	25.93303	0.001510407	29.68	29.26011	99	0	4	-1.607525	6.349499	-167.5726	
14:32:19	47.45472	-122.3078	25.933	25.93303	0.001366996	29.68	29.26011	99	0	4	-1.607533	6.349502	-167.5725	
14:32:20	47.45472	-122.3078	25.933	25.93303	0.001231131	29.68	29.26011	99	0	4	-1.607543	6.349505	-167.5724	
14:32:22	47.45472	-122.3078	25.933	25.93303	0.001084453	29.68	29.26011	99	0	5	-1.607555	6.349507	-167.5724	
14:32:24	47.45472	-122.3078	25.933	25.93303	0.0009049629	29.68	29.26011	99	0	5	-1.607565	6.349508	-167.5723	
14:32:25	47.45472	-122.3078	25.933	25.93303	0.0007195493	29.68	29.26011	99	0	4	-1.607564	6.349507	-167.5723	
14:32:27	47.45472	-122.3078	25.933	25.93303	0.0006112035	29.68	29.26011	99	0	5	-1.607566	6.3495	-167.5723	
14:32:29	47.45472	-122.3078	25.933	25.93303	0.0005004758	29.68	29.26011	99	0	5	-1.607566	6.3495	-167.5723	
14:32:30	47.45472	-122.3078	25.933	25.93303	0.0004833245	29.68	29.26011	99	0	4	1.806015	5.4491	-167.435	
14:32:32	47.45456	-122.3078	23.158	12.83705	-1860.004	26.2	22.85698	99	0	44	111.9521	-21.95163	156.1992	
14:32:34	47.45454	-122.3078	22.461	8.502612	-1637.275	25.82	21.25896	99	0	99	172.0469	-17.61749	137.5292	
14:32:36	47.45419	-122.3081	23.446	-10.38217	-3434.664	26.35	22.13571	99	0	99	71.86118	-66.4874	131.2313	
14:32:37	47.45383	-122.3082	34.679	6.807796	-915.9391	23.43	15.05391	99	0	99	104.7002	-16.80945	168.7292	
14:32:39	47.45348	-122.3081	40.095	22.77824	-1099.423	23.92	15.83562	99	0	99	86.14507	-25.22707	177.6761	
14:32:41	47.45327	-122.308	62.564	50.19238	497.6113	10.84	9.645117	99	0	99	-0.576505	1.680747	-149.8646	
14:32:42	47.45313	-122.3079	74.075	67.44064	-97.59153	14.1	6.80243	99	0	98	39.60383	-10.20861	173.7062	
14:32:44	47.45294	-122.3078	70.229	77.9875	1141.041	13.74	8.439182	99	0	99	-9.731515	4.126375	65.04287	
14:32:46	47.45288	-122.3074	53.14	71.87389	910.4297	25.55	22.1539	99	0	99	66.7467	3.981681	87.30015	
14:32:47	47.45259	-122.3071	45.949	52.68962	621.9219	27.01	22.65911	99	0	99	26.20288	12.17982	-160.1914	
14:32:49	47.45225	-122.3074	50.24	49.71887	-598.011	27.38	20.20125	99	0	99	-12.69993	-20.45274	-168.8901	
14:32:51	47.45188	-122.3076	49.069	53.73391	628.9194	30.21	23.26003	99	0	99	-2.904555	-11.24346	178.1395	
14:32:52	47.45143	-122.3078	56.779	64.07829	1739.877	27.43	20.27009	99	0	99	-16.13286	12.13272	171.6602	
14:32:54	47.45101	-122.3078	71.382	77.65411	1810.123	25.47	18.66832	99	0	99	-6.891171	17.87932	161.5155	
14:32:56	47.45067	-122.3078	85.54	90.16627	819.8535	25.78	17.60688	99	0	99	19.27325	-2.169214	162.15	
14:32:58	47.4503	-122.3077	86.413	91.87807	707.7799	28.91	20.59878	99	0	100	1.448375	-2.766068	167.8526	
14:32:59	47.44976	-122.3077	97.199	99.98097	1273.494	27.09	18.69046	99	0	99	1.417345	11.41973	170.552	
14:33:01	47.44938	-122.3077	109.051	111.6028	977.7421	26.96	20.20334	99	0	98	3.009971	6.73054	173.8736	
14:33:03	47.44898	-122.3077	119.127	121.6716	892.5403	27.08	23.36033	99	0	85	2.405205	4.902536	177.2663	
14:33:04	47.44859	-122.3077	123.382	125.7867	163.0413	27.86	24.57897	99	0	85	-2.498085	-10.31078	179.3651	
14:33:06	47.44815	-122.3077	116.74	119.8323	-241.7875	30.36	26.64889	99	0	85	-5.026036	-16.55531	-179.5329	
14:33:08	47.44763	-122.3078	101.377	106.3318	-627.0837	32.84	29.43907	99	0	85	-9.050679	-20.42662	179.8571	
14:33:09	47.44713	-122.3078	100.271	103.0575	569.5983	32.46	29.93696	99	0	85	1.406879	2.197562	-179.5222	
14:33:11	47.44685	-122.3078	104.443	107.0594	407.1855	31.23	28.68494	99	0	85	0.7792852	0.4311404	-176.1489	
14:33:13	47.44617	-122.3078	112.549	110.6007	431.6073	29.63	27.55908	99	0	86	0.9951691	0.9614688	-173.2271	
14:33:14	47.44577	-122.3078	114.05	114.5432	-157.9563	29.67	27.79564	99	0	85	-0.1118148	-13.03755	-171.5067	
14:33:16	47.44529	-122.3079	106.399	108.8831	-481.2677	31.46	29.53797	99	0	85	0.05399124	-18.90583	-170.086	
14:33:18	47.44478	-122.308	89.694	93.35221	-862.3187	33.45	31.47811	99	0	68	-5.139547	-22.49184	-168.8502	
14:33:19	47.4443	-122.3081	72.479	75.51215	-840.0845	34.08	32.48724	99	0	62	-8.958128	-20.54729	-169.9708	
14:33:21	47.44378	-122.3081	55.838	58.53438	-810.0844	34.04	32.71459	99	0	53	-7.967778	-18.46582	-172.7206	
14:33:23	47.44328	-122.3081	44.078	45.38611	-590.7492	33.38	32.17731	99	0	53	-8.757389	-14.19221	-174.9978	
14:33:25	47.44271	-122.3081	34.64	36.53234	-176.7643	32.07	30.81013	99	0	52	-4.630133	-6.736271	-177.3647	
14:33:26	47.44225	-122.3081	31.091	31.97736	-162.9285	30.29	28.89157	99	0	53	0.6025402	-6.383537	-178.097	
14:33:28	47.44184	-122.3081	29.208	29.93163	8.885971	29.04	28.03507	100	0	52	-0.6764731	-3.113735	-177.9425	
14:33:30	47.4414	-122.3081	28.427	29.01473	4.319386	27.7	27.10472	100	0	53	-0.5046928	-3.114109	-178.1189	
14:33:31	47.44135	-122.3081	28.325	28.55448	17.12312	27.59	26.93713	100	0	46	-0.2547001	-2.721923	-177.6229	
14:33:33	47.44058	-122.308	26.115	26.99694	-82.96076	26.32	25.81663	100	0	43	-2.090761	-3.798992	-178.5376	
14:33:35	47.44019	-122.308	23.888	24.63152	-65.12981	25.73	25.38604	100	0	35	-0.743775	-3.25222	-179.529	
14:33:36	47.43978	-122.308	21.708	22.41664	-98.48853	24.58	24.29993	100	0	28	0.01833305	-3.884126	-179.9858	
14:33:38	47.43945	-122.308	19.467	20.057	-107.5475	23.45	23.08627	100	0	23	0.1984317	-4.216314	-179.9501	
14:33:40	47.4391	-122.308	16.991	17.49479	-92.86774	22.53	22.31104	100	0	23	-0.3140609	-3.571561	-179.6691	
14:33:42	47.43879	-122.308	15.213	15.60013	-40.1772	21.69	21.38729	100	0	23	-0.4426361	-1.738334	179.9529	
14:33:43	47.43845	-122.308	14.214	14.48496	-58.88869	19.65	19.717	100	0	23	-15.71231	-4.001634	160.154	
14:33:45	47.43816	-122.3079	12.69	12.9841	-79.85095	17.88	17.79925	100	0	23	-4.465934	-3.290837	146.1212	
14:33:47	47.43796	-122.3078	11.462	11.62099	-56.6987	17.09	16.89343	100	0	23	10.05195	-3.643507	169.8216	
14:33:48	47.43769	-122.3077	9.949	10.18799	-63.97851	16.18	15.62577	100	0	23	13.32445	-2.329927	-173.6742	
14:33:50	47.43744	-122.3078	8.839	9.069565	-52.17915	15.95	15.32947	100	0	23	-2.508478	-0.4352324	-167.2055	
14:33:52	47.43722	-122.3078	7.772	7.99711	-1.563304	15.88	15.49563	100	0	23	-3.359361	2.098403	-172.2494	
14:33:53	47.43699	-122.3078	7.643	7.634601	-41.64807	15.22	14.86994	100	0	23	-1.707637	0.5302587	-172.6118	
14:33:55	47.43671	-122.3078	6.431	6.634856	-55.55499	15.23	15.01816	100	0	23	-1.572391	-0.3567516	-172.7443	
14:33:57	47.43653	-122.3079	5.538	5.589212	-42.54033	15.21	15.01859	100	0	23	-2.064692	0.09046203	-178.981	
14:33:58	47.43653	-122.3079	5.538	5.268382	-63.57365	15.21	15.01859	100	0	23	-27.1016	-8.437196	150.2539	
14:34:00	47.4361	-122.3081	3.005	4.072604	-60.82469	14.3	14.68923	100	0	53	5.239003	7.935474	-173.2466	
14:34:02	47.43604	-122.3082	0.077	-1.360861	-496.8313	16.63	17.17495	100	0	55	-60.45573	6.919172	-160.1834	
14:34:04	47.43604	-122.3082	0.077	-9.501628	-1590.647	16.63	16.54259	100	0	53	-120.4162	-3.394794	-155.4332	
14:34:05	47.43813	-122.3112	0.01	-21.86747	-2859.85	0	15.92316	100	0	23	-164.5199	-9.568804	-142.6243	
14:34:07	47.43813	-122.3112	0.019	-30.16965	-3261.968	0	3	100	0	4	-160.7346	-18.80698	-135.4606	
14:34:09	47.43813	-122.3112	0.02	-31.19996	-3091.739	0	3	100	0	5	-155.9736	-25.33104	-133.0918	
14:34:10	47.43813	-122.3112	0.019	-27.93219	-2487.039	0	3	100	0	4	-151.3231	-39.72533	-126.9907	
14:34:12	47.43813	-122.3112	0.02	-21.63019	-1769.762	0	3	100	0	5	-142.0854	-55.59153	-128.8071	
14:34:14	47.43813	-122.3112	0.02	-14.65981	-1048.015	0	3	100	0	4	-113.3688	-69.74807	-152.0296	
14:34:15	47.43813	-122.3112	0.019	-6.888156	-218.9641	0	3	100	0	4	-41.33774	-67.13248	140.4763	
14:34:17	47.43813	-122.3112	0.019	1.125939	550.9019	0	3	100	0	4	-18.03466	-48.70251	121.9387	
14:34:19	47.43813	-122.3112	0.019	7.685258	1074.331	0	3	100	0	4	-11.42881	-30.23618	122.3727	
14:34:20	47.43813	-122.3112	0.019	11.61686	1313.002	0	3	100	0	4	-5.219842	-14.35963	123.1786	
14:34:22	47.43813	-122.3112	0.02	13.01943	1315.367	0	3	100	0	4	1.210587	-3.945997	109.8864	
14:34:24	47.43813	-122.3112	0.02	12.50249	1183.372	0	3	100	0	4	3.89606	4.653737	89.9854	
14:34:26	47.43813	-122.3112	0.02	11.08475	1013.926	0	3	100	0	4	3.662183	11.712	69.93312	
14:34:27	47.43813	-122.3112	0.021	9.504218	859.4244	0	3	100	0	4	2.442233	16.29765	52.76308	
14:34:29	47.43813	-122.3112	0.021	8.082133	730.9329	0	3	100	0	5	1.362623	19.1062	38.29631	
14:34:31	47.43813	-122.3112	0.021	6.938866	633.5848	0	3	100	0	5	0.08545978	20.11283	23.6846	
14:34:32	47.43813	-122.3112	0.021	6.057494	558.2495	0	3	100	0	4	0.08326334	20.7747	12.51339	
14:34:34	47.43813	-122.3112	0.021	5.355837	495.5492	0	3	100	0	4	0.8699098	21.23506	4.271603	
14:34:36	47.43813	-122.3112	0.021	4.778639	447.3867	0	3	100	0	4	2.013517	20.38592	-2.289538	
14:34:37	47.43813	-122.3112	0.021	4.34828	409.9801	0	3	100	0	4	3.513126	19.82972	-6.725531	
14:34:39	47.43813	-122.3112	0.021	3.962476	371.5256	0	3	100	0	4	5.096607	19.34163	-9.442482	
14:34:41	47.43813	-122.3112	0.021	3.603532	340.6694	0	3	100	0	53	6.444571	17.04025	-10.08781	
14:34:42	47.43815	-122.3112	0.023	3.78137	409.2191	2.72	3	100	0	70	8.351746	11.45209	-9.186367	
14:34:44	47.43823	-122.3112	0.017	4.363392	463.9469	8.7	8.252578	100	0	98	8.704869	7.372563	-7.514051	
14:34:46	47.43835	-122.3112	0.022	3.079074	194.9942	4.71	5.857019	100	0	98	6.717838	13.20341	-24.16632	
14:34:48	47.43838	-122.3112	0.021	1.501861	103.2082	0.01	3	100	0	98	-3.199347	15.75114	-65.06885	
14:34:49	47.43838	-122.3112	0.02	1.582589	187.5884	0	3	100	0	98	0.8968461	13.33306	-63.85286	
14:34:51	47.43838	-122.3112	0.02	2.08664	227.1462	0	3	100	0	31	3.925168	12.01075	-61.52713	
14:34:53	47.43838	-122.3112	0.02	2.228609	218.5557	0	3	100	0	85	6.072873	10.49064	-58.42945	
14:34:54	47.43838	-122.3112	0.02	2.090355	195.121	0	3	100	0	5	7.41999	8.905952	-55.34775	
14:34:56	47.43838	-122.3112	0.02	1.872681	172.2446	0	3	100	0	100	8.156061	7.888046	-53.31065	
14:34:58	47.43838	-122.3112	0.02	1.665955	154.0378	0	3	100	0	4	8.389359	6.892053	-51.49864	
14:34:59	47.43838	-122.3112	0.02	1.514391	141.9768	0	3	100	0	4	8.19133	5.936729	-50.24597	
14:35:01	47.43838	-122.3112	0.02	1.395382	131.3073	0	3	100	0	4	7.948462	5.394275	-50.00155	
14:35:03	47.43838	-122.3112	0.02	1.293019	121.5983	0	3	100	0	99	7.496057	4.859369	-50.02048	
14:35:04	47.43838	-122.3112	0.02	1.203454	113.4815	0	3	100	0	79	6.859183	4.322718	-50.49125	
14:35:06	47.43838	-122.3112	0.02	1.122052	105.5746	0	3	100	0	4	6.395936	3.989252	-51.37117	
14:35:08	47.43838	-122.3112	0.02	1.039115	97.02979	0	3	100	0	4	5.839654	3.616878	-52.37926	
14:35:09	47.43838	-122.3112	0.02	0.9608922	89.90246	0	3	100	0	4	5.209624	3.216877	-53.62815	
14:35:11	47.43814	-122.3112	0.02	1.021826	98.44718	0	3	100	0	4	4.687276	0.7896284	-43.73519	
14:35:13	47.43814	-122.3112	0.02	0.910651	80.27008	0	3	100	0	4	4.388411	0.1537606	-30.45372	
14:35:15	47.43814	-122.3112	0.02	0.7708855	68.06119	0	3	100	0	4	3.907676	-0.09343951	-19.34086	
14:35:16	47.43814	-122.3112	0.02	0.6742376	61.04105	0	3	100	0	4	3.566701	-0.04893349	-11.17738	
14:35:18	47.43814	-122.3112	0.02	0.6112922	56.01391	0	3	100	0	4	3.216925	0.07263886	-4.350557	
14:35:20	47.43814	-122.3112	0.02	0.5622494	51.48168	0	3	100	0	4	2.839994	0.2507679	1.532691	
14:35:21	47.43814	-122.3112	0.02	0.5163702	47.00452	0	3	100	0	4	2.588289	0.4731298	5.630403	
14:35:23	47.43814	-122.3112	0.02	0.4736256	43.48401	0.26	3	100	0	4	2.277134	0.5638294	7.22207	
14:35:25	47.43815	-122.3112	0.02	0.4489817	41.35729	0.63	3	100	0	4	1.75397	1.430947	1.724653	
14:35:26	47.43816	-122.3112	0.02	0.4241253	39.29617	1.18	3	100	0	38	1.114392	2.194773	-5.959049	
14:35:28	47.4382	-122.3112	0.021	0.4607055	50.26012	5.72	6.013461	100	0	74	0.2133173	3.992852	-11.50628	
14:35:30	47.43834	-122.3113	0.081	0.6870691	144.4997	13.76	13.16941	100	0	87	-1.150414	12.10631	-24.5841	
14:35:31	47.43851	-122.3115	3.721	3.606092	125.9553	16.34	15.3042	100	0	86	2.410609	9.748067	-24.64514	
14:35:33	47.43873	-122.3117	10.251	9.208858	127.4477	16.96	13.84788	100	0	87	-0.9826131	4.597962	-20.10996	
14:35:35	47.43896	-122.312	7.026	8.016648	221.4184	21.53	15.57763	100	0	87	5.704452	11.28983	-37.33074	
14:35:37	47.43918	-122.3123	9.152	9.24823	112.1119	21.92	13.57071	100	0	87	7.825437	14.21171	-39.81257	
14:35:38	47.43946	-122.3125	13.704	12.5622	-94.60688	19.69	8.779047	100	0	87	20.89223	11.36582	-28.94578	
14:35:40	47.43972	-122.3127	15.712	15.54352	-203.6777	19.27	8.445935	100	0	87	35.38321	-3.010106	-9.777694	
14:35:42	47.44005	-122.3128	15.588	14.97679	-466.3727	22.91	14.4427	100	0	87	32.03497	-8.976741	19.87727	
14:35:43	47.44009	-122.3128	14.782	12.99792	-222.8784	23.31	15.11042	100	0	87	40.37068	15.39276	52.63643	
14:35:45	47.4407	-122.3126	24.012	15.8277	-510.1385	21.73	12.72725	100	0	87	-20.46132	4.56103	43.41405	
14:35:47	47.44104	-122.3127	15.864	13.92669	-1019.858	23.98	12.67803	100	0	85	1.283225	1.505391	18.1566	
14:35:48	47.44128	-122.3128	0.171	5.966671	452.2307	29.53	17.4631	100	0	87	-36.06446	37.25674	-4.351442	
14:35:50	47.44128	-122.3128	0.171	0.5393953	-602.5327	29.53	16.76283	100	0	87	-67.59316	51.31636	-4.310191	
14:35:52	47.44128	-122.3128	0.171	-15.10629	-2565.71	29.53	15.84764	100	0	54	-107.795	65.47575	-13.75629	
14:35:53	47.43814	-122.3112	0.02	-22.25562	-2115.445	0	13.71682	100	0	4	-64.47118	67.55615	25.40382	
14:35:55	47.43814	-122.3112	0.021	-15.57906	-1009.435	0	13.03098	100	0	4	-31.96885	54.73272	54.10603	
14:35:57	47.43814	-122.3112	0.021	-6.235365	-126.6221	0	12.37943	100	0	4	-22.07959	39.14706	58.48486	
14:35:59	47.43814	-122.3112	0.021	0.6085147	351.6151	0	11.17244	100	0	4	-17.94814	24.84315	53.56811	
14:36:00	47.43814	-122.3112	0.021	4.192647	546.2922	0	10.61381	100	0	4	-13.54371	11.38938	43.40216	
14:36:02	47.43814	-122.3112	0.02	5.502558	580.8718	0	10.08312	100	0	4	-8.784998	2.606536	31.90624	
14:36:04	47.43814	-122.3112	0.02	5.578015	538.7615	0	9.578966	100	0	4	-4.140477	-2.635375	20.91503	
14:36:05	47.43814	-122.3112	0.02	5.084413	470.5092	0	9.100018	100	0	4	0.4038869	-6.031221	10.436	
14:36:07	47.43814	-122.3112	0.02	4.437823	403.3007	0	8.645017	100	0	4	3.439302	-7.94059	4.591525	
