Date	Latitude(deg) 	Longitude(deg)	hamsl(m)	hafl(m)	climbrate(cm/s)	GroundSpeed(m/s)	Airspeed(m/s)	Mav_Link(%)	Rssi_Link(%)	Throttle	Roll(deg)	Pitch(deg)	Yaw(deg)
10:11:28	47.39753	-122.1521	483.467	483.467	0	25.97	24.95691	100	0	5	0.006861634	-0.003132426	4.956318E-05	
10:11:30	47.39753	-122.1521	483.467	483.467	0	25.97	24.95691	100	0	4	0.006861634	-0.003132426	4.956318E-05	
10:11:32	47.39753	-122.1521	483.467	483.467	0	25.97	24.95691	100	0	4	0.006861634	-0.003132426	4.956318E-05	
10:11:34	47.39753	-122.1521	483.467	483.467	0	25.97	24.95691	100	0	4	0.006861634	-0.003132426	4.956318E-05	
10:11:35	47.39753	-122.1521	483.467	483.467	0	25.97	24.95691	100	0	6	0.006861634	-0.003132426	4.956318E-05	
10:11:37	47.39753	-122.1521	483.467	483.467	0	25.97	24.95691	100	0	4	0.006861634	-0.003132426	4.956318E-05	
10:11:39	47.39753	-122.1521	483.467	483.467	0	25.97	24.95691	100	0	4	0.006861634	-0.003132426	4.956318E-05	
10:11:40	47.39713	-122.1511	484.507	370.7251	-2479.154	25.94	22.28285	100	0	4	1.540608	-4.913888	93.82937	
10:11:42	47.39713	-122.1511	484.507	476.7032	2585.62	25.94	20.7415	100	0	4	-1.713244	-0.9293615	114.1887	
10:11:44	47.39713	-122.1511	484.507	502.2259	1893.987	25.94	20.63328	100	0	5	-1.825173	-1.000593	118.5246	
10:11:45	47.39713	-122.1511	484.507	495.6745	507.0133	25.94	20.63328	100	0	5	-1.78705	-0.8864057	117.6056	
10:11:47	47.39713	-122.1511	484.507	486.7526	-147.4169	25.94	22.52359	100	0	4	-1.812911	-0.865228	117.6806	
10:11:49	47.39713	-122.1511	484.507	483.0465	-231.3716	25.94	23.68519	100	0	4	-1.810565	-0.8674827	117.6825	
10:11:50	47.39713	-122.1511	484.507	482.8018	-140.1328	25.94	24.28155	100	0	4	-1.794636	-0.8503061	117.6265	
10:11:52	47.39713	-122.1511	484.507	483.454	-68.44991	25.94	24.58768	100	0	4	-1.796518	-0.8513881	117.6064	
10:11:54	47.39713	-122.1511	484.507	483.9237	-41.39147	25.94	24.71473	100	0	5	-1.796396	-0.8512257	117.6075	
10:11:55	47.39713	-122.1511	484.507	484.0877	-37.97829	25.94	24.71473	100	0	4	-2.621532	-1.750647	119.3324	
10:11:57	47.39705	-122.1509	486.078	485.9941	501.2516	23.49	23.28829	100	0	4	13.48889	13.56611	126.5717	
10:11:59	47.39687	-122.1506	493.254	492.4799	178.3789	18.82	16.99554	100	0	22	10.0008	5.443088	140.5334	
10:12:01	47.39664	-122.1504	495.333	495.2663	129.5568	18.71	16.56561	100	0	98	2.671773	3.212719	151.6947	
10:12:02	47.39633	-122.1501	499.944	499.7904	430.1161	23.29	21.32911	100	0	88	3.055361	8.865535	159.9003	
10:12:04	47.396	-122.1499	506.88	506.2344	324.6758	24.36	22.74059	100	0	61	3.423788	5.749714	168.8312	
10:12:06	47.39571	-122.1498	511.01	510.9949	205.9393	24.06	22.26831	100	0	61	2.217315	2.537861	177.1528	
10:12:07	47.39528	-122.1496	514.517	514.3467	174.0382	24.45	22.47089	100	0	61	1.921618	1.563138	-175.3631	
10:12:09	47.39494	-122.1496	516.62	516.7326	138.2908	24.73	22.85304	100	0	59	1.648319	1.032253	-168.6578	
10:12:11	47.39457	-122.1496	518.706	518.681	114.976	25	23.16195	100	0	59	1.472249	0.7319525	-162.7776	
10:12:12	47.39434	-122.1496	521.025	521.5848	150.3392	25.17	23.33485	100	0	59	1.507237	0.8671263	-157.2756	
10:12:14	47.3938	-122.1497	528.248	525.3237	235.0805	25.54	23.71598	100	0	59	1.873993	0.04499434	-152.5961	
10:12:16	47.3934	-122.1498	534.052	533.2447	382.2994	25.54	23.8176	100	0	61	0.5553085	0.702037	-151.5182	
10:12:17	47.39302	-122.15	539.689	539.4479	368.3175	25.68	23.71364	100	0	61	0.6264987	0.5748887	-150.3324	
10:12:19	47.3927	-122.1501	544.439	544.0929	294.9236	25.79	23.74499	100	0	61	0.7466914	0.4762213	-148.4894	
10:12:21	47.3924	-122.1503	548.89	549.1208	305.2081	25.94	24.04066	100	0	61	0.3205905	0.4075809	-146.9184	
10:12:22	47.39191	-122.1506	556.734	554.9344	333.3955	25.87	23.99034	100	0	59	1.288494	0.6659735	-146.0969	
10:12:24	47.39167	-122.1507	560.569	560.6836	319.2191	25.94	24.11901	100	0	61	0.8948571	0.134388	-144.6441	
10:12:26	47.39126	-122.151	555.418	560.5893	109.1371	26.16	24.59417	100	0	59	0.8546478	0.4608716	-143.72	
10:12:28	47.39109	-122.1512	551.943	552.3881	-283.3239	26.15	24.43876	100	0	61	1.03893	0.3152996	-143.1282	
10:12:29	47.39056	-122.1517	540.751	542.1011	-542.3882	26.28	24.34087	100	0	59	0.5418547	0.6057226	-143.0791	
10:12:31	47.39018	-122.152	532.209	532.4908	-611.7763	26.41	24.2232	100	0	61	0.3253422	0.6603731	-143.0653	
10:12:33	47.38988	-122.1523	525.319	524.765	-565.9545	26.56	24.25215	100	0	61	0.3425463	0.3979957	-142.6849	
10:12:34	47.38955	-122.1527	522.862	519.7167	-433.4053	26.74	24.37704	100	0	61	0.5038012	0.4465001	-142.014	
10:12:36	47.38926	-122.153	521.33	519.2687	-198.4106	26.94	24.63868	100	0	59	0.4568155	0.4255102	-141.0354	
10:12:38	47.38896	-122.1534	521.938	520.3616	-45.73137	27.02	24.64519	100	0	61	0.5292308	0.2124613	-139.9395	
10:12:39	47.38857	-122.1539	523.879	522.5713	69.59934	27.22	24.79244	100	0	61	0.5731038	0.3947741	-138.7127	
10:12:41	47.38826	-122.1543	527.128	525.9122	149.9266	27.31	24.87358	100	0	61	0.6766739	0.04814151	-137.1467	
10:12:43	47.388	-122.1546	529.251	529.295	190.8431	27.44	24.99822	100	0	59	0.6188473	0.08459103	-135.5956	
10:12:44	47.38767	-122.1551	531.908	531.9741	182.4343	27.48	25.0463	100	0	59	0.7204635	0.07093273	-133.8671	
10:12:46	47.3874	-122.1555	533.955	534.1731	168.9112	27.49	25.07049	100	0	59	0.1052659	0.1833047	-132.475	
10:12:48	47.38715	-122.156	536.018	536.3395	158.1897	27.47	25.05031	100	0	59	0.7314348	0.2463525	-130.7124	
10:12:50	47.38686	-122.1564	538.884	538.679	155.2985	27.53	25.11174	100	0	61	0.2145863	0.2140018	-129.3638	
10:12:51	47.38659	-122.1569	542.1	541.8548	189.7307	27.61	25.23855	100	0	61	2.883189	0.2532068	-127.7492	
10:12:53	47.38635	-122.1575	544.567	544.5057	115.2207	27.48	25.19015	100	0	59	46.15266	-1.479085	-102.6737	
10:12:55	47.38634	-122.158	545.252	546.296	167.2003	26.42	25.56754	100	0	67	46.5634	-0.01106836	-61.12094	
10:12:56	47.3866	-122.1585	544.266	545.9736	91.44427	25.86	26.709	100	0	73	46.04543	0.8552597	-22.73196	
10:12:58	47.38694	-122.1586	543.639	544.3727	-1.275747	25.88	27.79169	100	0	73	45.0581	1.343654	13.20641	
10:13:00	47.38731	-122.1583	541.577	542.4539	-65.65073	26.47	28.61594	100	0	73	37.29195	1.227172	46.58733	
10:13:01	47.38754	-122.1578	540.592	540.5948	-107.848	27.07	28.84488	100	0	73	10.94803	0.7146291	63.31024	
10:13:03	47.38767	-122.1573	538.668	538.775	-125.7314	27.43	29.29427	100	0	73	-1.868506	0.3102879	66.05254	
10:13:05	47.38781	-122.1567	536.272	536.1284	-152.9902	27.54	28.82476	100	0	73	-5.619305	0.1361417	65.19582	
10:13:07	47.38799	-122.1561	533.279	533.3832	-189.021	27.4	28.43921	100	0	73	-23.89701	-0.1459072	57.72621	
10:13:08	47.38821	-122.1556	530.858	530.6612	-160.2853	27.17	28.16146	100	0	73	-24.16817	0.3391174	43.0229	
10:13:10	47.38853	-122.1552	528.946	528.6523	-132.9819	26.93	28.31028	100	0	73	-17.01276	0.2313567	31.18382	
10:13:12	47.3889	-122.1549	527.681	527.3928	-96.87194	26.77	28.43094	100	0	73	-9.100429	0.2024409	24.39949	
10:13:13	47.38929	-122.1546	526.793	526.6078	-67.75377	26.67	28.40133	100	0	73	-4.982001	0.1753593	21.1623	
10:13:15	47.38964	-122.1544	527.221	526.2639	-32.78769	26.62	28.00249	100	0	73	-1.549312	0.1121672	20.26953	
10:13:17	47.39004	-122.1542	529.113	528.131	52.05347	26.57	27.74648	100	0	73	-0.8472195	0.05164229	20.65204	
10:13:18	47.39041	-122.154	530.989	530.5891	112.0427	26.57	27.63291	100	0	73	-0.9401208	0.1070534	21.21992	
10:13:20	47.39075	-122.1538	532.778	532.8339	128.7933	26.54	27.54037	100	0	73	-4.898447	0.1405824	21.53358	
10:13:22	47.39116	-122.1535	538.825	535.4296	111.7594	26.54	27.49988	100	0	73	31.40085	-0.938944	22.98861	
10:13:24	47.39152	-122.1532	549.926	546.1451	392.863	26.55	27.33341	100	0	74	-44.07594	-0.1904316	22.46688	
10:13:25	47.39188	-122.1531	556.86	557.2632	609.4877	27.2	27.96465	100	0	73	-46.4566	1.11639	-11.69373	
10:13:27	47.39223	-122.1534	560.337	563.5678	476.1534	28.18	28.86743	100	0	74	-45.7231	0.9444714	-43.32943	
10:13:29	47.39249	-122.154	557.814	562.4526	128.3536	29.67	30.07175	100	0	73	-45.71893	0.861374	-73.57526	
10:13:30	47.39249	-122.1546	548.775	553.0294	-337.6799	30.57	30.54715	100	0	73	-44.82021	0.6906739	-102.4166	
10:13:32	47.39223	-122.1553	534.121	535.9752	-801.4814	31.38	30.80075	100	0	74	-45.35833	0.8660762	-131.2576	
10:13:34	47.39184	-122.1557	533.734	527.849	-637.2393	31.32	30.39016	100	0	73	-45.08424	0.7979363	-159.728	
10:13:35	47.3914	-122.1557	534.014	529.9586	-199.7759	30.9	29.77541	100	0	73	-45.10328	0.4221274	170.6712	
10:13:37	47.39099	-122.1555	533.129	532.9718	42.56697	30.17	29.37162	100	0	74	-44.33798	0.6891684	139.3651	
10:13:39	47.39069	-122.155	530.233	531.8603	-9.689422	29.15	28.91516	100	0	73	-41.53797	0.7085894	108.014	
10:13:41	47.39062	-122.1544	528.821	528.9931	-99.87457	28.25	28.67412	100	0	73	-31.29956	0.5073555	84.59768	
10:13:42	47.39071	-122.1537	528.168	527.65	-123.702	27.6	28.42936	100	0	73	-39.27219	-0.2699828	64.20097	
10:13:44	47.39091	-122.1532	531.503	528.3942	-27.03967	27.4	28.38924	100	0	73	-35.43351	-0.6927303	52.32219	
10:13:46	47.39124	-122.1528	540.823	537.1818	387.3613	27.43	28.52916	100	0	74	-45.38646	0.4597047	21.11284	
10:13:47	47.3916	-122.1527	547.644	548.0002	588.3752	27.65	28.651	100	0	73	-44.5904	0.780304	-10.64167	
10:13:49	47.392	-122.153	552.879	555.174	521.0391	28.24	28.82485	100	0	73	-44.91146	0.5580925	-41.68845	
10:13:51	47.39225	-122.1536	552.236	556.4713	251.3096	29.22	29.31997	100	0	73	-45.48663	0.2395325	-73.32419	
10:13:52	47.39225	-122.1542	546.108	550.5923	-126.2494	30.08	29.55412	100	0	73	-45.026	0.2727954	-105.3792	
10:13:54	47.39203	-122.1548	533.695	537.3439	-557.018	30.72	29.6131	100	0	73	-45.41533	-0.2314646	-137.8051	
10:13:56	47.39162	-122.1551	531.267	526.9711	-577.8911	30.88	29.48359	100	0	74	-45.75935	-0.3513269	-170.6411	
10:13:57	47.39114	-122.1551	529.942	527.4111	-205.433	30.42	29.35204	100	0	73	-44.8732	-0.0780059	156.0459	
10:13:59	47.39078	-122.1548	527.423	527.4192	-72.56451	29.56	28.95613	100	0	73	-44.94881	-0.1291496	122.6384	
10:14:01	47.39058	-122.1542	525.491	525.7564	-64.22536	28.51	28.80001	100	0	73	-44.88374	0.03853872	89.18039	
10:14:03	47.39064	-122.1535	524.289	524.3892	-64.67516	27.59	28.75566	100	0	73	-45.12757	0.0283754	56.29002	
10:14:04	47.39089	-122.1531	528.278	525.3857	57.85934	27.26	28.55363	100	0	73	-45.05755	0.1651203	23.56374	
10:14:06	47.39132	-122.153	536.562	534.7621	408.6938	27.49	28.89641	100	0	74	-45.849	0.1743205	-8.987245	
10:14:08	47.39171	-122.1532	541.996	543.2801	486.4353	28.12	28.81485	100	0	73	-44.84887	0.2059041	-41.055	
10:14:09	47.39194	-122.1537	542.301	545.8361	299.2054	28.89	28.76489	100	0	73	-44.83959	0.09224939	-73.56554	
10:14:11	47.39198	-122.1541	538.977	541.313	-24.76513	29.39	28.71219	100	0	73	-43.16293	0.1991568	-107.2785	
10:14:13	47.39174	-122.155	529.232	532.1644	-454.7559	30.53	29.14388	100	0	73	-45.22638	-1.101038	-141.934	
10:14:14	47.39131	-122.1553	525.2	524.3542	-379.1329	31.56	29.93206	100	0	73	-44.74688	-1.503379	178.8067	
10:14:16	47.39082	-122.1552	518.76	519.8593	-222.8244	31.57	30.5251	100	0	73	-45.57325	-1.022154	142.0996	
10:14:18	47.39048	-122.1547	512.927	514.5805	-245.4104	30.56	30.40726	100	0	73	-45.41701	-0.5459617	108.9564	
10:14:20	47.39038	-122.1541	510.502	509.8448	-246.5876	29.47	30.24709	100	0	74	-44.50228	0.02705285	76.84836	
10:14:21	47.39051	-122.1535	509.731	508.2176	-152.0943	28.3	29.79951	100	0	73	-44.98159	0.09101356	45.54684	
10:14:23	47.39085	-122.1531	514.89	510.5685	40.97155	27.43	29.13297	100	0	73	-44.70408	-0.1039112	13.8055	
10:14:25	47.39127	-122.1531	523.165	520.4653	395.3835	27.36	28.78796	100	0	73	-45.0391	0.02649558	-19.21724	
10:14:26	47.39159	-122.1534	527.675	529.1028	479.5498	27.93	28.62173	100	0	74	-45.15655	-0.2773253	-53.16856	
10:14:28	47.39177	-122.154	525.898	530.5257	243.8978	28.92	28.54957	100	0	73	-45.23074	-0.7680442	-88.57487	
10:14:30	47.39169	-122.1546	518.881	522.5828	-184.7069	29.7	28.67972	100	0	73	-45.43082	-1.060377	-126.0537	
10:14:31	47.39136	-122.1551	520.556	518.7884	-177.0914	29.99	28.74344	100	0	73	-44.46216	-1.144285	-163.9549	
10:14:33	47.39091	-122.1552	519.424	519.2964	-20.08454	29.96	28.33926	100	0	73	-45.35905	-1.839823	156.2924	
10:14:35	47.39051	-122.1548	515.301	517.4368	-22.18322	29.39	29.18062	100	0	73	-45.49788	-0.9160092	117.1531	
10:14:37	47.39034	-122.1543	511.546	512.8787	-160.6532	28.64	29.2843	100	0	74	-44.63696	-0.4746268	81.96494	
10:14:38	47.39043	-122.1537	508.968	508.7287	-203.7023	28.12	29.40726	100	0	73	-45.33104	-0.2539052	48.59124	
10:14:40	47.39078	-122.1532	509.148	506.6495	-154.3184	27.84	29.60758	100	0	73	-45.28448	0.01881118	16.18095	
10:14:42	47.39116	-122.1532	515.444	512.1216	168.2254	27.95	29.05008	100	0	73	-44.17044	0.4080233	-15.77277	
10:14:43	47.39157	-122.1535	520.338	520.1947	353.9226	28.51	28.7999	100	0	73	-45.08281	-0.02051781	-47.67512	
10:14:45	47.39175	-122.1541	518.63	522.3524	207.2877	29.21	28.78316	100	0	73	-45.07113	-0.4071278	-81.37318	
10:14:47	47.3917	-122.1547	514.179	516.1588	-160.2161	29.65	28.70136	100	0	73	-45.24862	-0.257745	-117.179	
10:14:48	47.39143	-122.1552	517.464	514.787	-127.3921	29.7	28.29245	100	0	73	-45.33873	-0.9088048	-153.359	
10:14:50	47.39099	-122.1554	518.4	517.5524	39.59306	29.42	28.03374	100	0	73	-45.31954	-1.206376	168.6915	
10:14:52	47.39055	-122.1552	516.597	518.1115	35.17057	28.79	28.17928	100	0	73	-45.03664	-0.8650388	130.4751	
10:14:54	47.39034	-122.1547	513.365	515.1195	-93.06757	28.1	28.65303	100	0	73	-45.26037	-0.2997029	93.38881	
10:14:55	47.39036	-122.154	510.829	511.1247	-204.9044	27.59	28.67115	100	0	74	-43.72155	-0.2142882	60.29713	
10:14:57	47.39059	-122.1536	508.733	508.233	-181.1648	27.66	29.15482	100	0	74	-42.65695	0.09880669	29.98863	
10:14:59	47.391	-122.1534	510.535	507.3498	-89.14408	27.94	29.29235	100	0	73	-44.88363	0.03423716	-1.27231	
10:15:00	47.39141	-122.1536	516.685	514.1802	238.9802	28.31	29.06166	100	0	73	-44.79945	-0.01371432	-33.75042	
10:15:02	47.39167	-122.154	518.194	519.8458	303.1345	28.6	28.36662	100	0	74	-45.29916	-0.4012812	-67.44868	
10:15:04	47.39175	-122.1547	515.804	518.6787	88.53394	28.9	27.88979	100	0	74	-45.11709	-0.7997358	-104.1252	
10:15:05	47.39157	-122.1552	520.307	518.9877	73.16773	28.91	27.64524	100	0	73	-45.39336	-1.16061	-143.6758	
10:15:07	47.39118	-122.1555	523.809	523.3102	189.8825	28.68	27.52873	100	0	73	-45.10903	-1.732626	175.2125	
10:15:09	47.39073	-122.1554	522.653	524.9836	151.3598	28.33	27.81095	100	0	73	-45.21412	-1.681313	133.4633	
10:15:11	47.39048	-122.1549	518.322	521.5556	-37.95123	27.93	28.68144	100	0	73	-44.75023	-0.8854236	93.64159	
10:15:12	47.39049	-122.1543	514.804	515.8307	-174.0962	27.7	29.03583	100	0	73	-32.99038	0.2928163	62.98721	
10:15:14	47.39069	-122.1538	513.01	512.1846	-227.0032	27.69	29.14543	100	0	73	-32.50972	-0.251346	43.7258	
10:15:16	47.39103	-122.1533	517.383	512.4543	-76.36696	27.45	29.04825	100	0	73	11.36279	-0.3660262	39.06448	
10:15:17	47.39131	-122.1529	527.141	522.6364	257.8786	27.2	28.59179	100	0	73	-45.00328	-0.8372764	25.20642	
10:15:19	47.39172	-122.1528	537.604	536.1674	637.0696	26.95	28.27298	100	0	74	-44.23748	1.497905	-8.414491	
10:15:21	47.39211	-122.153	543.199	545.1077	517.9372	27.92	28.65432	100	0	74	-45.90259	0.5159157	-41.08232	
10:15:22	47.39233	-122.1535	541.688	545.8011	190.8618	29.27	29.41202	100	0	74	-45.24263	0.3153389	-73.9817	
10:15:24	47.39233	-122.1542	532.855	538.1701	-231.2722	30.52	29.87087	100	0	73	-45.38723	-0.1310142	-106.3294	
10:15:26	47.39211	-122.1547	521.658	524.1439	-638.2784	30.85	29.63727	100	0	73	-44.97861	0.08703746	-139.0148	
10:15:28	47.39164	-122.1551	519.831	513.9957	-644.0341	30.3	29.08186	100	0	73	-44.98604	0.4314775	-171.75	
10:15:29	47.39116	-122.155	520.858	516.4346	-214.7672	29.19	28.31569	100	0	73	-45.54546	0.04743741	154.6761	
10:15:31	47.39086	-122.1547	520.631	519.6394	13.21417	28.09	27.73034	100	0	73	-41.10407	0.6789328	121.3243	
10:15:33	47.39071	-122.1542	521.373	521.0323	18.58315	27.22	27.34598	100	0	73	-36.81401	0.2471261	94.67484	
10:15:34	47.39072	-122.1535	521.822	521.6796	72.9437	26.54	27.51079	100	0	73	-18.56342	1.169335	67.21003	
10:15:36	47.39089	-122.153	529.343	525.325	85.61883	26.25	27.45644	100	0	73	-45.3912	-1.143378	47.12814	
10:15:38	47.39122	-122.1527	539.617	537.2112	540.4612	26	27.50028	100	0	73	-45.88494	0.2816473	10.35299	
10:15:39	47.39162	-122.1528	548.216	548.9067	659.7871	26.2	27.25685	100	0	73	-45.76778	0.02895578	-26.25242	
10:15:41	47.39191	-122.1532	552.595	555.7582	534.6357	27	27.07442	100	0	73	-45.61472	-0.5738763	-64.54676	
10:15:43	47.39196	-122.1538	550.167	555.5133	226.983	28.05	27.34711	100	0	73	-45.07428	-1.26996	-105.5942	
10:15:45	47.39172	-122.1544	540.935	547.5198	-177.8588	28.83	27.45364	100	0	74	-45.65339	-1.72416	-147.9096	
10:15:46	47.39135	-122.1545	538.693	537.4685	-387.8666	29.01	27.52426	100	0	74	-45.04994	-1.055965	170.2098	
10:15:48	47.39098	-122.1544	537.424	535.6445	-187.8858	28.85	27.97087	100	0	73	-43.48568	-0.9081151	130.8181	
10:15:50	47.39068	-122.1538	534.698	534.8732	-82.08987	28.18	28.52167	100	0	73	-45.05634	-0.4865053	95.21352	
10:15:51	47.39067	-122.1533	533.088	533.074	-86.98412	27.56	28.59451	100	0	73	-44.78509	0.085255	60.46642	
10:15:53	47.39093	-122.1528	542.308	538.1301	190.2087	27.18	28.52003	100	0	74	-45.22653	0.08563644	27.46638	
10:15:55	47.39135	-122.1526	550.976	549.2687	503.3112	27.25	28.51752	100	0	73	-45.50595	0.1042741	-5.496294	
10:15:56	47.39174	-122.1528	557.044	557.654	513.6715	27.49	28.22984	100	0	74	-45.25146	-0.1012285	-39.72289	
10:15:58	47.39195	-122.1533	559.497	562.1158	367.495	27.79	27.61949	100	0	73	-45.03993	-0.492667	-76.10513	
10:16:00	47.39195	-122.1539	557.205	560.8957	90.23082	28.14	27.01703	100	0	73	-45.19804	-1.395207	-115.3687	
10:16:02	47.39172	-122.1544	550.177	553.4608	-247.4959	28.45	26.99581	100	0	74	-45.01958	-1.771472	-157.2388	
10:16:03	47.39128	-122.1546	549.295	547.2818	-292.9052	28.58	27.45911	100	0	73	-45.01875	-1.444613	160.0604	
10:16:05	47.39087	-122.1543	547.157	546.8309	-106.3266	28.27	28.0731	100	0	73	-41.13586	-0.9622885	121.1746	
10:16:07	47.39072	-122.1539	545.124	545.2192	-119.4842	28.04	28.58827	100	0	73	-44.25786	-0.60202	88.5457	
10:16:08	47.39071	-122.1531	547.024	543.9591	-97.24537	27.3	28.48412	100	0	73	-41.38993	-0.04972258	71.83699	
10:16:10	47.39083	-122.1526	560.476	553.5743	325.7582	25.83	27.01857	100	0	73	-44.49357	0.9085228	44.01028	
10:16:12	47.39113	-122.1522	576.807	571.7877	742.8289	24.03	25.5124	100	0	73	-43.89029	0.9585812	12.57314	
10:16:13	47.39147	-122.1522	587.847	588.0571	805.1089	23.87	25.13718	100	0	73	-45.27631	0.2768447	-22.67076	
10:16:15	47.39177	-122.1525	591.281	595.2743	514.1051	25.41	25.78772	100	0	73	-45.55204	-0.3215658	-60.9935	
10:16:17	47.39186	-122.153	588.102	592.7681	87.61544	27.48	27.13065	100	0	73	-45.1186	-0.7366577	-100.3203	
10:16:19	47.39165	-122.1537	575.097	582.1483	-341.984	29.87	28.25714	100	0	73	-44.59598	-0.4911475	-138.3715	
10:16:20	47.39129	-122.154	563.044	566.626	-684.5673	30.52	28.79959	100	0	73	-39.93031	-0.03632008	-171.5147	
10:16:22	47.39088	-122.154	562.202	557.5867	-616.0408	30.19	28.64715	100	0	73	-43.35146	0.2669939	160.0723	
10:16:24	47.39046	-122.1538	561.51	557.8505	-253.0612	29.2	28.29552	100	0	73	-45.3679	0.0345335	126.9772	
10:16:25	47.39023	-122.1532	561.573	559.914	-51.30437	27.82	27.91892	100	0	73	-45.41822	0.1482688	93.54184	
10:16:27	47.39027	-122.1525	568.461	563.9306	128.2285	26.62	27.94855	100	0	73	-45.41095	0.1268091	59.54291	
10:16:29	47.39052	-122.1521	578.926	575.7683	487.7319	26.17	27.89751	100	0	74	-45.61864	0.1056671	25.43456	
10:16:30	47.39091	-122.152	587.28	587.718	635.6941	26.38	27.8027	100	0	73	-45.42693	0.1839047	-9.016343	
10:16:32	47.39129	-122.1523	590.354	593.9377	476.6192	27.21	27.90757	100	0	74	-45.00604	-0.0458315	-44.34607	
10:16:34	47.39146	-122.1528	588.113	592.2139	137.2672	28.06	27.66155	100	0	74	-44.80904	-0.5981842	-81.14744	
10:16:36	47.39141	-122.1534	583.846	586.8494	-118.274	28.75	27.55161	100	0	74	-44.54396	-0.7364777	-120.2243	
10:16:37	47.39112	-122.1539	577.483	578.6358	-342.0027	28.91	27.38169	100	0	73	-42.20107	-0.7112199	-157.7137	
10:16:39	47.39071	-122.154	579.229	576.2687	-225.4545	28.58	27.26817	100	0	74	-45.27698	-1.094144	163.2089	
10:16:41	47.3903	-122.1538	578.998	578.0367	-20.61863	28.02	27.63935	100	0	74	-45.34472	-0.6515567	123.3673	
10:16:42	47.39012	-122.1533	577.35	578.1249	-15.605	27.45	27.96828	100	0	73	-44.77984	-0.180123	86.13745	
10:16:44	47.39018	-122.1527	578.506	577.4885	-2.046982	27.11	28.33447	100	0	73	-43.77213	0.2951007	50.70727	
10:16:46	47.39049	-122.1523	586.821	584.4597	281.7704	27.27	28.74449	100	0	73	-44.99219	0.3337476	17.69642	
10:16:47	47.39093	-122.1522	592.827	593.0095	437.3066	27.8	28.8645	100	0	73	-44.9881	0.1572786	-14.76156	
10:16:49	47.39131	-122.1526	594.383	597.0403	330.7655	28.2	28.45909	100	0	73	-45.47221	-0.05996685	-47.99962	
10:16:51	47.39148	-122.1531	594.145	596.1183	101.9016	28.29	27.71274	100	0	74	-45.1441	-0.3127292	-83.77282	
10:16:52	47.39141	-122.1537	591.578	593.6715	-69.6728	28.16	26.90318	100	0	74	-45.16403	-1.004742	-121.75	
10:16:54	47.39113	-122.1542	589.985	588.8227	-216.5289	28.1	26.62368	100	0	74	-45.73203	-1.462191	-162.7739	
10:16:56	47.39068	-122.1542	591.856	590.0138	-45.72827	27.86	26.9507	100	0	74	-45.6352	-1.726221	154.7751	
10:16:58	47.39036	-122.1539	590.449	591.1826	25.78106	27.59	27.92279	100	0	73	-45.27229	-1.117412	113.2707	
10:16:59	47.39024	-122.1533	586.605	588.7676	-96.67142	27.46	28.60684	100	0	73	-45.30051	-0.7145759	76.05354	
10:17:01	47.39037	-122.1528	586.006	584.8445	-138.3705	27.74	29.09338	100	0	73	-45.31337	-0.3313649	41.00269	
10:17:03	47.39075	-122.1525	593.05	589.6987	187.9423	28.13	29.47252	100	0	73	-44.96338	0.1674713	8.380525	
10:17:04	47.39117	-122.1525	598.346	597.8403	398.1178	28.22	28.77069	100	0	73	-44.82404	0.1369605	-23.33853	
10:17:06	47.39152	-122.1529	602.01	602.9033	358.6603	27.93	27.89583	100	0	73	-44.98955	-0.4383812	-58.49203	
10:17:08	47.39162	-122.1536	604.54	606.0573	267.0426	27.35	26.59377	100	0	73	-45.21551	-1.044659	-97.5569	
10:17:09	47.39148	-122.1541	601.781	605.0331	34.16448	27.03	25.77542	100	0	73	-45.45079	-2.128691	-140.7962	
10:17:11	47.39112	-122.1544	603.134	601.6664	-123.5114	27.07	26.06211	100	0	73	-45.38018	-2.428066	172.5998	
10:17:13	47.39077	-122.1542	602.305	602.2158	-17.72628	27.27	26.79597	100	0	73	-43.41124	-1.350925	126.214	
10:17:15	47.39051	-122.1537	596.48	599.3522	-76.14727	27.63	28.25327	100	0	74	-44.82574	-0.9235353	84.53954	
10:17:16	47.39058	-122.1531	592.21	593.4509	-194.1964	28.02	29.12309	100	0	74	-44.99101	-0.1344837	48.44573	
10:17:18	47.39089	-122.1527	599.917	595.6248	68.12266	28.28	29.47213	100	0	73	-44.92145	0.1797109	16.07101	
10:17:20	47.39134	-122.1526	607.878	605.3875	407.1339	27.96	28.61576	100	0	74	-44.96353	0.1204799	-15.92306	
10:17:21	47.39167	-122.1529	614.179	614.4138	507.1071	27.52	27.24921	100	0	73	-44.88208	-0.5284378	-50.71422	
10:17:23	47.39187	-122.1534	619.341	621.4606	463.0014	26.92	26.19535	100	0	73	-45.12528	-1.823227	-91.17862	
10:17:25	47.39177	-122.1541	617.332	622.3477	208.8282	26.86	25.81952	100	0	73	-44.79267	-3.055639	-137.5107	
10:17:26	47.39146	-122.1544	612.379	615.328	-182.1503	27.35	26.43752	100	0	74	-44.44288	-3.252089	173.1922	
10:17:28	47.39104	-122.1542	609.88	610.4921	-161.6936	28	27.5702	100	0	73	-36.60252	-1.672987	128.5647	
10:17:30	47.39077	-122.1538	605.33	606.5877	-125.5638	28.45	28.80098	100	0	73	-15.91018	-0.6176336	99.24311	
10:17:32	47.39061	-122.1532	603.746	603.1149	-132.0202	29.02	29.58333	100	0	73	7.114729	1.154118	106.4075	
10:17:33	47.39042	-122.1526	611.149	605.7074	-144.1544	28.27	28.41598	100	0	73	-44.59906	-1.048641	88.07594	
10:17:35	47.39047	-122.1519	619.691	614.4373	272.711	27.58	29.80191	100	0	73	-45.8506	-0.2178248	52.86565	
10:17:37	47.39074	-122.1515	628.027	626.1578	528.9451	27.36	30.27215	100	0	73	-45.37204	-0.1319617	19.59342	
10:17:38	47.39116	-122.1514	635.799	636.3789	569.6	27.43	29.94061	100	0	73	-45.38811	-0.2745855	-13.42025	
10:17:40	47.3915	-122.1517	639.014	641.5244	397.148	27.59	28.64582	100	0	73	-45.33731	-0.7995142	-47.34668	
10:17:42	47.39172	-122.1523	637.272	641.0741	136.5724	27.9	27.4834	100	0	74	-45.56613	-1.406073	-86.38435	
10:17:43	47.39165	-122.1528	634.264	636.5368	-73.67862	27.87	26.4889	100	0	73	-36.49723	-0.9684677	-126.023	
10:17:45	47.39141	-122.1533	631.211	631.7928	-213.7598	27.33	25.40342	100	0	73	-25.31932	-0.6518072	-153.5129	
10:17:47	47.39101	-122.1536	626.427	626.1993	-415.8474	27.04	25.06533	100	0	73	-44.36532	-2.3426	174.5831	
10:17:49	47.39064	-122.1535	627.849	624.778	-146.6936	26.61	25.44881	100	0	73	16.7923	0.270647	151.3219	
10:17:50	47.39022	-122.1534	631.68	628.1358	-85.82481	26.73	24.316	100	0	73	46.90875	0.3543558	178.6342	
10:17:52	47.38986	-122.1536	635.79	633.1472	46.00855	26.42	23.90868	100	0	73	46.85508	0.7129805	-138.4672	
10:17:54	47.38966	-122.1542	637.776	637.0164	74.19997	26.36	25.46181	100	0	73	46.95244	-0.04913837	-93.46809	
10:17:55	47.38978	-122.1547	637.062	637.7708	13.62759	26.6	27.17796	100	0	74	46.49928	0.3155921	-50.29829	
10:17:57	47.39009	-122.155	635.565	636.2109	-65.92572	27.17	28.23609	100	0	73	45.81777	0.8346726	-11.37774	
10:17:59	47.39054	-122.1549	632.173	633.3066	-81.97698	28.19	29.72422	100	0	74	28.11077	1.917981	19.65381	
10:18:00	47.3909	-122.1546	630.12	629.9113	-224.1761	28.55	30.3113	100	0	73	13.60227	-0.3185978	29.05215	
10:18:02	47.39118	-122.1542	629.032	627.7315	-215.4886	28.79	30.28578	100	0	73	45.5306	-0.2455796	49.90246	
10:18:04	47.39132	-122.1535	634.581	630.1385	7.207183	29.5	29.89225	100	0	73	45.41247	0.7373587	83.35903	
10:18:06	47.39116	-122.1529	637.875	636.829	190.1032	30.47	29.92809	100	0	73	45.42009	1.057454	115.6298	
10:18:07	47.39084	-122.1525	637.769	639.0894	72.60306	31.27	30.10642	100	0	74	45.08149	0.7037407	146.9951	
10:18:09	47.39035	-122.1523	630.422	633.7314	-242.4105	32.03	30.3762	100	0	73	44.76437	0.5760896	178.7043	
10:18:11	47.38995	-122.1525	620.412	621.7917	-584.282	32.11	30.51143	100	0	73	44.84071	0.6352212	-148.7648	
10:18:12	47.38961	-122.1531	615.218	612.6572	-601.4443	31.59	30.42119	100	0	74	43.74512	0.064065	-116.0778	
10:18:14	47.38953	-122.1538	615.259	611.3116	-280.4948	30.6	30.15199	100	0	73	45.20496	0.1409407	-81.82427	
10:18:16	47.38973	-122.1544	615.255	613.6129	-39.61826	29.32	29.80025	100	0	74	44.49345	-0.06677524	-48.11913	
10:18:17	47.39013	-122.1548	616.091	615.5482	72.62516	28.51	29.90633	100	0	73	41.14014	0.504027	-13.17356	
10:18:19	47.39049	-122.1547	616.468	617.024	77.7099	28.18	29.83574	100	0	73	22.55642	0.5058446	10.16141	
10:18:21	47.39091	-122.1545	615.609	616.2121	-44.96351	28.29	30.26262	100	0	73	33.43218	-0.6392724	25.13113	
10:18:23	47.39122	-122.154	612.655	613.6403	-128.398	29.16	30.47264	100	0	73	45.09763	0.3335692	55.8918	
10:18:24	47.39131	-122.1535	615.863	613.5286	-44.49962	30.46	30.81949	100	0	73	45.07419	0.8525727	87.41491	
10:18:26	47.39114	-122.1528	615.145	615.1904	-0.9436913	31.99	31.65284	100	0	73	45.07169	1.181635	116.286	
10:18:28	47.39075	-122.1523	611.424	613.0686	-150.6643	32.99	32.04795	100	0	73	44.99488	1.225423	143.1006	
10:18:29	47.3903	-122.1521	602.991	604.9811	-451.3605	33.49	32.29966	100	0	73	44.92832	1.482018	168.9506	
10:18:31	47.3898	-122.1523	589.574	590.9669	-788.4057	33.6	32.14077	100	0	74	44.31596	1.091781	-164.9929	
10:18:33	47.38939	-122.1528	581.451	578.6478	-799.7271	33.23	31.67277	100	0	73	44.32091	0.4274365	-136.269	
10:18:34	47.38916	-122.1535	578.225	573.5767	-481.3108	32.05	30.90808	100	0	73	45.01467	0.2503223	-104.7104	
10:18:36	47.3892	-122.1541	578.793	575.8793	-96.53233	30.65	30.03905	100	0	73	44.26189	0.05614496	-72.25061	
10:18:38	47.38945	-122.1547	580.117	579.1736	99.45451	29.24	29.65935	100	0	73	44.73071	-0.04858507	-39.03921	
10:18:40	47.38986	-122.1549	581.006	581.5406	156.2529	28.35	29.74033	100	0	73	40.65893	0.1678958	-4.964125	
10:18:41	47.39024	-122.1548	580.894	582.4109	109.0569	28.18	30.11933	100	0	73	8.466848	0.05908589	15.05544	
10:18:43	47.39064	-122.1546	579.592	580.6037	-12.46774	28.24	30.22126	100	0	74	0.3659995	-0.6212317	17.7184	
10:18:45	47.39103	-122.1543	578.395	578.6439	-128.7108	28.38	29.80257	100	0	73	44.36742	-1.059616	31.5139	
10:18:46	47.39132	-122.1538	576.634	575.5424	-147.0359	29.84	30.1439	100	0	73	45.90736	0.8546214	65.36613	
10:18:48	47.39132	-122.1531	575.999	576.0728	-64.9882	31.79	31.6487	100	0	73	45.37247	1.628255	94.85552	
10:18:50	47.39108	-122.1525	571.213	572.4631	-241.0307	33.51	32.74263	100	0	73	45.07157	2.135518	119.0819	
10:18:51	47.39061	-122.152	560.389	563.4001	-570.9695	34.72	33.72265	100	0	73	45.12819	2.514181	139.7705	
10:18:53	47.39012	-122.1518	545.155	547.9184	-968.7958	35.38	34.44278	100	0	73	44.37153	2.178742	157.8823	
10:18:55	47.3896	-122.152	524.297	525.8419	-1382.629	35.88	34.63739	100	0	74	44.39277	2.445533	175.7153	
10:18:57	47.38914	-122.1523	505.821	502.7208	-1500.862	36.22	35.04377	100	0	73	44.61152	0.3960134	-161.3441	
10:18:58	47.38879	-122.153	489.367	486.7739	-1071.505	36.19	34.51257	100	0	73	44.578	-0.1180017	-130.2331	
10:19:00	47.38868	-122.1536	485.483	480.5093	-518.313	35.05	33.14252	100	0	73	44.66997	-0.07170479	-98.66641	
10:19:02	47.38879	-122.1545	486.657	483.4375	-13.15319	32.3	31.34777	100	0	73	44.14785	0.2293212	-67.95279	
10:19:03	47.38907	-122.155	488.458	488.2518	223.2037	30.27	30.18645	100	0	73	44.52612	0.1269063	-36.54616	
10:19:05	47.38945	-122.1552	488.867	490.6392	206.3962	28.89	29.87003	100	0	74	43.67157	-0.202517	-3.710794	
10:19:07	47.3899	-122.1551	487.142	489.5932	111.3598	28.62	30.67752	100	0	73	24.30954	0.5093119	24.65969	
10:19:08	47.3903	-122.1547	482.496	485.2685	-130.5567	28.95	31.19685	100	0	73	-15.83044	-0.9939737	30.1873	
10:19:10	47.39067	-122.1544	478.958	480.0159	-121.9377	29.14	30.88923	100	0	73	-28.3496	-0.4454356	18.07746	
10:19:12	47.39105	-122.1541	479.223	478.8098	-98.1179	28.5	29.6323	100	0	73	42.8176	-1.183039	20.3106	
10:19:14	47.39136	-122.1536	481.098	478.6796	-20.10489	29.5	29.3942	100	0	74	46.18154	1.192696	55.73392	
10:19:15	47.39142	-122.153	479.619	480.6007	1.665166	31.48	29.66068	100	0	73	45.56926	2.246291	85.33185	
10:19:17	47.39121	-122.1522	470.499	474.2505	-363.0782	33.8	31.51217	100	0	74	45.28439	3.035691	108.5313	
10:19:19	47.39091	-122.1518	459.043	459.4639	-894.8848	35.1	32.76982	100	0	73	44.27512	3.215008	125.5656	
10:19:20	47.39039	-122.1515	435.106	442.2824	-1213.005	36.34	34.05997	100	0	73	44.67896	2.838099	142.0953	
10:19:22	47.38974	-122.1515	398.026	406.2772	-2222.594	36.45	34.75396	100	0	73	42.65637	4.584893	150.2498	
10:19:24	47.38918	-122.1517	351.417	358.8722	-3046.919	36.1	32.70596	100	0	74	43.69668	4.180651	156.3607	
10:19:25	47.38882	-122.152	317.868	315.6105	-3136.634	36.13	30.67984	100	0	74	43.42791	3.299555	168.5964	
10:19:27	47.38844	-122.1527	269.466	265.6068	-3263.567	36.85	30.36402	100	0	73	43.37957	2.35704	-175.2561	
10:19:29	47.38825	-122.1535	231.682	224.0469	-2734.428	38.29	31.55426	100	0	73	44.30756	2.029183	-148.7951	
10:19:31	47.38828	-122.1544	200.576	196.7119	-1952.082	38.78	32.42212	100	0	73	43.7921	1.019037	-123.2301	
10:19:32	47.38829	-122.1545	196.817	182.1793	-1067.773	38.75	32.63168	100	0	74	43.9301	1.268692	-95.54095	
10:19:34	47.38829	-122.1545	196.817	182.1793	-1067.773	38.75	32.63168	100	0	74	46.04175	5.980316	-72.28983	
10:19:36	47.38921	-122.156	142.608	155.9186	-2439.268	34.28	31.80362	100	0	73	39.73795	3.400392	-56.06954	
10:19:37	47.3898	-122.1564	91.708	111.2823	-3380.918	33.26	30.78829	100	0	44	-0.6975946	0.4362921	-47.56718	
10:19:39	47.39038	-122.1565	77.299	66.89578	-1279.969	32.86	33.35019	100	0	44	62.61473	40.03096	-11.46802	
10:19:41	47.39075	-122.1563	85.928	67.78181	-1859.125	28.28	30.38818	100	0	97	110.0458	4.362248	37.39706	
10:19:42	47.39075	-122.1558	87.429	78.71417	552.309	22.19	26.52625	100	0	99	-76.00475	40.07692	113.8468	
10:19:44	47.39048	-122.1556	94.179	87.407	-600.9841	20.2	23.25483	100	0	99	-57.05911	-9.245376	137.9398	
10:19:46	47.39022	-122.1553	90.591	92.48402	734.0791	23	25.54917	100	0	99	-9.873146	11.95111	120.8092	
10:19:47	47.38997	-122.155	96.92	100.792	705.7061	25	26.70858	100	0	99	5.038674	9.591622	140.7066	
10:19:49	47.3896	-122.1547	98.623	103.3654	441.8199	28.78	29.70877	100	0	98	1.872359	5.605266	162.0039	
10:19:51	47.38915	-122.1544	96.648	101.1239	169.0038	31.95	31.04325	100	0	100	-26.3597	4.391001	179.6043	
10:19:53	47.38867	-122.1541	93.168	95.98127	-137.3768	33.7	33.20641	100	0	100	-2.845933	6.288067	-175.3992	
10:19:54	47.38821	-122.1539	82.919	86.10956	-447.6647	35.48	33.63715	100	0	98	2.65763	-0.134327	-146.624	
10:19:56	47.38761	-122.1537	68.081	74.30918	-234.3413	37.91	34.40422	100	0	100	1.525694	-1.438148	-123.1602	
10:19:58	47.38707	-122.1538	57.787	63.2103	-214.3974	38.71	34.90119	100	0	100	2.248147	-2.114616	-121.6872	
10:19:59	47.38657	-122.154	50.256	53.79779	-48.00731	39.04	36.74287	100	0	100	1.956177	-2.643265	-103.7551	
10:20:01	47.38604	-122.1545	45.24	48.91237	196.6257	38.79	38.21207	100	0	98	2.096242	-2.497383	-92.77882	
10:20:03	47.38569	-122.1551	44.601	47.8886	348.4911	37.95	38.85847	100	0	100	1.788453	-2.21312	-81.81784	
10:20:04	47.38535	-122.156	46.825	49.36044	442.0499	36.55	38.75413	100	0	100	2.78829	-2.480284	-72.93033	
10:20:06	47.38522	-122.1568	51.329	53.11373	554.1324	35.19	38.75598	100	0	100	2.685966	-1.582735	-66.06085	
10:20:08	47.3852	-122.1575	56.827	58.28519	530.1489	33.92	36.63177	100	0	100	2.350203	-1.37648	-60.03745	
10:20:09	47.3853	-122.1583	62.579	63.9079	506.0218	32.84	37.89014	100	0	98	2.241167	-0.9339848	-55.10713	
10:20:11	47.38544	-122.1588	67.21	68.74758	443.7465	32.14	36.5206	100	0	100	2.327803	-0.2772335	-51.45563	
10:20:13	47.3857	-122.1595	73.886	73.91184	403.0826	31.39	34.81936	100	0	100	1.729688	0.214263	-47.49974	
10:20:15	47.38599	-122.16	78.684	79.24082	354.2549	30.92	35.13092	100	0	100	1.485179	0.3365692	-44.09396	
10:20:16	47.38638	-122.1605	83.527	83.77875	286.1436	30.54	33.74272	100	0	100	1.653687	0.4033769	-41.00137	
10:20:18	47.38676	-122.1608	86.391	86.74265	199.0524	30.36	32.54866	100	0	100	1.765104	0.5147546	-37.50187	
10:20:20	47.3872	-122.1612	89.144	88.91243	139.1692	30.24	31.87162	100	0	100	1.771399	0.8060161	-33.99339	
10:20:21	47.38758	-122.1613	91.269	90.979	95.22803	30.17	31.49064	100	0	100	1.102809	0.59706	-30.65283	
10:20:23	47.38807	-122.1615	93.695	93.04492	89.72617	30.12	31.04201	100	0	100	1.061324	0.7021608	-26.81697	
10:20:25	47.38852	-122.1616	95.937	95.253	81.49402	30.04	31.36634	100	0	98	1.245038	0.5852491	-23.08724	
10:20:26	47.389	-122.1616	98.055	97.33079	51.58858	29.21	30.20071	100	0	82	-3.703798	0.03928752	-19.06621	
10:20:28	47.38942	-122.1616	99.715	98.91242	78.94904	28.24	29.81207	100	0	82	-16.22787	-0.2930633	-23.99643	
10:20:30	47.38981	-122.1617	103.357	102.3882	171.2796	27.13	28.33665	100	0	82	1.360264	0.8148087	-23.62445	
10:20:31	47.39025	-122.1616	107.053	106.1145	131.0843	26.55	27.27402	100	0	71	1.073311	0.5668926	-18.89939	
10:20:33	47.39061	-122.1616	108.921	108.5186	98.20241	26.16	26.55516	100	0	73	1.030839	0.5087212	-13.378	
10:20:35	47.39103	-122.1615	110.448	110.1899	59.38307	26.87	26.25852	100	0	94	28.39097	0.6127101	-4.705674	
10:20:37	47.39137	-122.1612	110.785	110.9775	22.32512	28.49	23.91383	100	0	94	46.04877	2.724092	25.01613	
10:20:38	47.39157	-122.1606	109.496	110.3635	-50.77733	30.58	23.25565	100	0	95	45.99325	4.1734	61.11564	
10:20:40	47.39151	-122.1599	104.552	105.6256	-319.5261	32.78	25.63663	100	0	94	45.03535	3.407899	90.20401	
10:20:42	47.39124	-122.1593	101.583	100.8928	-148.1988	34.45	30.09207	100	0	95	47.23402	8.922385	123.0918	
10:20:43	47.39073	-122.1589	100.574	98.27718	-582.49	34.94	31.75471	100	0	95	43.59769	0.4778752	139.2026	
10:20:45	47.39024	-122.1588	97.36	95.48776	-363.3486	36.06	35.58833	100	0	85	44.80406	2.817976	165.1387	
10:20:47	47.38979	-122.159	94.72	92.56484	-395.3394	35.58	36.30975	100	0	79	22.93839	-0.6919524	-178.5251	
10:20:48	47.38923	-122.1594	91.674	90.55244	-212.1051	34.88	36.17083	100	0	77	24.32178	-1.069076	-164.2258	
10:20:50	47.38879	-122.1598	90.691	90.26703	-84.31805	34.26	35.85797	100	0	77	18.43407	-2.059764	-150.2466	
10:20:52	47.38851	-122.1603	90.664	90.78334	11.59048	33.88	35.33368	100	0	77	14.58972	-3.106856	-135.4367	
10:20:53	47.3882	-122.1609	88.675	89.85532	-5.006161	33.48	35.11055	100	0	77	10.78347	-3.606378	-124.7078	
10:20:55	47.3879	-122.1617	84.361	86.04886	-231.7359	33.32	34.76265	100	0	77	-0.3946379	-6.88501	-117.2168	
10:20:57	47.3877	-122.1623	81.019	81.83115	-181.2905	33.62	34.33735	100	0	77	-15.69953	-4.948475	-117.0718	
10:20:59	47.38745	-122.1629	78.145	78.17735	-178.1966	32.65	31.88353	100	0	44	-12.0863	-5.279366	-119.6145	
10:21:00	47.38717	-122.1635	74.89	74.8047	-199.2905	30.48	29.09588	100	0	44	-20.70289	-5.827542	-126.2966	
10:21:02	47.38686	-122.1639	71.116	70.75607	-297.1996	29.62	28.17562	100	0	44	-20.87278	-8.16078	-134.1185	
10:21:04	47.38648	-122.1644	65.82	66.05073	-301.0612	29.45	27.85448	100	0	34	-21.92909	-8.468252	-143.9843	
10:21:05	47.38608	-122.1646	59.42	60.03572	-340.5575	28.47	26.96383	100	0	23	-19.53964	-8.590796	-154.0856	
10:21:07	47.38567	-122.1648	52.358	53.45362	-406.1255	27.37	26.08861	100	0	23	-4.66351	-10.185	-160.5005	
10:21:09	47.38524	-122.165	44.276	45.84921	-379.4949	26.91	25.40976	100	0	23	-3.116316	-8.822562	-160.6847	
10:21:10	47.38491	-122.1651	38.708	38.84386	-364.6644	26.48	24.563	100	0	23	-2.452113	-7.908445	-160.95	
10:21:12	47.3845	-122.1652	32.55	32.71308	-348.8234	25.89	23.77129	100	0	23	-9.311629	-7.502731	-163.8141	
10:21:14	47.38408	-122.1654	26.025	27.13603	-338.0529	25.11	22.95478	100	0	16	-9.483608	-7.880886	-169.1731	
10:21:15	47.38375	-122.1654	21.274	21.83902	-179.513	24.4	22.10757	100	0	16	-2.446504	-3.002501	-174.1123	
10:21:17	47.38338	-122.1654	18.42	18.61148	-223.2706	22.65	20.59031	100	0	4	-2.093678	-4.358727	-175.2379	
10:21:19	47.38306	-122.1654	15.246	15.33225	-183.1546	21.23	19.03888	100	0	4	0.8208257	-3.410977	-175.4761	
10:21:21	47.38273	-122.1654	11.988	12.27108	-191.7996	20.02	18.05104	100	0	4	-5.350575	-3.588515	-175.7466	
10:21:22	47.38247	-122.1655	9.122	9.085058	-181.0106	19.29	17.25467	100	0	4	-2.692562	-3.318731	179.4172	
10:21:24	47.38217	-122.1654	6.066	6.109766	-169.4923	18.54	16.42873	100	0	4	6.84079	-2.937659	-177.6199	
10:21:26	47.38189	-122.1655	3.021	3.29812	-134.9037	17.9	15.8673	100	0	4	-3.72951	-0.9118392	-176.4797	
10:21:27	47.38163	-122.1655	0.858	1.221495	-84.19104	16.47	14.38546	100	0	13	-3.189427	3.097549	-178.31	
10:21:29	47.38137	-122.1655	0.038	0.681217	149.4806	17.57	14.759	100	0	98	-4.333843	8.176683	176.6395	
10:21:31	47.38107	-122.1655	5.511	5.596679	360.5655	21.7	19.31031	100	0	98	-0.1522964	12.21664	173.5234	
10:21:32	47.38071	-122.1654	12.29	11.47119	326.0672	24.92	22.51485	100	0	100	1.314099	9.75855	176.5565	
10:21:34	47.38031	-122.1654	17.78	16.72606	239.1399	27.63	25.50134	100	0	100	0.6958596	6.521106	178.5038	
10:21:36	47.37989	-122.1654	21.969	21.40862	199.7847	29.69	27.89697	100	0	98	1.395069	4.391098	-178.7354	
10:21:37	47.37941	-122.1654	25.215	24.83441	163.5247	31.22	29.26274	100	0	98	-1.077414	3.213547	-176.6961	
10:21:39	47.37898	-122.1655	27.932	27.90692	124.6546	31.99	30.15744	100	0	98	-3.51348	2.303383	-176.4655	
10:21:41	47.37839	-122.1655	29.833	29.64861	92.34663	33.05	31.06936	100	0	100	0.7838151	1.486016	-176.2411	
10:21:43	47.37791	-122.1655	30.395	30.12279	-77.70395	33.67	31.69314	100	0	98	-47.16541	0.5495949	171.3254	
10:21:44	47.37743	-122.1652	31.547	31.27818	50.98767	33.01	31.06682	100	0	98	-44.9637	2.544539	142.8351	
10:21:46	47.37715	-122.1648	31.934	31.81477	-4.276768	32.52	31.42931	100	0	100	-43.43262	1.924006	117.2037	
10:21:48	47.37696	-122.1641	34.962	33.72575	61.67141	31.89	31.73902	100	0	100	-44.40164	1.440985	89.75611	
10:21:49	47.37704	-122.1633	37.214	36.88599	129.3943	31.29	32.02072	100	0	100	-44.93438	1.09811	62.27803	
10:21:51	47.37733	-122.1628	37.714	38.51652	124.1653	31.1	32.51595	100	0	98	-28.39476	0.6306625	39.46923	
10:21:53	47.37767	-122.1624	37.24	38.12268	20.43232	31.16	32.78895	100	0	98	-11.30251	-0.3733631	29.81526	
10:21:54	47.37811	-122.1621	36.294	36.81589	-24.41998	31.31	33.07167	100	0	98	-4.226878	-0.3275521	26.79064	
10:21:56	47.37855	-122.1618	35.566	35.75429	-29.39828	31.34	33.12293	100	0	98	-1.881356	-0.1246911	26.11013	
10:21:58	47.379	-122.1615	38.984	36.50319	46.22644	31.28	33.00875	100	0	98	-1.835945	-0.05553856	26.07251	
10:22:00	47.37941	-122.1612	45.132	43.08643	290.8325	31.22	32.92038	100	0	98	-1.890586	0.1235157	26.08841	
10:22:01	47.37978	-122.1609	50.982	51.09887	430.8473	31.15	32.80672	100	0	98	-2.048483	0.2427404	25.97095	
10:22:03	47.38023	-122.1606	59.883	59.36657	493.089	31.12	32.76469	100	0	100	-2.074682	0.1948614	25.86932	
10:22:05	47.38062	-122.1603	68.86	69.27423	578.254	31.11	32.75759	100	0	98	-2.164392	0.2991754	25.6964	
10:22:06	47.3811	-122.16	71.422	75.19932	398.5923	31	32.67281	100	0	98	-2.488132	0.04970575	25.59575	
10:22:08	47.38151	-122.1597	70.567	73.16204	80.22205	30.94	32.58067	100	0	98	-2.328633	0.2747884	25.37569	
10:22:10	47.38194	-122.1594	69.7	70.33457	-74.01998	30.92	32.55859	100	0	100	-2.296486	0.4228593	25.13918	
10:22:11	47.38239	-122.1591	68.919	68.64755	-105.3889	30.94	32.58525	100	0	100	-2.585244	0.2945808	24.89886	
10:22:13	47.38284	-122.1588	67.911	67.54549	-92.35742	31.02	32.65262	100	0	100	-2.561141	0.257066	24.71421	
10:22:15	47.38319	-122.1585	67.12	66.76653	-77.92326	31.02	32.66787	100	0	98	-2.407162	0.1778391	24.50168	
10:22:16	47.38366	-122.1582	66.135	65.97411	-72.12412	30.93	32.57199	100	0	98	-2.608084	0.2042553	24.24501	
10:22:18	47.38408	-122.1579	65.323	65.12679	-62.58727	30.88	32.52262	100	0	98	-2.779175	0.2991473	23.93825	
10:22:20	47.38451	-122.1577	63.818	63.96771	-76.80315	30.85	32.491	100	0	98	-2.821245	0.2191056	23.63186	
10:22:22	47.38496	-122.1574	62.193	62.33953	-90.67891	30.89	32.52845	100	0	100	-3.087033	0.3290977	23.27399	
10:22:23	47.38539	-122.1571	60.674	60.68022	-97.94952	30.95	32.59549	100	0	98	-3.353369	0.3831099	22.80492	
10:22:25	47.38581	-122.1568	59.223	59.07626	-104.8651	30.87	32.51179	100	0	98	-3.494091	0.2877655	22.19628	
10:22:27	47.38626	-122.1566	57.627	57.54912	-96.02534	30.84	32.48205	100	0	98	-2.996759	0.3829004	21.56214	
10:22:28	47.38671	-122.1563	55.495	55.71247	-113.8429	30.84	32.4749	100	0	98	-1.748376	0.1970756	21.48578	
10:22:30	47.38717	-122.156	53.957	53.71185	-127.4754	30.84	32.4695	100	0	98	-1.596258	0.09644763	21.84847	
10:22:32	47.3876	-122.1558	53.633	53.0087	-70.14195	30.86	32.48889	100	0	98	-1.875151	0.1899255	22.18491	
10:22:33	47.38793	-122.1555	53.353	53.02755	-33.99688	30.85	32.47455	100	0	98	-1.926423	0.09744734	22.40772	
10:22:35	47.38839	-122.1552	52.664	52.75531	-29.08412	30.84	32.47034	100	0	94	-2.104388	0.1910187	22.48902	
10:22:37	47.38885	-122.155	51.773	51.85299	-56.34862	30.55	32.23569	100	0	88	-1.833771	-0.07598171	22.68248	
10:22:39	47.38929	-122.1547	50.669	50.7529	-57.77928	29.86	31.51516	100	0	86	-2.245836	0.1023105	22.78732	
10:22:40	47.38966	-122.1544	50.652	49.9335	-51.81684	29.6	31.17296	100	0	88	-2.288426	-0.07702614	22.66187	
10:22:42	47.39008	-122.1542	52.473	51.60988	55.17147	29.46	31.0751	100	0	86	-2.460148	0.1287337	22.57175	
10:22:44	47.39051	-122.1539	54.455	54.16461	117.8773	29.27	30.86759	100	0	88	-1.95981	0.09325693	22.55327	
10:22:45	47.39093	-122.1536	56.497	56.54664	148.7846	29.28	30.88254	100	0	88	0.5122851	0.3295099	21.37221	
10:22:47	47.39135	-122.1533	67.344	62.91859	436.2702	29.38	31.00942	100	0	86	-7.771261	1.825095	33.82021	
10:22:49	47.3917	-122.153	77.448	75.85748	589.4149	29.37	30.95816	100	0	88	-44.95075	1.036446	13.86581	
10:22:50	47.39215	-122.153	85.051	86.71391	648.764	30.25	31.72377	100	0	88	-45.28158	1.294767	-14.72901	
10:22:52	47.39258	-122.1533	87.287	91.00744	392.1407	31.53	32.90018	100	0	88	-45.10192	1.08101	-41.07266	
10:22:54	47.39283	-122.1539	84.263	88.05187	22.32442	32.67	33.32717	100	0	88	-43.82779	1.174091	-65.79364	
10:22:56	47.3929	-122.1547	70.74	77.66037	-433.5084	33.79	33.52035	100	0	88	-45.27953	0.9745069	-89.78741	
10:22:57	47.39276	-122.1554	54.008	57.75295	-974.865	34.42	33.81931	100	0	88	-45.21284	1.535482	-113.712	
10:22:59	47.39239	-122.156	48.368	42.90908	-1008.666	34.64	33.50489	100	0	88	-44.63352	1.678613	-135.3152	
10:23:01	47.39195	-122.1563	46.986	40.88367	-540.3792	34.68	33.33972	100	0	88	-45.02057	1.161342	-158.1651	
10:23:02	47.3914	-122.1564	45.473	42.94727	-161.6761	34.41	32.85638	100	0	88	-44.4385	0.8785645	177.0955	
10:23:04	47.39097	-122.1562	44.688	44.26794	-0.7762865	33.81	32.27377	100	0	88	-44.80057	0.7769044	150.636	
10:23:06	47.39056	-122.1557	41.996	43.61413	-11.74859	32.6	31.62139	100	0	86	-44.76828	0.5430856	123.2692	
10:23:07	47.3904	-122.1551	39.237	40.26685	-88.08467	31.45	31.20298	100	0	88	-42.86585	0.9105486	94.81654	
10:23:09	47.39043	-122.1544	38.337	37.86195	-104.3913	30.4	31.1035	100	0	86	-34.05164	0.5107589	72.08253	
10:23:11	47.39064	-122.1537	38.53	37.7169	-50.09245	29.8	30.7813	100	0	86	-38.03927	0.07394078	52.22016	
10:23:13	47.391	-122.1533	41.991	39.09837	102.6104	29.57	31.02668	100	0	88	-37.75625	0.8587065	30.58726	
10:23:14	47.39143	-122.1531	50.721	47.57503	378.1907	30.05	31.68939	100	0	88	-44.97728	0.8971059	3.301704	
10:23:16	47.39185	-122.1533	55.012	56.33664	484.4011	30.95	32.32917	100	0	91	-44.66111	1.052042	-23.82215	
10:23:18	47.39222	-122.1537	54.048	58.21228	252.7164	32.54	33.18151	100	0	94	-45.58819	1.184932	-49.54734	
10:23:19	47.39241	-122.1545	45.25	51.12485	-191.0609	34.18	34.26402	100	0	94	-45.08564	1.52203	-73.21753	
10:23:21	47.39239	-122.1552	29.917	34.41052	-772.6765	35.2	34.74442	100	0	94	-44.03807	1.752402	-94.9972	
10:23:23	47.3922	-122.1559	23.578	19.52853	-913.0659	35.94	34.66845	100	0	97	-44.74052	1.709314	-115.7783	
10:23:24	47.3918	-122.1565	18.744	14.41434	-593.4445	36.73	35.20691	100	0	98	-44.65592	1.699284	-137.1285	
10:23:26	47.39133	-122.1568	14.461	12.44477	-202.6636	37.07	35.37552	100	0	100	-45.03943	3.769171	-161.1557	
10:23:28	47.3907	-122.1568	10.891	10.28381	-183.9149	36.75	35.12426	100	0	99	-22.95076	1.772712	178.8818	
10:23:29	47.39018	-122.1567	7.174	7.658731	-185.8795	36.58	35.03175	100	0	100	0.4056484	-0.9123833	178.1303	
10:23:31	47.38956	-122.1565	1.702	2.851481	-150.5627	36.67	34.99147	100	0	100	0.6331363	-0.6334527	178.4859	
10:23:33	47.38901	-122.1565	6.135	5.153462	297.508	33.95	31.90383	100	0	100	0.04778749	7.008107	177.1535	
10:23:35	47.38861	-122.1564	5.472	5.736774	180.8465	34.83	33.02912	100	0	100	-0.162535	5.506548	174.177	
10:23:36	47.38796	-122.1563	5.975	6.396164	178.9131	35.07	33.16248	100	0	100	-4.980598	5.237114	172.1135	
10:23:38	47.38752	-122.1562	11.827	12.62856	483.2939	33.31	31.1914	100	0	100	0.1337884	10.38847	169.2285	
10:23:40	47.38701	-122.1562	20.139	20.24738	536.6507	32.16	30.13746	100	0	100	-0.2026878	11.26257	167.8632	
10:23:41	47.3865	-122.1561	33.659	31.67175	829.6503	30.16	28.28736	100	0	100	-1.079372	16.49417	166.5513	
10:23:43	47.38612	-122.156	46.308	47.30775	986.5458	28.56	26.348	100	0	100	0.3788576	19.27813	164.8512	
10:23:45	47.38566	-122.1559	65.405	64.06696	997.5538	26.29	24.12749	100	0	98	-0.2981248	20.58367	163.5811	
10:23:46	47.3853	-122.1558	80.023	80.16506	960.5439	25.71	23.74039	100	0	100	0.802137	19.46806	162.963	
10:23:48	47.38486	-122.1557	97.692	95.4625	939.1959	25.03	23.17003	100	0	100	0.8998666	19.80723	162.1122	
10:23:50	47.38451	-122.1557	112.121	111.0773	931.8185	24.64	22.78198	100	0	100	0.8930579	19.71334	161.5906	
10:23:51	47.38413	-122.1556	128.066	126.5946	934.5274	24.38	22.57286	100	0	100	1.262442	19.76829	160.7197	
10:23:53	47.38375	-122.1555	143.867	141.5706	906.3115	24.15	22.43332	100	0	98	0.7032564	19.79385	160.2464	
10:23:55	47.38344	-122.1554	157.743	156.8239	898.2369	23.96	22.23198	100	0	98	0.8072163	19.33791	159.8306	
10:23:57	47.38306	-122.1553	173.152	171.7837	873.7051	24.53	22.74393	100	0	100	5.087243	18.07931	161.4624	
10:23:58	47.38269	-122.1552	189.55	188.0733	985.197	24.01	22.21045	100	0	100	-1.684836	20.64546	161.7307	
10:24:00	47.38235	-122.1551	205.097	204.4369	990.7264	23.74	22.07963	100	0	100	-5.821286	21.21663	158.4847	
10:24:02	47.38201	-122.155	221.461	221.2708	1040.591	23.21	21.93467	100	0	100	-9.414186	22.55467	152.2493	
10:24:03	47.38165	-122.1548	240.235	238.0711	1011.878	22.48	21.62144	100	0	100	-11.00264	22.64371	144.1873	
10:24:05	47.38137	-122.1545	255.994	254.6566	1013.744	22.02	21.75448	100	0	100	-8.970808	23.45499	135.7569	
10:24:07	47.3811	-122.1542	273.279	271.2641	1005.391	21.1	21.27199	100	0	100	-12.77423	24.54776	127.6122	
10:24:08	47.38089	-122.1539	289.537	287.9619	981.1449	20.52	21.24242	100	0	100	-14.11846	24.46565	117.1328	
10:24:10	47.38073	-122.1535	304.687	303.8947	956.0659	20.12	21.27677	100	0	100	5.48018	24.42382	112.0431	
10:24:12	47.3806	-122.1532	317.027	318.9811	910.5795	20.1	20.16292	100	0	100	11.3181	24.64045	118.43	
10:24:13	47.38037	-122.1528	335.865	334.4895	897.0397	20.14	19.37968	100	0	100	13.46369	24.29456	127.247	
10:24:15	47.38014	-122.1525	351.06	349.668	930.2421	20.28	19.01497	100	0	100	3.886016	25.31582	136.007	
10:24:17	47.37991	-122.1522	366.591	365.3503	897.1027	20.13	18.72526	100	0	100	-0.479248	24.58426	135.4331	
10:24:19	47.37967	-122.1519	381.879	380.5484	892.3769	20.05	18.74156	100	0	100	-0.04700925	24.57761	134.414	
10:24:20	47.37944	-122.1516	397.365	396.1252	907.0755	20.05	18.76934	100	0	100	-0.1711877	24.59179	134.0561	
10:24:22	47.3792	-122.1513	412.735	411.6116	910.5086	19.97	18.71054	100	0	100	0.2013608	24.69386	133.9411	
10:24:24	47.37898	-122.1511	427.292	426.661	903.7058	19.94	18.6478	100	0	98	0.1046095	24.80817	133.4504	
10:24:25	47.37874	-122.1507	443.536	442.0966	905.1609	19.87	18.54985	100	0	100	-0.3488941	25.04903	133.3013	
10:24:27	47.3785	-122.1504	458.423	456.5065	869.9911	19.89	18.61833	100	0	100	-1.479356	24.96248	132.7344	
10:24:29	47.37828	-122.1501	472.085	470.2828	831.576	19.79	18.53241	100	0	100	-3.692783	24.99549	130.7168	
10:24:30	47.37807	-122.1498	485.403	483.8087	804.8912	19.68	18.47346	100	0	100	-6.354909	24.97585	127.3322	
10:24:32	47.37788	-122.1495	498.778	498.0301	819.3285	19.57	18.49029	100	0	100	-2.710039	25.08435	123.1241	
10:24:34	47.3777	-122.1492	512.707	511.8157	810.3406	19.57	18.51323	100	0	100	-3.290437	25.03093	121.7959	
10:24:35	47.37752	-122.1488	526.591	524.6839	773.5356	19.45	18.4386	100	0	98	-3.20679	24.95797	119.9081	
10:24:37	47.37735	-122.1485	540.484	538.507	795.567	19.39	18.44236	100	0	100	-2.402987	24.96484	117.9023	
10:24:39	47.37718	-122.1481	556.187	553.8715	860.7056	19.4	18.44293	100	0	100	-3.078022	24.92134	116.5569	
10:24:41	47.37704	-122.1477	569.208	568.3763	861.7115	19.37	18.46205	100	0	100	-0.8806514	24.96355	114.6468	
10:24:42	47.37688	-122.1473	589.007	585.0583	956.6382	19.39	18.46544	100	0	100	-3.944512	24.92756	114.0147	
10:24:44	47.37674	-122.147	606.92	604.2027	1082.618	19.19	18.40269	100	0	100	-7.980921	25.08062	109.6637	
10:24:46	47.37663	-122.1466	625.584	622.9133	1116.012	18.88	18.26178	100	0	100	-9.016114	24.62626	103.4599	
10:24:47	47.37654	-122.1462	643.155	642.1921	1145.224	18.69	18.20848	100	0	100	4.679658	25.09232	100.4385	
10:24:49	47.37644	-122.1458	662.957	659.4656	1086.768	19.06	18.25948	100	0	100	11.25943	24.98744	107.8894	
10:24:51	47.37631	-122.1454	679.931	678.2599	1097.599	19.32	18.20819	100	0	98	13.18095	24.89808	117.8401	
10:24:52	47.37613	-122.1451	697.361	696.1852	1079.053	19.55	18.06189	100	0	98	14.90492	25.01662	129.2836	
10:24:54	47.3759	-122.1448	714.064	713.0916	1033.684	19.88	18.26304	100	0	100	17.26998	24.98016	141.8164	
10:24:56	47.37561	-122.1446	731.479	729.964	1019.303	20.1	18.28799	100	0	100	10.99476	25.26327	153.3213	
10:24:57	47.37536	-122.1444	744.564	744.4884	905.7233	20.33	18.53019	100	0	100	12.95922	24.95297	162.5985	
10:24:59	47.375	-122.1444	762.206	759.8118	905.034	20.41	18.56914	100	0	100	7.618078	25.18153	171.4847	
10:25:01	47.37475	-122.1443	774.411	774.4197	869.6263	20.42	18.59072	100	0	100	-0.5012765	24.82851	173.401	
10:25:03	47.37439	-122.1443	791.26	789.5634	880.3067	20.35	18.5238	100	0	100	-0.5156398	25.01423	173.0353	
10:25:04	47.37411	-122.1443	805.361	804.4166	870.6586	20.35	18.28989	100	0	100	-1.065286	24.9015	173.0285	
10:25:06	47.37376	-122.1443	821.583	818.5198	844.782	20.34	18.17993	100	0	100	-0.7900042	24.92343	172.1624	
10:25:08	47.37348	-122.1442	834.874	833.9747	872.188	20.29	18.05941	100	0	100	0.7710461	25.01586	173.8407	
10:25:09	47.37317	-122.1442	849.993	848.0435	845.4559	20.29	17.97791	100	0	100	0.7660437	24.92612	175.0759	
10:25:11	47.37284	-122.1442	864.887	862.5939	840.8551	20.33	17.98398	100	0	98	1.189112	24.89294	176.1608	
10:25:13	47.37255	-122.1442	878.541	876.702	825.9449	20.19	17.86421	100	0	98	0.2218092	24.89195	177.1783	
10:25:14	47.37226	-122.1442	884.572	881.4077	-20.10786	24.38	20.65758	100	0	100	0.1943174	0.4156258	178.7162	
10:25:16	47.37185	-122.1442	890.356	888.8093	308.359	26.56	22.35318	100	0	100	1.296999	2.852575	-177.372	
10:25:18	47.37143	-122.1443	896.192	895.6647	306.476	28.5	24.8219	100	0	100	1.188033	2.143723	-174.3917	
10:25:19	47.37098	-122.1443	900.461	900.5604	254.8267	30.2	26.56953	100	0	100	0.9438701	1.649734	-172.0242	
10:25:21	47.37045	-122.1444	899.333	902.1401	126.2589	31.72	28.69891	100	0	100	0.9658965	1.167121	-170.4003	
10:25:23	47.37011	-122.1445	897.067	898.2369	-174.7051	32.43	29.62887	100	0	100	-38.53655	0.6166317	-172.1432	
10:25:24	47.36954	-122.1445	894.388	893.3365	-198.8931	32.81	30.06353	100	0	100	-43.96593	4.238719	163.6595	
10:25:26	47.36907	-122.1442	897.837	893.7849	-180.4478	32.57	30.48008	100	0	100	-44.11219	2.461035	143.298	
10:25:28	47.36878	-122.1437	902.697	899.1365	83.2647	32.45	31.16675	100	0	100	-44.29232	1.750719	119.3197	
10:25:30	47.36858	-122.143	912.808	908.9714	389.3923	32.13	31.85569	100	0	100	-45.06424	1.245371	93.4018	
10:25:31	47.36861	-122.1424	913.747	917.2082	417.4745	31.9	32.55882	100	0	98	-44.14662	1.124109	67.04842	
10:25:33	47.36892	-122.1416	909.559	914.1954	35.57786	31.75	33.24998	100	0	98	-45.1414	0.7382622	41.15213	
10:25:35	47.3693	-122.1413	905.085	907.1488	-241.7642	32.04	33.83148	100	0	98	-43.60292	0.8643008	15.05744	
10:25:36	47.36977	-122.1412	899.692	900.1541	-340.156	32.64	34.68457	100	0	98	-28.72901	0.8622181	-6.533168	
10:25:38	47.37021	-122.1414	894.083	893.7303	-401.8168	33.2	35.28688	100	0	100	-9.915996	-0.6201703	-13.08109	
10:25:40	47.37074	-122.1416	887.577	887.3951	-376.8346	33.7	35.54877	100	0	100	27.44354	-1.42261	-11.28856	
10:25:41	47.37125	-122.1418	882.817	882.9466	-206.648	33.72	34.89477	100	0	100	13.08536	-0.2288667	2.509765	
10:25:43	47.37179	-122.1418	878.562	879.2952	-184.9293	33.4	34.34764	100	0	98	1.411824	-0.3140168	7.050205	
10:25:45	47.37233	-122.1418	874.446	875.2281	-202.9227	33.05	33.65635	100	0	100	-5.080232	-0.2858593	7.035113	
10:25:47	47.37284	-122.1418	871.132	871.6216	-192.3077	32.9	33.08887	100	0	100	-5.890625	-0.1612487	5.069921	
10:25:48	47.37332	-122.1418	868.429	868.6677	-170.9059	32.77	32.75196	100	0	100	-4.337148	-0.1222651	3.266694	
10:25:50	47.37378	-122.1418	866.139	866.0818	-150.7385	32.68	32.53245	100	0	100	-3.112297	-0.2717454	2.027878	
10:25:52	47.37432	-122.1419	863.953	864.0984	-104.1547	32.51	32.35059	100	0	100	-1.521386	0.07573874	1.244509	
10:25:53	47.37482	-122.142	867.3	863.9	-105.8906	32.5	32.11592	100	0	100	-44.3547	-0.6020996	-4.482667	
10:25:55	47.37523	-122.1422	874.344	871.1478	358.9523	32.77	30.89099	100	0	100	-36.93315	1.900924	-32.07071	
10:25:57	47.37557	-122.1427	885.281	883.4667	569.9016	32.66	30.25887	100	0	100	-13.47263	0.1889383	-44.98743	
10:25:58	47.37589	-122.1433	892.143	895.3675	651.0647	32.62	30.31698	100	0	100	0.3836766	-0.3123606	-47.54425	
10:26:00	47.37624	-122.1439	890.34	895.3164	260.9935	32.63	30.6086	100	0	100	5.194792	-0.06932957	-45.3946	
10:26:02	47.37653	-122.1444	888.965	890.9487	-62.94051	32.56	31.06484	100	0	98	4.967087	-0.1109357	-42.15934	
10:26:04	47.37687	-122.1449	887.168	887.2975	-163.8415	32.47	31.35202	100	0	100	3.336252	-0.1450359	-39.17645	
10:26:05	47.37726	-122.1454	882.866	883.575	-208.5786	32.49	31.59089	100	0	98	1.230675	0.0007024423	-37.41475	
10:26:07	47.37762	-122.1459	873.545	876.8932	-355.5821	32.4	31.59536	100	0	98	-0.01392085	0.09562098	-36.4094	
10:26:09	47.37786	-122.1462	866.36	865.3925	-602.4987	32.36	31.57256	100	0	100	-0.6898501	-0.2710195	-35.85933	
10:26:10	47.37838	-122.1469	853.662	852.9658	-713.8493	32.34	31.57221	100	0	100	-0.7090856	0.1931273	-35.80865	
10:26:12	47.3788	-122.1473	850.563	846.8813	-544.8993	32.22	31.86637	100	0	100	41.16224	-0.1193171	-23.33712	
10:26:14	47.37924	-122.1475	850.797	848.1538	-113.0434	31.87	32.62876	100	0	100	21.52075	0.8508758	-1.203287	
10:26:15	47.37975	-122.1475	849.904	849.7893	-6.681229	31.81	33.01143	100	0	100	-1.521829	-0.0519681	6.440284	
10:26:17	47.38022	-122.1475	848.443	849.204	-13.50282	31.89	33.08738	100	0	100	-7.617075	-0.04569377	5.023842	
10:26:19	47.38046	-122.1474	847.803	847.8954	-36.81942	31.91	32.6	100	0	98	-10.00706	0.09335408	1.099329	
10:26:21	47.38087	-122.1475	846.886	847.1818	-29.54491	31.93	32.3757	100	0	100	-8.472616	0.2006983	-2.998406	
10:26:22	47.38147	-122.1475	844.648	845.2822	-106.1712	31.89	32.09952	100	0	100	-9.038061	-0.09382541	-6.286584	
10:26:24	47.38218	-122.1477	840.28	842.7094	-140.6159	32.21	32.10454	100	0	100	-0.9466999	-0.009140925	-9.365476	
10:26:26	47.38252	-122.1478	838.187	837.8785	-247.6378	32.21	32.30751	100	0	100	-10.21848	0.2434127	-7.408952	
10:26:27	47.38313	-122.1478	837.117	835.7548	-134.9883	32.4	32.34236	100	0	100	-15.94392	0.2229238	-10.97017	
10:26:29	47.38358	-122.1479	837.83	836.902	28.5985	32.26	32.15827	100	0	100	-13.37573	0.2520374	-15.92497	
10:26:31	47.38409	-122.148	839.711	839.3461	175.9212	31.92	31.98355	100	0	100	-9.87102	1.382238	-19.94835	
10:26:32	47.38455	-122.1481	841.263	841.4325	132.0828	31.79	30.95175	100	0	100	-4.333257	0.2434723	-20.94715	
10:26:34	47.38508	-122.1483	843.233	843.1769	113.2881	31.65	31.0439	100	0	100	-0.001618144	0.04703393	-19.95542	
10:26:36	47.3855	-122.1485	844.674	844.8011	108.7361	31.52	31.03145	100	0	100	1.538834	0.1840024	-17.17563	
10:26:37	47.386	-122.1486	846.549	846.4062	100.0913	31.48	31.04114	100	0	100	2.394104	0.09608945	-14.4194	
10:26:39	47.38642	-122.1488	848.1	848.0439	113.2976	31.49	31.12042	100	0	98	2.108364	0.3861877	-11.74732	
10:26:41	47.38687	-122.1489	848.782	849.5424	80.14185	31.4	31.07468	100	0	98	1.37482	0.03250445	-9.085373	
10:26:43	47.38738	-122.149	850.982	850.809	91.49844	31.4	31.07382	100	0	98	1.542233	0.1556447	-7.08049	
10:26:44	47.38782	-122.1491	864.285	860.0964	437.5467	31.4	31.07761	100	0	98	1.578673	0.1153565	-5.438859	
10:26:46	47.38831	-122.1492	878.71	876.6311	804.4731	31.44	31.15414	100	0	100	0.7581669	0.1344793	-3.963367	
10:26:48	47.38874	-122.1494	883.52	887.1645	696.2318	31.48	31.23213	100	0	100	1.03879	0.268639	-2.958464	
10:26:49	47.38926	-122.1495	889.768	891.7122	447.9919	31.5	31.27581	100	0	100	0.6404151	0.3202467	-2.192675	
10:26:51	47.38977	-122.1496	896.406	896.0287	342.6377	31.55	31.32927	100	0	100	0.1788208	0.3219177	-1.639422	
10:26:53	47.39024	-122.1497	903.42	902.4072	373.6937	31.56	31.34924	100	0	98	-0.1478653	0.273894	-1.425212	
10:26:54	47.39065	-122.1498	906.789	909.0798	426.2359	31.65	31.08167	100	0	100	-0.2549008	1.806255	-9.044523	
10:26:56	47.39119	-122.15	904.822	907.638	44.69684	31.84	32.05639	100	0	98	45.15924	0.4860746	9.704749	
10:26:58	47.39165	-122.1498	901.68	903.6566	-97.34691	31.81	33.65641	100	0	100	45.48831	0.4530006	39.30382	
10:27:00	47.39195	-122.1493	898.527	899.1121	-204.3444	32	35.23671	100	0	98	45.20296	-0.1757689	69.223	
10:27:01	47.39205	-122.1486	893.492	894.3348	-272.0447	32.37	35.97437	100	0	91	45.64328	-1.077542	99.7424	
10:27:03	47.3919	-122.1479	889.914	889.6398	-244.6782	32.52	35.153	100	0	91	32.55059	-0.8557972	130.2322	
10:27:05	47.39155	-122.1474	892.69	890.0632	-52.86228	32.22	34.03718	100	0	91	1.887045	-0.6278168	144.0502	
10:27:06	47.39118	-122.1469	895.511	893.829	69.96454	31.72	33.73254	100	0	91	-27.36815	0.08390552	137.3365	
10:27:08	47.39091	-122.1464	897.575	897.137	114.5847	31.29	31.67842	100	0	91	-28.91424	0.4081874	121.6087	
10:27:10	47.39073	-122.1458	898.815	899.0926	100.0649	31.01	31.6009	100	0	91	-21.43868	0.471616	107.1895	
