Date	Latitude(deg) 	Longitude(deg)	hamsl(m)	hafl(m)	climbrate(cm/s)	GroundSpeed(m/s)	Airspeed(m/s)	Mav_Link(%)	Rssi_Link(%)	Throttle	Roll(deg)	Pitch(deg)	Yaw(deg)
00:37:52	0	0	0	0	0	0	3	36	0	99	0	0	15.88235	
00:37:53	0	0	0	0.3157348	-0.1001194	0	3	46	0	99	0.2875194	0.5632493	17.23791	
00:37:55	47.43444	-122.3273	116.78	120.3026	4437.485	32.98	32.98034	53	0	99	-11.23268	9.870416	-17.05674	
00:37:57	47.43444	-122.3273	116.78	146.783	2790.815	32.98	32.98034	59	0	99	-3.769646	0.9705481	-14.99518	
00:37:58	47.43444	-122.3273	116.78	133.8677	764.2394	32.98	32.98034	64	0	99	-5.845439	3.868633	-14.3605	
00:38:00	47.43444	-122.3273	116.78	120.8832	-84.98409	32.98	32.98034	68	0	99	-3.847809	1.099972	-13.06888	
00:38:02	47.43444	-122.3273	116.78	116.5552	-162.6055	32.98	32.98034	72	0	99	-5.957016	4.146032	-11.67619	
00:38:03	47.43444	-122.3273	116.78	115.9512	-51.96407	32.98	32.98034	75	0	99	-4.194902	1.56787	-14.70473	
00:38:05	47.43444	-122.3273	116.78	116.7737	48.40173	32.98	32.98034	77	0	98	-4.579599	2.263814	-14.47616	
00:38:07	47.43444	-122.3273	116.78	117.3506	72.06728	32.98	32.98034	80	0	99	-7.99391	5.890233	-11.38006	
00:38:08	47.43444	-122.3273	116.78	117.3239	39.26465	32.98	32.98034	82	0	99	-11.52117	9.762084	-8.100895	
00:38:10	47.43444	-122.3273	116.78	116.9557	-7.574891	32.98	32.98034	83	0	98	-13.97823	12.3772	-5.781885	
00:38:12	47.43444	-122.3273	116.78	116.5363	-46.02592	32.98	32.98034	85	0	99	-15.78144	14.13379	-4.063626	
00:38:14	47.43444	-122.3273	116.78	116.241	-65.48283	32.98	32.98034	86	0	99	-16.68897	14.43682	-3.448273	
00:38:15	47.43444	-122.3273	116.78	116.1304	-67.20687	32.98	32.98034	87	0	99	-17.31341	14.45346	-3.224561	
00:38:17	47.43444	-122.3273	116.78	116.1336	-62.81473	32.98	32.98034	88	0	99	-17.78832	14.42508	-3.161037	
00:38:19	47.43444	-122.3273	116.78	116.1945	-52.46378	32.98	32.98034	89	0	99	-17.48868	13.25815	-4.094807	
00:38:20	47.43444	-122.3273	116.78	116.335	-35.09036	32.98	32.98034	90	0	99	-17.13629	12.29745	-5.179176	
00:38:22	47.43444	-122.3273	116.78	116.4919	-20.3717	32.98	32.98034	91	0	99	-16.84141	11.67157	-6.159746	
00:38:24	47.43444	-122.3273	116.78	116.6278	-6.818852	32.98	32.98034	92	0	99	-15.90182	10.34316	-7.819932	
00:38:25	47.43444	-122.3273	116.78	116.7854	9.707058	32.98	32.98034	92	0	99	-14.98457	9.302389	-9.448108	
00:38:27	47.43444	-122.3273	116.78	116.9264	21.52995	32.98	32.98034	93	0	98	-14.25848	8.702436	-10.66658	
00:38:29	47.43444	-122.3273	116.78	117.0237	29.51631	32.98	32.98034	94	0	99	-13.14256	7.739403	-12.25442	
00:38:31	47.43444	-122.3273	116.78	117.1123	38.16738	32.98	32.98034	94	0	99	-12.04455	6.950029	-13.65809	
00:38:32	47.43444	-122.3273	116.78	117.184	43.55734	32.98	32.98034	94	0	99	-11.21436	6.506958	-14.61373	
00:38:34	47.43444	-122.3273	116.78	117.2214	45.78895	32.98	32.98034	95	0	99	-10.18205	5.886507	-15.59136	
00:38:36	47.43444	-122.3273	116.78	117.2475	48.0106	32.98	32.98034	95	0	99	-9.184957	5.333943	-16.36868	
00:38:37	47.43444	-122.3273	116.78	117.2604	48.2254	32.98	32.98034	96	0	99	-8.462566	5.010422	-16.811	
00:38:39	47.43444	-122.3273	116.78	117.2553	46.96338	32.98	32.98034	96	0	99	-7.655476	4.572468	-17.18636	
00:38:41	47.43444	-122.3273	116.78	117.245	45.86328	32.98	32.98034	96	0	99	-6.893528	4.148792	-17.43251	
00:38:42	47.43444	-122.3273	116.78	117.2311	44.03656	32.98	32.98034	96	0	99	-6.352641	3.878675	-17.48765	
00:38:44	47.43444	-122.3273	116.78	117.2081	41.33775	32.98	32.98034	97	0	99	-5.777092	3.524901	-17.49679	
00:38:46	47.43444	-122.3273	116.78	117.1821	38.66204	32.98	32.98034	97	0	99	-5.247063	3.177042	-17.44255	
00:38:47	47.43444	-122.3273	116.78	117.1544	35.77103	32.98	32.98034	97	0	99	-4.881073	2.944337	-17.32192	
00:38:49	47.43444	-122.3273	116.78	117.1256	32.91841	32.98	32.98034	97	0	99	-4.492161	2.645782	-17.1893	
00:38:51	47.43444	-122.3273	116.78	117.0989	30.44877	32.98	32.98034	97	0	99	-4.155592	2.370853	-17.0435	
00:38:53	47.43444	-122.3273	116.78	117.0742	27.97103	32.98	32.98034	98	0	99	-3.921963	2.179603	-16.89372	
00:38:54	47.43444	-122.3273	116.78	117.0485	25.36884	32.98	32.98034	98	0	100	-3.675837	1.944221	-16.75666	
00:38:56	47.43444	-122.3273	116.78	117.0242	23.0434	32.98	32.98034	98	0	99	-3.463532	1.729251	-16.63218	
00:38:58	47.43444	-122.3273	116.78	117.0013	20.8481	32.98	32.98034	98	0	99	-3.317507	1.579706	-16.52247	
00:38:59	47.43444	-122.3273	116.78	116.9797	18.77949	32.98	32.98034	98	0	99	-3.161346	1.398579	-16.43603	
00:39:01	47.43444	-122.3273	116.78	116.9604	16.96333	32.98	32.98034	98	0	99	-3.030646	1.240602	-16.36669	
00:39:03	47.43482	-122.3271	106.718	106.0484	-1349.542	31.57	31.58388	98	0	99	71.11356	-16.12967	5.839394	
00:39:04	47.43485	-122.3265	85.475	87.68817	-1127.583	36.17	36.6669	98	0	99	63.73143	-2.92775	88.05029	
00:39:06	47.4344	-122.3259	70.676	67.17026	-1377.481	37.78	38.28844	98	0	99	22.56847	-2.124422	103.5694	
00:39:08	47.43389	-122.3255	60.474	56.08232	-859.3887	37.23	38.37148	99	0	99	13.50131	-5.508627	100.0834	
00:39:10	47.43349	-122.325	60.081	57.33532	65.09943	35.64	36.78864	99	0	99	-1.484653	-1.990327	100.8189	
00:39:11	47.43308	-122.3244	67.177	64.3628	409.6986	33.75	35.90617	99	0	99	-27.08377	-4.320467	86.96287	
00:39:13	47.43293	-122.3238	73.495	75.24635	767.116	33.4	35.83812	99	0	99	-40.98232	-4.283783	61.11712	
00:39:15	47.43309	-122.3231	71.912	81.03516	958.7955	34.25	36.27983	99	0	99	-37.39409	2.16977	28.43948	
00:39:16	47.43354	-122.3226	66.671	76.13895	508.893	35.4	36.37355	99	0	92	10.87522	2.811051	15.17735	
00:39:18	47.43406	-122.3224	67.466	69.85998	155.5834	34.1	35.03503	99	0	84	4.277069	2.276406	13.837	
00:39:20	47.43459	-122.3223	73.193	70.2903	-28.17308	32.05	32.46257	99	0	85	-1.871305	-0.7845682	11.67033	
00:39:21	47.43502	-122.3223	75.014	73.97276	-50.75165	31.28	30.83417	99	0	84	-43.46446	0.1788413	-1.502925	
00:39:23	47.43541	-122.3226	68.823	71.08948	-222.5141	31.91	30.05447	99	0	84	-44.67873	3.292711	-35.02116	
00:39:25	47.43559	-122.3233	56.353	61.95484	-126.2479	33.89	31.63551	99	0	85	-38.43522	15.13936	-65.38878	
00:39:26	47.43551	-122.324	44.043	44.21469	-1334.44	32.82	30.96503	99	0	84	-0.2802296	-0.2074023	-69.99664	
00:39:28	47.43538	-122.3248	28.796	27.16001	-910.6674	34.48	32.43021	99	0	84	-0.09931979	2.119803	-78.7379	
00:39:30	47.43522	-122.3256	25.794	21.47334	-500.2039	32.99	29.57697	99	0	84	2.696955	1.224408	-96.4104	
00:39:32	47.43506	-122.3262	27.598	23.44196	-115.7128	31.29	26.96915	99	0	85	3.295515	-0.05963835	-114.6502	
00:39:33	47.43487	-122.3268	32.193	29.27736	121.0616	28.32	23.92136	99	0	58	0.6374255	-0.4812092	-129.0404	
00:39:35	47.43466	-122.3274	38.017	36.14753	252.7631	24.83	19.85332	99	0	49	-2.118568	-1.50319	-145.0557	
00:39:37	47.43443	-122.3278	44.853	42.36837	244.7512	21.33	17.22873	99	0	49	4.861709	-3.080404	-160.7547	
00:39:38	47.43424	-122.3281	50.881	48.66069	225.4624	19.19	15.01321	99	0	49	5.504141	-3.181174	-167.9725	
00:39:40	47.43402	-122.3284	54.215	51.7294	-125.0398	19.65	15.25155	99	0	49	11.64422	-13.69806	-176.5083	
00:39:42	47.4338	-122.3287	55.929	53.44563	-155.5526	19.91	15.51473	99	0	49	12.93402	-14.09449	-177.8895	
00:39:43	47.43358	-122.329	57.195	54.73445	-144.8506	20.28	15.58843	99	0	49	12.98643	-13.26061	-176.4395	
00:39:45	47.4334	-122.3293	59.655	58.29262	220.3841	19.33	14.75357	99	0	4	3.16008	-2.587316	-176.6316	
00:39:47	47.43322	-122.3296	65.542	64.70707	188.7702	14.08	10.33272	99	0	4	-1.505833	-5.597155	178.5559	
00:39:49	47.43306	-122.3298	67.67	67.46055	51.04619	10.9	8.673401	99	0	4	-1.412983	-7.329557	172.1242	
00:39:50	47.43293	-122.3298	67.513	67.29546	-89.95303	9.39	8.895046	99	0	4	-1.264512	-7.973859	162.3398	
00:39:52	47.43277	-122.3299	65.742	65.45335	-143.195	9.63	11.39867	99	0	36	-2.786685	-3.946395	147.5078	
00:39:54	47.43265	-122.3299	66.265	66.13459	130.0765	9.74	12.71828	99	0	52	-6.623041	12.46623	121.7637	
00:39:55	47.43253	-122.3297	69.47	69.18294	195.1648	10.89	15.56716	99	0	64	-8.320223	11.78934	87.21047	
00:39:57	47.43251	-122.3294	72.386	72.64613	262.4795	12.93	17.61558	99	0	64	-1.129374	11.28066	63.96904	
00:39:59	47.43258	-122.3291	76.204	76.16078	265.4571	14.95	19.43012	99	0	64	3.922495	9.49606	56.53735	
00:40:00	47.43267	-122.3288	80.349	80.07538	255.4157	15.92	20.34265	99	0	64	3.791618	7.93406	55.67064	
00:40:02	47.43281	-122.3285	85.591	84.77048	245.2308	16.76	20.97908	99	0	64	2.656897	5.961569	56.44644	
00:40:04	47.43297	-122.3282	91.029	89.93746	259.7468	17.42	21.42092	99	0	64	1.736991	4.652173	57.38315	
00:40:05	47.43313	-122.3279	96.109	95.3382	262.3315	17.72	21.64517	99	0	56	1.197685	3.524138	58.87848	
00:40:07	47.43332	-122.3276	101.518	100.5929	235.6704	17.6	21.46248	99	0	50	0.7855204	1.909489	60.57831	
00:40:09	47.4335	-122.3273	105.76	104.9608	202.0967	17.32	21.19082	99	0	47	0.5014869	0.6110713	61.71542	
00:40:11	47.43367	-122.327	109.435	108.7581	182.3879	16.98	20.94735	99	0	43	0.1422085	0.2943935	63.08762	
00:40:12	47.43383	-122.3268	112.665	112.1668	155.8076	16.59	20.56958	99	0	42	0.381043	-0.4031375	64.563	
00:40:14	47.43399	-122.3265	116.043	115.4925	157.5921	16.36	20.4748	99	0	41	0.2477474	-0.6089295	66.61296	
00:40:16	47.43414	-122.3262	119.101	118.6084	161.0985	16.22	20.47843	99	0	42	0.2879258	-0.07134206	68.97185	
00:40:17	47.43426	-122.3259	121.963	121.7225	162.3021	16.16	20.55518	99	0	42	0.2233216	0.2074575	71.87851	
00:40:19	47.43437	-122.3255	124.996	124.6681	158.6355	16.2	20.72449	99	0	42	0.09980505	0.2618851	75.29867	
00:40:21	47.43448	-122.3252	128.189	127.7969	167.5017	16.31	20.97162	99	0	41	0.2341634	0.645871	79.07195	
00:40:22	47.43456	-122.3249	130.965	130.7465	162.2635	16.43	21.17118	99	0	37	0.2121899	0.828075	82.99596	
00:40:24	47.43462	-122.3245	134.425	133.6568	140.837	16.23	20.95131	99	0	33	0.5129867	-0.2147722	87.44986	
00:40:26	47.43466	-122.3241	138.002	137.1364	164.5103	16.19	20.94824	99	0	31	0.4497002	-0.8245318	91.84914	
00:40:27	47.43468	-122.3237	141.131	140.6659	197.8568	16.31	21.09317	99	0	33	0.1547959	-0.4016772	95.65087	
00:40:29	47.43468	-122.3234	144.184	144.4908	368.6324	17.64	21.92238	99	0	89	28.68675	6.489585	111.9829	
00:40:31	47.4345	-122.323	152.94	153.0535	752.3065	20.46	21.8223	99	0	118	52.46466	14.85117	169.9131	
00:40:33	47.43421	-122.3232	159.676	162.4297	798.2421	21.73	19.37938	99	0	123	55.35314	17.61689	-115.4438	
00:40:34	47.43419	-122.3236	165.354	169.3232	799.5868	21.18	19.33912	99	0	101	16.89745	24.15516	-66.18718	
00:40:36	47.43431	-122.3241	175.989	175.2484	396.2087	22	19.91841	99	0	106	-37.06206	18.78477	-73.56258	
00:40:38	47.43431	-122.3245	182.95	182.0099	415.338	22.29	19.99655	99	0	103	-26.81207	19.52998	-104.2225	
00:40:39	47.43419	-122.3249	193.96	191.9442	468.2426	22.29	20.1847	99	0	100	3.146455	17.95547	-112.6775	
00:40:41	47.43404	-122.3255	206.534	203.5677	412.8552	23.06	20.81531	99	0	66	8.612486	11.66735	-107.4384	
00:40:43	47.43393	-122.3259	209.406	207.866	-326.5988	22.7	20.15871	99	0	25	2.96923	-11.40528	-102.8494	
00:40:44	47.43385	-122.3264	201.262	201.5184	-499.8879	23.08	18.92486	99	0	28	-0.5732235	-15.28664	-100.0063	
00:40:46	47.43378	-122.3269	192.437	193.6967	-266.9455	24.48	20.51459	99	0	46	-6.456143	-7.255264	-101.5239	
00:40:48	47.43367	-122.3275	190.864	190.7128	-9.547944	24.48	19.98512	99	0	60	-25.79582	0.2867307	-116.2132	
00:40:50	47.43347	-122.328	194.276	192.9488	153.5719	23.6	19.78376	99	0	55	-25.00301	2.932513	-137.8297	
00:40:51	47.4332	-122.3283	197.927	196.8438	77.59331	22.58	19.83529	99	0	44	-10.18033	-0.8742111	-149.8435	
00:40:53	47.43291	-122.3286	198.515	198.0986	-58.01022	22.2	19.75174	99	0	41	-3.190523	-5.05573	-154.0143	
00:40:55	47.43263	-122.3288	197.281	197.3364	-60.16457	22.35	19.96603	99	0	44	-1.832655	-4.347186	-155.6492	
00:40:56	47.43232	-122.329	196.002	195.6912	-301.2959	22.34	19.9368	99	0	20	36.28508	-11.58362	-149.1711	
00:40:58	47.43209	-122.3293	187.628	186.9362	-727.2216	22.38	18.1199	99	0	14	43.42598	-21.15193	-115.499	
00:41:00	47.43201	-122.3298	171.003	172.9971	-755.482	24.08	19.92433	99	0	29	42.06782	-18.02811	-71.37098	
00:41:01	47.43223	-122.3303	155.609	159.0345	-442.6966	27.14	25.73382	99	0	56	45.10278	-7.62574	-24.73934	
00:41:03	47.43263	-122.3304	149.484	150.7441	-117.5734	28.56	29.85186	99	0	65	43.57413	1.318984	20.35526	
00:41:05	47.43301	-122.33	153.432	151.0754	6.639824	26.29	28.94464	99	0	43	-0.3453933	2.755472	41.42286	
00:41:06	47.43332	-122.3297	154.712	152.641	-301.8641	24.42	26.60071	99	0	37	-21.44689	-7.311007	35.42688	
00:41:08	47.43357	-122.3295	150.982	150.7159	-63.53043	24.73	25.4502	99	0	60	-24.05129	-1.697405	15.76279	
00:41:10	47.43399	-122.3294	149.053	150.5188	233.1271	25.73	25.51857	99	0	68	-12.06489	6.350643	-2.577943	
00:41:12	47.43438	-122.3295	153.059	153.1023	194.2875	25.15	24.79197	99	0	65	2.705381	6.644851	-6.539986	
00:41:13	47.43478	-122.3296	157.683	156.5929	83.94637	24.65	24.40218	99	0	56	2.927133	3.160608	-4.37514	
00:41:15	47.43514	-122.3297	159.193	158.4456	-31.57534	24.38	24.22915	99	0	49	-1.318244	-1.064994	-3.380656	
00:41:17	47.43553	-122.3297	158.329	158.1497	-88.5331	24.37	24.20343	99	0	47	-4.686824	-3.050048	-5.032044	
00:41:18	47.43587	-122.3297	156.828	156.666	-159.168	24.47	24.26198	99	0	29	23.23917	-5.567091	-5.215348	
00:41:20	47.43624	-122.3297	150.858	149.7264	-708.8265	23.91	22.9505	99	0	18	43.42834	-17.86558	16.48103	
00:41:22	47.43657	-122.3294	136.251	136.9554	-829.2113	24.96	25.48827	99	0	27	43.57275	-18.16431	50.31216	
00:41:23	47.43673	-122.3288	121.172	123.5568	-621.5239	27.8	28.79676	99	0	39	40.06489	-10.88916	86.50992	
00:41:25	47.43664	-122.3283	113.863	114.3183	-323.824	29.05	30.91843	99	0	37	4.846217	-3.589635	106.0789	
00:41:27	47.43646	-122.3277	109.465	108.759	-394.1045	27.93	29.79397	99	0	36	-18.30071	-6.690748	99.86898	
00:41:28	47.43639	-122.3273	105.996	104.2433	-316.5721	27.61	29.44404	99	0	32	-18.66166	-8.551415	88.99981	
00:41:30	47.43635	-122.3265	98.849	99.80218	-46.8892	27.25	28.65014	99	0	55	-12.41166	-2.749822	79.30836	
00:41:32	47.43639	-122.3259	100.927	101.0725	294.1457	26.42	27.47386	99	0	64	-5.130302	5.520034	75.38683	
00:41:34	47.43644	-122.3253	107.074	106.7484	241.8954	25.21	26.25798	99	0	54	10.82596	3.23428	77.94047	
00:41:35	47.43645	-122.3247	110.511	109.9395	-24.9788	24.96	25.45404	99	0	59	44.65063	-3.84554	102.4048	
00:41:37	47.43628	-122.3242	108.281	109.112	-61.25342	26.1	26.34928	99	0	59	45.31956	-4.434228	143.0762	
00:41:39	47.43588	-122.324	102.24	105.3441	-21.88362	27.42	27.71562	99	0	55	30.06124	-1.302296	-179.752	
00:41:40	47.43545	-122.3241	97.484	100.1908	-86.39707	27.01	27.62651	99	0	62	-9.552994	2.508712	-169.8238	
00:41:42	47.43502	-122.3242	96.633	96.58027	-33.77421	26.6	27.2263	99	0	76	-23.42697	6.810874	178.9236	
00:41:44	47.43472	-122.3242	99.851	98.61379	107.0137	25.96	25.85213	99	0	72	-15.12888	8.860601	168.2152	
00:41:45	47.43427	-122.324	106.472	103.4283	47.19227	24.99	25.07777	99	0	58	-6.920651	3.922678	165.8028	
00:41:47	47.43394	-122.3239	109.15	107.446	-30.32167	24.48	24.55612	99	0	45	-4.009246	-2.396296	166.402	
00:41:49	47.43362	-122.3238	108.57	108.0143	-95.93871	24.33	24.33723	99	0	41	-4.181111	-5.89904	167.2549	
00:41:51	47.43324	-122.3236	105.867	106.239	-137.7924	24.48	24.46585	99	0	45	29.12	-7.078845	172.5933	
00:41:52	47.43284	-122.3236	99.409	101.5231	-172.1714	25.58	24.38376	99	0	64	45.23955	-6.172113	-149.7339	
00:41:54	47.43258	-122.324	94.956	97.0355	18.90063	26.59	25.7433	99	0	78	47.14094	0.729175	-101.7862	
00:41:56	47.43259	-122.3246	92.657	94.81158	127.3504	27.01	26.77013	99	0	80	40.92305	6.674322	-56.25275	
00:41:57	47.43283	-122.325	97.297	96.11388	171.0131	25.87	26.55568	99	0	69	5.268886	9.28583	-36.27855	
00:41:59	47.43316	-122.3254	104.164	101.4316	64.06241	24.76	25.35082	99	0	57	-9.600444	3.698172	-37.72	
00:42:01	47.43343	-122.3257	106.058	104.7851	-21.62829	24.23	24.69184	99	0	47	-7.008801	-1.792357	-42.4538	
00:42:02	47.4337	-122.3261	104.76	104.8847	-89.19969	24.06	24.4917	99	0	44	-4.594253	-4.282718	-45.71513	
00:42:04	47.43393	-122.3265	102.892	103.0643	-123.4398	24.13	24.51652	99	0	49	-21.90269	-4.250465	-53.45716	
00:42:06	47.43413	-122.327	100.538	100.8298	-105.9582	24.51	24.02331	99	0	60	-39.41495	-3.272981	-77.67346	
00:42:07	47.43416	-122.3275	100.751	100.8952	165.4196	24.38	23.84423	99	0	50	4.820159	2.124553	-98.76039	
00:42:09	47.43416	-122.3281	102.438	101.9023	-118.8883	23.79	23.12673	99	0	61	44.91094	-3.381201	-76.66	
00:42:11	47.43434	-122.3285	99.565	100.2867	-85.15599	25.17	24.69709	99	0	67	47.29531	-1.811338	-30.7918	
00:42:12	47.43474	-122.3286	96.435	97.67348	-17.84826	26.91	26.93426	99	0	74	47.74917	1.540861	14.9981	
00:42:14	47.43509	-122.3282	96.668	96.70886	60.88552	27.92	28.13907	99	0	78	47.65813	4.133744	57.48095	
00:42:16	47.43518	-122.3277	101.414	99.68225	139.3484	27.85	28.03653	99	0	70	45.02467	4.114562	94.07527	
00:42:18	47.43505	-122.3271	105.901	104.4271	74.80561	27.01	27.25655	99	0	53	39.39631	-0.3790955	121.9125	
00:42:19	47.43475	-122.3266	103.278	104.4971	-143.637	26.67	26.49296	99	0	54	43.64993	-6.008667	151.4028	
00:42:21	47.4344	-122.3265	97.93	99.7428	-138.8072	27.29	27.1841	99	0	64	44.29795	-3.933461	-168.0599	
00:42:23	47.43401	-122.3268	93.887	95.42294	-10.063	28.01	27.70634	99	0	77	45.67014	1.461099	-124.6257	
00:42:24	47.43388	-122.3273	94.941	94.91001	109.1354	28.12	28.05218	99	0	81	45.20178	5.629776	-83.59654	
00:42:26	47.43402	-122.328	98.726	97.93227	114.3791	27.89	28.04268	99	0	75	44.91746	4.782434	-48.00429	
00:42:28	47.43432	-122.3283	100.385	99.99461	4.849757	27.81	27.8339	99	0	69	45.03831	1.807153	-14.75886	
00:42:29	47.43476	-122.3283	100.066	99.98496	-45.74	28.15	28.1963	99	0	70	45.36831	0.678441	19.62186	
00:42:31	47.43514	-122.328	99.576	99.16718	-27.48037	28.77	28.87193	99	0	72	45.53067	1.33425	54.75064	
00:42:33	47.43528	-122.3274	101.384	100.4758	42.38219	29.07	29.22878	99	0	69	45.68941	1.654382	88.53084	
00:42:34	47.43517	-122.3267	101.699	101.7626	-20.43291	28.82	28.9848	99	0	65	44.9906	-0.03140478	119.3395	
00:42:36	47.4349	-122.3263	99.932	100.2407	-80.86875	28.64	28.47252	99	0	67	44.3394	-0.1364852	152.1622	
00:42:38	47.4344	-122.3262	97.354	98.02141	-63.84771	28.56	28.52388	99	0	74	45.4263	1.714375	-171.5284	
00:42:40	47.4341	-122.3264	97.359	97.1702	2.433435	28.45	28.25493	99	0	77	45.33574	3.802339	-134.7517	
00:42:41	47.43385	-122.327	99.753	98.71775	42.26349	28.16	28.08068	99	0	75	45.82652	3.588313	-98.82366	
00:42:43	47.43388	-122.3276	101.96	101.1183	25.14529	27.92	27.97294	99	0	68	44.92662	1.503266	-65.08144	
00:42:45	47.43399	-122.3279	102.241	101.9193	-39.06206	27.85	27.94383	99	0	65	44.57632	-0.7528362	-31.44453	
00:42:46	47.43458	-122.3283	98.819	99.72014	-70.62565	28.42	28.12905	99	0	70	45.01968	0.11626	4.877161	
00:42:48	47.43485	-122.3282	97.873	98.16212	22.35456	28.8	28.46797	99	0	73	43.44101	3.01921	41.55329	
00:42:50	47.43521	-122.3275	100.726	99.63161	33.72463	29.2	29.12172	99	0	73	46.10197	3.268401	74.3095	
00:42:51	47.4352	-122.3268	99.438	100.3356	-80.27489	29.72	30.09294	99	0	69	45.00187	2.133412	103.3904	
00:42:53	47.43496	-122.3262	93.938	95.74294	-214.6275	30.69	31.17301	99	0	81	45.71095	4.317445	132.7308	
00:42:55	47.43451	-122.326	89.278	90.10841	-201.4647	31.91	32.53263	99	0	97	46.62117	10.19542	163.0002	
00:42:57	47.43408	-122.326	90.069	88.08484	-144.4005	32.11	32.22717	99	0	104	46.03953	14.43252	-171.1457	
00:42:58	47.43365	-122.3265	95.131	91.12643	-48.63271	31.42	31.37395	99	0	103	45.67643	14.66432	-146.0478	
00:43:00	47.4334	-122.3271	101.409	97.11076	66.59972	30.92	30.7444	99	0	92	45.1444	11.33652	-119.9002	
00:43:02	47.43336	-122.3277	105.689	103.4011	78.10294	30.3	29.71854	99	0	78	44.77481	5.535695	-93.71736	
00:43:03	47.43349	-122.3283	107.339	106.8196	17.63645	29.54	28.71056	99	0	67	44.75448	0.3795321	-64.74047	
00:43:05	47.43383	-122.3288	104.292	105.7449	-66.57601	29.27	28.7115	99	0	66	44.68251	-1.596403	-31.56965	
00:43:07	47.43427	-122.3289	99.835	101.9177	-69.355	29.71	29.13745	99	0	74	45.25335	0.2657728	4.791296	
00:43:08	47.43465	-122.3286	97.388	98.82368	26.58608	30.51	31.01901	99	0	77	39.84827	4.417967	41.26992	
00:43:10	47.4349	-122.328	97.864	98.15112	33.29781	30.29	31.10589	99	0	73	29.16874	5.531195	62.68663	
00:43:12	47.43499	-122.3274	99.809	98.96322	-2.628309	30.31	31.08146	99	0	82	45.30419	5.375062	86.65573	
00:43:13	47.43484	-122.3267	97.645	98.84889	-68.88187	31.24	31.81854	99	0	82	45.72729	6.287744	114.9926	
00:43:15	47.43447	-122.3262	92.058	94.03716	-218.1237	32.42	32.72422	99	0	94	46.14827	9.618777	142.2032	
00:43:17	47.43401	-122.3261	88.407	88.39149	-272.5707	33.58	33.47254	99	0	108	46.4723	15.07014	167.6755	
00:43:19	47.43353	-122.3263	87.726	85.58862	-311.9455	33.64	33.35884	99	0	111	45.65798	18.20079	-171.1547	
00:43:20	47.43312	-122.3268	87.527	84.39139	-296.9379	33.63	33.13883	99	0	113	46.17529	14.84483	-146.1345	
00:43:22	47.43291	-122.3274	90.111	87.40377	81.37554	32.92	31.63724	99	0	113	47.06357	15.05402	-112.5965	
00:43:24	47.43293	-122.3282	99.624	96.45386	445.4644	30.64	28.93662	99	0	113	46.76642	15.36525	-79.73808	
00:43:25	47.43318	-122.3288	111.824	109.0685	465.2358	29.05	28.30188	99	0	79	45.08919	9.698554	-51.61654	
00:43:27	47.43354	-122.3291	115.333	115.3375	61.98541	28.2	27.88948	99	0	59	43.49574	-1.469868	-28.61142	
00:43:29	47.43396	-122.3292	108.756	112.2357	-188.1021	28.4	28.75467	99	0	61	44.09717	-4.348369	3.270413	
00:43:30	47.43433	-122.329	98.201	102.6317	-196.9744	30.21	31.39854	99	0	70	29.17308	1.963135	36.38262	
00:43:32	47.43464	-122.3284	90.486	93.8614	-92.04534	32	33.30851	99	0	84	0.7571023	7.951954	44.84101	
00:43:34	47.43489	-122.3277	90.482	90.58195	19.81353	32.54	34.1248	99	0	106	43.96858	11.69825	56.8196	
00:43:36	47.43493	-122.3271	93.005	92.44749	115.1855	33.29	34.01949	99	0	109	47.93106	15.39481	90.76086	
00:43:37	47.43471	-122.3264	92.855	93.04388	-88.68153	33.64	34.06131	99	0	109	46.35068	15.4138	114.9098	
00:43:39	47.4343	-122.3259	89.663	89.87148	-289.5247	34.18	34.04992	100	0	112	46.22537	17.56124	136.649	
00:43:41	47.4338	-122.3257	84.703	83.6758	-621.2007	34.72	34.29792	100	0	111	44.83739	18.73007	150.6559	
00:43:42	47.43329	-122.3258	73.554	72.72613	-1047.64	35.37	35.23353	100	0	111	44.63671	18.04693	160.2674	
00:43:44	47.43282	-122.3262	54.454	53.63414	-1409.657	36.43	36.58913	100	0	112	45.32251	16.28415	177.9055	
00:43:46	47.43262	-122.3265	43.45	33.63522	-1401.05	37.19	37.09834	100	0	33	45.24916	15.95057	-159.9261	
00:43:47	47.43225	-122.3275	5.492	5.526907	-1689.48	32.25	31.71015	100	0	35	-34.7901	16.49608	-167.9908	
00:43:49	47.43222	-122.3276	1.392	-9.430787	-1741.301	33.75	29.54358	100	0	4	-109.6444	3.259404	144.9629	
00:43:51	47.43222	-122.3276	1.392	-25.54653	-3583.217	33.75	26.53126	100	0	4	-165.9489	-60.25323	126.9052	
00:43:52	47.4407	-122.3181	0.02	-27.87429	-2353.458	0	9.142387	100	0	4	88.63453	-81.74888	-150.3652	
00:43:54	47.4407	-122.3181	0.019	-16.42364	-887.1877	0	8.685267	100	0	4	27.7226	-66.31058	-97.11869	
00:43:56	47.4407	-122.3181	0.019	-4.704309	115.5396	0	7.838454	100	0	5	18.3609	-46.09128	-98.33985	
00:43:58	47.4407	-122.3181	0.019	3.407093	680.8532	0	7.446531	100	0	4	14.29033	-26.997	-110.7537	
00:43:59	47.4407	-122.3181	0.019	7.46304	889.6039	0	6.720494	100	0	4	7.033106	-14.6375	-119.3994	
00:44:01	47.4407	-122.3181	0.019	8.749357	889.2376	0	6.38447	100	0	4	-3.32661	-6.878281	-106.3493	
00:44:03	47.4407	-122.3181	0.019	8.39665	790.3918	0	6.065246	100	0	4	-9.353367	1.037772	-93.44146	
00:44:04	47.4407	-122.3181	0.02	7.37113	667.2002	0	5.761983	100	0	4	-12.29278	7.039254	-81.8825	
00:44:06	47.4407	-122.3181	0.02	6.197682	553.8715	0	5.473884	100	0	4	-13.18333	11.3251	-69.91794	
00:44:08	47.4407	-122.3181	0.021	5.207676	467.7581	0	5.20019	100	0	4	-12.67348	14.56251	-56.79648	
00:44:09	47.4407	-122.3181	0.021	4.437776	401.9216	0	4.940181	100	0	4	-12.32185	16.60546	-45.61402	
00:44:11	47.4407	-122.3181	0.021	3.816515	347.7554	0	4.693172	100	0	4	-11.84977	17.53228	-35.63908	
00:44:13	47.4407	-122.3181	0.021	3.357945	311.9688	0	4.458513	100	0	4	-10.9443	17.37121	-25.54207	
00:44:14	47.4407	-122.3181	0.021	3.042739	286.2022	0	4.458513	100	0	4	-10.95831	16.84936	-17.83072	
00:44:16	47.4407	-122.3181	0.021	2.780494	261.6777	0	4.235587	100	0	4	-11.21383	15.87766	-11.81506	
00:44:18	47.4407	-122.3181	0.021	2.572931	245.3458	0	4.235587	100	0	4	-11.24149	14.20861	-6.716893	
00:44:20	47.4407	-122.3181	0.021	2.421859	231.497	0	4.235587	100	0	4	-11.69739	12.81885	-3.397883	
00:44:21	47.4407	-122.3181	0.021	2.263384	214.5141	0	4.023808	100	0	4	-12.02553	11.32536	-0.9686124	
00:44:23	47.4407	-122.3181	0.021	2.111177	200.7682	0	4.023808	100	0	4	-12.0128	9.447947	-0.1100586	
00:44:25	47.4407	-122.3181	0.021	1.972811	187.2603	0	4.023808	100	0	4	-12.08223	8.043289	0.1133613	
00:44:26	47.4407	-122.3181	0.02	1.830435	172.6461	0	4.023808	100	0	4	-11.94002	6.771003	-0.1139511	
00:44:28	47.4407	-122.3181	0.02	1.70368	162.0814	0	4.023808	100	0	4	-11.31366	5.283159	-1.307976	
00:44:30	47.4407	-122.3181	0.02	1.604696	153.0074	0	4.023808	100	0	4	-10.82191	4.270649	-2.281599	
00:44:31	47.4407	-122.3181	0.02	1.505582	142.4005	0	4.023808	100	0	4	-10.28664	3.450345	-3.466076	
00:44:33	47.4407	-122.3181	0.02	1.404914	133.023	0	4.023808	100	0	4	-9.324568	2.589083	-4.92114	
00:44:35	47.4407	-122.3181	0.02	1.315385	124.4359	0	4.023808	100	0	4	-8.632833	2.072459	-5.883037	
00:44:36	47.4407	-122.3181	0.02	1.226159	115.2461	0	4.023808	100	0	4	-7.958097	1.696929	-6.637091	
00:44:38	47.4407	-122.3181	0.02	1.139531	107.203	0	4.023808	100	0	4	-7.029042	1.323419	-7.384514	
00:44:40	47.4407	-122.3181	0.02	1.058732	99.20813	0	4.023808	100	0	4	-6.37916	1.11587	-7.683118	
00:44:42	47.4407	-122.3181	0.02	0.9798301	91.36386	0	4.023808	100	0	4	-5.779484	0.9695773	-7.780441	
00:44:43	47.4407	-122.3181	0.02	0.9081314	84.55206	0	4.023808	100	0	4	-4.951453	0.7915481	-7.560002	
00:44:45	47.4407	-122.3181	0.02	0.8398187	78.17803	0	4.023808	100	0	4	-4.411137	0.699084	-7.22038	
00:44:47	47.4407	-122.3181	0.02	0.7756605	71.8312	0	4.023808	100	0	4	-3.96797	0.6271926	-6.817858	
00:44:48	47.4407	-122.3181	0.02	0.7126063	65.66406	0	4.023808	100	0	5	-3.433604	0.5452902	-6.328647	
00:44:50	47.4407	-122.3181	0.02	0.6516086	59.637	0	4.023808	100	0	4	-3.063703	0.490557	-5.74431	
00:44:52	47.4407	-122.3181	0.02	0.5917692	53.77229	0	4.023808	100	0	4	-2.730361	0.4358223	-5.152729	
00:44:53	47.4407	-122.3181	0.02	0.535942	48.48887	0	4.023808	100	0	4	-2.343045	0.3691094	-4.517758	
00:44:55	47.4407	-122.3181	0.02	0.485424	43.71273	0	4.023808	100	0	4	-2.075457	0.3241118	-3.88213	
00:44:57	47.4407	-122.3181	0.02	0.4382342	39.17688	0	4.023808	100	0	4	-1.834334	0.2803601	-3.289699	
00:44:58	47.4407	-122.3181	0.02	0.3961541	35.31689	0	4.023808	100	0	4	-1.557584	0.2245481	-2.697234	
00:45:00	47.4407	-122.3181	0.02	0.3585414	31.74427	0	4.023808	100	0	4	-1.372485	0.1904854	-2.141596	
00:45:02	47.4407	-122.3181	0.02	0.3247845	28.50977	0	4.023808	100	0	4	-1.202529	0.1521858	-1.64532	
00:45:04	47.4407	-122.3181	0.02	0.291888	25.33757	0	4.023808	100	0	4	-1.024688	0.1275	-1.183304	
00:45:05	47.4407	-122.3181	0.02	0.2610282	22.4985	0	4.023808	100	0	4	-0.8995361	0.1022087	-0.7642359	
00:45:07	47.4407	-122.3181	0.02	0.235717	20.23045	0	4.023808	100	0	4	-0.7882801	0.08390095	-0.4140201	
00:45:09	47.4407	-122.3181	0.02	0.2138555	18.17741	0	4.023808	100	0	4	-0.6648991	0.07561657	-0.1062495	
00:45:10	47.4407	-122.3181	0.02	0.1944399	16.37651	0	4.023808	100	0	4	-0.5708784	0.04968629	0.2239796	
00:45:12	47.4407	-122.3181	0.02	0.176976	14.6825	0	4.023808	100	0	4	-0.5017509	0.03766367	0.4374222	
00:45:14	47.4407	-122.3181	0.02	0.1609916	13.23442	0	4.023808	100	0	4	-0.4203236	0.03025812	0.5988487	
00:45:15	47.4407	-122.3181	0.02	0.1464369	11.73493	0	4.023808	100	0	4	-0.3661802	0.01894771	0.753297	
00:45:17	47.4407	-122.3181	0.02	0.1316607	10.40407	0	4.023808	100	0	4	-0.3183248	0.01239782	0.8678592	
00:45:19	47.4407	-122.3181	0.02	0.119469	9.331939	0	4.023808	100	0	4	-0.2665154	0.0190842	0.9364454	
00:45:20	47.4407	-122.3181	0.02	0.1098858	8.466508	0	4.023808	100	0	4	-0.2310337	0.01126597	1.009598	
00:45:22	47.4407	-122.3181	0.02	0.1011648	7.613059	0	4.023808	100	0	4	-0.199081	0.01255423	1.053062	
00:45:24	47.4407	-122.3181	0.02	0.09257209	6.751657	0	4.023808	100	0	4	-0.1651591	0.01227136	1.128721	
00:45:26	47.4407	-122.3181	0.02	0.0849508	6.108147	0	4.023808	100	0	4	-0.1422647	0.02124741	1.209366	
00:45:27	47.4407	-122.3181	0.02	0.07845487	5.42959	0	4.023808	100	0	4	-0.1206823	0.01623787	1.172569	
00:45:29	47.4407	-122.3181	0.02	0.07219289	4.889374	0	4.023808	100	0	4	-0.09725875	0.0157073	1.11312	
00:45:31	47.4407	-122.3181	0.02	0.0663823	4.203847	0	4.023808	100	0	4	-0.07741525	0.009528858	1.079738	
00:45:32	47.4407	-122.3181	0.02	0.0596086	3.572179	0	4.023808	100	0	4	-0.06572476	0.01083649	1.036909	
00:45:34	47.4407	-122.3181	0.02	0.0544529	3.252436	0	4.023808	100	0	4	-0.05560515	0.006402315	0.9731435	
00:45:36	47.4407	-122.3181	0.02	0.05136209	3.022345	0	4.023808	100	0	4	-0.04738611	0.000291594	0.9297122	
00:45:37	47.4407	-122.3181	0.02	0.04750142	2.504236	0	4.023808	100	0	4	-0.04042521	0.00542004	0.8832881	
00:45:39	47.4407	-122.3181	0.02	0.04450962	2.304155	0	4.023808	100	0	4	-0.03247369	-0.00460787	0.8197644	
00:45:41	47.4407	-122.3181	0.02	0.04147279	2.025548	0	4.023808	100	0	4	-0.0296548	-0.01067991	0.7729296	
00:45:43	47.4407	-122.3181	0.02	0.03790778	1.655026	0	4.023808	100	0	4	-0.02523126	-0.01953607	0.7293489	
00:45:44	47.4407	-122.3181	0.02	0.03559647	1.389541	0	4.023808	100	0	4	-0.02169668	-0.006401883	0.6736807	
00:45:46	47.4407	-122.3181	0.02	0.03210719	0.8697208	0	4.023808	100	0	4	-0.01851369	-0.0001523042	0.6318026	
00:45:48	47.4407	-122.3181	0.02	0.02752455	0.7851638	0	4.023808	100	0	4	-0.01644325	-0.003627806	0.5944849	
00:45:49	47.4407	-122.3181	0.02	0.02833272	0.8555886	0	4.023808	100	0	4	-0.01390954	-0.002431344	0.549029	
00:45:51	47.4407	-122.3181	0.02	0.02543661	0.3277999	0	4.023808	100	0	4	-0.01165954	0.01654025	0.5141448	
00:45:53	47.4407	-122.3181	0.02	0.02255255	0.1421837	0	4.023808	100	0	5	-0.01015288	-0.002122564	0.4840775	
00:45:54	47.4407	-122.3181	0.02	0.02205244	0.08920874	0	4.023808	100	0	4	-0.006040211	-0.004335289	0.448781	
00:45:56	47.4407	-122.3181	0.02	0.02113016	0.1294793	0	4.023808	100	0	4	-0.007777258	-0.001085265	0.420485	
00:45:58	47.4407	-122.3181	0.02	0.02075758	0.0787431	0	4.023808	100	0	4	-0.006926659	0.01873446	0.394231	
00:45:59	47.4407	-122.3181	0.02	0.01988663	-0.1276445	0	4.023808	100	0	4	-0.00511959	0.0006148326	0.3657445	
00:46:01	47.4407	-122.3181	0.02	0.01881545	-0.03115877	0	4.023808	100	0	4	-0.003974351	-0.002762094	0.3432908	
00:46:03	47.4407	-122.3181	0.02	0.02088022	0.1768199	0	4.023808	100	0	4	-0.002825829	-0.006121564	0.323017	
00:46:05	47.4407	-122.3181	0.02	0.02023164	-0.1137842	0	4.023808	100	0	4	-0.002776675	-0.002459423	0.3014002	
00:46:06	47.4407	-122.3181	0.02	0.01873278	-0.2484804	0	4.023808	100	0	4	-1.790879E-05	-0.00312025	0.2838946	
00:46:08	47.4407	-122.3181	0.02	0.01791458	-0.1782801	0	4.023808	100	0	4	-2.897673E-05	0.005293963	0.2676927	
00:46:10	47.4407	-122.3181	0.02	0.0186825	-0.06959283	0	4.023808	100	0	4	-0.008902167	0.02690511	0.2505254	
00:46:11	47.4407	-122.3181	0.02	0.01810032	-0.2674538	0	4.023808	100	0	4	-0.006938525	0.004762596	0.2341764	
00:46:13	47.4407	-122.3181	0.02	0.01733522	-0.2241453	0	4.023808	100	0	4	-0.004236506	-0.005662195	0.2193278	
00:46:15	47.4407	-122.3181	0.02	0.0174296	-0.2701388	0	4.023808	100	0	4	-0.001942394	-0.008878013	0.2048441	
00:46:16	47.4407	-122.3181	0.02	0.01835525	-0.1137523	0	4.023808	100	0	4	-0.002006848	-0.006940203	0.1927366	
00:46:18	47.4407	-122.3181	0.02	0.018262	-0.207598	0	4.023808	100	0	4	-0.0007322344	0.005122556	0.1809678	
00:46:20	47.4407	-122.3181	0.02	0.0177509	-0.2438941	0	4.023808	100	0	4	-0.001760082	-0.003230352	0.1693472	
00:46:22	47.4407	-122.3181	0.02	0.01765169	-0.2291143	0	4.023808	100	0	4	-0.0001640153	0.004475712	0.1579914	
00:46:23	47.4407	-122.3181	0.02	0.01785164	-0.1995852	0	4.023808	100	0	4	-5.794623E-05	-0.007096753	0.1456999	
00:46:25	47.4407	-122.3181	0.02	0.01812028	-0.1728142	0	4.023808	100	0	4	0.0002479781	0.0101703	0.1342747	
00:46:27	47.4407	-122.3181	0.02	0.01835962	-0.1517374	0	4.023808	100	0	4	0.0001851245	-0.005673158	0.1224759	
00:46:28	47.4407	-122.3181	0.02	0.01853329	-0.1937353	0	4.023808	100	0	4	0.0007753189	0.001635529	0.1101093	
00:46:30	47.4407	-122.3181	0.02	0.01834417	-0.1522363	0	4.023808	100	0	4	0.0034179	-0.01197615	0.09831062	
00:46:32	47.4407	-122.3181	0.02	0.01868947	-0.1095415	0	4.023808	100	0	4	0.001249607	-0.01683577	0.08635742	
00:46:33	47.4407	-122.3181	0.02	0.01899218	-0.08726233	0	4.023808	100	0	4	0.0002553678	-0.007031234	0.07427789	
00:46:35	47.4407	-122.3181	0.02	0.01916168	-0.07696121	0	4.023808	100	0	4	-0.0005430101	0.0003928647	0.06216118	
00:46:37	47.4407	-122.3181	0.02	0.01882934	-0.1412538	0	4.023808	100	0	4	0.001691321	0.00823163	0.05105737	
00:46:38	47.4407	-122.3181	0.02	0.01677235	-0.3787488	0	4.023808	100	0	4	0.001160959	-0.005463994	0.04136799	
00:46:40	47.4407	-122.3181	0.02	0.01767749	-0.1265477	0	4.023808	100	0	4	0.001550173	-0.00739242	0.03202521	
00:46:42	47.4407	-122.3181	0.02	0.01762822	-0.2574307	0	4.023808	100	0	4	0.0005727574	-0.01735938	0.02243034	
00:46:44	47.4407	-122.3181	0.02	0.01726092	-0.286065	0	4.023808	100	0	4	0.00201115	-0.03053745	0.01306407	
00:46:45	47.4407	-122.3181	0.02	0.01781244	-0.1041098	0	4.023808	100	0	4	0.0003333574	-0.04529931	0.005092229	
00:46:47	47.4407	-122.3181	0.02	0.01839823	-0.08192851	0	4.023808	100	0	4	0.001746839	-0.04729827	-0.003490404	
00:46:49	47.4407	-122.3181	0.02	0.01921812	-0.01668065	0	4.023808	100	0	4	4.410539E-05	-0.04961248	-0.01062852	
00:46:50	47.4407	-122.3181	0.02	0.0191841	-0.08259104	0	4.023808	100	0	3	0.0007647494	-0.04033292	-0.01504533	
00:46:52	47.4407	-122.3181	0.02	0.01757526	-0.3023382	0	4.023808	100	0	4	0.002086463	-0.02624709	-0.01618875	
00:46:54	47.4407	-122.3181	0.02	0.0181892	-0.1205509	0	4.023808	100	0	4	0.0005503285	-0.02387162	-0.01600247	
00:46:55	47.4407	-122.3181	0.02	0.01850105	-0.1763454	0	4.023808	100	0	4	0.001049576	-0.0199923	-0.01259189	
00:46:57	47.4407	-122.3181	0.02	0.01967214	0.07335795	0	4.023808	100	0	4	0.0010075	-0.01907749	-0.009809718	
00:46:59	47.4407	-122.3181	0.02	0.02117018	0.1751105	0	4.023808	100	0	4	-0.0004285341	-0.01165131	-0.008712418	
00:47:00	47.4407	-122.3181	0.02	0.02145121	0.0539299	0	4.023808	100	0	5	0.001924546	-0.01401857	-0.005104527	
00:47:02	47.4407	-122.3181	0.02	0.01887284	-0.289816	0	4.023808	100	0	4	0.001171707	-0.0184748	-0.003438084	
00:47:04	47.4407	-122.3181	0.02	0.01813747	-0.2150156	0	4.023808	100	0	4	0.001395736	-0.02627684	-0.003202541	
00:47:06	47.4407	-122.3181	0.02	0.01763	-0.2671572	0	4.023808	100	0	4	-0.0004739753	-0.02703371	-0.003545745	
00:47:07	47.4407	-122.3181	0.02	0.01849112	-0.104156	0	4.023808	100	0	4	-0.0006270456	-0.01767641	-0.003080929	
00:47:09	47.4407	-122.3181	0.02	0.01966079	0.05339789	0	4.023808	100	0	4	-0.0001790186	-0.02637593	-0.001865976	
00:47:11	47.4407	-122.3181	0.02	0.01937372	-0.2580501	0	4.023808	100	0	5	-0.0003862483	-0.01393914	-0.0006042738	
00:47:12	47.4407	-122.3181	0.02	0.01867289	-0.02258252	0	4.023808	100	0	4	-0.001667869	-0.02216122	0.0002205965	
00:47:14	47.4407	-122.3181	0.02	0.02035318	0.1350732	0	4.023808	100	0	4	-0.001791355	-0.01886068	0.0001842271	
00:47:16	47.4407	-122.3181	0.02	0.02129264	0.002358193	0	4.023808	100	0	4	-0.0002124148	-0.01488813	0.002023603	
00:47:17	47.4407	-122.3181	0.02	0.02071308	0.01884684	0	4.023808	100	0	4	-0.001381274	-0.01205134	0.003561277	
00:47:19	47.4407	-122.3181	0.02	0.01952526	-0.113427	0	4.023808	100	0	4	0.0003595403	-0.01166029	0.005794832	
00:47:21	47.4407	-122.3181	0.02	0.0192133	0.01069062	0	4.023808	100	0	4	-0.001013618	-0.006898458	0.009083505	
00:47:22	47.4407	-122.3181	0.02	0.02103283	0.198481	0	4.023808	100	0	4	-0.0003906312	-0.009411096	0.01346509	
00:47:24	47.4407	-122.3181	0.02	0.02171357	0.2008065	0	4.023808	100	0	4	-0.001422655	-0.01309886	0.01566895	
00:47:26	47.4407	-122.3181	0.02	0.02126156	-0.1066716	0	4.023808	100	0	4	-0.0008161832	-0.0008791052	0.01896016	
00:47:28	47.4407	-122.3181	0.02	0.01838224	-0.1295799	0	4.023808	100	0	4	2.54316E-05	0.003327571	0.02269743	
00:47:29	47.4407	-122.3181	0.02	0.02012369	0.1324424	0	4.023808	100	0	4	2.872725E-06	0.006044221	0.02627929	
00:47:31	47.4407	-122.3181	0.02	0.02095319	0.07947027	0	4.023808	100	0	4	-0.0002536515	0.005715563	0.02986663	
00:47:33	47.4407	-122.3181	0.02	0.01964017	-0.1037898	0	4.023808	100	0	4	0.001178717	0.007909412	0.03330128	
00:47:34	47.4407	-122.3181	0.02	0.01911035	-0.03503684	0	4.023808	100	0	4	-0.001114642	-0.003255998	0.0342561	
00:47:36	47.4407	-122.3181	0.02	0.01934442	-0.1345104	0	4.023808	100	0	4	-0.001571934	-0.005783118	0.03215491	
00:47:38	47.4407	-122.3181	0.02	0.01947463	-0.06365349	0	4.023808	100	0	4	-0.0006631211	-0.003332675	0.03100897	
00:47:39	47.4407	-122.3181	0.02	0.01837255	-0.1591269	0	4.023808	100	0	4	-0.000174937	-0.01297143	0.03043896	
00:47:41	47.4407	-122.3181	0.02	0.01959144	0.07428963	0	4.023808	100	0	4	-0.001563585	-0.003881824	0.02855089	
00:47:43	47.4407	-122.3181	0.02	0.01974608	-0.02473973	0	4.023808	100	0	4	-0.001616529	-0.01384494	0.02713432	
00:47:45	47.4407	-122.3181	0.02	0.02010973	0.09427589	0	4.023808	100	0	4	-0.001178809	-0.006623862	0.02513443	
00:47:46	47.4407	-122.3181	0.02	0.02061551	-0.02319334	0	4.023808	100	0	4	0.0003334394	-0.003349361	0.02309907	
00:47:48	47.4407	-122.3181	0.02	0.02047119	0.0250734	0	4.023808	100	0	4	-0.001082806	-0.0396683	0.0150192	
00:47:50	47.4407	-122.3181	0.02	0.02013618	-0.007269004	0	4.023808	100	0	4	-0.0002658102	-0.02662775	0.01093671	
00:47:51	47.4407	-122.3181	0.02	0.02037782	0.01580651	0	4.023808	100	0	4	-0.001028198	-0.01717679	0.009004544	
00:47:53	47.4407	-122.3181	0.02	0.02051517	0.03020616	0	4.023808	100	0	4	0.0008677883	-0.004765926	0.009962394	
00:47:55	47.4407	-122.3181	0.02	0.02042894	-0.03020313	0	4.023808	100	0	4	-0.000664335	-0.0009500603	0.01235867	
00:47:56	47.4407	-122.3181	0.02	0.01994131	0.03777274	0	4.023808	100	0	4	-0.001037327	0.002606751	0.01617514	
00:47:58	47.4407	-122.3181	0.02	0.01904431	-0.05580327	0	4.023808	100	0	4	-0.000183602	0.001399791	0.01921743	
00:48:00	47.4407	-122.3181	0.02	0.01867994	-0.08959819	0	4.023808	100	0	4	0.0002014252	0.004718862	0.02236672	
00:48:01	47.4407	-122.3181	0.02	0.01936723	0.008747236	0	4.023808	100	0	4	0.0002049166	0.002266925	0.02566405	
00:48:03	47.4407	-122.3181	0.02	0.02023829	0.002949522	0	4.023808	100	0	4	0.001178276	0.00468016	0.02860888	
00:48:05	47.4407	-122.3181	0.02	0.01937999	-0.1643883	0	4.023808	100	0	4	-0.000565559	0.0008140433	0.03040131	
00:48:07	47.4407	-122.3181	0.02	0.01952469	0.05820179	0	4.023808	100	0	4	0.0004255301	0.001300795	0.03173924	
00:48:08	47.4407	-122.3181	0.02	0.02103322	0.1399541	0	4.023808	100	0	4	-0.0001683092	-0.002158173	0.03204481	
00:48:10	47.4407	-122.3181	0.02	0.02179597	0.2186465	0	4.023808	100	0	4	0.0001151859	-0.002133534	0.03262136	
00:48:12	47.4407	-122.3181	0.02	0.01922003	-0.2178112	0	4.023808	100	0	4	-0.001082276	0.003187369	0.03315612	
00:48:13	47.4407	-122.3181	0.02	0.01954713	-0.04738303	0	4.023808	100	0	4	-0.001899879	0.02134489	0.03491431	
00:48:15	47.4407	-122.3181	0.02	0.02002257	-0.0337015	0	4.023808	100	0	4	-0.001940846	0.02399319	0.03715044	
00:48:17	47.4407	-122.3181	0.02	0.01938169	-0.1160525	0	4.023808	100	0	4	-0.00105505	0.01972248	0.03848046	
00:48:18	47.4407	-122.3181	0.02	0.01928485	-0.1204001	0	4.023808	100	0	4	-0.0001832997	0.01909951	0.0389651	
00:48:20	47.4407	-122.3181	0.02	0.02022896	0.080442	0	4.023808	100	0	4	0.000152032	0.01323363	0.0391359	
00:48:22	47.4407	-122.3181	0.02	0.02020281	-0.02220902	0	4.023808	100	0	4	0.0007088185	0.005365376	0.03856932	
00:48:24	47.4407	-122.3181	0.02	0.0196967	-0.1597688	0	4.023808	100	0	4	0.0004844819	-0.00646871	0.0368998	
00:48:25	47.4407	-122.3181	0.02	0.01842349	-0.09740343	0	4.023808	100	0	4	-0.0004922323	-0.0006973364	0.03486362	
00:48:27	47.4407	-122.3181	0.02	0.01997104	0.115611	0	4.023808	100	0	4	-0.000944063	-0.007757206	0.03168923	
00:48:29	47.4407	-122.3181	0.02	0.0206455	0.06517363	0	4.023808	100	0	4	-0.00101483	-0.005704644	0.02919745	
00:48:30	47.4407	-122.3181	0.02	0.02076066	0.01692439	0	4.023808	100	0	4	0.0003284962	-0.007708041	0.02723914	
00:48:32	47.4407	-122.3181	0.02	0.02107492	0.1650556	0	4.023808	100	0	4	-0.0001340449	-0.004952424	0.025508	
00:48:34	47.4407	-122.3181	0.02	0.02021565	-0.04572145	0	4.023808	100	0	4	-0.0003245931	-0.004789432	0.02391888	
00:48:36	47.4407	-122.3181	0.02	0.02066255	0.1385595	0	4.023808	100	0	4	-0.0002775774	-0.00145615	0.02313966	
00:48:37	47.4407	-122.3181	0.02	0.02059043	-0.05298913	0	4.023808	100	0	5	-0.001006336	0.00344997	0.02324349	
00:48:39	47.4407	-122.3181	0.02	0.019993	0.001788654	0	4.023808	100	0	4	-0.001063267	-0.002531967	0.02266331	
00:48:41	47.4407	-122.3181	0.02	0.01622953	-1.583239	0.35	4.169353	100	0	100	-0.1627499	1.092343	-3.332798	
00:48:42	47.44076	-122.3181	0.078	0.3930821	173.5217	8.89	10.37451	100	0	100	-18.19176	25.34489	-21.99753	
00:48:44	47.44089	-122.3182	6.401	6.478883	501.3138	11.43	8.257934	100	0	105	-34.60577	28.85104	-89.17551	
00:48:46	47.44089	-122.3185	13.953	13.19996	199.8931	14.71	10.99205	100	0	109	41.55455	14.51462	-86.88754	
00:48:47	47.44098	-122.3188	24.75	21.93483	600.2032	13.5	12.85538	100	0	107	43.31022	29.74108	-14.36944	
00:48:49	47.44119	-122.3188	36.774	33.63377	190.7713	15.95	17.02585	100	0	52	3.163211	6.072788	-2.15469	
00:48:51	47.44143	-122.3187	38.008	36.59635	-273.3073	17.74	17.85823	100	0	22	-11.12495	-14.04372	-0.4777694	
00:48:53	47.44175	-122.3187	29.287	30.47902	-395.161	20.11	19.10473	100	0	33	-16.60828	-15.1432	-9.676907	
00:48:54	47.4419	-122.3188	25.143	24.67518	-108.0765	21.59	20.14648	100	0	52	-18.26989	-3.630724	-24.29554	
00:48:56	47.4419	-122.3188	25.143	26.30077	273.2238	21.59	18.84616	100	0	50	-18.40869	9.736794	-33.28772	
00:48:58	47.4419	-122.3188	25.143	28.2259	355.0306	21.59	18.84616	100	0	48	-19.54144	19.54972	-39.05126	
00:48:59	47.4419	-122.3188	25.143	27.92987	211.247	21.59	18.17143	100	0	56	-20.64512	26.4725	-43.76026	
00:49:01	47.4419	-122.3188	25.143	26.4579	40.47458	21.59	17.53052	100	0	72	-20.11673	31.44426	-45.90757	
00:49:03	47.4419	-122.3188	25.143	25.05964	-78.7355	21.59	17.53052	100	0	89	-20.08947	35.00808	-48.04937	
00:49:04	47.4419	-122.3188	25.143	24.06363	-152.0764	21.59	17.53052	100	0	101	-19.82897	37.3544	-49.7837	
00:49:06	47.4419	-122.3188	25.143	23.62088	-159.5742	21.59	17.53052	100	0	100	-16.93309	38.0134	-47.93627	
00:49:08	47.4419	-122.3188	25.143	23.70093	-131.1798	21.59	17.53052	100	0	100	-14.75386	38.42295	-46.12542	
00:49:09	47.4419	-122.3188	25.143	23.9659	-101.1154	21.59	17.53052	100	0	100	-12.48857	38.2421	-43.5864	
00:49:11	47.44072	-122.3181	0.021	10.90788	-745.5386	0	4.790555	100	0	100	-4.236172	29.59726	-31.63861	
00:49:13	47.44075	-122.3181	0.023	-4.920094	-708.862	6.71	4.161726	100	0	4	3.422875	17.1067	-27.36753	
00:49:15	47.44085	-122.3181	0.023	-4.953239	-355.5183	4.23	3	100	0	4	5.263816	1.234643	-21.76118	
00:49:16	47.44088	-122.3181	0.02	-2.005769	-35.16016	0	3.537668	100	0	4	7.210618	-0.1948096	-12.97427	
00:49:18	47.44088	-122.3181	0.02	0.003988935	55.05295	0	3.399784	100	0	4	8.322304	-13.8291	-9.697104	
00:49:20	47.44072	-122.3181	0.02	0.7281924	52.01135	0	3.399784	100	0	4	6.557504	-20.02123	-1.834825	
00:49:21	47.44072	-122.3181	0.019	-0.07321009	-61.24537	0	3.229795	100	0	4	6.84468	-20.14508	2.046075	
00:49:23	47.44072	-122.3181	0.019	-0.7093754	-93.68697	0	3.229795	100	0	4	6.750361	-19.78657	6.019938	
00:49:25	47.44072	-122.3181	0.019	-0.8366898	-82.8871	0	3.229795	100	0	4	6.727113	-19.62665	9.876477	
00:49:26	47.44072	-122.3181	0.019	-0.7176585	-64.20152	0	3.068305	100	0	4	6.611187	-18.95791	13.53663	
00:49:28	47.44072	-122.3181	0.019	-0.5247576	-42.26656	0	3.068305	100	0	4	6.35139	-17.6995	17.11545	
00:49:30	47.44072	-122.3181	0.019	-0.3271836	-24.17776	0	3.068305	100	0	4	6.279151	-16.79063	20.43347	
00:49:31	47.44072	-122.3181	0.019	-0.1789533	-12.42991	0	3	100	0	4	6.255305	-15.61267	23.10588	
00:49:33	47.44072	-122.3181	0.019	-0.05188689	0.5849532	0	3	100	0	4	6.196541	-14.21411	25.06739	
00:49:35	47.44072	-122.3181	0.019	0.07659002	12.59056	0	3	100	0	4	6.209258	-13.03961	26.88689	
00:49:37	47.44072	-122.3181	0.019	0.1738904	20.1334	0	3	100	0	4	6.214547	-11.81233	28.05463	
00:49:38	47.44072	-122.3181	0.019	0.2501295	27.44083	0	3	100	0	4	6.098048	-10.29171	28.39515	
00:49:40	47.44072	-122.3181	0.019	0.3178201	33.24035	0	3	100	0	4	6.042218	-9.205788	28.5767	
00:49:42	47.44072	-122.3181	0.019	0.3590429	35.58064	0	3	100	0	4	5.929448	-8.178761	28.38269	
00:49:43	47.44072	-122.3181	0.019	0.3842692	37.98006	0	3	100	0	4	5.641282	-6.913755	27.3069	
00:49:45	47.44072	-122.3181	0.02	0.4078953	39.73784	0	3	100	0	4	5.411326	-6.038154	26.31558	
00:49:47	47.44072	-122.3181	0.02	0.4143565	39.33361	0	3	100	0	4	5.137937	-5.243571	25.08958	
00:49:48	47.44072	-122.3181	0.02	0.4104449	38.77384	0	3	100	0	4	4.710783	-4.360373	23.23409	
00:49:50	47.44072	-122.3181	0.02	0.4031266	37.67046	0	3	100	0	4	4.381897	-3.765912	21.61273	
00:49:52	47.44072	-122.3181	0.02	0.38752	35.59494	0	3	100	0	4	4.061597	-3.266121	20.02056	
00:49:54	47.44072	-122.3181	0.02	0.364234	33.26118	0	3	100	0	4	3.54322	-2.621591	17.69717	
00:49:55	47.44072	-122.3181	0.02	0.3444149	31.33996	0	3	100	0	4	3.189066	-2.255351	15.85672	
00:49:57	47.44072	-122.3181	0.02	0.3246686	29.26174	0	3	100	0	4	2.853365	-1.925142	14.08267	
00:49:59	47.44072	-122.3181	0.02	0.3035733	27.14984	0	3	100	0	5	2.471723	-1.625039	12.13424	
00:50:01	47.44072	-122.3181	0.02	0.2821468	24.9297	0	3	100	0	4	2.193989	-1.408788	10.55369	
00:50:02	47.44072	-122.3181	0.02	0.2594838	22.60458	0	3	100	0	4	1.920612	-1.21897	9.035237	
00:50:04	47.44072	-122.3181	0.02	0.2386425	20.8482	0	3	100	0	4	1.629161	-1.034602	7.493038	
00:50:06	47.44072	-122.3181	0.02	0.2203417	18.96255	0	3	100	0	4	1.423553	-0.9168279	6.233582	
00:50:07	47.44072	-122.3181	0.02	0.2021914	17.21823	0	3	100	0	4	1.243695	-0.819135	5.105314	
00:50:09	47.44072	-122.3181	0.02	0.1846785	15.46583	0	3	100	0	4	1.035915	-0.6968892	3.995077	
00:50:11	47.44072	-122.3181	0.02	0.1685525	13.98227	0	3	100	0	4	0.8873931	-0.6255392	3.090292	
00:50:12	47.44072	-122.3181	0.02	0.1537319	12.57232	0	3	100	0	4	0.7547718	-0.5557613	2.318828	
00:50:14	47.44072	-122.3181	0.02	0.1411124	11.44343	0	3	100	0	4	0.6177989	-0.4844088	1.615308	
00:50:16	47.44072	-122.3181	0.02	0.1295704	10.2312	0	3	100	0	5	0.5226094	-0.4366706	1.043389	
00:50:17	47.44072	-122.3181	0.02	0.1187639	9.298734	0	3	100	0	5	0.440442	-0.3893479	0.5852672	
00:50:19	47.44072	-122.3181	0.02	0.1085697	8.26954	0	3	100	0	4	0.3548371	-0.3361852	0.2063603	
00:50:21	47.44072	-122.3181	0.02	0.0991011	7.411328	0	3	100	0	4	0.2956846	-0.3039167	-0.1049651	
00:50:23	47.44072	-122.3181	0.02	0.09204624	6.684943	0	3	100	0	5	0.2450279	-0.2674383	-0.3302024	
00:50:24	47.44072	-122.3181	0.02	0.08322491	5.851691	0	3	100	0	4	0.1930957	-0.2326811	-0.4822465	
00:50:26	47.44072	-122.3181	0.02	0.07555425	5.153297	0	3	100	0	4	0.1559364	-0.1796826	-0.6612293	
00:50:28	47.44072	-122.3181	0.02	0.07148848	4.925217	0	3	100	0	4	0.1294784	-0.1873122	-0.7345735	
00:50:29	47.44072	-122.3181	0.02	0.06577969	4.202984	0	3	100	0	4	0.09662268	-0.1588427	-0.7272933	
00:50:31	47.44072	-122.3181	0.02	0.06040772	3.729738	0	3	100	0	4	0.07732101	-0.1434435	-0.732759	
00:50:33	47.44072	-122.3181	0.02	0.05584495	3.324925	0	3	100	0	4	0.06222849	-0.1310195	-0.7168967	
00:50:34	47.44072	-122.3181	0.02	0.05369043	3.236119	0	3	100	0	4	0.04773119	-0.1090193	-0.6391203	
00:50:36	47.44072	-122.3181	0.02	0.0501117	2.830884	0	3	100	0	4	0.03620094	-0.08902114	-0.5898824	
00:50:38	47.44072	-122.3181	0.02	0.04736882	2.646971	0	3	100	0	4	0.02809378	-0.08566185	-0.5296513	
00:50:39	47.44072	-122.3181	0.02	0.04533311	2.418348	0	3	100	0	4	0.0190774	-0.06295701	-0.4297882	
00:50:41	47.44072	-122.3181	0.02	0.04355448	2.435369	0	3	100	0	4	0.01218042	-0.05969824	-0.3600901	
00:50:43	47.44072	-122.3181	0.02	0.04144224	2.01166	0	3	100	0	4	0.009858097	-0.05277105	-0.2938305	
00:50:45	47.44072	-122.3181	0.02	0.03881836	1.632096	0	3	100	0	4	0.00599039	-0.04011009	-0.1973458	
00:50:46	47.44072	-122.3181	0.02	0.03551426	1.491037	0	3	100	0	4	0.003065485	-0.03675319	-0.1254606	
00:50:48	47.44072	-122.3181	0.02	0.03537833	1.500477	0	3	100	0	4	0.0003518299	-0.02809594	-0.06533723	
00:50:50	47.44072	-122.3181	0.02	0.03276816	1.213665	0	3	100	0	4	-0.0001187993	-0.01867514	0.01967386	
00:50:51	47.44072	-122.3181	0.02	0.03104384	1.027821	0	3	100	0	4	-0.001586722	-0.01381757	0.08254734	
00:50:53	47.44072	-122.3181	0.02	0.03012169	0.9323623	0	3	100	0	4	-0.002817549	-0.01075118	0.1342341	
00:50:55	47.44072	-122.3181	0.02	0.02938902	0.7922421	0	3	100	0	4	-0.003539833	-0.004367687	0.1989411	
00:50:56	47.44072	-122.3181	0.02	0.02378219	-0.3796748	0.76	3	100	0	100	-0.2684856	0.2743315	-3.079232	
00:50:58	47.4408	-122.3181	0.034	-0.006938762	-2.436753	10.85	8.67833	100	0	100	0.1514708	4.892414	-12.69114	
00:51:00	47.44103	-122.3182	1.412	2.106836	352.82	18.3	16.00102	100	0	100	6.17857	11.87042	-11.11347	
00:51:01	47.44131	-122.3182	6.66	7.093487	384.7055	21.99	19.81279	100	0	100	5.345636	11.13042	-5.411313	
00:51:03	47.44167	-122.3182	13.96	14.13561	451.5794	24.54	22.45799	100	0	100	-1.226102	10.65621	-2.794087	
00:51:05	47.4421	-122.3183	22.798	21.78256	448.9167	26.29	23.95022	100	0	100	-3.986835	9.523367	-3.93026	
00:51:07	47.44249	-122.3184	30.292	29.46145	441.48	27.29	24.88888	100	0	100	-4.805208	8.949424	-5.745793	
00:51:08	47.44294	-122.3184	38.566	37.43394	451.2589	28.11	25.76916	100	0	100	-3.648711	8.166265	-7.776065	
00:51:10	47.44332	-122.3185	44.839	43.93269	121.019	27.22	24.99682	100	0	77	35.33995	0.8468465	-5.550587	
00:51:12	47.44374	-122.3184	47.301	47.77495	485.8164	27.71	26.44731	100	0	112	49.75105	9.490841	40.01724	
00:51:13	47.44395	-122.318	56.37	56.9011	762.0221	26.26	27.57382	100	0	92	13.91459	15.84223	75.40174	
00:51:15	47.44404	-122.3174	68.249	67.8606	518.2673	25.12	26.38909	100	0	86	-11.44925	12.13315	76.21648	
00:51:17	47.44416	-122.3169	77.095	76.74067	418.9731	24.85	25.83627	100	0	81	-5.891677	9.63737	70.24902	
00:51:18	47.44431	-122.3164	83.542	83.70403	351.6995	24.82	25.68287	100	0	78	0.7104332	7.989295	68.30125	
00:51:20	47.44447	-122.3158	88.897	89.18507	348.1821	24.91	25.80301	100	0	81	1.821871	8.547791	69.21046	
00:51:22	47.44462	-122.3153	94.658	94.57897	353.9886	24.98	26.05693	100	0	86	16.36369	9.728562	73.97734	
00:51:23	47.44471	-122.3147	101.148	100.0095	121.4233	25.1	26.56058	100	0	54	24.10044	3.546268	86.2854	
00:51:25	47.44472	-122.3142	100.681	99.80161	-260.5054	24.77	26.39361	100	0	43	21.40129	-6.552711	98.90649	
00:51:27	47.44463	-122.3137	94.603	95.50432	-239.0591	25.44	27.19276	100	0	46	13.69514	-6.083908	113.5925	
00:51:29	47.44445	-122.3131	90.748	91.51599	-90.12823	25.75	27.73408	100	0	53	0.3393314	-1.437142	119.8817	
00:51:30	47.44427	-122.3126	90.304	90.37186	17.0944	25.52	27.49118	100	0	59	-7.498464	1.793632	118.0117	
00:51:32	47.44411	-122.3122	91.624	91.47923	83.79762	25.16	27.04186	100	0	60	-6.176624	3.137261	114.1257	
00:51:34	47.44394	-122.3115	93.958	93.31232	76.02802	24.72	26.60815	100	0	58	-3.083624	2.485658	112.3212	
00:51:35	47.44381	-122.3111	95.185	94.75771	-35.64892	24.65	26.53188	100	0	66	39.61318	-0.5103245	123.4008	
00:51:37	47.44353	-122.3107	94.131	94.46798	23.03522	26.13	27.68041	100	0	73	43.78794	0.4231507	162.1961	
00:51:39	47.44316	-122.3106	94.75	95.44023	194.54	26.79	28.29547	100	0	61	23.47299	3.934748	-165.7982	
00:51:40	47.44274	-122.3108	97.977	97.65588	76.58962	25.8	27.06564	100	0	55	-6.335676	1.795333	-159.4611	
00:51:42	47.44245	-122.311	98.59	98.4269	5.089512	25.52	26.7594	100	0	55	-16.13076	0.01967044	-166.5278	
00:51:44	47.44202	-122.3111	98.887	98.87867	33.8297	25.38	26.78927	100	0	54	-12.07632	0.4615935	-174.7507	
00:51:46	47.44159	-122.3112	99.521	99.38554	21.31923	25.09	26.03714	100	0	53	-5.649931	0.08087775	-178.5799	
00:51:47	47.44126	-122.3112	99.834	99.78281	12.17318	24.91	25.87471	100	0	52	-2.076806	-0.2807438	-179.2838	
00:51:49	47.44087	-122.3112	99.998	99.93745	2.734868	24.8	25.74172	100	0	51	-1.245203	-0.4707626	-179.073	
00:51:51	47.44046	-122.3112	100.059	100.0423	6.19884	24.71	25.65759	100	0	51	-1.349428	-0.4299859	-178.6949	
00:51:52	47.44013	-122.3112	100.144	100.1409	3.445197	24.63	25.56636	100	0	51	-1.975966	-0.4904185	-178.6366	
00:51:54	47.43974	-122.3112	100.261	100.2304	3.273711	24.55	25.48801	100	0	51	-1.568313	-0.5171302	-178.6816	
00:51:56	47.43934	-122.3112	100.296	100.2563	-3.501113	24.5	25.44611	100	0	50	-1.303825	-0.7022883	-178.4557	
00:51:57	47.439	-122.3112	100.226	100.2355	2.784348	24.49	25.4235	100	0	50	-1.461764	-0.5570617	-178.3181	
00:51:59	47.43862	-122.3112	100.282	100.2626	0.5500248	24.45	25.38407	100	0	50	-1.621216	-0.5916021	-178.3971	
00:52:01	47.43826	-122.3112	100.306	100.243	-4.706954	24.42	25.35353	100	0	50	-1.645517	-0.7097597	-178.3804	
00:52:02	47.43788	-122.3112	100.459	100.3687	3.939662	24.41	25.34585	100	0	50	-1.716112	-0.6675432	-178.4658	
00:52:04	47.43755	-122.3112	100.609	100.5242	-3.561735	24.39	25.32326	100	0	49	-0.9962375	-1.017902	-177.9762	
00:52:06	47.43712	-122.3112	100.486	100.4856	-6.095693	24.41	25.32965	100	0	49	-1.807761	-1.098156	-177.8464	
00:52:08	47.43676	-122.3112	100.39	100.4146	-4.207712	24.41	25.34246	100	0	49	-1.750209	-1.045818	-178.4428	
00:52:09	47.4364	-122.3112	100.302	100.2922	-7.777488	24.41	25.34711	100	0	49	-1.58126	-1.10482	-178.9323	
00:52:11	47.43606	-122.3112	100.156	100.1533	-4.112823	24.44	25.37774	100	0	50	-1.004461	-1.006945	-179.0118	
00:52:13	47.43563	-122.3113	100.092	100.1227	3.055799	24.44	25.37379	100	0	50	-0.952626	-0.8180943	-178.8747	
00:52:14	47.4353	-122.3113	100.253	100.205	-3.144397	24.4	25.33196	100	0	49	-1.492859	-1.018527	-178.8871	
00:52:16	47.4349	-122.3113	99.129	98.62949	-375.8652	24.08	25.00693	100	0	29	40.73029	-11.33744	-168.5743	
00:52:18	47.43459	-122.3114	84.501	87.43063	-814.4543	24.36	23.72561	100	0	24	41.81117	-19.24263	-135.5098	
00:52:19	47.43435	-122.3119	77.998	78.73196	-529.7637	26.04	24.84284	100	0	23	35.32455	-16.81253	-97.9989	
00:52:21	47.43432	-122.3124	67.328	68.80743	-338.558	27.22	26.36846	100	0	25	11.83079	-11.25753	-78.09588	
00:52:23	47.43432	-122.3124	67.328	66.52456	-191.3511	27.22	26.36846	100	0	16	-1.806617	-8.046775	-69.76512	
00:52:25	47.43435	-122.3138	37.312	50.72734	-1439.861	23.89	24.47392	100	0	32	-17.29001	-16.15257	-75.76588	
00:52:26	47.43424	-122.3143	16.207	18.70685	-753.2999	30.86	29.04809	100	0	100	-4.073724	10.60808	-80.37008	
00:52:28	47.43393	-122.315	13.55	11.60355	-299.6544	34.07	32.69369	100	0	103	28.30817	14.51287	-73.51448	
00:52:30	47.43377	-122.3156	18.015	14.89573	181.1034	32.65	30.59557	100	0	101	15.77448	15.33841	-66.34778	
00:52:31	47.43367	-122.3162	27.492	25.37557	501.9568	30.48	28.38186	100	0	100	0.5299363	15.3698	-71.15857	
00:52:33	47.43357	-122.317	42.936	40.11868	639.1679	28.35	26.43671	100	0	82	-3.243058	12.67899	-79.82616	
00:52:35	47.43349	-122.3176	51.553	50.32663	276.0472	27.13	25.04797	100	0	57	-3.29431	1.619794	-86.85246	
00:52:36	47.4334	-122.3181	53.962	54.00204	83.16485	25.99	23.00867	100	0	32	6.793909	-4.343374	-93.41558	
00:52:38	47.43333	-122.3187	48.723	49.70073	-622.3678	24.42	20.59929	100	0	14	44.11613	-20.20262	-81.01522	
00:52:40	47.43345	-122.3193	31.72	35.97901	-857.3537	25.14	21.55606	100	0	16	43.62432	-21.75416	-48.63112	
00:52:41	47.43372	-122.3196	15.323	18.97056	-517.0389	27.88	26.31477	100	0	80	43.59258	-7.884879	-5.000563	
00:52:43	47.43416	-122.3194	11.082	13.06943	439.9622	29.67	31.24844	100	0	101	34.48111	14.20789	46.49025	
00:52:45	47.43441	-122.319	25.289	22.49347	477.7234	25.69	27.53444	100	0	91	-24.9671	17.46839	51.45465	
00:52:47	47.43469	-122.3186	35.699	33.32759	201.552	25.63	26.65529	100	0	69	-30.2314	7.836613	34.85117	
00:52:48	47.43502	-122.3183	36.261	36.32502	-63.27364	25.74	26.08072	100	0	57	-22.90728	0.3849995	17.14166	
00:52:50	47.43544	-122.3182	31.114	32.8046	-114.1733	26.55	26.52445	100	0	63	-10.98541	0.8659331	3.769758	
00:52:52	47.43587	-122.3183	28.28	29.37169	14.4729	27.16	27.00106	100	0	71	6.121697	4.922699	0.3093667	
00:52:53	47.43625	-122.3183	30.045	29.83256	101.3712	26.77	26.72367	100	0	71	8.129494	6.66898	3.718349	
00:52:55	47.43669	-122.3183	33.96	32.64769	80.52559	25.86	26.01867	100	0	63	3.078169	4.422173	5.926415	
00:52:57	47.43705	-122.3183	36.211	35.12772	17.53444	25.14	25.37992	100	0	54	-1.698967	0.9765927	5.415691	
00:52:58	47.43743	-122.3182	37.456	36.60079	-28.28136	24.49	24.67683	100	0	48	-3.965986	-1.97609	3.164764	
00:53:00	47.43782	-122.3181	37.01	36.84879	-58.05658	24.04	24.183	100	0	45	-4.90645	-3.743105	0.01309371	
00:53:02	47.43818	-122.3181	35.993	36.00019	-71.79026	23.77	23.89883	100	0	44	-5.002566	-4.201707	-3.281308	
00:53:04	47.43855	-122.3181	35.265	35.13352	-56.42363	23.47	23.55851	100	0	44	-4.636325	-3.787747	-6.102391	
00:53:05	47.43887	-122.3181	34.834	34.57431	-56.2673	23.19	23.26395	100	0	43	-3.657539	-3.736634	-8.077456	
00:53:07	47.4392	-122.318	34.28	34.05188	-62.68639	22.97	23.00391	100	0	43	-3.513355	-3.945997	-9.282944	
00:53:09	47.43959	-122.318	33.423	33.35212	-58.82611	22.83	22.89165	100	0	43	-3.532962	-3.776967	-10.07096	
00:53:10	47.43982	-122.318	32.956	32.61687	-62.45093	22.77	22.80202	100	0	20	-2.978735	-3.514637	-10.37907	
00:53:12	47.43994	-122.318	32.664	31.43396	-228.5942	22.75	22.783	100	0	24	-3.74837	-12.72992	-9.695786	
00:53:14	47.44	-122.318	32.488	31.37633	-244.9448	22.59	22.62276	100	0	23	-4.473975	-23.09548	-9.677163	
00:53:15	47.44095	-122.318	0.452	16.04873	-181.2311	26.39	25.58004	100	0	87	-2.961716	-7.44186	-16.79053	
00:53:17	47.4412	-122.318	15.584	15.63801	620.0425	14.22	11.36234	100	0	100	-14.7387	32.47031	-43.05926	
00:53:19	47.44144	-122.318	42.543	34.03413	-44.06312	15.61	12.47112	100	0	4	3.807382	-3.955083	-43.46193	
00:53:20	47.44167	-122.3181	41.107	38.3488	-297.6012	16.08	11.65242	100	0	4	6.405146	-22.22737	-32.91706	
00:53:22	47.44195	-122.318	32.994	34.78532	-334.0958	17.69	13.42196	100	0	4	-2.508622	-19.71346	-20.61982	
00:53:24	47.44219	-122.318	24.282	25.49829	-293.3041	19.59	15.57704	100	0	50	-11.5159	-8.541866	-19.70494	
00:53:25	47.44252	-122.3179	23.807	24.47041	303.4794	19.95	15.53479	100	0	28	-8.155309	10.4872	-25.43699	
00:53:27	47.44271	-122.3179	25.721	24.52414	-239.4237	19.14	14.72217	100	0	49	-12.74335	-3.537317	-22.85828	
00:53:29	47.44309	-122.3178	24.922	24.99043	285.3784	19.31	14.88469	100	0	24	-6.981791	8.686269	-27.36135	
00:53:31	47.44336	-122.3179	26.241	25.11765	-224.0111	18.38	13.95389	100	0	31	-5.423819	-5.82762	-23.70804	
00:53:32	47.44365	-122.3179	22.323	23.26908	-83.04741	19.59	15.17052	100	0	38	-4.68124	-2.095087	-21.05169	
00:53:34	47.44398	-122.3179	21.208	22.16986	160.5116	20.32	15.88929	100	0	36	-7.691298	7.037823	-20.92289	
00:53:36	47.44421	-122.318	22.306	21.88163	-48.93636	20	15.62657	100	0	52	-7.025727	2.488104	-21.19731	
00:53:37	47.4445	-122.318	23.006	22.64732	2.893077	20.21	15.94576	100	0	31	-6.846236	1.750032	-22.65169	
00:53:39	47.44486	-122.3182	22.462	22.34244	-60.2383	20.05	15.84147	100	0	32	-3.871464	-0.6470671	-22.82078	
00:53:41	47.44515	-122.3183	20.656	21.4185	-40.19185	20.29	16.06369	100	0	36	1.651319	-0.6891779	-19.97474	
00:53:42	47.44547	-122.3184	19.561	20.24833	77.94248	20.72	16.40501	100	0	43	3.967935	3.866718	-13.89002	
00:53:44	47.44574	-122.3185	20.357	20.42277	-2.735316	20.56	15.53751	100	0	39	3.316455	1.902527	-8.029241	
00:53:46	47.44607	-122.3185	20.322	20.29171	-16.75757	20.49	15.42417	100	0	36	1.38332	1.236592	-3.971594	
00:53:47	47.4464	-122.3186	19.634	19.7578	-24.31555	20.47	15.36843	100	0	40	0.4866607	1.154253	-1.682349	
00:53:49	47.44669	-122.3186	19.243	19.38345	-11.69471	20.51	15.44497	100	0	38	0.001645964	1.422578	-0.2790129	
00:53:51	47.44702	-122.3186	18.677	18.84942	-11.06849	20.5	15.41245	100	0	41	0.3229327	1.793755	0.6593735	
00:53:52	47.44732	-122.3186	18.514	18.57528	-11.66393	20.5	15.42069	100	0	39	0.1357342	1.836652	1.494044	
00:53:54	47.44765	-122.3187	18.23	18.24563	-20.34378	20.51	15.40987	100	0	39	0.3121186	1.520568	2.025726	
