Date	Latitude(deg) 	Longitude(deg)	hamsl(m)	hafl(m)	climbrate(cm/s)	GroundSpeed(m/s)	Airspeed(m/s)	Mav_Link(%)	Rssi_Link(%)	Throttle	Roll(deg)	Pitch(deg)	Yaw(deg)
18:42:33	0	0	0	0.1334262	-44.57932	0	3	48	0	12	1.077087	0.5326142	26.42738	
18:42:35	0	0	0	0.6360329	-12.8455	0	3	58	0	12	1.095048	0.527766	26.42357	
18:42:37	0	0	0	0.4988747	-19.64051	0	3	66	0	12	1.094092	0.5795537	26.39714	
18:42:38	0	0	0	0.4079754	-20.09336	0	3	71	0	12	1.052275	0.7700533	26.35434	
18:42:40	0	0	0	0.2890065	-22.38497	0	3	75	0	12	1.088494	0.7369413	26.3622	
18:42:42	0	0	0	0.547078	-7.994005	0	3	79	0	12	1.113088	0.7750991	26.34816	
18:42:43	0	0	0	0.5087876	-16.87094	0	3	81	0	12	1.084962	0.7591366	26.2956	
18:42:45	0	0	0	0.8213201	-3.011199	0	3	83	0	12	1.080162	0.7103108	26.26764	
18:42:47	0	0	0	0.7749999	-7.23501	0	3	85	0	12	1.030753	0.6639946	26.24081	
18:42:48	0	0	0	0.7259285	-10.18091	0	3	87	0	12	1.06494	0.6339589	26.21387	
18:42:50	0	0	0	0.4401602	-16.98348	0	3	88	0	12	1.044037	0.6258647	26.19215	
18:42:52	0	0	0	0.2169231	-20.23423	0	3	89	0	12	1.06655	0.6682102	26.16227	
18:42:53	0	0	0	0.2371576	-11.10196	0	3	90	0	4	1.090676	0.6883937	26.1074	
18:42:55	0	0	0	0.2085879	-7.56631	0	3	91	0	4	1.088243	0.6858467	26.08221	
18:42:57	0	0	0	0.5000015	6.972183	0	3	92	0	5	1.069795	0.7216061	26.06153	
18:42:59	0	0	0	0.45704	-2.339328	0	3	93	0	4	1.013394	0.7726291	26.02814	
18:43:00	0	0	0	0.213139	-13.61837	0	3	93	0	4	1.022786	0.6576676	26.01686	
18:43:02	0	0	0	0.2536907	-4.510527	0	3	94	0	4	1.007166	0.60865	26.01575	
18:43:04	0	0	0	0.2800614	-4.185412	0	3	94	0	5	1.03159	0.6036541	26.02715	
18:43:05	0	0	0	0.4475268	3.50977	0	3	95	0	4	0.9728725	0.6332369	26.0064	
18:43:07	0	0	0	0.7001131	9.061189	0	3	95	0	4	0.9779413	0.5474263	25.97515	
18:43:09	0	0	0	0.7223633	2.408512	0	3	96	0	4	1.008423	0.5116491	25.9587	
18:43:10	0	0	0	0.6815413	-2.532213	0	3	96	0	4	1.040374	0.5384406	25.93084	
18:43:12	0	0	0	0.4346189	-10.15379	0	3	96	0	4	1.010203	0.528611	25.89293	
18:43:14	0	0	0	0.4829168	-2.870496	0	3	96	0	4	1.043855	0.5001186	25.90286	
18:43:15	0	0	0	0.3326943	-6.974651	0	3	97	0	4	1.022753	0.601454	25.8963	
18:43:17	0	0	0	0.3419628	-4.830264	0	3	97	0	4	1.028479	0.6135806	25.86983	
18:43:19	0	0	0	0.4391578	-0.3833005	0	3	97	0	4	1.070461	0.7038102	25.89192	
18:43:20	0	0	0	0.584554	3.379007	0	3	97	0	4	1.043073	0.6481565	25.88326	
18:43:22	0	0	0	0.545895	1.193627	0	3	97	0	4	1.023692	0.7234001	25.90585	
18:43:24	0	0	0	0.1485772	-16.24713	0	3	98	0	4	1.033606	0.6769944	25.91273	
18:43:25	0	0	0	0.1354309	-5.5948	0	3	98	0	4	1.060039	0.6985157	25.92492	
18:43:27	0	0	0	0.4101651	8.513419	0	3	98	0	5	1.077018	0.7731521	25.97758	
18:43:29	0	0	0	0.6029231	10.98575	0	3	98	0	4	1.095436	0.7740383	25.99379	
18:43:31	0	0	0	0.7666486	9.351422	0	3	98	0	4	1.144464	0.8197317	26.0372	
18:43:32	0	0	0	0.4457906	-6.705104	0	3	98	0	4	1.125542	0.8149344	26.02383	
18:43:34	0	0	0	0.2933764	-6.785794	0	3	98	0	4	1.099308	0.7844355	25.9917	
18:43:36	0	0	0	0.3853968	0.5663496	0	3	98	0	4	1.079426	0.7458302	25.97033	
18:43:37	0	0	0	0.3889124	-1.169668	0	3	99	0	4	1.021034	0.7144353	25.97609	
18:43:39	0	0	0	0.1698376	-9.195984	0	3	99	0	4	1.058302	0.7454966	25.99044	
18:43:41	0	0	0	0.4724059	4.532328	0	3	99	0	5	1.075854	0.7463866	26.03265	
18:43:42	0	0	0	0.776854	14.49939	0	3	99	0	5	1.05705	0.7121799	26.01893	
18:43:44	0	0	0	0.8063216	7.918369	0	3	99	0	4	1.102997	0.6939964	25.97467	
18:43:46	0	0	0	0.862541	7.690686	0	3	99	0	4	1.125958	0.7238533	25.94741	
18:43:47	0	0	0	0.6423301	-4.671574	0	3	99	0	4	1.091109	0.736999	25.95168	
18:43:49	0	0	0	0.6823271	1.054526	0	3	99	0	4	1.054774	0.7617831	25.96367	
18:43:51	0	0	0	0.9760963	10.24188	0	3	99	0	4	1.064047	0.7526203	25.97586	
18:43:52	0	0	0	0.5773578	-10.14727	0	3	99	0	5	1.065973	0.7934457	26.02466	
18:43:54	0	0	0	0.4989778	-8.572594	0	3	99	0	4	1.064192	0.7775518	26.00098	
18:43:56	0	0	0	0.5467191	-0.006964244	0	3	99	0	5	1.061471	0.7827049	26.00679	
18:43:57	0	0	0	0.4981513	-1.167029	0	3	99	0	4	1.11383	0.7829953	26.04427	
18:43:59	0	0	0	0.392743	-5.182286	0	3	99	0	4	1.059839	0.8011286	26.00639	
18:44:01	0	0	0	0.2597499	-6.80805	0	3	99	0	4	1.083488	0.7309079	25.99194	
18:44:03	0	0	0	0.4644915	6.032224	0	3	99	0	4	1.10253	0.6258596	25.94724	
18:44:04	0	0	0	0.4064202	-0.7538194	0	3	99	0	4	1.087931	0.6261774	25.91191	
18:44:06	0	0	0	0.618515	4.132619	0	3	99	0	4	1.106138	0.5125291	25.87004	
18:44:08	0	0	0	0.4462391	-1.439664	0	3	99	0	4	1.0898	0.618246	25.85735	
18:44:09	0	0	0	0.5363706	5.594375	0	3	99	0	4	1.106095	0.6343755	25.85045	
18:44:11	0	0	0	0.8174769	12.5755	0	3	99	0	4	1.108311	0.6922227	25.84649	
18:44:13	0	0	0	0.706872	0.3651623	0	3	99	0	4	1.078573	0.6924708	25.86059	
18:44:14	0	0	0	0.505334	-6.500198	0	3	99	0	5	1.131472	0.7207456	25.87934	
18:44:16	0	0	0	0.4121733	-9.052556	0	3	99	0	5	1.115493	0.6487577	25.89418	
18:44:18	0	0	0	-0.05547145	-18.99361	0	3	99	0	4	1.087093	0.6945519	25.918	
18:44:19	0	0	0	0.07134288	-3.21634	0	3	99	0	5	1.028927	0.7811666	25.92004	
18:44:21	0	0	0	0.0234527	-3.80871	0	3	99	0	4	1.029155	0.6761586	25.93764	
18:44:23	0	0	0	0.2378691	7.351931	0	3	99	0	4	1.074963	0.7300873	25.92728	
18:44:24	0	0	0	0.2920641	2.31883	0	3	99	0	5	1.08372	0.7529684	25.90265	
18:44:26	0	0	0	0.235529	1.204079	0	3	99	0	5	1.02332	0.7632514	25.90976	
18:44:28	0	0	0	0.5377008	10.62779	0	3	99	0	5	1.029152	0.7550462	25.93717	
18:44:30	0	0	0	0.4542544	1.318594	0	3	99	0	4	1.01489	0.7592551	25.99226	
18:44:31	0	0	0	0.4519004	4.361862	0	3	99	0	4	0.9974973	0.6748114	26.01727	
18:44:33	0	0	0	0.6109884	5.829988	0	3	99	0	4	0.9983351	0.7312366	26.01854	
18:44:35	0	0	0	0.7723765	9.150748	0	3	99	0	4	1.011021	0.7423571	26.07192	
18:44:36	0	0	0	0.7986773	4.71754	0	3	99	0	4	0.9833332	0.7478127	26.04314	
18:44:38	0	0	0	0.6438259	-3.251768	0	3	99	0	4	0.9539483	0.7398383	26.04963	
18:44:40	0	0	0	0.4159938	-12.99001	0	3	99	0	4	0.9429378	0.7303161	26.07679	
18:44:41	0	0	0	0.7105335	6.136069	0	3	99	0	4	0.9477957	0.6451386	26.06657	
18:44:43	0	0	0	0.5140545	-8.585214	0	3	99	0	5	0.945156	0.6350833	26.06497	
18:44:45	0	0	0	0.637009	2.257938	0	3	99	0	5	0.9389664	0.5712577	26.03239	
18:44:46	0	0	0	0.6656345	2.652717	0	3	99	0	5	0.9436048	0.5850496	26.04151	
18:44:48	0	0	0	0.6468032	-1.227129	0	3	99	0	4	0.9659406	0.5783527	26.06435	
18:44:50	0	0	0	0.454393	-5.305888	0	3	99	0	5	0.9477004	0.5433488	26.05616	
18:44:51	0	0	0	0.3372542	-8.795515	0	3	99	0	5	0.90755	0.7265711	26.07488	
18:44:53	0	0	0	0.543158	3.492556	0	3	99	0	5	0.9316638	0.6620958	26.09817	
18:44:55	0	0	0	0.6224375	6.089218	0	3	99	0	4	0.9653626	0.5509938	26.0858	
18:44:56	0	0	0	0.5183473	-1.341258	0	3	99	0	5	0.9622071	0.6198214	26.06386	
18:44:58	0	0	0	0.3651894	-6.15926	0	3	99	0	4	0.9998664	0.6132436	26.05676	
18:45:00	0	0	0	0.01957054	-15.15459	0	3	99	0	4	1.020811	0.6340732	26.01018	
18:45:01	0	0	0	0.2500184	5.166572	0	3	99	0	4	1.024252	0.6639521	26.00186	
18:45:03	0	0	0	0.3695582	5.742634	0	3	99	0	4	1.052713	0.6573147	26.01418	
18:45:05	47.46363	-122.3077	0.02	0.3247611	3.931712	0	3	99	0	5	1.076671	0.6758595	28.11264	
18:45:07	47.46363	-122.3077	0.02	0.08666505	2.236125	0	3	99	0	4	0.8332666	0.5564709	37.8214	
18:45:08	47.46363	-122.3077	0.02	0.07900293	7.716413	0	3	99	0	5	0.6824396	0.3668225	50.13171	
18:45:10	47.46363	-122.3077	0.02	0.1119317	10.64661	0	3	99	0	5	0.5388269	0.2301721	65.39729	
18:45:12	47.46363	-122.3077	0.02	0.1251484	10.63867	0	3	99	0	5	0.3656405	0.08085896	86.27779	
18:45:13	47.46363	-122.3077	0.02	0.1202056	9.434548	0	3	99	0	4	0.2135128	0.02058329	108.3199	
18:45:15	47.46363	-122.3077	0.02	0.1059668	7.768754	0	3	99	0	4	0.1003774	0.02672609	128.6477	
18:45:17	47.46363	-122.3077	0.02	0.09459849	6.84813	0	3	99	0	4	0.007998292	0.0587436	149.3028	
18:45:18	47.46363	-122.3077	0.02	0.08594558	6.16852	0	3	99	0	4	-0.05076593	0.08984	165.4374	
18:45:20	47.46363	-122.3077	0.02	0.07954412	5.566553	0	3	99	0	5	-0.08820092	0.1379482	177.3468	
18:45:22	47.46363	-122.3077	0.02	0.07437561	5.176931	0	3	99	0	4	-0.1106399	0.1578658	-172.2832	
18:45:23	47.46363	-122.3077	0.02	0.06974982	4.670057	0	3	99	0	4	-0.1327986	0.1719385	-164.6703	
18:45:25	47.46363	-122.3077	0.02	0.06306206	3.916574	0	3	99	0	4	-0.152116	0.1803039	-159.1448	
18:45:27	47.46363	-122.3077	0.02	0.0563757	3.277617	0	3	99	0	5	-0.1623506	0.1758275	-155.5672	
18:45:29	47.46363	-122.3077	0.02	0.05238714	3.054765	0	3	99	0	4	-0.1706745	0.1822192	-152.0173	
18:45:30	47.46363	-122.3077	0.02	0.04638257	2.206937	0	3	99	0	4	-0.1779217	0.163091	-149.1422	
18:45:32	47.46363	-122.3077	0.02	0.04462809	2.466966	0	3	99	0	4	-0.1812014	0.1374397	-149.4334	
18:45:34	47.46363	-122.3077	0.02	0.04205975	1.918093	0	3	99	0	4	-0.1836579	0.1192834	-150.115	
18:45:35	47.46363	-122.3077	0.02	0.03874155	1.850684	0	3	99	0	5	-0.1831877	0.1059074	-150.5832	
18:45:37	47.46363	-122.3077	0.02	0.0370708	1.685634	0	3	99	0	4	-0.1733268	0.08714521	-152.5916	
18:45:39	47.46363	-122.3077	0.02	0.03845558	1.955186	0	3	99	0	4	-0.1577597	0.06628615	-151.7219	
18:45:40	47.46363	-122.3077	0.02	0.03902063	1.762546	0	3	99	0	4	-0.1529301	0.06030795	-153.6772	
18:45:42	47.46363	-122.3077	0.02	0.03528018	1.233786	0	3	99	0	5	-0.1430553	0.04802097	-156.6163	
18:45:44	47.46363	-122.3077	0.02	0.0302052	0.9010341	0	3	99	0	5	-0.1317204	0.0408869	-158.9669	
18:45:45	47.46363	-122.3077	0.02	0.03077951	1.222948	0	3	99	0	4	-0.1257956	0.04266642	-159.5786	
18:45:47	47.46363	-122.3077	0.02	0.02937489	0.9238457	0	3	99	0	5	-0.1120467	0.0350954	-162.2164	
18:45:49	47.46363	-122.3077	0.02	0.02936724	0.8535289	0	3	99	0	4	-0.1017015	0.02868643	-164.384	
18:45:50	47.46363	-122.3077	0.02	0.02774831	0.6522828	0	3	99	0	5	-0.09356492	0.02583411	-165.9674	
18:45:52	47.46363	-122.3077	0.02	0.02630399	0.5638781	0	3	99	0	5	-0.08082689	0.02153728	-167.8755	
18:45:54	47.46363	-122.3077	0.02	0.02524355	0.5284064	0	3	99	0	4	-0.07073272	0.01933559	-169.3835	
18:45:56	47.46363	-122.3077	0.02	0.02553391	0.5456378	0	3	99	0	5	-0.0625787	0.01901256	-170.4895	
18:45:57	47.46363	-122.3077	0.02	0.02587005	0.6075025	0	3	99	0	4	-0.05339667	0.01916729	-171.6943	
18:45:59	47.46363	-122.3077	0.02	0.02623054	0.6483949	0	3	99	0	4	-0.04711556	0.01629743	-172.6699	
18:46:01	47.46363	-122.3077	0.02	0.02587762	0.5489495	0	3	99	0	5	-0.04196712	0.01680569	-173.3889	
18:46:02	47.46363	-122.3077	0.02	0.02578003	0.5968868	0	3	99	0	5	-0.03495089	0.01422265	-174.1107	
18:46:04	47.46363	-122.3077	0.02	0.02581998	0.5197241	0	3	99	0	4	-0.03120811	0.01050643	-174.6886	
18:46:06	47.46363	-122.3077	0.02	0.02384706	0.1875706	0	3	99	0	4	-0.0270964	0.01146036	-175.1056	
18:46:07	47.46363	-122.3077	0.02	0.02215862	0.1880606	0	3	99	0	4	-0.02312575	0.009979862	-175.4853	
18:46:09	47.46363	-122.3077	0.02	0.02044825	0.02956092	0	3	99	0	4	-0.02121174	0.01379246	-175.7824	
18:46:11	47.46363	-122.3077	0.02	0.02024115	0.1117242	0	3	99	0	4	-0.01784061	0.0141436	-175.9977	
18:46:12	47.46363	-122.3077	0.02	0.02227545	0.3030602	0	3	99	0	5	-0.01595122	0.006360373	-176.1626	
18:46:14	47.46363	-122.3077	0.02	0.02159282	0.1172101	0	3	99	0	4	-0.01210335	0.004942534	-176.2844	
18:46:16	47.46363	-122.3077	0.02	0.01982506	-0.2238242	0	3	99	0	4	-0.01624478	0.003962464	-176.3732	
18:46:18	47.46363	-122.3077	0.02	0.01757253	-0.3386261	0	3	99	0	5	-0.01127353	0.005249512	-176.4148	
18:46:19	47.46363	-122.3077	0.02	0.01729817	-0.2459587	0	3	99	0	5	-0.009662955	0.004684827	-176.4412	
18:46:21	47.46363	-122.3077	0.02	0.01871807	-0.04090768	0	3	99	0	4	-0.009171301	0.009144632	-176.4583	
18:46:23	47.46363	-122.3077	0.02	0.01956024	-0.06518088	0	3	99	0	4	-0.007381936	0.006827689	-176.4412	
18:46:24	47.46363	-122.3077	0.02	0.02007885	0.1140684	0	3	99	0	4	-0.004940103	0.003626754	-176.4182	
18:46:26	47.46363	-122.3077	0.02	0.02086836	0.1682406	0	3	99	0	4	-0.003712814	0.003352957	-176.4029	
18:46:28	47.46363	-122.3077	0.02	0.02148627	-0.01703925	0	3	99	0	5	-0.002753937	0.002498789	-176.3625	
18:46:29	47.46363	-122.3077	0.02	0.02130303	0.2622251	0	3	99	0	5	-0.002255529	0.00347803	-176.3218	
18:46:31	47.46363	-122.3077	0.02	0.02271119	0.3383185	0	3	99	0	4	-0.00117044	0.001287524	-176.2931	
18:46:33	47.46363	-122.3077	0.02	0.02233113	0.1650686	0	3	99	0	4	-0.00172884	0.004282568	-176.2499	
18:46:34	47.46363	-122.3077	0.02	0.02064814	0.1107827	0	3	99	0	4	-0.001105235	0.006731588	-176.2076	
18:46:36	47.46363	-122.3077	0.02	0.02136665	0.2561551	0	3	99	0	5	-0.0009396013	0.005080579	-176.1771	
18:46:38	47.46363	-122.3077	0.02	0.02210045	0.1940854	0	3	99	0	4	0.0004622633	0.001507656	-176.1406	
18:46:40	47.46363	-122.3077	0.02	0.02083969	0.03354985	0	3	99	0	4	-0.0005752104	-0.001882301	-176.1016	
18:46:41	47.46363	-122.3077	0.02	0.02070666	-0.0419826	0	3	99	0	5	0.0006006904	-0.006858549	-176.0725	
18:46:43	47.46363	-122.3077	0.02	0.01907037	-0.05435721	0	3	99	0	5	-0.000583333	-0.009743971	-176.0433	
18:46:45	47.46363	-122.3077	0.02	0.01942085	-0.03911898	0	3	99	0	4	0.0002671219	-0.002622737	-176.0137	
18:46:46	47.46363	-122.3077	0.02	0.02038647	0.184547	0	3	99	0	5	0.0004608022	-0.0007936307	-175.993	
18:46:48	47.46363	-122.3077	0.02	0.02087336	0.1489564	0	3	99	0	4	0.001071727	0.0006461972	-175.9749	
18:46:50	47.46363	-122.3077	0.02	0.02057071	0.0238525	0	3	99	0	4	-0.0006671186	0.001637513	-175.9555	
18:46:51	47.46363	-122.3077	0.02	0.01959441	-0.1086984	0	3	99	0	4	0.0009085131	0.005528123	-175.9409	
18:46:53	47.46363	-122.3077	0.02	0.01834543	-0.1856034	0	3	99	0	5	0.000999152	0.004288115	-175.9279	
18:46:55	47.46363	-122.3077	0.02	0.01693328	-0.4058577	0	3	99	0	5	-0.0005414879	-0.0006252287	-175.9143	
18:46:57	47.46363	-122.3077	0.02	0.01635228	-0.3245738	0	3	99	0	4	-0.001390174	-0.00535792	-175.9044	
18:46:58	47.46363	-122.3077	0.02	0.01795883	-0.03500609	0	3	99	0	4	0.000357038	-0.005664674	-175.896	
18:47:00	47.46363	-122.3077	0.02	0.02072712	0.2453639	0	3	99	0	4	0.0009133636	-0.005096631	-175.8884	
18:47:02	47.46363	-122.3077	0.02	0.0229484	0.3329265	0	3	99	0	4	-0.0002534545	-0.0004906474	-175.8834	
18:47:03	47.46363	-122.3077	0.02	0.02109814	-0.02386915	0	3	99	0	5	0.0007662968	0.0007291348	-175.8799	
18:47:05	47.46363	-122.3077	0.02	0.02020948	0.1223027	0	3	99	0	4	-0.0002008094	0.002081363	-175.8765	
18:47:07	47.46363	-122.3077	0.02	0.01757771	-0.5007408	0	3	99	0	4	-0.0008176119	0.005218402	-175.8744	
18:47:08	47.46363	-122.3077	0.02	0.01491004	-0.5447059	0	3	99	0	4	5.781935E-05	0.007592894	-175.8736	
18:47:10	47.46363	-122.3077	0.02	0.01701784	-0.01451398	0	3	99	0	4	0.0004465957	0.002371641	-175.8725	
18:47:12	47.46363	-122.3077	0.02	0.01958831	-0.07988905	0	3	99	0	4	0.0005059058	0.0004697632	-175.871	
18:47:13	47.46363	-122.3077	0.02	0.02083936	0.1853161	0	3	99	0	4	-0.000304068	-0.001572724	-175.8697	
18:47:15	47.46363	-122.3077	0.02	0.0200273	-0.12311	0	3	99	0	4	-0.0008878249	0.002490501	-175.8688	
18:47:17	47.46363	-122.3077	0.02	0.01957434	-0.1593899	0	3	99	0	4	-0.0002450977	0.002934811	-175.8681	
18:47:19	47.46363	-122.3077	0.02	0.01824333	-0.2222126	0	3	99	0	4	0.0001537269	0.003935244	-175.8681	
18:47:20	47.46363	-122.3077	0.02	0.01903081	0.01352105	0	3	99	0	5	0.0001288302	-0.001715788	-175.8685	
18:47:22	47.46363	-122.3077	0.02	0.01857738	-0.1973322	0	3	99	0	5	-0.0001354977	0.0003312549	-175.8683	
18:47:24	47.46363	-122.3077	0.02	0.02126897	0.3257704	0	3	99	0	4	-0.0001732219	-0.002618837	-175.8685	
18:47:25	47.46363	-122.3077	0.02	0.02214836	0.2114231	0	3	99	0	4	0.0003700565	-0.005256708	-175.8688	
18:47:27	47.46363	-122.3077	0.02	0.02123127	-0.05794177	0	3	99	0	5	-0.00015073	-0.001763009	-175.8685	
18:47:29	47.46363	-122.3077	0.02	0.0211621	0.04643177	0	3	99	0	4	-8.16204E-05	-0.001904118	-175.8687	
18:47:31	47.46363	-122.3077	0.02	0.02013268	0.1500702	0	3	99	0	5	-0.001614846	-0.001468418	-175.8691	
18:47:32	47.46363	-122.3077	0.02	0.0208707	0.06447748	0	3	99	0	5	-0.001642399	0.004420178	-175.869	
18:47:34	47.46363	-122.3077	0.02	0.01857014	-0.1818861	0	3	99	0	5	-0.001821228	0.0005560333	-175.8693	
18:47:36	47.46363	-122.3077	0.02	0.01958939	-0.02409462	0	3	99	0	4	-0.001966858	-0.007263814	-175.8692	
18:47:38	47.46363	-122.3077	0.02	0.0215336	0.2721416	0	3	99	0	4	-4.261364E-06	-0.01260579	-175.8681	
18:47:40	47.46363	-122.3077	0.02	0.02287567	0.2228906	0	3	99	0	4	0.00172911	-0.01277084	-175.868	
18:47:42	47.46363	-122.3077	0.02	0.02222028	0.1662845	0	3	99	0	5	-7.202099E-05	-0.008870232	-175.8675	
18:47:44	47.46363	-122.3077	0.02	0.02200086	0.1349172	0	3	99	0	4	0.0007057904	-0.009848673	-175.8677	
18:47:46	47.46363	-122.3077	0.02	0.02051878	-0.05227566	0	3	99	0	5	-0.002531514	-0.003428704	-175.8684	
18:47:47	47.46363	-122.3077	0.02	0.01926662	-0.04380197	0	3	99	0	4	-0.0007551113	0.0004006146	-175.8691	
18:47:49	47.46363	-122.3077	0.02	0.01994411	0.09029783	0	3	99	0	5	-0.0004290877	-0.0002189427	-175.8695	
18:47:51	47.46363	-122.3077	0.02	0.02133187	0.2337375	0	3	99	0	5	-0.001114902	-0.00746773	-175.8696	
18:47:52	47.46363	-122.3077	0.02	0.02135946	0.07003842	0	3	99	0	5	-0.0008670567	0.00380604	-175.8699	
18:47:54	47.46363	-122.3077	0.02	0.02150723	0.1603342	0	3	99	0	4	-0.0001808086	0.008387665	-175.8719	
18:47:56	47.46363	-122.3077	0.02	0.01824309	-0.3088394	0	3	99	0	5	0.0006675147	0.01267414	-175.8745	
18:47:57	47.46363	-122.3077	0.02	0.01611679	-0.4284397	0	3	99	0	5	0.0003580352	0.01516259	-175.8771	
18:47:59	47.46363	-122.3077	0.02	0.01675347	-0.1463183	0	3	99	0	4	0.0001782297	0.007226536	-175.8789	
18:48:01	47.46363	-122.3077	0.02	0.01913817	-0.0980723	0	3	99	0	4	0.0005406595	0.01006467	-175.8802	
18:48:02	47.46363	-122.3077	0.02	0.01937088	0.01603309	0	3	99	0	4	0.000174829	0.01476206	-175.8817	
18:48:04	47.46363	-122.3077	0.02	0.02138213	0.1642834	0	3	99	0	4	0.001139206	0.008138628	-175.8827	
18:48:06	47.46363	-122.3077	0.02	0.02326731	0.4583116	0	3	99	0	4	0.0009391964	-0.005745696	-175.8824	
18:48:08	47.46363	-122.3077	0.02	0.02387634	0.3924644	0	3	99	0	5	7.170855E-05	-0.009829484	-175.8804	
18:48:09	47.46363	-122.3077	0.02	0.02286085	0.1215848	0	3	99	0	4	-0.000417385	-0.01484652	-175.8776	
18:48:11	47.46363	-122.3077	0.02	0.02139702	-0.00919992	0	3	99	0	4	-0.0002375821	-0.01483615	-175.8747	
18:48:13	47.46363	-122.3077	0.02	0.020384	0.1398848	0	3	100	0	4	-0.002323577	-0.03077539	-175.871	
18:48:14	47.46363	-122.3077	0.02	0.02222152	0.3187561	0	3	100	0	4	-0.002451324	-0.02173959	-175.8666	
18:48:16	47.46363	-122.3077	0.02	0.02343483	0.2919421	0	3	100	0	5	-0.0009661773	-0.004792066	-175.8654	
18:48:18	47.46363	-122.3077	0.02	0.02206174	0.2184944	0	3	100	0	4	-0.001749001	-0.008244917	-175.8663	
18:48:19	47.46363	-122.3077	0.02	0.02008676	-0.1414154	0	3	100	0	4	-0.0002151832	-0.004198409	-175.8668	
18:48:21	47.46363	-122.3077	0.02	0.01963968	-0.004326103	0	3	100	0	4	0.0007750734	-0.003427073	-175.8674	
18:48:23	47.46363	-122.3077	0.02	0.01957451	-0.04567223	0	3	100	0	4	-5.20318E-05	0.005522376	-175.8697	
18:48:24	47.46363	-122.3077	0.02	0.02070837	0.03474426	0	3	100	0	5	-0.0003129228	0.008000162	-175.8714	
18:48:26	47.46363	-122.3077	0.02	0.02090954	0.425016	0.02	3	100	0	99	0.2600504	-0.0818584	-176.2428	
18:48:28	47.4636	-122.3077	0.023	0.01026747	-2.029372	6.48	5.314585	100	0	99	0.5916603	1.62507	-178.3171	
18:48:30	47.4634	-122.3077	0.071	0.09934703	38.64353	16.44	15.53549	100	0	99	1.00714	4.258718	-177.859	
18:48:31	47.46315	-122.3077	1.783	1.73049	167.9713	21.02	20.79139	100	0	99	1.351415	5.722257	-172.5349	
18:48:33	47.46279	-122.3078	5.359	4.915112	187.8471	24.55	24.59641	100	0	100	0.506106	4.794118	-169.3338	
18:48:35	47.46238	-122.3079	8.631	8.096513	154.5699	27.12	27.16892	100	0	99	-0.4058788	3.406218	-167.1905	
18:48:36	47.46201	-122.308	10.687	10.6441	121.9754	28.81	29.0783	100	0	99	-0.4824058	2.374048	-165.7441	
18:48:38	47.46156	-122.3081	12.416	12.37074	84.97216	30.21	30.50429	100	0	99	-0.6742544	1.739933	-164.8751	
18:48:40	47.46106	-122.3083	13.704	13.67418	67.19597	31.31	31.38433	100	0	99	-0.6494393	1.232992	-164.5073	
18:48:41	47.46066	-122.3084	14.274	14.34262	35.9708	31.93	32.00918	100	0	99	-0.6167026	0.7422512	-164.5215	
18:48:43	47.46016	-122.3086	14.671	14.70402	15.11199	32.45	32.3937	100	0	99	-0.7828804	0.451931	-164.8744	
18:48:45	47.45967	-122.3088	15.489	15.13391	10.20208	32.77	32.65673	100	0	99	-0.5230026	0.1599636	-164.6969	
18:48:47	47.45922	-122.309	16.202	16.05011	45.73962	32.9	32.77465	100	0	99	-0.04488664	0.296103	-164.0835	
18:48:48	47.45872	-122.3092	16.91	16.92439	42.71078	32.98	32.85695	100	0	99	-0.1412788	0.08765117	-163.2827	
18:48:50	47.45821	-122.3094	17.822	17.71678	48.99663	33.04	32.874	100	0	99	-0.1627442	0.1573851	-162.6281	
18:48:52	47.45778	-122.3096	18.95	18.90655	69.36129	33.06	32.88252	100	0	99	-0.2369691	0.1488368	-162.2842	
18:48:53	47.4573	-122.3099	19.769	19.88644	61.10897	33.08	32.89931	100	0	99	-0.4954	0.06248784	-161.9083	
18:48:55	47.45677	-122.3101	20.938	20.7967	54.01143	33.08	32.8672	100	0	99	-0.4552524	0.05298365	-161.1606	
18:48:57	47.45634	-122.3104	22.157	22.09763	120.3565	33.1	32.88157	100	0	4	15.57397	0.9991931	-158.9353	
18:48:58	47.45592	-122.3108	26.208	25.62211	293.8704	25.39	25.90303	100	0	51	50.3343	6.787866	-122.5296	
18:49:00	47.45584	-122.3112	31.398	31.42057	416.4435	23.13	23.5974	100	0	60	45.89704	11.32315	-73.49992	
18:49:02	47.45602	-122.3117	41.114	39.73442	560.7826	19.98	21.64559	100	0	54	17.16322	17.08973	-39.59237	
18:49:03	47.45625	-122.3119	51.229	49.89605	476.7458	17.64	19.255	100	0	54	-11.0298	14.8596	-39.6878	
18:49:05	47.45642	-122.3122	58.028	57.60618	416.2697	16.9	17.79981	100	0	55	-9.323425	13.21364	-51.97818	
18:49:07	47.45658	-122.3125	64.63	64.48831	423.0271	16.49	17.01055	100	0	55	2.302565	14.10233	-57.21276	
18:49:09	47.45671	-122.3127	70.32	70.55129	314.5931	16.2	16.33971	100	0	52	30.7278	12.19368	-40.44355	
18:49:10	47.45694	-122.3129	75.483	75.55776	335.5545	15.84	15.66189	100	0	52	25.03356	13.7781	-5.8625	
18:49:12	47.45717	-122.3129	80.694	80.79955	338.5379	14.92	15.2488	100	0	52	-3.401558	15.22068	6.13061	
18:49:14	47.45738	-122.3129	85.198	85.53008	273.3056	14.73	14.93084	100	0	54	-11.84821	14.00169	-4.664121	
18:49:15	47.45764	-122.313	90.843	90.29752	300.8238	14.71	14.52063	100	0	58	-2.501673	15.04948	-14.8161	
18:49:17	47.45782	-122.313	95.38	95.35818	313.4584	14.86	14.60941	100	0	62	6.113832	15.55052	-12.168	
18:49:19	47.45807	-122.3131	101.394	101.1132	355.263	15.32	15.01641	100	0	67	3.985038	16.09388	-5.959421	
18:49:20	47.45832	-122.3131	108.046	107.1768	386.7474	15.93	15.52002	100	0	71	-1.507692	16.32024	-4.658391	
18:49:22	47.45855	-122.3131	114.447	114.2113	429.1006	16.53	16.19363	100	0	74	-2.941317	16.58084	-6.683105	
18:49:24	47.45877	-122.3131	121.107	121.5397	447.7393	17.15	16.87045	100	0	77	-13.95844	16.25057	-13.05693	
18:49:26	47.45904	-122.3132	129.568	129.3775	479.0374	17.96	17.86577	100	0	79	-21.05456	15.9984	-29.15276	
18:49:27	47.45929	-122.3135	138.722	138.2617	401.0675	18.63	18.77009	100	0	56	-13.38603	10.94041	-43.60211	
18:49:29	47.4595	-122.3138	144.524	143.9982	190.2661	18.75	18.82352	100	0	35	-5.090851	3.474877	-49.25492	
18:49:31	47.45966	-122.3141	146.134	146.2451	60.0231	18.61	18.68523	100	0	26	-1.960668	-0.8023094	-51.18777	
18:49:32	47.45985	-122.3144	146.175	146.5401	32.10958	18.56	18.51029	100	0	24	-1.010993	-0.9504488	-51.68764	
18:49:34	47.46001	-122.3147	146.268	146.5553	39.61794	18.38	18.24712	100	0	24	-1.091451	0.1851061	-52.10936	
18:49:36	47.4602	-122.315	146.976	147.1009	60.46692	17.91	17.76048	100	0	24	-0.706398	1.387941	-52.32841	
18:49:37	47.46038	-122.3154	148.006	147.8988	51.89091	17.37	17.16148	100	0	24	-0.6959901	1.492944	-52.32108	
18:49:39	47.46053	-122.3157	148.593	148.3409	-94.605	16.84	16.54966	100	0	4	24.7719	-4.742167	-44.87445	
18:49:41	47.46075	-122.3159	143.618	144.3087	-399.3529	17.23	16.59927	100	0	4	29.96367	-14.78093	-17.68518	
18:49:42	47.46098	-122.3159	135.858	136.4518	-393.6823	18.99	18.3601	100	0	4	20.71924	-11.6054	9.347814	
18:49:44	47.46103	-122.3159	134.403	132.895	-90.05674	19.28	18.04243	100	0	4	7.330409	-1.653911	25.42816	
18:49:46	47.46103	-122.3159	134.403	135.2544	230.098	19.28	17.38138	100	0	4	-1.563521	8.703016	33.36404	
18:49:48	47.46103	-122.3159	134.403	136.7368	255.351	19.28	16.75338	100	0	4	-7.429159	16.4853	37.99919	
18:49:49	47.46103	-122.3159	134.403	136.228	115.45	19.28	16.75338	100	0	4	-12.05479	21.56209	40.1226	
18:49:51	47.46103	-122.3159	134.403	134.8544	-37.69051	19.28	16.00158	100	0	4	-15.19958	25.4469	42.54667	
18:49:53	47.46103	-122.3159	134.403	133.5831	-145.8259	19.28	16.00158	100	0	9	-17.32235	28.17148	45.12706	
18:49:54	47.46103	-122.3159	134.403	132.7951	-186.161	19.28	16.21329	100	0	10	-19.31037	27.72206	45.06132	
18:49:56	47.46103	-122.3159	134.403	132.6194	-176.9593	19.28	16.73527	100	0	5	-20.8313	27.34719	44.78672	
18:49:58	47.46103	-122.3159	134.403	132.7269	-158.7637	19.28	17.09379	100	0	4	-21.98144	26.96202	44.31129	
18:49:59	47.46103	-122.3159	134.403	132.9932	-116.2914	19.28	17.39791	100	0	4	-22.68115	23.30943	40.8245	
18:50:01	47.46103	-122.3159	134.403	133.5307	-52.73986	19.28	17.79891	100	0	4	-22.9933	20.52733	36.94618	
18:50:03	47.46117	-122.3159	127.368	128.7337	-1383.226	17.04	14.40078	100	0	32	59.16214	-26.33749	19.76171	
18:50:05	47.46135	-122.3159	104.482	105.6978	-1218.959	21.51	26.06343	100	0	4	26.4866	-13.06156	54.67236	
18:50:06	47.46149	-122.3155	72.285	69.90372	-1337.474	22.78	27.79922	100	0	12	-4.169507	-8.4386	44.01808	
18:50:08	47.46182	-122.3149	44.587	50.96678	-433.2143	30.24	29.18193	100	0	4	-47.99817	-3.068112	11.83578	
18:50:10	47.46222	-122.3148	43.702	43.58135	187.2463	25.05	18.94135	100	0	47	-32.23524	2.966415	-31.61612	
18:50:11	47.46257	-122.315	64.849	58.51015	1011.06	12.68	6.809823	100	0	76	-17.66878	16.37415	-75.83646	
18:50:13	47.46268	-122.3151	80.219	76.57696	607.5105	13.48	7.650013	100	0	84	-2.341081	8.569922	-97.73744	
18:50:15	47.46281	-122.3153	89.295	87.01742	417.5475	14.93	8.31408	100	0	92	11.07616	-0.1700686	-93.84677	
18:50:16	47.46303	-122.3155	97.8	94.81854	94.44164	18.24	10.66226	100	0	84	16.60485	-12.0609	-72.36199	
18:50:18	47.46331	-122.3156	101.673	100.6111	165.1796	21.34	14.92306	100	0	57	10.31899	-8.862773	-51.3106	
18:50:20	47.46365	-122.3155	102.823	103.517	129.9811	22.23	16.6932	100	0	40	-5.808044	-9.769954	-41.0026	
18:50:21	47.464	-122.3154	102.673	103.4962	62.97647	22.05	15.79487	100	0	43	-12.36773	-11.67343	-41.30526	
18:50:23	47.46434	-122.3154	102.932	103.2407	95.19186	22.08	18.89107	100	0	30	-10.82824	-11.68402	-47.19249	
18:50:25	47.46464	-122.3154	105.508	105.936	273.9174	19.78	19.82167	100	0	6	-1.932809	-10.40526	-55.3657	
18:50:27	47.46492	-122.3155	108.769	109.029	126.4445	16.49	18.58394	100	0	4	7.16043	-16.27074	-63.74181	
18:50:28	47.46514	-122.3156	108.617	108.7505	-86.93023	15.35	17.32808	100	0	4	11.80347	-20.37199	-66.01218	
18:50:30	47.46536	-122.3157	106.491	106.1952	-190.6853	15.19	15.26368	100	0	13	12.29974	-20.25541	-59.61841	
18:50:32	47.46561	-122.3157	103.908	103.4157	-195.6374	15.82	14.00778	100	0	24	10.6457	-17.40944	-48.30339	
18:50:33	47.46587	-122.3157	102.439	101.6926	-153.1672	16.86	12.91152	100	0	33	7.317406	-14.89241	-36.20842	
18:50:35	47.46614	-122.3157	100.881	100.3698	-153.7842	18.33	13.1097	100	0	36	2.755605	-15.08637	-27.52187	
18:50:37	47.46641	-122.3156	98.892	98.70481	-73.9491	19.8	15.28042	100	0	32	0.1363085	-12.11533	-22.03333	
18:50:38	47.46669	-122.3156	98.6	98.77081	27.5698	19.8	16.32131	100	0	29	0.3439079	-9.587405	-17.63602	
18:50:40	47.46701	-122.3155	98.206	98.66701	30.19162	19.41	17.49949	100	0	21	2.614471	-8.927212	-14.1908	
18:50:42	47.4673	-122.3155	97.867	98.1619	-32.42587	18.88	16.26505	100	0	29	4.135262	-10.08203	-10.16638	
18:50:44	47.46763	-122.3155	96.495	96.96041	-79.93262	19.21	16.88274	100	0	6	27.89634	-10.91402	-2.930498	
18:50:45	47.46788	-122.3155	92.637	92.82487	-375.3058	18.96	13.9855	100	0	19	37.98685	-20.10443	30.16408	
18:50:47	47.46809	-122.3151	84.789	86.27885	-322.3581	20.59	14.88319	100	0	19	37.76125	-17.71508	75.1338	
18:50:49	47.46809	-122.3147	76.943	79.32655	-148.6793	21.41	18.77979	100	0	7	31.5293	-11.69624	120.4873	
18:50:50	47.46791	-122.3143	73.675	76.04842	158.2506	19.42	19.49072	69	0	11	-0.3174949	0.6334015	147.1084	
18:50:52	47.46772	-122.3141	74.572	74.9602	-32.21665	16.88	16.39365	71	0	38	-25.6966	0.1778	132.2759	
18:50:54	47.4676	-122.3137	74.336	74.63544	82.22292	17.25	14.68066	72	0	50	-20.076	4.700946	100.2423	
18:50:55	47.4676	-122.3134	75.749	76.09971	87.96812	17.91	15.32253	74	0	44	2.077632	3.898324	86.88474	
18:50:57	47.46764	-122.3129	76.962	77.08257	71.64039	18.21	15.61557	75	0	43	10.3359	3.646687	90.12199	
18:50:59	47.46767	-122.3125	78.417	78.20231	70.12264	17.89	16.53739	77	0	36	8.667173	3.58512	95.97078	
18:51:01	47.46767	-122.3121	79.995	79.5777	41.75294	17.07	16.36621	78	0	33	5.744977	2.436943	99.14114	
18:51:02	47.46767	-122.3117	80.609	80.42074	5.409113	16.58	16.08384	79	0	31	3.889697	1.161152	99.72759	
18:51:04	47.46766	-122.3113	80.677	80.60519	-10.54044	16.31	15.93107	80	0	30	4.114904	0.9094909	99.43906	
18:51:06	47.46766	-122.311	80.544	80.49368	-9.589207	16.15	15.80369	82	0	30	4.671214	1.286375	99.60911	
18:51:07	47.46766	-122.3106	80.368	80.36121	-12.6118	15.95	15.63871	83	0	31	4.596378	1.618988	100.0469	
18:51:09	47.46766	-122.3102	80.306	80.22318	-12.71628	15.84	15.61129	84	0	31	4.204886	1.896374	100.5618	
18:51:11	47.46765	-122.3099	80.135	80.14029	-11.71666	15.74	15.55539	85	0	31	3.625612	2.047719	100.7332	
18:51:12	47.46764	-122.3096	79.765	79.79801	-18.66742	15.67	15.49458	85	0	31	2.882343	2.422965	100.2703	
18:51:14	47.46764	-122.3092	79.366	79.42924	-18.98329	15.67	15.49512	86	0	32	2.597401	2.791621	99.60473	
18:51:16	47.46763	-122.3089	79.118	79.12885	-10.30281	15.69	15.51875	87	0	33	2.291113	3.386887	99.10192	
18:51:17	47.46762	-122.3085	79.168	79.10803	-2.926329	15.67	15.49815	88	0	33	1.964871	3.68338	98.32784	
18:51:19	47.46761	-122.3081	78.954	79.09158	22.81778	16.03	15.79295	49	0	41	1.447222	4.806367	97.44055	
18:51:21	47.46761	-122.3078	79.564	79.57725	34.86134	16.16	16.00198	51	0	39	15.14476	5.467407	97.73334	
18:51:23	47.46756	-122.3074	79.363	79.0841	-164.427	16.68	17.33515	52	0	48	41.82798	-1.152315	125.5499	
18:51:24	47.46735	-122.3072	80.17	79.18126	51.34381	15.82	17.22884	54	0	41	39.97878	4.981246	-179.7131	
18:51:26	47.46716	-122.3073	82.638	82.00899	133.326	14.64	16.08755	56	0	30	20.28181	5.81696	-137.3908	
18:51:28	47.46699	-122.3075	84.609	84.38372	45.56756	13.9	15.35532	58	0	23	-11.79241	0.6168795	-126.8096	
18:51:29	47.46685	-122.3077	83.646	83.87891	-89.02312	14.35	15.39755	60	0	24	-26.54299	-3.775197	-149.0673	
18:51:31	47.46666	-122.3078	81.363	82.02786	-27.22524	15.09	15.78561	62	0	26	-22.33782	-0.2594585	177.4293	
18:51:33	47.46642	-122.3077	80.05	80.80342	37.34866	14.91	15.39647	63	0	28	-2.360872	4.471124	159.2349	
18:51:34	47.46622	-122.3076	79.933	80.0136	-41.39425	14.51	14.90789	65	0	32	14.03334	3.609735	166.054	
18:51:36	47.46596	-122.3076	79.44	79.32511	-17.99758	14.82	14.80485	67	0	34	13.49986	4.991101	-177.0809	
18:51:38	47.46578	-122.3076	79.701	79.57735	11.40575	14.84	15.01036	68	0	33	2.150949	5.493517	-168.5608	
18:51:40	47.46555	-122.3077	80.015	79.86919	-11.62987	14.9	15.2471	70	0	31	-6.713021	4.077072	-173.0486	
18:51:41	47.46531	-122.3077	79.498	79.58559	-17.48968	15.17	15.14191	72	0	32	-6.29194	3.658466	177.6447	
18:51:43	47.46507	-122.3077	78.8	79.10674	-5.897722	15.43	15.32976	73	0	33	-0.6288713	4.469103	172.6755	
18:51:45	47.46482	-122.3077	78.643	78.70118	-2.541484	15.5	15.37515	74	0	34	4.045821	5.266087	174.1466	
18:51:46	47.46458	-122.3077	78.711	78.68524	4.985631	15.54	15.34884	76	0	35	3.858145	5.702317	177.9959	
18:51:48	47.46436	-122.3077	78.879	78.85963	5.131152	15.58	15.36073	77	0	35	0.855351	5.56737	-179.9586	
18:51:50	47.4641	-122.3077	78.959	78.96456	2.979358	15.65	15.42452	78	0	34	-1.418588	5.381411	179.0416	
18:51:51	47.46389	-122.3077	78.893	78.9593	1.889127	15.69	15.48546	80	0	34	-1.40961	5.429327	177.0786	
18:51:53	47.46364	-122.3077	78.844	78.84045	-31.62148	15.69	15.5409	81	0	38	-26.38118	4.993246	170.4202	
18:51:55	47.4634	-122.3076	78.096	78.41129	60.4409	15.92	16.09785	82	0	34	6.975757	7.678414	150.5609	
18:51:57	47.46317	-122.3075	78.386	78.17682	-81.06074	15.89	15.27157	83	0	46	39.18345	3.856268	-179.6298	
18:51:58	47.46296	-122.3077	78.355	78.1105	42.38823	16.62	15.7492	84	0	49	44.16166	7.892753	-124.6132	
18:52:00	47.4629	-122.308	80.763	80.18008	108.3456	16.39	15.98557	85	0	42	43.30466	8.879612	-70.14768	
18:52:02	47.46304	-122.3083	83.746	83.06711	80.17632	15.82	16.07088	86	0	28	39.0577	4.868223	-21.93961	
18:52:03	47.46328	-122.3083	84.811	84.88874	73.42632	15.12	16.08432	87	0	14	15.93428	2.745208	13.75181	
18:52:05	47.46349	-122.3082	84.568	84.88141	-49.22758	14.44	15.50318	88	0	12	-6.277493	-1.23649	17.90791	
18:52:07	47.46369	-122.3081	82.709	83.06951	-78.61977	14.8	15.69514	88	0	14	11.36505	-1.210831	13.78038	
18:52:08	47.46391	-122.308	80.621	81.00386	-101.6125	15.22	15.41555	89	0	25	33.33091	-0.9547423	44.31709	
18:52:10	47.46402	-122.3077	78.72	79.30901	-10.32729	15.66	15.64539	90	0	30	38.4441	3.528064	92.701	
18:52:12	47.46393	-122.3074	77.961	78.51677	24.88211	15.05	15.13067	90	0	36	39.95763	6.504081	145.9505	
18:52:13	47.46375	-122.3073	78.338	78.44843	50.56918	14.4	14.48087	91	0	35	31.28347	9.381943	-163.8012	
18:52:15	47.46354	-122.3074	80.184	79.68179	80.92174	15.52	14.51001	92	0	99	-2.731637	7.960731	-144.5215	
18:52:17	47.46331	-122.3077	83.871	83.24181	188.2669	20.95	20.62491	92	0	99	-13.21168	5.815572	-151.94	
18:52:19	47.46302	-122.3079	87.272	87.23612	313.394	24.56	24.51153	93	0	99	17.89834	7.660137	-157.1224	
18:52:20	47.46267	-122.3082	92.681	91.98096	221.9053	25.92	25.99552	93	0	82	30.98709	4.83028	-142.541	
18:52:22	47.46243	-122.3086	95.503	95.36835	162.6036	26.9	26.71265	93	0	82	44.91126	3.329967	-110.5425	
18:52:24	47.46238	-122.3092	99.274	99.04038	212.238	27.62	26.94889	94	0	83	45.82361	3.30022	-72.96681	
18:52:25	47.4626	-122.3098	102.923	102.8317	264.4103	28.38	28.25458	94	0	82	5.033081	2.904146	-47.14019	
18:52:27	47.46292	-122.3103	106.282	105.8767	160.4565	29	28.80351	95	0	82	-1.06041	0.8639678	-46.13579	
18:52:29	47.46319	-122.3107	108.665	108.6789	159.3019	29.41	29.23317	95	0	82	-0.9527019	0.532925	-45.71272	
18:52:30	47.46349	-122.3111	111.299	111.3407	159.358	29.74	29.71171	95	0	82	-0.6683612	0.4276566	-45.38196	
18:52:32	47.46386	-122.3117	114.583	114.3629	177.2717	29.99	29.90888	96	0	82	-0.5655979	0.3663093	-44.84451	
18:52:34	47.46417	-122.3122	117.377	117.166	170.9997	30.09	29.90451	96	0	14	-0.4852064	0.2475349	-44.25366	
18:52:35	47.46449	-122.3126	119.428	119.296	52.06958	26.11	26.10969	96	0	14	1.059475	-2.662272	-42.85394	
18:52:37	47.46473	-122.313	119.477	119.7102	21.2292	23.77	23.17077	96	0	80	-0.1998943	-3.27413	-43.17222	
18:52:39	47.46501	-122.3133	119.516	119.9253	173.8432	25.6	24.20808	97	0	99	-2.711529	1.716054	-44.60155	
18:52:41	47.4653	-122.3138	123.677	123.5608	277.494	28.59	28.26705	97	0	98	-1.256191	2.733676	-45.59914	
18:52:42	47.46564	-122.3143	129.453	128.4959	271.3779	30.01	29.78452	97	0	100	-0.6257862	2.028493	-45.47445	
18:52:44	47.46592	-122.3147	133.625	133.6632	261.45	30.78	30.52015	97	0	99	-0.6401991	1.468755	-44.91019	
18:52:46	47.46634	-122.3153	138.881	138.1774	252.6706	31.55	31.30077	97	0	99	-0.3487373	0.9508179	-44.27238	
18:52:47	47.46666	-122.3157	142.529	142.3277	237.0782	31.96	31.71682	97	0	99	-0.3895684	0.7180149	-43.43862	
18:52:49	47.46704	-122.3162	145.982	145.9196	205.1574	32.31	32.02491	98	0	99	-0.3942895	0.4555168	-42.52283	
18:52:51	47.46738	-122.3166	148.84	148.8648	180.7968	32.52	32.22152	98	0	99	-0.2030917	0.2949862	-41.54255	
18:52:52	47.46781	-122.3172	151.782	151.4745	166.6409	32.71	32.38179	98	0	99	-0.5032624	0.3185297	-40.6587	
18:52:54	47.46815	-122.3176	155.192	154.9622	348.9361	29.1	31.99595	98	0	4	52.86256	7.58315	-30.94048	
18:52:56	47.46848	-122.3177	160.347	159.0503	-19.92857	23.19	22.92753	98	0	4	46.27789	-3.657429	3.795461	
18:52:58	47.46885	-122.3176	159.111	158.3815	-348.6593	20.28	20.6714	98	0	4	40.14158	-16.87955	35.12658	
18:52:59	47.46904	-122.3173	150.581	151.6589	-512.2937	20.56	21.38295	98	0	4	37.16689	-19.68127	71.64044	
18:53:01	47.46908	-122.3168	138.061	140.4862	-535.5703	22.06	22.99766	98	0	4	33.63639	-14.98564	108.2446	
18:53:03	47.4689	-122.3163	125.694	128.863	-406.0634	23.31	24.20737	98	0	4	15.91205	-7.003531	132.9632	
18:53:04	47.46866	-122.316	118.759	119.5915	-421.8273	22.67	23.95185	99	0	4	-5.252338	-4.192437	136.0328	
18:53:06	47.4684	-122.3157	112.509	112.2564	-471.6355	21.71	22.69548	99	0	4	-7.304551	-6.377069	130.436	
18:53:08	47.46819	-122.3153	105.496	105.308	-482.6029	21.32	21.7661	99	0	4	-2.755351	-8.568426	127.7286	
18:53:09	47.46796	-122.315	97.042	97.59731	-481.3456	21.31	21.52315	99	0	4	-0.05776458	-9.040407	128.3671	
18:53:11	47.46775	-122.3146	90.595	91.08183	-260.0314	20.9	21.08644	99	0	4	-0.3873951	-2.271367	129.9165	
18:53:13	47.46756	-122.3143	88.004	87.62017	-181.23	19.25	19.08386	99	0	6	-1.192876	0.1030538	130.7907	
18:53:14	47.46736	-122.314	85.761	85.39548	-162.043	17.61	17.56831	99	0	17	-1.721173	0.3905372	131.1253	
18:53:16	47.46719	-122.3137	83.904	83.88754	-77.6245	16.87	16.66309	99	0	22	-1.621964	2.703314	130.7232	
18:53:18	47.467	-122.3134	83.125	83.06705	-46.87762	16.08	15.95453	99	0	25	-1.022708	3.893353	130.4436	
18:53:20	47.46685	-122.3131	82.66	82.5814	-39.15287	15.63	15.43384	99	0	27	-0.4997495	4.128976	130.9222	
18:53:21	47.4667	-122.3129	82.108	82.04641	-39.98193	15.37	15.15796	99	0	28	-0.3892695	4.146205	131.6366	
18:53:23	47.46655	-122.3126	81.439	81.40676	-40.73283	15.2	14.97685	99	0	30	-0.5126112	4.327536	132.1733	
18:53:25	47.4664	-122.3124	80.79	80.78325	-33.54731	15.14	14.90459	99	0	31	-0.7551839	4.814201	132.3858	
18:53:26	47.46623	-122.3121	80.383	80.38023	-22.11534	15.06	14.84706	99	0	32	-0.7621749	5.290847	132.3354	
18:53:28	47.46608	-122.3119	80.164	80.13319	-17.14672	15.02	14.79253	99	0	33	-0.5106832	5.471379	132.343	
18:53:30	47.46593	-122.3116	79.986	79.97192	-14.25369	15.02	14.79084	99	0	33	-0.3718804	5.476984	132.5407	
18:53:31	47.46578	-122.3114	79.902	79.83751	-12.29922	15.04	14.83231	99	0	34	-0.492573	5.505096	132.8043	
18:53:33	47.46562	-122.3111	79.734	79.75649	-9.500096	15.08	14.87018	99	0	34	-0.6766125	5.528497	132.7062	
18:53:35	47.46546	-122.3109	79.727	79.67332	-7.826437	15.11	14.90087	99	0	34	-0.6823909	5.606361	132.492	
18:53:36	47.46531	-122.3106	79.667	79.61095	-3.503094	15.15	14.94489	99	0	35	-0.5747203	5.796806	132.3864	
18:53:38	47.46515	-122.3103	79.636	79.66446	0.09769413	15.15	14.94045	99	0	35	-0.4786791	5.835441	132.3777	
18:53:40	47.46508	-122.3102	79.657	79.64291	-4.43444	15.17	14.9542	99	0	35	-0.4997515	5.668322	132.3412	
18:53:42	47.46484	-122.3098	79.716	79.67529	1.349178	15.21	14.99537	99	0	35	-0.7476175	5.838719	132.4028	
18:53:43	47.46468	-122.3096	79.73	79.73931	-1.757993	15.22	14.9886	99	0	35	-0.8271135	5.683055	132.1012	
18:53:45	47.46454	-122.3093	79.756	79.75388	0.2596579	15.24	15.0212	99	0	35	-0.6859525	5.786688	131.6964	
18:53:47	47.46438	-122.3091	79.808	79.7404	-1.881771	15.26	15.03766	99	0	35	-0.7748047	5.757488	131.3713	
18:53:48	47.46425	-122.3089	79.771	79.75218	-0.5577123	15.27	15.05585	99	0	35	-0.6290121	5.823138	131.0424	
18:53:50	47.46409	-122.3086	79.814	79.78402	0.6730255	15.29	15.06521	99	0	35	-0.8689185	5.862349	130.6299	
18:53:52	47.46393	-122.3083	79.795	79.80311	-5.940867	15.29	15.06074	99	0	35	-11.50859	5.725856	126.3983	
18:53:53	47.46382	-122.308	79.62	79.53989	-31.89266	15.47	15.13059	99	0	38	-26.26391	4.895621	105.2164	
18:53:55	47.46379	-122.3077	79.685	79.55184	59.02628	15.65	15.36579	99	0	34	-8.03031	8.114547	78.34218	
18:53:57	47.46382	-122.3074	81.261	80.6529	-66.087	15.07	14.43265	99	0	41	36.23915	3.225604	97.82137	
18:53:59	47.46373	-122.307	79.032	79.62365	-20.74122	16.54	15.89952	99	0	43	43.10902	4.571625	152.552	
18:54:00	47.46348	-122.307	77.163	78.06493	16.8662	17.25	17.24648	99	0	42	45.33679	7.846818	-149.5641	
18:54:02	47.46331	-122.3072	78.469	78.10465	63.68955	16.58	16.91801	99	0	38	37.77707	10.66634	-95.63632	
18:54:04	47.46333	-122.3075	82.687	81.75382	144.6532	14.74	15.31749	99	0	28	10.05378	11.28561	-68.11359	
18:54:05	47.46342	-122.3079	86.349	85.14563	-10.41019	13.67	14.53173	99	0	18	8.068268	0.6957858	-66.35291	
18:54:07	47.46354	-122.3081	85.044	85.14972	-101.148	14.38	14.92853	99	0	18	30.53444	-4.292738	-40.51529	
18:54:09	47.46376	-122.3083	82.362	83.19643	-51.16262	15.45	15.60003	99	0	22	35.98064	-1.195614	3.924828	
18:54:10	47.46395	-122.3081	80.863	81.6165	-1.797947	15.69	15.59057	99	0	26	38.31765	2.509807	53.48309	
18:54:12	47.46404	-122.3078	79.899	80.57211	6.079532	15.35	15.06837	99	0	30	38.17804	5.131268	103.6318	
18:54:14	47.46394	-122.3076	79.69	80.02304	26.02704	14.62	14.30574	99	0	31	28.93749	7.710773	147.6464	
18:54:15	47.46373	-122.3074	80.264	80.07098	-17.36274	13.79	14.02445	99	0	31	21.66798	6.712717	175.4693	
18:54:17	47.46351	-122.3075	79.861	79.62087	-87.38573	14.02	14.33606	99	0	33	30.47238	3.596218	-153.2751	
18:54:19	47.46337	-122.3076	79.109	78.95985	-29.58165	14.59	14.7755	99	0	36	34.91013	4.936075	-108.4179	
18:54:21	47.46336	-122.308	79.706	79.39101	38.11148	14.88	14.87254	99	0	35	36.59168	6.420648	-60.39159	
18:54:22	47.46351	-122.3082	81.221	80.81989	59.33527	14.88	14.75577	99	0	31	35.87317	5.49493	-14.47563	
18:54:24	47.46375	-122.3082	81.962	81.98659	35.48306	14.96	14.80302	99	0	27	35.05291	3.309977	29.49935	
18:54:26	47.4639	-122.308	81.136	81.78651	-12.41473	15.11	14.9829	99	0	27	34.69156	2.040298	71.82363	
18:54:27	47.46391	-122.3077	79.38	80.2347	-42.5888	15.38	15.37391	99	0	28	34.40205	3.525671	114.8809	
18:54:29	47.46377	-122.3074	77.614	78.12003	-62.26979	15.45	15.4476	99	0	35	35.85221	5.657337	158.7207	
18:54:31	47.46352	-122.3074	77.121	76.97861	-21.38776	15.32	15.39891	99	0	40	37.20055	8.775887	-155.613	
18:54:32	47.46336	-122.3076	78.889	77.75174	26.80062	14.87	14.91542	99	0	41	37.06276	10.12106	-110.1097	
18:54:34	47.46334	-122.3078	80.872	80.05989	46.01315	14.63	14.66958	99	0	35	35.10807	7.889784	-66.63317	
18:54:36	47.4635	-122.3082	82.991	82.28179	26.67884	14.68	14.76364	99	0	27	33.77687	3.405008	-24.67762	
18:54:37	47.46367	-122.3082	82.855	82.9111	-4.313037	14.92	15.05218	99	0	23	33.36769	0.8425131	16.92136	
18:54:39	47.4639	-122.308	80.907	81.88503	-31.54325	15.46	15.2941	99	0	24	34.02983	1.186089	58.65133	
18:54:41	47.46396	-122.3077	78.488	79.66318	-46.90374	15.88	15.62573	99	0	30	36.3701	3.221117	101.5703	
18:54:43	47.46385	-122.3074	77.156	77.76263	-24.82113	15.68	15.66114	99	0	36	37.59566	7.125556	147.0556	
18:54:44	47.46363	-122.3073	77.657	77.24124	-8.036892	14.98	15.05627	99	0	41	37.52518	9.305586	-167.237	
18:54:46	47.46345	-122.3074	79.456	78.57453	31.24591	14.38	14.72924	99	0	38	35.24129	9.403409	-122.4221	
18:54:48	47.46339	-122.3078	81.385	80.46217	21.41503	14.29	14.62272	99	0	32	33.87506	5.771405	-77.81526	
18:54:49	47.46347	-122.308	82.039	81.81127	23.11173	14.56	14.6855	99	0	28	33.47806	2.833292	-34.18118	
18:54:51	47.46369	-122.3081	81.738	82.08804	18.93777	15.05	14.94047	99	0	25	33.88826	1.889871	8.573504	
18:54:53	47.46389	-122.308	80.827	81.42092	4.181965	15.35	15.17001	99	0	26	34.73072	2.17326	51.4539	
18:54:54	47.46399	-122.3077	79.477	80.203	-8.265538	15.39	15.09653	99	0	30	35.6287	3.606346	95.61315	
18:54:56	47.46391	-122.3074	78.354	78.90585	-19.93786	15.2	15.10619	99	0	33	35.95665	5.412013	141.2331	
18:54:58	47.4637	-122.3073	77.95	78.04984	-13.30839	14.9	14.98565	99	0	37	36.00926	6.85445	-171.6779	
18:55:00	47.46351	-122.3074	78.663	78.36617	36.04933	14.54	14.73906	99	0	36	31.36787	8.544497	-127.5897	
18:55:01	47.46341	-122.3077	80.509	79.66183	21.64005	14.18	14.57323	99	0	33	29.61352	6.891208	-90.9054	
18:55:03	47.46346	-122.308	80.987	80.63867	-3.834439	14.69	14.86722	99	0	31	33.76295	3.417398	-49.56502	
18:55:05	47.46366	-122.3082	80.809	81.00086	24.68583	15.39	15.29547	99	0	29	35.67706	3.246948	-5.489164	
18:55:06	47.46384	-122.3081	80.708	81.07169	30.0014	15.51	15.17844	99	0	28	35.92019	3.843193	38.54065	
18:55:08	47.46401	-122.3079	80.189	80.64755	4.688752	15.46	15.36077	99	0	28	35.81173	4.059764	82.76653	
18:55:10	47.46399	-122.3075	79.444	79.82574	-26.64854	15.14	15.04394	99	0	32	35.90518	4.174332	126.6776	
18:55:11	47.46381	-122.3073	78.477	78.7784	-21.6478	14.98	15.18611	99	0	34	34.58883	5.546828	172.992	
18:55:13	47.46361	-122.3073	78.654	78.59814	16.42265	14.54	14.83339	99	0	34	28.51993	7.490344	-145.9882	
18:55:15	47.46345	-122.3076	79.718	79.28003	-3.094675	14.25	14.55216	99	0	35	30.93848	5.933352	-110.0294	
18:55:16	47.46342	-122.3079	80.414	79.99252	10.01401	14.62	14.74174	99	0	34	34.08266	4.59612	-67.22797	
18:55:18	47.46354	-122.3081	81.022	80.92657	43.69723	14.95	14.93953	99	0	30	35.20305	4.233778	-21.51975	
18:55:20	47.46378	-122.3082	81.421	81.60058	33.59854	15.14	14.99478	99	0	28	35.31868	3.302255	22.91901	
18:55:22	47.46395	-122.308	80.876	81.36824	2.059401	15.27	15.14279	99	0	27	35.23127	2.983698	67.06712	
18:55:23	47.46399	-122.3077	79.71	80.20052	-36.90839	15.28	15.22964	99	0	30	35.33235	3.562344	111.0155	
18:55:25	47.46386	-122.3074	78.359	78.77638	-45.95972	15.22	15.13589	99	0	35	35.71696	5.28329	155.8126	
18:55:27	47.46365	-122.3073	77.739	77.79336	-8.186785	15.2	15.31481	99	0	37	35.14612	7.677059	-157.7799	
18:55:28	47.46346	-122.3075	78.866	78.28973	10.44452	14.77	15.03745	99	0	38	35.64119	8.161673	-113.6431	
18:55:30	47.46342	-122.3079	80.783	79.87067	28.17058	14.59	14.75665	99	0	35	35.28853	6.528636	-69.91006	
18:55:32	47.46356	-122.3081	82.29	81.63325	32.53532	14.67	14.82744	99	0	29	34.46519	4.200291	-26.04681	
18:55:33	47.46376	-122.3082	82.524	82.51929	7.604348	14.85	14.82981	99	0	26	33.96064	2.040578	16.43551	
18:55:35	47.46395	-122.308	81.49	82.03812	-22.5645	15.18	15.07155	99	0	25	34.05854	1.6193	58.61914	
18:55:37	47.46402	-122.3077	79.816	80.48927	-40.5629	15.42	15.18848	99	0	29	34.48017	3.148742	101.2179	
18:55:39	47.46394	-122.3074	78.212	78.65801	-41.8732	15.53	15.29766	99	0	34	36.19922	5.2958	145.9595	
18:55:40	47.46371	-122.3073	77.57	77.62872	-7.271157	15.25	15.29834	99	0	37	35.04733	7.779196	-167.9338	
18:55:42	47.4635	-122.3074	79.074	78.34582	36.11806	14.49	14.83036	99	0	36	30.40268	9.213597	-128.1643	
18:55:44	47.46341	-122.3077	80.864	79.89707	-4.84827	14.19	14.5861	99	0	33	31.33788	6.059879	-91.40786	
18:55:45	47.46346	-122.308	81.51	81.04156	2.798421	14.63	14.83908	99	0	30	33.86814	3.289411	-48.70305	
18:55:47	47.46364	-122.3082	81.556	81.65463	24.899	15.1	15.02116	99	0	27	34.87904	2.512305	-4.422106	
18:55:49	47.46388	-122.3081	81.074	81.56746	18.54428	15.36	15.13652	99	0	27	35.27822	2.57834	39.65892	
18:55:50	47.46401	-122.3078	80.052	80.77002	-6.538893	15.38	15.30617	99	0	28	35.37244	3.431282	84.28735	
18:55:52	47.46398	-122.3075	79.05	79.50634	-37.53748	15.26	15.07877	99	0	32	35.36214	4.972959	128.4032	
18:55:54	47.46377	-122.3073	77.952	78.26264	-26.89437	15.15	15.06639	99	0	36	34.59985	6.602643	173.043	
18:55:55	47.46357	-122.3074	78.453	78.11115	9.798689	14.73	15.08503	99	0	36	32.24472	8.83796	-145.2381	
18:55:57	47.46342	-122.3076	80.006	79.05254	-10.51588	14.41	14.68414	99	0	36	33.48298	6.980875	-105.7222	
18:55:59	47.46342	-122.3079	81.037	80.30821	13.31718	14.6	14.60198	99	0	34	34.07805	5.290707	-62.58236	
18:56:01	47.46357	-122.3082	81.866	81.58575	33.93166	14.94	14.96179	99	0	21	34.74608	3.602118	-18.55788	
18:56:02	47.46377	-122.3082	82.139	82.79633	220.2442	15.56	15.27415	99	0	64	35.76823	11.36166	29.3986	
18:56:04	47.46394	-122.308	86.785	87.68553	448.7068	15.29	15.00512	99	0	64	38.62121	21.17313	84.8698	
18:56:06	47.46394	-122.3077	92.656	94.32235	411.3015	13.74	13.65074	99	0	65	4.835872	22.03704	112.626	
18:56:07	47.46384	-122.3073	100.806	99.78625	114.1359	14.52	14.50232	99	0	41	-12.73245	7.937253	105.5799	
18:56:09	47.4638	-122.307	101	100.9861	-43.34944	15.13	15.04479	99	0	29	-4.643227	1.174429	95.14997	
18:56:11	47.46378	-122.3067	98.695	99.17339	-97.96795	15.95	15.72208	99	0	27	3.605749	0.5147659	94.29949	
18:56:12	47.46376	-122.3063	96.735	97.09998	-53.36861	16.28	16.22248	99	0	30	4.842568	3.573987	99.11167	
18:56:14	47.46371	-122.3059	96.211	96.24931	-13.60382	16.01	15.9463	99	0	33	1.256243	5.946304	102.3542	
18:56:16	47.46366	-122.3056	96.508	96.33373	4.653862	15.73	15.53745	99	0	36	-1.307313	6.712464	101.907	
18:56:18	47.46366	-122.3056	96.508	96.50284	8.116809	15.73	15.53745	99	0	36	-2.824281	7.040883	100.5942	
18:56:19	47.46355	-122.3049	97.743	96.67539	15.82518	15.46	15.26229	99	0	38	-3.363369	7.36873	99.83691	
18:56:21	47.46349	-122.3046	98.541	98.30299	41.20308	15.52	15.27242	99	0	34	0.2172147	6.655621	106.9288	
18:56:23	47.4634	-122.3042	98.53	98.70668	10.79849	15.67	15.43436	99	0	33	-6.190696	5.616006	109.3801	
18:56:24	47.46331	-122.3039	98.408	98.53	8.651775	15.73	15.50557	99	0	34	-8.6289	6.064604	104.9386	
18:56:26	47.46326	-122.3037	98.651	98.73733	24.60146	15.62	15.41582	99	0	34	-6.488295	6.783202	99.58728	
18:56:28	47.4632	-122.3033	99.601	99.35442	24.09132	15.36	15.21007	99	0	33	-2.7956	6.342593	96.73505	
18:56:29	47.46314	-122.3029	100.627	100.2541	31.17085	15.27	15.09093	99	0	31	-0.1717329	5.425143	97.69398	
18:56:31	47.4631	-122.3026	101.133	101.0627	21.53704	15.17	14.96745	99	0	29	-1.517703	4.350573	98.10999	
18:56:33	47.46305	-122.3022	101.233	101.3101	6.167881	15.16	14.97613	99	0	27	-1.500216	3.644057	97.14052	
18:56:34	47.46301	-122.3019	101.1	101.1942	0.06837626	15.15	14.97924	99	0	27	-0.3657611	3.658083	96.41159	
18:56:36	47.46299	-122.3016	101.07	101.1021	2.559875	15.11	14.91502	99	0	27	0.6197863	3.879796	96.39381	
18:56:38	47.46295	-122.3012	101.067	101.0911	-1.469898	15.02	14.81243	99	0	27	0.8773223	3.762633	96.97568	
18:56:40	47.46292	-122.3009	101.065	101.0471	-3.212392	14.99	14.7671	99	0	27	0.9036379	3.70764	97.47392	
18:56:41	47.46289	-122.3005	101.014	101.0179	-4.41982	14.97	14.74581	99	0	27	0.9891982	3.599238	97.83676	
18:56:43	47.46286	-122.3002	100.897	100.9161	-8.187377	14.96	14.73754	99	0	27	1.158758	3.458089	98.22316	
18:56:45	47.46283	-122.2999	100.863	100.8054	-5.47752	14.98	14.76077	99	0	27	1.177522	3.536952	98.7845	
18:56:46	47.4628	-122.2995	100.935	100.8733	-0.5565304	14.97	14.76214	99	0	27	1.171763	3.458488	99.31638	
18:56:48	47.46276	-122.2992	100.933	100.9094	-3.223966	15	14.78305	99	0	26	0.2981555	3.181265	99.75092	
18:56:50	47.46273	-122.2989	100.798	100.8833	-7.969064	15.04	14.79084	99	0	26	-8.290257	2.978393	97.87056	
18:56:51	47.46275	-122.2985	100.204	100.3112	-48.47589	15.37	15.02382	99	0	29	-24.30532	1.895589	77.25045	
18:56:53	47.46285	-122.2982	99.577	99.89217	61.6727	15.8	15.3439	99	0	26	3.496181	5.872082	54.58276	
18:56:55	47.46297	-122.2979	99.762	99.6132	-100.1427	15.81	15.26347	99	0	36	40.28366	1.199841	84.55745	
18:56:57	47.4629	-122.2975	97.821	98.53645	4.351859	16.95	16.99853	99	0	36	44.21064	5.066395	139.3838	
18:56:58	47.46269	-122.2974	97.748	97.95522	2.00146	16.37	17.07083	99	0	35	42.8639	7.04905	-166.5807	
18:57:00	47.46248	-122.2976	98.901	98.46239	54.14865	15.15	15.98769	99	0	31	27.15195	9.668089	-124.1962	
18:57:02	47.46239	-122.2979	100.876	100.0695	17.79993	13.93	14.94257	99	0	28	15.33126	7.332071	-105.1272	
18:57:03	47.46237	-122.2982	101.072	100.5942	-90.66698	14.01	14.64281	99	0	30	30.84472	1.865599	-81.33527	
18:57:05	47.46246	-122.2985	99.812	99.82059	-30.92195	14.79	14.92542	99	0	33	35.55649	3.375529	-35.15037	
18:57:07	47.46265	-122.2986	99.919	99.97658	40.05912	14.94	14.6094	99	0	35	37.02644	5.544104	12.84071	
18:57:08	47.46286	-122.2984	101.014	100.9833	66.23087	14.85	14.39306	99	0	32	34.99163	5.690192	60.51948	
18:57:10	47.46292	-122.2981	101.915	102.0128	48.40764	14.58	14.38646	99	0	27	29.34932	4.062341	100.4486	
18:57:12	47.46285	-122.2978	101.601	101.8277	-29.86589	14.55	14.56686	99	0	26	30.78716	1.314954	136.5049	
18:57:14	47.46265	-122.2977	99.88	100.3332	-51.56089	14.97	15.05218	99	0	29	34.11322	1.479316	-179.6858	
18:57:15	47.46243	-122.2977	98.343	98.94097	-7.678385	15.19	15.25056	99	0	33	35.69074	4.1359	-132.082	
18:57:17	47.46232	-122.298	98.115	98.314	16.61748	15.09	15.35888	99	0	36	36.85826	6.57878	-83.31454	
18:57:19	47.46242	-122.2984	99.012	98.68294	35.7226	14.94	15.03451	99	0	37	36.56248	7.425309	-35.33197	
18:57:20	47.4626	-122.2984	100.279	99.85754	40.18694	14.76	14.76942	99	0	35	35.5507	6.769766	9.702154	
18:57:22	47.46281	-122.2983	101.329	100.9668	7.966224	14.79	14.61268	99	0	33	37.69978	4.383313	54.52967	
18:57:24	47.46289	-122.298	100.99	101.1814	-5.097432	15.2	14.80014	99	0	32	39.57291	3.387346	103.3156	
18:57:25	47.46277	-122.2977	99.789	100.4368	-5.690807	15.6	15.35111	99	0	31	37.81027	3.871779	154.9301	
18:57:27	47.46253	-122.2977	98.855	99.42282	-7.998242	15.48	15.61304	99	0	32	37.78522	5.687324	-158.3784	
18:57:29	47.46236	-122.2979	99.128	98.84172	-25.14423	14.98	15.30836	99	0	35	35.49314	7.239893	-116.1235	
18:57:30	47.46232	-122.2982	100.181	99.39205	-15.84297	14.57	14.71689	99	0	36	34.75854	6.691761	-74.16459	
18:57:32	47.46243	-122.2985	101.123	100.5096	4.047431	14.51	14.65453	99	0	32	34.31176	5.320551	-31.19423	
18:57:34	47.46262	-122.2985	101.494	101.2545	0.8488523	14.63	14.54903	99	0	30	33.4521	3.705451	11.57009	
18:57:36	47.46284	-122.2984	101.176	101.329	0.2817824	15.05	14.81165	99	0	28	33.66403	2.929545	53.47964	
18:57:37	47.46292	-122.2981	100.465	100.8732	-5.630593	15.33	15.06485	99	0	29	34.91093	3.077566	96.04461	
18:57:39	47.46285	-122.2978	99.648	100.0256	-12.66128	15.43	15.37138	100	0	31	36.18534	3.816742	140.1915	
18:57:41	47.46262	-122.2976	99.052	99.28275	-10.20745	15.21	15.15052	100	0	33	36.15876	5.177519	-174.6876	
18:57:42	47.46241	-122.2977	99.087	99.01883	-3.290445	14.92	14.97246	100	0	35	36.05281	5.971628	-128.8392	
18:57:44	47.46233	-122.2981	99.577	99.2742	2.807427	14.7	14.995	100	0	34	35.52394	5.972485	-82.93774	
18:57:46	47.46241	-122.2983	100.077	99.81463	9.797183	14.64	14.90486	100	0	33	34.75397	5.527853	-37.89671	
18:57:47	47.46263	-122.2985	100.528	100.3504	12.70257	14.78	14.80709	100	0	32	34.38132	4.596993	6.185683	
18:57:49	47.46283	-122.2983	100.656	100.6879	14.60441	15.03	14.80023	100	0	31	35.22582	3.92384	50.44287	
18:57:51	47.46292	-122.298	100.542	100.7224	10.86916	15.14	15.05155	100	0	29	35.0387	4.064397	94.83161	
18:57:53	47.46284	-122.2977	100.16	100.3922	-11.88616	15.1	14.97	100	0	31	35.30864	3.770554	138.3036	
18:57:54	47.46263	-122.2976	99.473	99.77048	-13.32195	15.1	14.99454	100	0	32	34.98563	4.514231	-176.9184	
18:57:56	47.46243	-122.2977	99.121	99.23202	-13.12308	14.99	14.9851	100	0	34	35.40132	5.245049	-131.5767	
18:57:58	47.46233	-122.298	99.2	99.12159	5.692172	14.88	15.10393	100	0	33	33.85528	6.162745	-86.51524	
18:57:59	47.46239	-122.2983	99.907	99.62165	0.6344314	14.69	14.91821	100	0	33	32.73202	5.639405	-45.12691	
18:58:01	47.4626	-122.2985	100.093	99.91366	-3.972807	15	15.01905	100	0	33	35.67286	4.683523	-2.276156	
18:58:03	47.46282	-122.2984	100.212	100.1048	18.6914	15.3	15.14279	100	0	32	36.94421	4.828652	45.74345	
18:58:04	47.46292	-122.2981	100.725	100.6764	26.44924	15.14	14.9602	100	0	31	36.13219	4.814078	90.63629	
18:58:06	47.46289	-122.2978	100.725	100.7826	-0.3149363	15.08	14.93018	100	0	30	35.3228	4.27479	134.8028	
18:58:08	47.46268	-122.2976	100.388	100.4755	-33.29911	14.89	14.89631	100	0	31	34.56807	3.633259	177.4203	
18:58:10	47.46256	-122.2976	99.93	99.935	-30.05595	14.96	15.21638	100	0	31	34.87511	3.905617	-138.6137	
18:58:11	47.46233	-122.2979	99.069	99.1159	-29.50131	14.9	15.06785	100	0	34	34.8779	5.102527	-93.61194	
18:58:13	47.46237	-122.2983	99.608	99.24228	12.525	14.76	14.97197	100	0	34	33.60745	6.629483	-50.45046	
18:58:15	47.46256	-122.2984	100.514	100.0018	10.799	14.72	14.94062	100	0	33	34.43834	5.339188	-8.710438	
18:58:16	47.46276	-122.2984	100.982	100.7394	12.77414	14.84	15.04838	100	0	30	34.66398	4.261692	35.30286	
18:58:18	47.46291	-122.2981	100.909	101.0402	6.573267	15.01	14.89519	100	0	29	34.97842	3.346596	79.38371	
18:58:20	47.46289	-122.2978	100.171	100.6392	-1.128091	15.21	15.08127	100	0	29	33.51263	3.920715	123.6824	
18:58:21	47.46271	-122.2976	99.133	99.71595	-32.60454	15.37	15.2839	100	0	31	35.96148	3.703147	167.8721	
18:58:23	47.46247	-122.2976	97.976	98.46844	-16.02508	15.54	15.40384	100	0	35	36.81569	5.832807	-145.8949	
18:58:25	47.46234	-122.2979	98.163	98.08226	8.494433	15.29	15.41944	100	0	38	37.67862	7.500003	-99.99134	
18:58:26	47.46237	-122.2982	99.876	99.04197	35.51462	14.68	14.91199	100	0	36	34.39212	8.241429	-56.37756	
18:58:28	47.46251	-122.2984	101.387	100.658	13.93948	14.37	14.5122	100	0	32	33.95787	5.287777	-16.09884	
18:58:30	47.46273	-122.2984	101.873	101.5822	-6.760084	14.59	14.73264	100	0	29	34.58546	2.660518	27.58681	
18:58:32	47.46289	-122.2982	101.442	101.6342	-1.739492	14.89	14.80938	100	0	28	34.24161	2.202036	71.00484	
18:58:33	47.46292	-122.2979	100.404	100.8708	-9.648093	15.25	15.19325	100	0	28	35.21267	2.581108	114.8215	
18:58:35	47.46275	-122.2976	99.314	99.83068	-10.86929	15.22	15.11364	100	0	31	35.45564	4.42421	159.7069	
18:58:37	47.46255	-122.2976	99.054	99.16463	-7.359911	15.04	14.89069	100	0	45	36.1433	5.667918	-155.0037	
18:58:38	47.46237	-122.2978	100.691	100.6042	298.9957	15.1	15.0478	100	0	64	34.40431	19.08392	-102.8933	
18:58:40	47.46237	-122.2981	107.592	107.3418	413.4505	13.21	13.42403	100	0	66	6.919151	23.69628	-75.45461	
18:58:42	47.46243	-122.2984	115.422	114.652	321.1455	13.61	13.69476	100	0	68	-13.16119	17.15011	-84.89329	
18:58:43	47.46244	-122.2987	121.335	121.1621	386.9227	14.56	14.27811	100	0	70	-3.454642	17.0316	-99.12714	
18:58:45	47.46242	-122.2991	127.702	127.3811	385.7391	15.44	15.1876	100	0	71	9.340601	16.67344	-96.37965	
18:58:47	47.46242	-122.2994	133.534	133.5278	393.8522	16.11	15.94407	100	0	73	7.937572	16.68615	-87.42984	
18:58:49	47.46245	-122.2998	141.185	140.4586	418.9061	16.83	16.41909	100	0	75	1.358988	16.43554	-83.32638	
18:58:50	47.4625	-122.3002	149.229	148.0057	449.8433	17.54	17.11659	100	0	77	-1.599522	16.23393	-83.89012	
18:58:52	47.46254	-122.3006	157.285	156.1281	487.8355	18.16	17.80569	100	0	78	-0.4008262	16.25521	-84.77345	
18:58:54	47.46257	-122.301	165.212	164.5614	504.6521	18.64	18.34981	100	0	78	0.858594	16.11359	-84.18143	
18:58:55	47.4626	-122.3014	172.825	173.0729	511.0069	19.04	18.73176	100	0	78	0.4688244	15.95825	-82.97005	
18:58:57	47.46265	-122.3018	182.047	181.9453	513.563	19.36	19.03645	100	0	77	-0.3285895	15.68942	-82.25397	
18:58:59	47.4627	-122.3023	191.299	190.5362	509.3555	19.54	19.21361	100	0	75	-0.6778528	15.36058	-81.9897	
18:59:00	47.46275	-122.3027	199.373	199.3716	507.7354	19.57	19.22705	100	0	73	-0.8912736	15.08752	-81.8669	
18:59:02	47.4628	-122.3031	207.217	207.9281	489.4802	19.45	19.07721	100	0	70	-0.9404094	14.75711	-81.84205	
18:59:04	47.46284	-122.3035	215.93	216.0288	471.0704	19.21	18.80385	100	0	68	-0.8687972	14.54937	-81.82818	
18:59:06	47.4629	-122.304	225.646	224.3107	473.2957	18.8	18.41757	100	0	65	-0.8136009	14.36862	-81.7957	
18:59:07	47.46294	-122.3044	232.845	232.3427	458.0312	18.44	18.04139	100	0	63	-0.9244166	14.09686	-81.81364	
18:59:09	47.46298	-122.3048	239.857	239.8258	434.2151	18.02	17.56885	100	0	61	-0.9106665	14.01861	-81.88023	
18:59:11	47.46303	-122.3053	248.32	247.1086	422.0962	17.51	17.11374	100	0	60	-1.000518	13.95179	-82.07328	
18:59:12	47.46307	-122.3056	254.732	254.5016	428.3557	17.14	16.70397	100	0	59	-0.9370961	13.95494	-82.30315	
18:59:14	47.46311	-122.306	261.981	261.5447	418.5623	16.73	16.21537	100	0	58	-0.8309382	14.21067	-82.59072	
18:59:16	47.46314	-122.3063	268.421	268.6606	413.1576	16.43	15.92641	100	0	59	-0.5879555	14.25113	-82.72661	
18:59:17	47.46318	-122.3067	275.01	275.2768	401.9286	16.2	15.71305	100	0	59	-0.7493939	14.47158	-82.83778	
18:59:19	47.46321	-122.307	281.14	281.77	392.7624	16.06	15.55464	100	0	61	-0.8328086	14.69498	-83.14541	
18:59:21	47.46326	-122.3074	288.168	288.1014	396.1154	16.05	15.55776	100	0	63	-0.5217066	15.09619	-83.34853	
18:59:23	47.46329	-122.3078	294.743	294.1895	254.9992	16.78	16.18902	100	0	48	-0.310984	8.446929	-82.91511	
18:59:24	47.46333	-122.3082	297.76	297.4786	81.2211	17.3	16.90872	100	0	29	0.5606977	1.991197	-81.13192	
18:59:26	47.46337	-122.3085	297.854	297.9901	-13.09347	17.5	16.67105	100	0	26	-0.7137942	-0.9630257	-79.92449	
18:59:28	47.46342	-122.309	297.091	297.3861	-2.526061	17.78	17.15182	100	0	24	-1.769637	0.09601793	-80.25919	
18:59:29	47.46346	-122.3093	296.965	297.1353	17.45704	17.46	16.99604	100	0	24	-2.004076	1.482085	-81.49552	
