Date	Latitude(deg) 	Longitude(deg)	hamsl(m)	hafl(m)	climbrate(cm/s)	GroundSpeed(m/s)	Airspeed(m/s)	Mav_Link(%)	Rssi_Link(%)	Throttle	Roll(deg)	Pitch(deg)	Yaw(deg)
15:20:02	0	0	0	-0.3696452	-29.54882	0	3	35	0	24	1.070554	0.6446293	26.17022	
15:20:04	0	0	0	0.1829294	-7.424802	0	3	44	0	5	1.034427	0.5542223	26.3115	
15:20:06	0	0	0	-0.01260366	-18.19708	0	3	51	0	4	0.9989483	0.4770188	26.40039	
15:20:07	0	0	0	-0.05438821	-18.92846	0	3	56	0	4	0.9933525	0.4717113	26.42599	
15:20:09	0	0	0	0.0709231	-9.789157	0	3	62	0	4	1.004417	0.5133209	26.48914	
15:20:11	0	0	0	-0.05812061	-15.22943	0	3	66	0	4	1.032712	0.5043809	26.52837	
15:20:12	0	0	0	-0.04885047	-11.36938	0	3	69	0	4	1.068286	0.5202043	26.49117	
15:20:14	0	0	0	-0.003267012	-8.178542	0	3	72	0	4	1.06047	0.5680025	26.47305	
15:20:16	0	0	0	0.1029457	-3.671084	0	3	75	0	5	1.030191	0.5269742	26.43248	
15:20:17	47.44849	-122.3051	49.736	31.89368	1606.838	14.82	14.82992	77	0	4	1.568547	16.05127	41.40845	
15:20:19	47.44849	-122.3051	49.736	62.92356	1839.103	14.82	14.2738	79	0	4	10.08425	34.59595	71.69786	
15:20:21	47.44849	-122.3051	49.736	60.78445	596.6021	14.82	12.76678	81	0	4	24.96471	42.18851	108.5229	
15:20:23	47.44849	-122.3051	49.736	51.50488	-297.154	14.82	11.88349	83	0	5	39.05323	40.27887	147.7515	
15:20:24	47.44849	-122.3051	49.736	45.75797	-585.4625	14.82	11.08633	84	0	4	45.85559	34.3213	-176.4834	
15:20:26	47.44849	-122.3051	49.736	44.4205	-521.3065	14.82	10.36689	86	0	5	47.07969	26.95924	-141.3722	
15:20:28	47.44849	-122.3051	49.736	45.4741	-327.9186	14.82	9.417096	87	0	4	44.39412	18.48178	-102.9003	
15:20:29	47.44849	-122.3051	49.736	47.45734	-101.3805	14.82	8.602763	88	0	5	38.18416	10.02739	-57.74377	
15:20:31	47.44849	-122.3051	49.736	49.6654	119.5885	14.82	7.69472	89	0	4	29.35207	5.517954	-4.543509	
15:20:33	47.44849	-122.3051	49.736	51.62762	284.7182	14.82	6.955113	90	0	4	22.43399	10.53664	45.28917	
15:20:34	47.44849	-122.3051	49.736	52.68168	314.2675	14.82	6.638469	91	0	4	20.73078	22.54071	79.6813	
15:20:36	47.44849	-122.3051	49.736	52.21169	176.8292	14.82	6.352699	91	0	4	24.30783	31.90035	111.2487	
15:20:38	47.44849	-122.3051	49.736	50.51071	-37.81538	14.82	6.09479	92	0	4	31.7184	35.74313	145.6943	
15:20:39	47.44849	-122.3051	49.736	48.59621	-212.9172	14.82	5.862028	93	0	4	38.47769	35.11808	-179.4093	
15:20:41	47.44849	-122.3051	49.736	47.30114	-293.486	14.82	5.554737	93	0	4	42.99422	30.82206	-143.4436	
15:20:43	47.44849	-122.3051	49.736	46.93181	-272.5117	14.82	5.374629	94	0	5	44.11578	22.83122	-104.5804	
15:20:45	47.44849	-122.3051	49.736	47.55421	-154.3273	14.82	5.136853	94	0	5	40.52642	12.81141	-60.11267	
15:20:46	47.44849	-122.3051	49.736	49.04272	37.99199	14.82	4.871714	95	0	4	32.1089	5.559199	-7.87442	
15:20:48	47.44849	-122.3051	49.736	51.03227	240.6343	14.82	4.655757	95	0	4	23.73494	8.505018	43.41373	
15:20:50	47.44849	-122.3051	49.736	52.48587	323.7764	14.82	4.520509	95	0	4	20.66874	20.62696	78.8188	
15:20:51	47.44849	-122.3051	49.736	52.45068	219.2727	14.82	4.441239	96	0	5	23.2977	30.83197	109.6819	
15:20:53	47.44849	-122.3051	49.736	50.94847	8.371404	14.82	4.369699	96	0	4	30.41304	35.61576	143.4814	
15:20:55	47.44849	-122.3051	49.736	48.95943	-185.1948	14.82	4.305133	96	0	4	37.61588	35.59534	178.6444	
15:20:56	47.44849	-122.3051	49.736	47.48553	-285.4152	14.82	4.246863	96	0	4	42.67462	31.59721	-145.6	
15:20:58	47.44849	-122.3051	49.736	46.95575	-278.4394	14.82	4.169935	97	0	4	44.3277	23.66356	-106.915	
15:21:00	47.44849	-122.3051	49.736	47.46293	-167.8379	14.82	4.103979	97	0	4	41.07379	13.36727	-62.69631	
15:21:01	47.44849	-122.3051	49.736	48.95568	29.98011	14.82	4.04743	97	0	4	32.74039	5.705098	-10.88418	
15:21:03	47.44849	-122.3051	49.736	50.94519	235.7444	14.82	3.984373	97	0	4	24.04933	7.932894	41.30835	
15:21:05	47.44849	-122.3051	49.736	52.51381	331.5095	14.82	3.944882	97	0	4	20.63665	19.87411	77.12503	
15:21:07	47.44849	-122.3051	49.736	52.57461	237.2709	14.82	3.921736	98	0	4	22.99458	30.36448	108.0473	
15:21:08	47.44849	-122.3051	49.736	51.12553	27.83072	14.82	3.900847	98	0	4	29.94854	35.44131	141.771	
15:21:10	47.44849	-122.3051	49.736	49.14	-168.394	14.82	3.881994	98	0	3	37.26791	35.57551	177.0391	
15:21:12	47.44849	-122.3051	49.736	47.6361	-274.2062	14.82	3.864979	98	0	4	42.40252	31.8975	-147.3203	
15:21:13	47.44849	-122.3051	49.736	47.03196	-274.5035	14.82	3.849623	98	0	4	44.29131	24.13987	-108.6226	
15:21:15	47.44849	-122.3051	49.736	47.48881	-168.2293	14.82	3.82935	98	0	4	41.32466	13.77944	-64.73205	
15:21:17	47.44849	-122.3051	49.736	48.91384	23.37573	14.82	3.806745	98	0	4	33.18898	6.043418	-13.55402	
15:21:18	47.44849	-122.3051	49.736	50.88473	229.7055	14.82	3.788332	98	0	4	24.48776	7.529738	38.79728	
15:21:20	47.44849	-122.3051	49.736	52.47385	331.8521	14.82	3.776801	98	0	5	20.76384	19.14199	75.46243	
15:21:22	47.44849	-122.3051	49.736	52.62795	248.4109	14.82	3.770042	99	0	4	22.74499	29.91954	106.3248	
15:21:23	47.44849	-122.3051	49.736	51.25491	42.93968	14.82	3.763943	99	0	4	29.459	35.41015	139.6877	
15:21:25	47.44849	-122.3051	49.736	49.24651	-159.8556	14.82	3.758439	99	0	4	36.88433	35.73854	174.8233	
15:21:27	47.44849	-122.3051	49.736	47.67811	-272.5138	14.82	3.753471	99	0	4	42.22274	32.23385	-149.5028	
15:21:29	47.44849	-122.3051	49.736	47.02941	-278.3091	14.82	3.746912	99	0	4	44.33986	24.68428	-111.2027	
15:21:30	47.44849	-122.3051	49.736	47.41309	-180.0355	14.82	3.741289	99	0	4	41.68015	14.47358	-67.79515	
15:21:32	47.44849	-122.3051	49.736	48.77264	6.127295	14.82	3.736467	99	0	4	33.78042	6.169031	-16.70507	
15:21:34	47.44849	-122.3051	49.736	50.75383	217.7962	14.82	3.731091	99	0	4	24.83036	6.982509	36.1271	
15:21:35	47.44849	-122.3051	49.736	52.3976	330.4777	14.82	3.727724	99	0	4	20.723	18.47198	73.74313	
15:21:37	47.44849	-122.3051	49.736	52.65973	256.0849	14.82	3.724838	99	0	4	22.43456	29.44981	104.6184	
15:21:39	47.44849	-122.3051	49.736	51.34269	53.21714	14.82	3.723146	99	0	4	28.96075	35.25911	137.7199	
15:21:40	47.44849	-122.3051	49.736	49.35582	-150.4878	14.82	3.721619	99	0	4	36.48609	35.82459	172.8833	
15:21:42	47.44849	-122.3051	49.736	47.75487	-268.5529	14.82	3.720241	99	0	4	41.97571	32.5653	-151.4833	
15:21:44	47.44849	-122.3051	49.736	47.03458	-281.3313	14.82	3.718997	99	0	4	44.33313	25.18209	-113.2951	
15:21:46	47.44849	-122.3051	49.736	47.36115	-188.504	14.82	3.717356	99	0	4	41.94191	14.92932	-69.87237	
15:21:47	47.44849	-122.3051	49.736	48.70805	-1.242065	14.82	3.715524	99	0	4	34.16832	6.217701	-18.84019	
15:21:49	47.44849	-122.3051	49.736	50.67562	211.437	14.82	3.714032	99	0	4	24.97872	6.62363	34.56571	
15:21:51	47.44849	-122.3051	49.736	52.35892	330.0611	14.82	3.713098	99	0	4	20.66032	18.03258	72.49162	
15:21:52	47.44849	-122.3051	49.736	52.68881	263.511	14.82	3.71255	99	0	4	22.19046	29.19303	103.1393	
15:21:54	47.44849	-122.3051	49.736	51.38703	58.08941	14.82	3.712057	99	0	4	28.70642	35.19377	136.3866	
15:21:56	47.44849	-122.3051	49.736	49.3913	-147.9269	14.82	3.711611	99	0	5	36.31329	35.84442	171.6117	
15:21:57	47.44849	-122.3051	49.736	47.77626	-268.1962	14.82	3.711209	99	0	4	41.83599	32.75762	-153.0343	
15:21:59	47.44849	-122.3051	49.736	47.0197	-285.3332	14.82	3.710678	99	0	4	44.32503	25.57405	-115.1742	
15:22:01	47.44849	-122.3051	49.736	47.30139	-196.8539	14.82	3.710223	99	0	5	42.16523	15.42424	-72.22164	
15:22:02	47.44849	-122.3051	49.736	48.5986	-14.41052	14.82	3.709832	99	0	4	34.67205	6.521841	-21.79792	
15:22:04	47.44849	-122.3051	49.736	50.54235	198.4636	14.82	3.709397	99	0	4	25.42643	6.208518	31.76177	
15:22:06	47.44849	-122.3051	49.736	52.27138	326.2094	14.82	3.709124	99	0	4	20.74378	17.23288	70.6447	
15:22:08	47.44849	-122.3051	49.736	52.70155	270.2125	14.82	3.70889	99	0	4	21.90281	28.604	101.3397	
15:22:09	47.44849	-122.3051	49.736	51.50311	67.07407	14.82	3.708754	99	0	4	16.67692	30.96811	131.2789	
15:22:11	47.44853	-122.3048	40.267	43.16065	-169.2469	17.4	5.898334	99	0	60	-0.8209268	-0.7043507	118.6315	
15:22:13	47.44852	-122.3044	34.028	36.34614	-379.2722	21.04	10.80065	99	0	66	-2.787564	-1.350446	97.51656	
15:22:14	47.4485	-122.3039	32.528	32.78854	-59.95389	23.74	13.61814	99	0	66	-13.3471	7.343971	86.36769	
15:22:16	47.44847	-122.3033	34.374	33.5286	35.67661	24.6	14.51507	99	0	66	-12.16513	5.304681	80.94319	
15:22:18	47.44843	-122.3028	33.591	33.22268	-77.22962	25.96	16.90876	99	0	69	1.963087	1.209592	85.20316	
15:22:19	47.44834	-122.3022	31.353	31.86624	-68.52885	27.55	22.39717	99	0	69	1.991169	0.7161681	89.76369	
15:22:21	47.44822	-122.3016	29.382	29.85153	-92.19249	28.5	24.50563	99	0	72	-15.30841	0.4519653	88.84969	
15:22:23	47.44813	-122.301	29.143	29.05091	-12.81312	28.85	25.60286	99	0	72	0.7330481	0.3434338	89.83035	
15:22:24	47.44803	-122.3004	29.63	29.47561	29.36571	28.89	27.02197	99	0	72	0.5706766	0.358305	93.3461	
15:22:26	47.44791	-122.2998	30.543	30.50797	68.14604	28.83	27.65777	99	0	71	-0.0455998	0.2755243	95.69292	
15:22:28	47.44779	-122.2991	31.836	31.84341	92.94807	28.68	27.9639	99	0	72	-0.344828	0.3358886	97.22922	
15:22:30	47.44767	-122.2984	33.639	33.45013	102.7917	28.45	27.99728	99	0	72	-0.3685457	0.2621441	98.5763	
15:22:31	47.44756	-122.2978	35.442	35.26952	111.4116	28.33	27.96498	99	0	72	-0.6360338	0.2185435	99.66499	
15:22:33	47.44747	-122.2973	36.647	36.99892	108.6055	28.19	27.8678	99	0	72	-0.5294464	0.2147847	100.3054	
15:22:35	47.44737	-122.2966	38.946	33.09272	-75.37698	28.1	27.84362	99	0	72	-0.7203874	0.2448147	100.9199	
15:22:36	47.44727	-122.296	39.534	39.47255	183.7599	28	27.78806	99	0	72	-0.7423917	0.1464986	101.184	
15:22:38	47.44721	-122.2955	38.834	40.29422	104.8418	28.02	27.80785	99	0	72	-0.7286493	0.5247996	102.0278	
15:22:40	47.44721	-122.2955	38.834	39.57336	37.93024	28.02	27.80865	99	0	72	-0.6034167	1.351542	102.9429	
15:22:41	47.44721	-122.2955	38.834	39.15568	18.6168	28.02	27.80885	99	0	72	-0.5895549	1.939859	103.28	
15:22:43	47.44721	-122.2955	38.834	39.04239	19.29048	28.02	27.80615	99	0	72	-0.5901043	2.342427	103.2333	
15:22:45	47.44721	-122.2955	38.834	39.04402	21.72497	28.02	27.80448	99	0	72	-0.6179918	2.589709	102.8951	
15:22:47	47.44719	-122.2953	38.431	38.55314	-199.3234	28.04	27.80937	99	0	72	-0.0222066	-2.943399	102.0603	
15:22:48	47.44711	-122.2947	33.59	34.30307	-205.6282	28.97	28.69673	99	0	72	-0.3921089	-2.082055	101.0986	
15:22:50	47.44703	-122.2941	30.101	30.30552	-192.7047	29.24	29.06743	99	0	76	-0.3773746	-1.355403	100.7184	
15:22:52	47.44695	-122.2935	27.786	27.57695	-147.0799	29.4	29.2399	99	0	75	-0.3976912	-0.5162457	100.4477	
15:22:53	47.44687	-122.2927	25.991	25.84248	-109.9642	29.27	29.10346	99	0	76	-0.6541341	-0.09758992	100.5299	
15:22:55	47.44679	-122.2922	24.923	24.95452	-82.37878	29.1	28.92301	99	0	75	0.1623006	-0.1769068	100.8644	
15:22:57	47.44674	-122.2916	24.45	24.31407	-13.61152	28	27.68859	99	0	4	41.64352	2.678781	109.916	
15:22:58	47.44652	-122.2911	27.006	25.57943	132.4966	22.46	22.44831	99	0	80	48.0062	7.362709	159.5553	
15:23:00	47.44618	-122.2911	37.338	34.43937	595.2827	20.96	22.53099	99	0	77	44.69459	15.54782	-144.2806	
15:23:02	47.44601	-122.2914	50.978	49.32766	763.497	17.71	19.68461	99	0	27	-0.1527819	18.4543	-118.7315	
15:23:03	47.44591	-122.2917	59.345	58.70707	147.1125	15.27	16.63957	99	0	4	-15.88994	-3.623491	-121.5638	
15:23:05	47.44577	-122.292	57.774	58.22697	-166.3404	15.12	15.42109	99	0	4	-8.8236	-14.5692	-134.7357	
15:23:07	47.44559	-122.2923	52.791	54.07218	-128.0072	16.7	16.89422	99	0	4	-1.907454	-9.21001	-142.8201	
15:23:09	47.44541	-122.2925	51.605	51.70061	-24.93072	16.54	16.83549	99	0	4	2.297808	-3.662901	-144.6081	
15:23:10	47.44522	-122.2927	52.794	52.15366	-6.982121	15.66	15.77258	99	0	4	2.963479	-4.209522	-142.9576	
15:23:12	47.44504	-122.293	53.408	52.9572	-8.391328	15.45	15.36732	99	0	4	1.497793	-6.156775	-141.528	
15:23:14	47.44489	-122.2932	52.442	52.85277	-2.7307	15.68	15.61003	99	0	4	0.3594621	-5.79204	-141.153	
15:23:15	47.44469	-122.2935	50.332	51.29561	-34.26103	15.81	15.7416	99	0	4	0.1500014	-4.465218	-141.0728	
15:23:17	47.44456	-122.2936	49.225	49.43044	-54.48458	15.69	15.60754	99	0	4	0.2879865	-3.164399	-140.9118	
15:23:19	47.44456	-122.2936	49.225	49.0136	-12.01848	15.69	15.60754	99	0	5	0.4459564	-2.353322	-140.5459	
15:23:20	47.44456	-122.2936	49.225	49.31406	27.39548	15.69	15.61546	99	0	4	0.5563424	-1.810821	-140.1878	
15:23:22	47.44456	-122.2936	49.225	49.53814	38.38841	15.69	15.62177	99	0	4	0.6231428	-1.45741	-139.8373	
15:23:24	47.44456	-122.2936	49.225	49.58033	34.50356	15.69	15.62687	99	0	4	0.61698	-1.28929	-139.406	
15:23:26	47.44456	-122.2936	49.225	49.53773	28.1253	15.69	15.63006	99	0	4	0.6148471	-1.177012	-139.0479	
15:23:27	47.44456	-122.2936	49.225	49.48684	23.62844	15.69	15.63162	99	0	4	0.603581	-1.125046	-138.7477	
15:23:29	47.44456	-122.2936	49.225	49.45191	21.09388	15.69	15.63162	99	0	4	0.5316348	-1.230013	-138.4137	
15:23:31	47.44456	-122.2936	49.225	49.42932	19.3227	15.69	15.63231	99	0	4	0.4834273	-1.3018	-138.1581	
15:23:32	47.44456	-122.2936	49.225	49.41164	17.69572	15.69	15.63284	99	0	4	0.4434326	-1.370333	-137.9565	
15:23:34	47.44456	-122.2936	49.225	49.39548	16.15537	15.69	15.63293	99	0	4	0.3558643	-1.565836	-137.7596	
15:23:36	47.44456	-122.2936	49.225	49.38075	14.75414	15.69	15.63253	99	0	4	0.2962787	-1.700885	-137.6183	
15:23:37	47.44456	-122.2936	49.225	49.36729	13.46457	15.69	15.63212	99	0	4	0.2512985	-1.806119	-137.516	
15:23:39	47.44456	-122.2936	49.225	49.35472	12.29126	15.69	15.63187	99	0	4	0.1704075	-2.009853	-137.4347	
15:23:41	47.44456	-122.2936	49.225	49.3435	11.20725	15.69	15.63026	99	0	4	0.1152115	-2.150791	-137.3831	
15:23:42	47.44456	-122.2936	49.225	49.33278	10.1787	15.69	15.6289	99	0	4	0.07731006	-2.248829	-137.3484	
15:23:44	47.44456	-122.2936	49.225	49.32304	9.275186	15.69	15.62753	99	0	4	0.00979198	-2.429529	-137.3413	
15:23:46	47.44456	-122.2936	49.225	49.31441	8.477398	15.69	15.62601	99	0	4	-0.0371035	-2.556076	-137.3448	
15:23:48	47.44456	-122.2936	49.225	49.30681	7.749786	15.69	15.62495	99	0	4	-0.06902568	-2.642753	-137.3533	
15:23:49	47.44456	-122.2936	49.225	49.29965	7.058345	15.69	15.62495	99	0	4	-0.120351	-2.784087	-137.3849	
15:23:51	47.44456	-122.2936	49.225	49.29288	6.414977	15.69	15.6224	99	0	4	-0.1556298	-2.881284	-137.4162	
15:23:53	47.44456	-122.2936	49.225	49.28672	5.828908	15.69	15.62049	99	0	4	-0.1810606	-2.950861	-137.4441	
15:23:54	47.44456	-122.2936	49.225	49.28107	5.282698	15.69	15.61906	99	0	4	-0.2185448	-3.054569	-137.49	
15:23:56	47.44456	-122.2936	49.225	49.27571	4.779125	15.69	15.61772	99	0	4	-0.2450767	-3.126917	-137.528	
15:23:58	47.44456	-122.2936	49.225	49.27094	4.320764	15.69	15.61688	99	0	4	-0.2640063	-3.177551	-137.5589	
15:23:59	47.44456	-122.2936	49.225	49.2664	3.890714	15.69	15.61662	99	0	4	-0.2914203	-3.251941	-137.6016	
15:24:01	47.44456	-122.2936	49.225	49.26229	3.502932	15.69	15.6151	99	0	4	-0.3111354	-3.304034	-137.6341	
15:24:03	47.44456	-122.2936	49.225	49.25862	3.166687	15.69	15.61392	99	0	4	-0.3258504	-3.342039	-137.661	
15:24:05	47.44456	-122.2936	49.225	49.25545	2.86956	15.69	15.61283	99	0	4	-0.3452355	-3.393025	-137.6932	
15:24:06	47.44456	-122.2936	49.225	49.25251	2.590072	15.69	15.61201	99	0	4	-0.3591416	-3.428542	-137.7182	
15:24:08	47.44456	-122.2936	49.225	49.24984	2.334022	15.69	15.61161	99	0	4	-0.3694287	-3.454024	-137.7377	
15:24:10	47.44456	-122.2936	49.225	49.24741	2.103886	15.69	15.61147	99	0	4	-0.382965	-3.488537	-137.7591	
15:24:11	47.44456	-122.2936	49.225	49.24514	1.887835	15.69	15.61061	99	0	4	-0.3927588	-3.512742	-137.7754	
15:24:13	47.44456	-122.2936	49.225	49.24313	1.704406	15.69	15.60998	99	0	4	-0.4001607	-3.530577	-137.7882	
15:24:15	47.44456	-122.2936	49.225	49.24136	1.538157	15.69	15.60943	99	0	4	-0.4092021	-3.553086	-137.8006	
15:24:16	47.44456	-122.2936	49.225	49.23973	1.382505	15.69	15.60903	99	0	4	-0.4156523	-3.568696	-137.8101	
15:24:18	47.44456	-122.2936	49.225	49.23824	1.242494	15.69	15.60883	99	0	4	-0.4208119	-3.580979	-137.8173	
15:24:20	47.44456	-122.2936	49.225	49.23691	1.115907	15.69	15.60876	99	0	4	-0.4266615	-3.595454	-137.8234	
15:24:21	47.44456	-122.2936	49.225	49.23569	1.004906	15.69	15.60831	99	0	4	-0.4307736	-3.605419	-137.828	
15:24:23	47.44456	-122.2936	49.225	49.23468	0.9117005	15.69	15.60806	99	0	4	-0.4341067	-3.613461	-137.8315	
15:24:25	47.44456	-122.2936	49.225	49.23376	0.8252215	15.69	15.60782	99	0	4	-0.437751	-3.622674	-137.8336	
15:24:27	47.44456	-122.2936	49.225	49.23291	0.7449476	15.69	15.60763	99	0	4	-0.4403001	-3.629055	-137.8354	
15:24:28	47.44456	-122.2936	49.225	49.23215	0.6715493	15.69	15.60754	99	0	4	-0.4421389	-3.63363	-137.8369	
15:24:30	47.44456	-122.2936	49.225	49.23144	0.6024144	15.69	15.60751	99	0	4	-0.4444262	-3.63974	-137.8369	
15:24:32	47.44445	-122.2938	50.681	52.21344	350.9932	13.04	12.344	99	0	8	10.23287	17.51099	-127.8244	
15:24:33	47.44435	-122.294	52.579	52.38588	-223.7375	10.43	9.535168	99	0	17	-2.909338	-6.747493	-120.9383	
15:24:35	47.44423	-122.2943	48.14	48.86363	-68.18607	12.82	11.31984	99	0	25	-8.843764	4.643049	-131.179	
15:24:37	47.44412	-122.2945	48.544	48.21313	-33.98449	12.2	10.57561	99	0	32	-3.717028	6.64326	-140.3542	
15:24:38	47.44398	-122.2947	48.726	47.97516	-81.442	12.68	10.87281	99	0	35	2.128783	3.921997	-140.5843	
15:24:40	47.44384	-122.2949	49.083	48.39724	-24.29214	13.25	12.15663	99	0	32	1.602569	4.089982	-137.244	
15:24:42	47.44371	-122.2951	49.594	49.05447	-25.55817	13.5	12.89968	99	0	50	15.32732	3.41464	-134.0118	
15:24:43	47.4436	-122.2953	50.906	51.03252	323.3029	14.83	13.83584	99	0	70	42.02246	18.64177	-85.75148	
15:24:45	47.4437	-122.2956	58.35	57.66549	481.6909	13.64	13.3958	99	0	73	22.73774	25.12683	-31.56651	
15:24:47	47.44386	-122.2957	65.694	65.25266	344.9131	14.13	14.16991	99	0	74	-19.96444	17.08301	-31.70141	
15:24:49	47.44405	-122.2959	73.464	72.88493	451.1242	14.9	14.20786	99	0	76	-17.84034	18.12391	-55.64397	
15:24:50	47.44419	-122.2962	81.986	81.18417	454.0797	15.3	14.50703	99	0	77	3.731234	17.12626	-62.80983	
15:24:52	47.44432	-122.2965	87.754	88.46144	411.6312	16.16	15.65967	99	0	77	8.181945	16.57843	-54.78173	
15:24:54	47.44448	-122.2967	96.843	96.19788	451.7263	16.87	16.49256	99	0	77	0.1931085	16.27378	-49.04352	
15:24:55	47.44467	-122.297	104.706	101.4227	333.2577	17.46	17.18585	99	0	77	-4.347342	16.00341	-49.67005	
15:24:57	47.4449	-122.2973	114.582	112.8471	532.9939	17.87	17.68257	99	0	75	-3.605325	15.76146	-52.29018	
15:24:59	47.44509	-122.2976	122.926	122.7027	555.3232	18.03	17.89707	99	0	72	-1.184174	15.56873	-53.16003	
15:25:00	47.44527	-122.2979	130.685	130.692	482.7583	17.91	17.80743	99	0	69	-0.5096165	15.04459	-52.70824	
15:25:02	47.44544	-122.2981	137.726	138.0908	432.2931	17.77	17.58214	99	0	66	-0.9300479	14.63336	-52.17635	
15:25:04	47.44566	-122.2985	146.082	145.1445	408.0125	17.44	17.25177	99	0	63	-1.336865	14.50396	-52.23604	
15:25:06	47.44582	-122.2987	152.157	151.7037	377.7636	17.11	16.92513	99	0	61	2.213655	14.18649	-52.08307	
15:25:07	47.44601	-122.299	158.487	157.849	337.7444	16.81	16.46141	99	0	60	15.26233	13.80291	-43.86832	
15:25:09	47.44621	-122.2992	164.008	163.5776	332.0306	16.58	15.73706	99	0	60	18.05699	14.47582	-26.17385	
15:25:11	47.44648	-122.2993	170.614	169.9914	370.2847	16.28	15.23353	99	0	62	10.0996	15.07858	-10.39571	
15:25:12	47.4467	-122.2993	176.376	176.2648	365.0554	16.21	15.06215	99	0	64	-0.6255795	15.0078	-5.363787	
15:25:14	47.44696	-122.2993	182.894	182.4615	372.7235	16.4	15.52844	99	0	67	-2.502211	15.30923	-6.973444	
15:25:16	47.44722	-122.2994	189.649	189.0163	382.0893	16.75	16.1198	99	0	67	0.2631683	14.7183	-8.02012	
15:25:17	47.44746	-122.2994	194.254	193.9326	150.7299	17.42	16.96806	99	0	39	3.310163	6.428731	-5.456463	
15:25:19	47.44769	-122.2994	195.514	195.4408	3.435455	17.49	16.71482	99	0	33	2.574539	1.411227	-1.403825	
15:25:21	47.44801	-122.2994	194.724	195.0403	-14.37113	17.74	17.07748	99	0	30	-0.2158299	1.403509	0.6076337	
15:25:22	47.44828	-122.2994	194.414	194.5676	11.109	17.54	17.07636	99	0	31	-2.520475	3.200525	0.06364837	
15:25:24	47.4485	-122.2994	194.605	194.7034	28.84043	17.19	16.76123	99	0	32	-3.113497	4.384553	-2.376386	
15:25:26	47.44877	-122.2995	195.242	195.1871	37.726	16.78	16.37692	99	0	34	-0.8413102	5.151708	-3.995692	
15:25:28	47.44907	-122.2995	196.194	196.0133	44.67104	16.38	16.04584	99	0	34	0.1881561	5.445931	-3.693901	
15:25:29	47.44929	-122.2995	196.858	196.7912	37.30462	16.16	15.80171	99	0	34	0.4779589	5.271101	-2.681368	
15:25:31	47.44934	-122.2995	197.022	197.2027	22.72158	16.13	15.74581	99	0	34	-0.5580528	5.205722	-1.569752	
15:25:33	47.44977	-122.2995	197.852	197.7445	43.24765	15.95	15.59142	99	0	34	-0.9405497	5.741997	-1.785716	
15:25:34	47.45002	-122.2995	198.444	198.4586	34.58174	15.77	15.43401	99	0	33	-0.5785918	5.40304	-2.368447	
15:25:36	47.45024	-122.2996	198.628	198.7411	16.81528	15.69	15.35143	99	0	33	-0.2554193	5.148113	-2.47593	
15:25:38	47.45049	-122.2996	198.717	198.8044	13.41686	15.63	15.30599	99	0	33	-0.3437286	5.425194	-2.450159	
15:25:39	47.45071	-122.2996	199.04	198.9729	12.46656	15.55	15.22414	99	0	33	-0.7879058	5.594163	-2.669325	
15:25:41	47.45094	-122.2996	199.333	199.2739	13.00179	15.47	15.13556	99	0	33	-0.7707907	5.604879	-3.14069	
15:25:43	47.45118	-122.2996	199.613	199.5903	10.51059	15.42	15.0915	99	0	33	-0.5135728	5.372317	-3.35152	
15:25:44	47.45143	-122.2996	199.8	199.7901	6.810994	15.39	15.06594	99	0	32	-0.5200813	5.196965	-3.502267	
15:25:46	47.45168	-122.2996	199.87	199.8696	3.98182	15.37	15.04708	99	0	32	-0.3857758	5.140137	-3.475979	
15:25:48	47.4519	-122.2997	200.115	200.0033	7.922051	15.35	15.02809	99	0	32	-0.7613168	5.205805	-3.470182	
15:25:50	47.45216	-122.2997	200.305	200.2425	7.000412	15.3	14.9904	99	0	31	-0.728187	5.001744	-3.641715	
15:25:51	47.45236	-122.2997	200.355	200.3629	0.2425304	15.31	14.99858	99	0	31	-0.6741096	4.661544	-3.817297	
15:25:53	47.4526	-122.2997	200.353	200.3895	1.125731	15.32	15.0052	99	0	31	-1.003966	4.648662	-4.043723	
15:25:55	47.45282	-122.2997	200.302	200.317	-2.506152	15.31	15.00058	100	0	31	-0.1499787	4.634555	-4.178823	
15:25:56	47.45307	-122.2998	199.621	199.3833	-231.7246	14.9	14.61551	100	0	4	-30.31429	-4.972452	-14.99209	
15:25:58	47.45327	-122.2999	193.002	193.3139	-493.0416	15.86	15.21727	100	0	4	-31.85677	-13.63758	-47.124	
15:26:00	47.4534	-122.3002	184.241	184.5345	-448.8352	18	17.85231	100	0	4	-32.87438	-10.02763	-82.48608	
15:26:01	47.45338	-122.3006	176.778	177.522	-272.1628	19.05	18.95166	100	0	4	-24.00081	-4.288183	-113.2602	
15:26:03	47.45324	-122.301	173.674	173.6233	-198.4756	18.29	18.50853	100	0	4	1.677681	-2.903159	-122.952	
15:26:05	47.45309	-122.3014	169.92	169.8285	-344.1934	17.94	18.02403	100	0	4	17.35141	-9.484244	-110.0714	
15:26:07	47.45301	-122.3018	162.952	163.8476	-401.1984	18.86	18.52308	100	0	4	14.99249	-11.76799	-93.20113	
15:26:08	47.453	-122.3022	156.494	157.2548	-334.3708	19.69	19.48465	100	0	4	4.81641	-9.257729	-83.16434	
15:26:10	47.45303	-122.3026	150.84	151.1269	-353.1141	19.9	19.7872	100	0	4	-2.640247	-9.358315	-81.35325	
15:26:12	47.45306	-122.3031	144.204	144.404	-410.4916	20.14	19.96681	100	0	4	-5.728275	-10.43925	-84.66138	
15:26:13	47.45308	-122.3035	137.853	137.4809	-418.3217	20.48	20.31122	100	0	4	-4.21467	-10.96924	-88.64111	
15:26:15	47.45307	-122.304	130.014	130.2899	-432.2578	20.87	20.66507	100	0	4	-1.601775	-11.27759	-90.83487	
15:26:17	47.45306	-122.3045	122.561	123.1957	-437.684	21.18	20.97392	100	0	4	0.6578381	-11.55338	-91.05636	
15:26:18	47.45306	-122.305	115.432	115.9464	-435.1153	21.42	21.21552	100	0	4	0.9466007	-11.6463	-90.19838	
15:26:20	47.45306	-122.3054	107.867	108.425	-452.0443	21.63	21.44016	100	0	4	0.3087188	-11.97367	-89.45065	
15:26:22	47.45306	-122.3059	100.604	100.6954	-457.9323	21.82	21.61968	100	0	4	-0.539274	-11.52481	-89.193	
15:26:23	47.45307	-122.3064	94.129	94.6145	-226.5316	21.62	21.54715	100	0	4	-1.058604	-4.951198	-89.75715	
15:26:25	47.45308	-122.3068	91.479	91.55183	-148.5067	20.12	19.80387	100	0	4	-1.062146	-2.641742	-90.43696	
15:26:27	47.45308	-122.3073	88.999	88.88182	-182.6512	18.61	18.39866	100	0	4	-0.8326503	-3.666408	-90.77313	
15:26:29	47.45308	-122.3077	85.999	86.15762	-174.3808	17.74	17.49671	100	0	7	-0.3975673	-3.643826	-90.79086	
15:26:30	47.45308	-122.3081	83.107	83.4914	-134.4689	17.2	16.97603	100	0	13	-0.5062792	-2.018559	-90.52961	
15:26:32	47.45309	-122.3085	81.53	81.59253	-74.32145	16.77	16.54859	100	0	17	-0.9099551	0.465562	-90.62741	
15:26:34	47.45309	-122.3089	80.943	80.82368	-34.11799	16.17	15.88874	100	0	20	-0.8094136	1.876951	-90.95336	
15:26:35	47.45309	-122.3092	80.649	80.53643	-27.40821	15.79	15.5263	100	0	22	-0.2842329	1.819413	-90.78199	
15:26:37	47.45309	-122.3095	80.26	80.17358	-27.26011	15.6	15.35837	100	0	23	-0.2498074	1.729912	-90.27771	
15:26:39	47.4531	-122.31	79.567	79.77672	-20.02235	15.49	15.27195	100	0	24	-0.5267382	2.161932	-89.83328	
15:26:40	47.4531	-122.3103	79.455	79.41573	-8.770658	15.41	15.18702	100	0	25	-0.8438699	2.80178	-89.80068	
15:26:42	47.45311	-122.3106	79.693	79.55859	4.557429	15.32	15.11614	100	0	25	-0.8411624	2.935167	-90.01646	
15:26:44	47.45311	-122.311	79.821	79.7821	2.567203	15.27	15.06337	100	0	25	-0.6645861	2.528287	-90.11162	
15:26:46	47.45311	-122.3113	79.783	79.79431	-11.42472	15.27	15.07201	100	0	26	-17.67237	2.380516	-91.40541	
15:26:47	47.45307	-122.3117	78.623	78.74799	-87.7406	15.83	15.55801	100	0	33	-38.21998	0.07602537	-126.8837	
15:26:49	47.45287	-122.3119	77.901	78.05764	26.85505	16.3	16.14238	100	0	35	-41.95564	3.712209	-179.2021	
15:26:51	47.45267	-122.3118	78.095	78.42768	54.06596	15.91	16.16119	100	0	33	-40.3572	5.281618	127.6102	
15:26:52	47.45256	-122.3114	78.733	78.95073	95.82829	15.12	15.66457	100	0	27	-20.16582	7.869931	86.85504	
15:26:54	47.45258	-122.3112	79.963	79.80333	0.7307727	14.2	14.80379	100	0	26	11.60499	4.528913	81.61299	
15:26:56	47.45258	-122.3108	79.205	79.18214	-77.17368	14.64	14.46067	100	0	30	25.19428	1.918504	105.2734	
15:26:57	47.45249	-122.3105	78.379	78.60119	28.51351	15.09	14.96842	100	0	31	18.90075	6.348965	135.3464	
15:26:59	47.4523	-122.3103	79.707	79.34251	37.34958	14.51	14.6718	100	0	29	-0.7585738	6.576016	146.2514	
15:27:01	47.45213	-122.3101	80.274	79.90707	-22.82001	14.52	14.553	100	0	29	-9.63334	3.526557	139.3772	
15:27:02	47.45196	-122.3099	79.956	79.91582	0.5947738	14.85	14.55322	100	0	28	-5.572943	3.867755	130.129	
15:27:04	47.45182	-122.3097	80.059	80.06829	7.430534	14.96	14.68153	100	0	28	2.072042	3.827899	128.6675	
15:27:06	47.45167	-122.3094	80.218	80.18851	2.528859	15.05	14.81236	100	0	27	5.272875	3.57958	134.2327	
15:27:08	47.45149	-122.3092	80.379	80.32547	6.048212	15.12	14.89765	100	0	27	2.438974	3.54203	139.977	
15:27:09	47.45138	-122.309	80.43	80.43147	-0.9968258	15.13	14.92389	100	0	26	-1.931084	3.16727	140.9751	
15:27:11	47.45115	-122.3087	80.345	80.3764	-7.884058	15.26	15.05738	100	0	26	-4.206666	2.709727	139.091	
15:27:13	47.45099	-122.3085	80.217	80.30597	10.86446	15.3	15.10598	100	0	25	-1.300719	3.533982	136.8892	
15:27:14	47.45082	-122.3083	80.329	80.31953	-1.653892	15.2	15.00703	100	0	26	0.3848889	3.187402	137.279	
15:27:16	47.45061	-122.308	80.308	80.29925	-2.311632	15.2	15.01398	100	0	26	-0.3283587	3.143786	138.1433	
15:27:18	47.45047	-122.3078	80.29	80.28455	-1.554147	15.18	14.99451	100	0	26	-1.232338	3.155693	137.9079	
15:27:19	47.45029	-122.3076	80.27	80.26281	-2.507711	15.16	14.97085	100	0	26	-1.301225	3.11725	137.0866	
15:27:21	47.45011	-122.3073	80.246	80.23661	-2.721307	15.17	14.97366	100	0	26	-0.7509083	3.046248	136.4474	
15:27:23	47.44997	-122.3072	80.215	80.21584	-0.9995492	15.16	14.96662	100	0	26	-0.4371123	3.122792	136.414	
15:27:25	47.44978	-122.3069	80.211	80.17344	-2.101926	15.15	14.96053	100	0	26	-0.1507517	3.106376	136.594	
15:27:26	47.4496	-122.3066	80.163	80.15285	-2.710007	15.16	14.96349	100	0	26	-0.1218111	3.029684	136.876	
15:27:28	47.44944	-122.3064	80.133	80.13584	-1.975483	15.15	14.96767	100	0	26	-0.4874803	3.026626	137.0141	
15:27:30	47.44927	-122.3062	80.074	80.08553	-3.965512	15.16	14.97441	100	0	26	-0.8337915	2.995302	136.7104	
15:27:31	47.4491	-122.306	80.043	80.04567	0.6411513	15.16	14.97828	100	0	26	-0.578667	3.194923	136.2267	
15:27:33	47.44893	-122.3057	80.094	80.06683	-1.151237	15.14	14.95491	100	0	26	0.1354908	3.085071	136.5529	
15:27:35	47.44875	-122.3055	80.068	80.07422	-0.2539434	15.15	14.95901	100	0	26	-0.1612414	3.0928	137.0314	
15:27:36	47.44856	-122.3052	80.036	80.04549	-1.702942	15.15	14.96235	100	0	26	-1.646497	3.061414	137.0325	
15:27:38	47.44852	-122.3052	80.03	79.52251	-161.9205	15.15	14.96115	100	0	50	-53.58305	1.840127	133.4248	
15:27:40	47.44841	-122.3047	76.317	76.71739	150.7861	17.04	17.3006	100	0	35	-40.17775	14.01474	65.65704	
15:27:41	47.44855	-122.3045	82.492	80.57899	104.6975	13.18	12.85507	100	0	40	-35.67062	9.73994	19.52371	
15:27:43	47.44876	-122.3045	86.888	85.02283	3.125829	12.01	12.10416	100	0	26	-27.92073	-1.707955	-22.82228	
15:27:45	47.44889	-122.3046	85.661	85.63056	-101.0928	12.71	13.14119	100	0	19	-24.68747	-8.763751	-66.39181	
15:27:47	47.44895	-122.3049	80.451	82.4993	-91.78966	14.83	15.2757	100	0	20	-27.53096	-6.08457	-111.109	
15:27:48	47.44883	-122.3052	75.354	77.82298	2.681695	16.64	16.61402	100	0	27	-30.42441	1.197794	-156.6501	
15:27:50	47.44862	-122.3053	74.047	75.5272	106.2785	16.84	16.64213	100	0	34	-29.79763	7.787568	163.5682	
15:27:52	47.44837	-122.3052	76.502	76.65124	156.111	15.43	15.42006	100	0	35	16.46339	11.53508	151.7101	
15:27:53	47.44813	-122.3051	78.687	78.05596	45.658	15.46	14.64028	100	0	35	19.45699	6.767612	-171.825	
15:27:55	47.4479	-122.3052	80.586	80.01471	-2.22441	15.01	14.7645	100	0	31	-27.27653	4.12511	-173.611	
15:27:57	47.44769	-122.3052	79.536	79.41929	-71.82822	15.99	14.82883	100	0	38	-38.74879	1.15557	143.8183	
15:27:58	47.44752	-122.3049	78.384	78.89298	42.34637	16.87	16.14018	100	0	36	-42.04482	4.476344	91.45766	
15:28:00	47.44757	-122.3045	78.717	78.96594	34.09581	16.5	16.75428	100	0	33	-41.88837	5.402754	40.19399	
15:28:02	47.44777	-122.3044	79.151	79.12537	16.20988	15.92	16.45253	100	0	30	-35.22404	5.839023	-6.84337	
15:28:04	47.44801	-122.3045	79.857	79.71393	33.44079	15.13	15.81685	100	0	26	-19.23428	6.336936	-39.3359	
15:28:05	47.44818	-122.3047	80.513	80.27437	-9.919436	14.42	15.2683	100	0	25	-11.17569	4.855017	-51.93534	
15:28:07	47.44829	-122.305	80.014	79.87615	-67.49198	14.49	15.34674	100	0	26	-19.24588	2.898797	-69.43744	
15:28:09	47.44835	-122.3053	79.402	79.41677	0.5329046	14.64	15.24809	100	0	27	15.66445	5.543503	-80.75829	
15:28:10	47.44842	-122.3056	78.948	78.59624	-103.0747	14.91	14.95186	100	0	39	40.13649	2.105567	-38.72306	
15:28:12	47.44866	-122.3057	77.51	77.87632	28.77119	15.92	16.17735	100	0	39	44.50263	6.577101	21.46985	
15:28:14	47.44882	-122.3055	78.426	78.3392	58.18541	15.44	15.81551	100	0	39	43.12792	8.592031	81.41969	
15:28:15	47.44879	-122.3052	80.795	80.25092	117.7914	14.43	14.60317	100	0	31	25.52527	9.845316	128.7668	
15:28:17	47.44862	-122.3049	83.323	82.54927	7.645102	13.45	13.76379	100	0	25	14.38104	3.819175	146.4395	
15:28:19	47.44845	-122.3048	82.69	82.41096	-101.0456	14.05	14.22039	100	0	26	29.85938	-1.328502	174.2426	
15:28:20	47.44823	-122.3049	80.886	81.30118	-34.45303	14.91	14.7196	100	0	29	34.74102	1.268624	-141.7744	
15:28:22	47.4481	-122.3051	80.019	80.40683	1.839412	15.17	14.91386	100	0	31	36.78349	3.651536	-93.42632	
15:28:24	47.44814	-122.3054	79.719	79.99503	12.13178	15.17	14.95875	100	0	32	36.82884	5.094866	-44.7442	
15:28:26	47.44834	-122.3056	79.601	79.79547	12.81874	15.13	15.14663	100	0	31	34.17756	5.653807	1.745794	
15:28:27	47.44854	-122.3055	79.829	79.92068	19.7352	14.82	15.02342	100	0	29	27.05656	6.190392	38.95111	
15:28:29	47.4487	-122.3053	80.117	79.8825	-45.00275	14.61	14.80471	100	0	31	30.7006	3.933514	71.2069	
15:28:31	47.44872	-122.305	79.642	79.49709	-27.7746	15.03	15.20401	100	0	33	35.05098	3.959295	112.9787	
15:28:32	47.44857	-122.3047	79.799	79.66873	13.28938	15.17	15.30317	100	0	33	36.77288	4.983275	159.3949	
15:28:34	47.44838	-122.3046	80.237	80.18299	19.92242	15.09	14.76317	100	0	33	35.70011	5.382697	-155.7412	
15:28:36	47.44821	-122.3048	80.016	80.20287	5.23219	15.37	15.11016	100	0	31	35.75554	4.504277	-110.587	
15:28:37	47.44815	-122.3052	79.715	79.91191	2.21245	15.42	15.40044	100	0	30	35.81565	4.60756	-65.72229	
15:28:39	47.44829	-122.3055	79.461	79.60808	-3.228606	15.33	15.37022	100	0	31	35.65182	4.872365	-21.36219	
15:28:41	47.44853	-122.3055	79.315	79.36572	-6.669344	15.17	15.39575	100	0	32	35.85847	5.189128	23.01703	
15:28:43	47.4487	-122.3053	79.48	79.32336	-6.817189	14.98	15.27077	100	0	33	35.96329	5.530532	67.57263	
15:28:44	47.44873	-122.305	79.839	79.60586	4.670342	14.89	14.96005	100	0	33	35.51248	5.778119	112.719	
15:28:46	47.44859	-122.3047	80.559	80.26171	10.14425	14.85	14.98504	100	0	32	35.62061	4.889187	157.4129	
15:28:48	47.44841	-122.3047	80.753	80.72651	10.69991	14.92	14.84096	100	0	30	34.52016	4.631501	-157.903	
15:28:49	47.4482	-122.3049	80.293	80.59822	-6.549575	15.12	14.74963	100	0	30	34.37465	3.418355	-113.0202	
15:28:51	47.44817	-122.3052	79.661	80.02245	1.339649	15.27	15.18739	100	0	31	36.02964	4.606437	-67.33988	
15:28:53	47.4483	-122.3055	79.548	79.65064	-9.146523	15.14	15.1697	100	0	32	35.67016	5.383004	-22.46703	
15:28:54	47.44854	-122.3055	79.404	79.39609	-9.60669	15.1	15.08257	100	0	33	35.28785	6.011789	22.24778	
15:28:56	47.4487	-122.3053	79.541	79.36389	-6.140788	15.04	15.06	100	0	33	35.56291	6.28993	66.56212	
15:28:58	47.44874	-122.305	80.047	79.73735	2.331311	14.91	14.88623	100	0	33	35.20597	5.94889	110.6827	
15:28:59	47.44859	-122.3047	80.909	80.46442	8.410459	14.8	14.92996	100	0	31	35.33805	4.952826	155.2801	
15:29:01	47.44839	-122.3047	81.282	81.09502	3.824757	14.7	14.81034	100	0	29	34.46294	4.098541	-160.7691	
15:29:03	47.44821	-122.3049	80.856	81.03748	-17.08089	14.82	14.89324	100	0	28	34.33472	3.252713	-116.8671	
15:29:05	47.44816	-122.3052	80.135	80.4017	-20.33163	14.99	15.0252	100	0	30	35.12345	3.748868	-72.46015	
15:29:06	47.44828	-122.3054	79.665	79.8895	-14.2597	15.05	14.62247	100	0	33	35.98021	4.512602	-28.05721	
15:29:08	47.44851	-122.3055	79.451	79.50182	12.28226	15.09	14.70098	100	0	33	35.39826	6.646373	17.53291	
15:29:10	47.44867	-122.3054	79.958	79.71116	-2.141306	14.86	14.98214	100	0	32	35.05156	5.999742	61.03837	
15:29:11	47.44874	-122.305	80.606	80.23033	-14.73833	14.66	15.03265	100	0	31	35.02983	4.368958	104.4645	
15:29:13	47.44863	-122.3048	80.686	80.5385	-6.30841	14.77	15.09397	100	0	29	34.48357	3.887778	148.8158	
15:29:15	47.44844	-122.3047	80.202	80.17132	-119.4653	14.57	14.68588	100	0	4	33.41374	-2.886119	-170.0206	
15:29:16	47.44824	-122.3048	75.241	76.00412	-397.5837	15.26	14.66208	100	0	4	29.61279	-14.59486	-134.4317	
15:29:18	47.44808	-122.3051	64.874	67.24487	-420.5781	18.03	17.49526	100	0	4	31.39707	-11.96326	-97.17316	
15:29:20	47.4481	-122.3055	57.962	59.56002	-291.2757	19.03	18.35145	100	0	4	26.03878	-6.160074	-63.05851	
15:29:22	47.44823	-122.3058	54.193	54.29208	-251.6462	18.57	18.25541	100	0	4	0.02927716	-4.306184	-49.55108	
15:29:23	47.44839	-122.3062	49.4	49.13235	-421.7094	18.19	17.76659	100	0	4	-17.2608	-9.627311	-58.22208	
15:29:25	47.4485	-122.3066	42.026	42.28629	-441.5021	19.06	18.25941	100	0	4	-18.01284	-10.31507	-75.75922	
15:29:27	47.44853	-122.3071	35.882	36.6013	-165.7503	19.32	18.84953	100	0	4	-9.326698	-1.362869	-91.37171	
15:29:28	47.44851	-122.3074	35.138	34.9479	-64.39626	17.61	16.91328	100	0	10	1.102708	1.787283	-95.96613	
15:29:30	47.44848	-122.3078	34.557	34.24213	-83.42215	16.43	15.94504	100	0	18	4.827786	0.6976027	-92.55892	
15:29:32	47.44847	-122.3082	33.905	33.72975	-35.0203	16.11	15.77544	100	0	19	2.894667	1.907538	-88.16731	
15:29:33	47.44848	-122.3085	33.455	33.47107	-30.66569	15.56	15.31543	100	0	20	-0.04393043	1.905469	-86.53298	
15:29:35	47.44849	-122.3089	32.608	32.74479	-53.98141	15.37	15.12902	100	0	21	-2.437033	1.371114	-88.12109	
15:29:37	47.4485	-122.3092	31.836	31.88716	-40.97662	15.32	15.11523	100	0	23	-2.290153	2.169212	-90.70522	
15:29:38	47.4485	-122.3096	31.423	31.32494	-31.44364	15.16	14.94547	100	0	24	-0.5476526	2.7026	-92.06957	
15:29:40	47.44849	-122.3099	31.167	31.09957	-23.82497	15.06	14.87587	100	0	24	0.3107352	2.752757	-91.67577	
15:29:42	47.44849	-122.3102	30.988	30.88358	-22.52063	15.02	14.83991	100	0	25	0.1080784	2.664597	-90.64636	
15:29:44	47.4485	-122.3106	30.574	30.57191	-24.29885	15.03	14.8519	100	0	25	-0.9718019	2.633894	-90.36407	
15:29:45	47.44851	-122.3109	30.343	30.31159	-16.91198	15.04	14.87997	100	0	26	-1.460865	2.910835	-91.11512	
15:29:47	47.44851	-122.3113	30.2	30.17232	9.164126	15.25	14.94568	100	0	60	-25.71264	5.39069	-97.90987	
15:29:49	47.4484	-122.3116	33.205	32.93375	368.4364	16.37	16.2217	100	0	74	-50.87972	15.76312	-160.9952	
15:29:50	47.44818	-122.3116	42.192	40.88796	573.3476	14.63	15.18839	100	0	75	-39.47773	23.74447	125.8	
15:29:52	47.44812	-122.3114	47.48	49.92432	374.3895	14	14.71718	100	0	42	15.04	14.70639	105.1153	
15:29:54	47.448	-122.311	53.478	52.79279	-98.55398	15.48	15.33527	100	0	32	40.88688	-1.830799	128.8616	
15:29:55	47.44778	-122.3108	51.654	51.71354	-63.97984	16.37	15.91001	100	0	24	34.6478	-1.167194	177.5526	
15:29:57	47.44756	-122.3109	51.218	51.25791	3.189295	16	15.69397	100	0	18	10.52247	1.451079	-152.5478	
15:29:59	47.44734	-122.3111	51.019	50.79916	-102.2499	15.44	15.11513	100	0	20	-15.01885	-2.121105	-155.0798	
15:30:01	47.44714	-122.3113	49.182	49.28391	-69.00524	16	15.56141	100	0	21	-19.73703	-1.016551	-175.1451	
15:30:02	47.44687	-122.3113	48.36	48.66223	31.61072	15.86	15.84514	100	0	21	-9.078323	2.769968	168.5686	
15:30:04	47.44663	-122.3112	48.811	48.81839	9.459032	15.21	15.24722	100	0	23	3.433361	2.360895	167.3588	
15:30:06	47.44643	-122.3112	48.611	48.64663	-14.28537	15.16	15.01824	100	0	25	6.714551	1.737685	175.1041	
15:30:07	47.44619	-122.3112	48.408	48.48018	6.525583	15.21	15.03298	100	0	26	2.63103	2.747174	-177.6671	
15:30:09	47.44597	-122.3112	48.568	48.57447	9.42035	15.15	14.96761	100	0	26	-2.883556	2.976592	-176.7579	
15:30:11	47.44571	-122.3112	48.679	48.67589	5.432419	15.19	15.00475	100	0	26	-4.226137	2.851231	179.786	
15:30:12	47.44552	-122.3112	48.788	48.81424	12.423	15.21	15.05473	100	0	26	-2.109716	3.070373	177.2212	
15:30:14	47.44527	-122.3112	48.908	48.9377	9.346108	15.22	15.07366	100	0	26	0.08243017	3.022494	177.1264	
15:30:16	47.44503	-122.3112	49.058	49.05505	8.275117	15.22	15.07092	100	0	26	0.7314522	3.013244	178.7386	
15:30:17	47.44481	-122.3112	49.181	49.19269	10.72963	15.26	15.10017	100	0	26	0.2795107	3.091859	-179.7266	
15:30:19	47.44456	-122.3112	49.323	49.32361	6.494644	15.26	15.09605	100	0	26	-0.9161034	2.971879	-179.2961	
15:30:21	47.44433	-122.3112	49.436	49.42448	6.906933	15.28	15.11579	100	0	26	-1.460257	2.984383	-179.89	
15:30:23	47.44409	-122.3112	49.524	49.53487	7.149491	15.28	15.11765	100	0	26	-1.196537	3.00494	179.3645	
15:30:24	47.44389	-122.3112	49.618	49.61647	5.563996	15.28	15.11939	100	0	26	-0.9545433	2.980533	178.9669	
15:30:26	47.44366	-122.3112	49.704	49.71318	4.076184	15.27	15.11027	100	0	46	-14.53975	3.479097	177.6065	
15:30:28	47.44341	-122.3111	50.845	51.07445	277.1186	16.57	15.75745	100	0	74	-44.7784	13.72156	133.5864	
15:30:29	47.44333	-122.3107	58.362	57.62911	507.4691	15.61	15.58175	100	0	75	-46.97596	21.32178	61.01461	
15:30:31	47.44347	-122.3105	67.452	66.91075	541.9809	14.11	15.01413	100	0	76	-4.903349	22.93296	24.26508	
15:30:33	47.44368	-122.3103	76.14	75.05874	331.4164	15.74	16.23849	100	0	75	40.61299	15.76275	44.47197	
15:30:34	47.44377	-122.31	80.628	80.81959	372.4178	17.33	16.7559	100	0	75	41.92118	16.45046	100.0795	
15:30:36	47.44365	-122.3097	87.594	87.47272	489.8814	17.68	17.09027	100	0	74	0.2354663	19.02063	126.4697	
15:30:38	47.4435	-122.3094	93.937	93.99174	349.6717	18.64	18.0623	100	0	52	-31.17405	14.08797	108.963	
15:30:40	47.44343	-122.309	98.433	98.28665	122.536	18.31	17.66201	100	0	30	-24.25232	5.941519	85.30515	
15:30:41	47.44347	-122.3085	98.918	99.16754	-19.90761	17.46	17.46131	100	0	18	-5.288985	1.039708	72.56091	
15:30:43	47.44353	-122.3081	97.376	97.78545	-86.62642	17.02	17.07209	100	0	21	8.413596	-0.3214629	76.05553	
15:30:45	47.44357	-122.3078	96.186	96.61249	-29.45511	16.83	16.87902	100	0	24	9.0737	2.073383	86.73265	
15:30:46	47.44356	-122.3074	96.367	96.35081	25.74091	16.28	15.61707	100	0	29	0.4888227	4.788971	93.40408	
15:30:48	47.44355	-122.307	97.57	97.21178	35.00632	15.69	15.21687	100	0	29	-4.531408	5.001081	90.57346	
15:30:50	47.44355	-122.3067	98.331	98.15952	29.64009	15.4	15.03628	100	0	28	-1.61427	4.287233	87.091	
15:30:51	47.44356	-122.3064	98.597	98.62385	11.86617	15.22	14.92704	100	0	28	1.768748	3.647031	87.26782	
15:30:53	47.44357	-122.306	98.624	98.67632	9.45587	15.14	14.85902	100	0	29	2.291473	3.947364	90.05022	
15:30:55	47.44357	-122.3057	98.862	98.83632	12.33087	15.03	14.77569	100	0	29	0.7658006	4.279086	92.09293	
15:30:56	47.44357	-122.3054	99.084	99.08829	13.0106	14.97	14.71036	100	0	29	-0.4894769	4.357758	92.60345	
15:30:58	47.44356	-122.305	99.625	99.45148	12.43567	14.91	14.66017	100	0	29	-0.8540194	4.16549	92.11584	
15:31:00	47.44355	-122.3047	99.958	99.85856	10.53741	14.92	14.68268	100	0	28	-0.5596712	3.779006	91.69376	
15:31:02	47.44355	-122.3043	100.157	100.1018	5.814014	14.95	14.72441	100	0	28	-0.1505391	3.45823	91.70332	
15:31:03	47.44355	-122.304	100.222	100.2202	3.525826	14.99	14.77755	100	0	27	-0.1922374	3.311643	92.07122	
15:31:05	47.44355	-122.3037	100.22	100.2344	1.202706	15.02	14.8128	100	0	27	-0.548045	3.327819	92.1442	
15:31:07	47.44354	-122.3033	100.232	100.2205	-0.7769201	15.05	14.84099	100	0	27	-0.8539836	3.331556	91.75121	
15:31:08	47.44354	-122.303	100.414	100.3341	2.937837	15.07	14.86044	100	0	27	-0.7435441	3.275877	91.33189	
15:31:10	47.44354	-122.3027	100.562	100.5115	2.683255	15.07	14.86279	100	0	26	-0.4682812	3.065005	91.17901	
15:31:12	47.44354	-122.3027	100.587	100.5473	-4.506121	15.07	14.86344	100	0	26	-0.3634648	2.694328	91.17714	
15:31:13	47.44353	-122.3021	100.458	100.5027	3.866856	15.21	15.01042	100	0	25	-0.6521212	2.985517	90.88445	
15:31:15	47.44353	-122.3021	100.442	100.513	6.979703	15.21	15.01049	100	0	25	-0.6028691	3.372339	90.69239	
15:31:17	47.44353	-122.3013	100.147	100.2526	-22.44493	15.29	15.08853	100	0	25	-0.2778371	2.436199	90.4435	
15:31:18	47.44353	-122.301	99.678	99.79544	-3.765338	15.47	15.27515	100	0	26	-0.7345043	3.335534	90.39835	
15:31:20	47.44352	-122.3006	99.795	99.78684	8.786981	15.34	15.1233	100	0	26	-1.241536	3.878213	89.79517	
15:31:22	47.44352	-122.3002	100.099	99.97463	3.506658	15.23	15.01796	100	0	26	-1.089708	3.466847	89.05677	
15:31:24	47.44352	-122.2999	100.165	100.1392	2.884059	15.2	14.98353	100	0	26	-0.7945871	3.208101	88.66608	
15:31:25	47.44352	-122.2996	100.502	100.3571	4.061432	15.17	14.95794	100	0	25	-0.3862477	2.901081	88.69978	
15:31:27	47.44352	-122.2995	100.502	100.5107	4.64184	15.17	14.95898	100	0	24	-0.1717011	2.715061	88.89266	
15:31:29	47.44352	-122.2989	100.603	100.5619	3.522352	15.19	14.98091	100	0	35	-3.671598	2.534443	88.95702	
15:31:30	47.44354	-122.2986	100.768	101.0691	163.5096	16.07	15.79396	100	0	74	-42.94121	9.773442	54.84413	
15:31:32	47.44375	-122.2984	107.068	106.6443	453.8085	15.85	16.0339	100	0	74	-54.30912	18.31935	-24.96586	
15:31:34	47.44389	-122.2986	115.267	115.7283	587.549	14.1	14.86224	100	0	75	-30.98973	23.95308	-94.31297	
15:31:35	47.44386	-122.2988	123.333	124.1842	403.2689	13.91	14.96316	100	0	75	28.35848	18.09991	-104.967	
15:31:37	47.44385	-122.2992	130.057	129.8377	269.6836	16.09	16.30651	100	0	75	51.73055	14.43332	-54.95224	
15:31:39	47.44407	-122.2994	135.101	134.8806	379.4958	17.06	16.73583	100	0	75	44.20287	16.89575	16.94293	
15:31:41	47.44426	-122.2992	142.043	142.5219	523.5982	16.53	16.07124	100	0	76	-1.92738	20.01939	45.8562	
15:31:42	47.44445	-122.299	150.617	150.2215	383.4313	17.81	17.48707	100	0	77	-39.80676	14.97595	22.44982	
15:31:44	47.44475	-122.2989	157.731	157.4547	500.1736	18.57	17.77457	100	0	77	-31.79439	17.48227	-20.59402	
15:31:46	47.44497	-122.2991	165.35	165.7072	515.5412	18.4	18.37083	100	0	77	6.219809	17.64843	-33.68399	
15:31:47	47.44523	-122.2993	173.792	173.5702	435.6444	19.1	18.60904	100	0	76	24.14524	15.65891	-18.00155	
15:31:49	47.4454	-122.2993	178.115	180.183	429.1579	19.46	18.78542	100	0	75	14.62064	16.14498	2.502712	
15:31:51	47.44571	-122.2993	186.389	185.1426	389.9828	19.54	18.3812	100	0	76	4.39858	16.69808	12.95784	
15:31:52	47.44612	-122.2992	196.94	191.2248	336.7141	20.8	19.75621	100	0	49	-6.135178	10.68204	15.83002	
15:31:54	47.44643	-122.2992	198.529	199.3227	78.70728	20.19	18.8251	100	0	19	-12.05425	2.508847	3.077762	
15:31:56	47.44674	-122.2993	190.653	194.1868	-241.8669	21.1	19.09439	100	0	29	6.100952	-0.2213821	-3.54582	
15:31:58	47.44705	-122.2995	184.28	186.5476	-116.3657	22.51	21.34969	100	0	25	19.97622	6.936939	4.616922	
15:31:59	47.44712	-122.2995	183.966	184.5615	53.86664	22.19	21.44733	100	0	26	26.84083	12.59054	21.28552	
15:32:01	47.44764	-122.2996	190.542	185.1313	-35.91348	16.37	18.69471	100	0	32	24.88425	9.936587	39.44433	
15:32:03	47.44785	-122.2995	193.858	192.1773	215.1293	14.59	16.99386	100	0	33	-9.173446	11.01798	38.95209	
15:32:04	47.44806	-122.2995	196.287	196.5301	168.3833	13.93	12.8784	100	0	42	-13.95098	10.18368	12.73197	
15:32:06	47.44828	-122.2995	197.374	198.1376	140.5871	14.65	12.22424	100	0	42	9.535076	11.10591	1.79177	
15:32:08	47.44851	-122.2996	198.619	198.7561	89.04144	15.13	14.10021	100	0	38	17.30888	10.19592	16.28164	
15:32:09	47.44869	-122.2996	200.136	200.1599	88.30384	14.58	15.03107	100	0	29	5.767328	9.433652	28.74248	
15:32:11	47.44893	-122.2995	201.971	200.7919	33.52721	13.77	14.54433	100	0	28	-6.931397	7.333494	34.21441	
15:32:13	47.44914	-122.2994	202.076	202.1053	27.5364	13.81	13.43019	100	0	29	-12.80023	4.903778	19.13529	
15:32:14	47.44933	-122.2994	202.29	202.4178	36.46058	13.73	12.48161	100	0	32	-9.526734	5.295134	2.201599	
15:32:16	47.44952	-122.2994	203.119	202.9425	20.9327	13.52	11.81465	100	0	33	-2.1352	4.776463	-6.066633	
15:32:18	47.44976	-122.2995	203.572	203.2987	-19.036	13.8	12.47518	100	0	31	-0.9170412	2.905763	-6.497039	
15:32:20	47.44995	-122.2995	203.46	203.3448	-21.51201	13.97	13.10049	100	0	28	-3.888189	2.654778	-7.043273	
15:32:21	47.45018	-122.2995	202.945	202.9195	-45.27295	14.1	13.41416	100	0	28	-6.446759	1.903286	-10.64933	
15:32:23	47.45037	-122.2995	202.555	202.3735	-41.94633	14.22	12.95376	100	0	32	-6.874823	1.935744	-15.56294	
15:32:25	47.4506	-122.2995	202.226	202.0907	-23.57305	14.49	13.50535	100	0	30	-5.659532	2.466271	-19.71873	
15:32:26	47.45084	-122.2995	202.172	201.9695	-32.71959	14.45	13.81366	100	0	29	-3.280865	2.090802	-21.3094	
15:32:28	47.45106	-122.2995	201.801	201.6367	-45.18356	14.58	14.0493	100	0	29	-2.60976	1.635503	-20.65505	
15:32:30	47.45126	-122.2995	201.267	201.1666	-36.00364	14.77	14.31509	100	0	29	-2.921382	2.152941	-19.70908	
15:32:31	47.45153	-122.2996	200.566	200.6239	-36.14092	14.97	14.5567	100	0	30	-3.60709	2.501752	-19.22478	
15:32:33	47.45174	-122.2996	200.118	200.1364	-25.27067	15.08	14.77104	100	0	30	-3.348787	3.070384	-19.39095	
15:32:35	47.45195	-122.2996	200.123	199.9657	-14.12096	15.12	14.85784	100	0	31	-2.461684	3.399171	-18.92989	
15:32:37	47.45199	-122.2996	200.111	199.9729	-13.7837	15.12	14.86159	100	0	31	-2.026067	3.146641	-18.70429	
15:32:38	47.45238	-122.2996	199.84	199.8079	-15.3187	15.26	14.97752	100	0	31	-1.359729	3.172827	-17.53159	
15:32:40	47.45266	-122.2997	199.563	199.587	-10.70467	15.36	15.02824	100	0	31	-1.186792	3.52689	-15.32218	
15:32:42	47.45287	-122.2997	199.493	199.4915	-7.267391	15.44	15.10855	100	0	21	-6.723855	3.763197	-13.44926	
15:32:43	47.45311	-122.2997	197.895	197.5011	-355.7945	15.07	15.18981	100	0	4	-33.13056	-10.18635	-30.49243	
15:32:45	47.45331	-122.3	189.529	190.3642	-483.0441	16.63	18.14216	100	0	4	-32.11262	-13.53359	-64.18811	
15:32:47	47.4534	-122.3003	180.922	182.4098	-338.8564	18.39	20.01175	100	0	4	-30.85945	-7.952827	-100.5327	
15:32:48	47.45333	-122.3007	176.927	177.4609	-146.751	18.24	20.24794	100	0	4	-16.46873	-2.759094	-128.4809	
15:32:50	47.45318	-122.301	175.503	175.2027	-160.1899	17.06	19.02487	100	0	4	8.412017	-4.230181	-130.5212	
15:32:52	47.45302	-122.3014	171.025	171.6303	-346.8814	17.02	18.28718	100	0	4	19.22788	-11.53505	-113.7972	
15:32:53	47.45297	-122.3017	165.59	165.221	-388.4559	18.02	19.26677	100	0	4	14.96296	-12.00774	-92.62532	
15:32:55	47.45298	-122.3021	157.47	158.4535	-323.161	19.35	20.2395	100	0	4	3.921629	-8.941529	-79.11546	
15:32:57	47.45305	-122.3026	151.007	152.0205	-362.1817	19.68	20.58216	100	0	4	-7.380666	-8.889006	-77.39622	
15:32:59	47.45309	-122.303	145.341	145.0223	-434.0732	19.92	20.3629	100	0	4	-11.20655	-10.44913	-83.03349	
15:33:00	47.45312	-122.3035	137.654	137.9112	-457.4756	20.46	20.64333	100	0	4	-8.17718	-11.60531	-89.13378	
15:33:02	47.45311	-122.3039	130.135	130.5081	-453.8681	20.99	21.01585	100	0	4	-3.414077	-11.69116	-91.90838	
15:33:04	47.45309	-122.3044	122.939	122.8019	-449.3285	21.35	21.30451	100	0	4	0.2285172	-11.66172	-91.54367	
15:33:05	47.45308	-122.3048	116.174	115.272	-460.4611	21.59	21.51287	100	0	4	0.8006288	-11.99711	-89.712	
15:33:07	47.45308	-122.3052	109.285	108.118	-430.6226	21.82	21.75282	100	0	4	-0.2543894	-12.04931	-88.25867	
15:33:09	47.45308	-122.3058	99.552	100.0854	-447.9628	22.07	21.96161	100	0	4	-1.116285	-11.3221	-88.04714	
15:33:10	47.45308	-122.3064	93.048	93.47965	-223.7084	21.75	21.58178	100	0	4	-1.564136	-4.322924	-88.85616	
15:33:12	47.45309	-122.3068	90.87	90.503	-160.0994	20.29	19.97542	100	0	4	-1.196268	-2.636607	-89.60915	
15:33:14	47.45308	-122.3073	88.302	88.03035	-186.6817	18.73	18.3768	100	0	4	-0.6287289	-3.800504	-89.91328	
15:33:16	47.45308	-122.3077	84.722	85.16351	-174.9423	17.81	17.62899	100	0	8	-0.1379286	-3.55507	-89.76862	
15:33:17	47.45308	-122.3081	82.17	82.58041	-126.4832	17.35	17.09255	100	0	14	-0.4935773	-1.581465	-89.56926	
15:33:19	47.45309	-122.3083	81.068	80.85772	-62.14933	17.05	16.76225	100	0	18	-0.916186	1.027918	-89.85622	
15:33:21	47.45309	-122.3083	81.068	80.75465	-23.3299	17.05	16.76225	100	0	17	-1.209633	3.514384	-90.22141	
15:33:22	47.45308	-122.3092	80.148	80.24265	-91.84457	15.44	15.1556	100	0	25	-0.8786238	2.363586	-90.23531	
15:33:24	47.45308	-122.3095	78.691	78.20592	-99.84034	16.02	15.79616	100	0	26	1.848501	1.634961	-87.80175	
15:33:26	47.45308	-122.3095	78.246	78.32624	57.03257	16.27	16.07362	100	0	27	2.350709	10.16334	-85.13968	
15:33:27	47.4531	-122.3103	79.693	78.89726	-132.6191	15.32	14.99919	100	0	29	-0.7773402	1.763924	-81.88863	
15:33:29	47.45311	-122.3106	77.526	77.76273	-23.80062	16.78	16.71123	100	0	24	-3.111843	3.964636	-83.64467	
15:33:31	47.45311	-122.3108	77.134	77.64456	76.81903	16.92	16.79971	100	0	24	-0.5820415	6.962922	-85.85978	
15:33:33	47.4531	-122.3114	78.147	77.90226	58.79387	15.84	15.58834	100	0	28	1.290621	8.249653	-85.98553	
15:33:34	47.45308	-122.3117	77.302	77.40321	-124.2183	16.48	15.86821	100	0	36	-37.64754	1.455856	-105.5845	
15:33:36	47.45294	-122.312	75.576	76.07283	25.39206	17.7	16.51645	100	0	44	-45.25274	7.341254	-156.9386	
15:33:38	47.45268	-122.312	77.034	76.88642	105.5587	17.12	16.42673	100	0	44	-46.7873	10.99334	148.1225	
15:33:39	47.45253	-122.3117	81.027	79.83655	136.8483	15.07	15.73236	100	0	28	-29.06568	12.50878	102.2386	
15:33:41	47.45253	-122.3114	84.366	83.10404	-1.775778	13.2	14.23904	100	0	20	1.349713	3.527107	89.23604	
15:33:43	47.45253	-122.3111	83.146	83.15745	-80.84484	13.61	13.94314	100	0	20	10.5462	-1.822013	99.86927	
15:33:44	47.4525	-122.3109	81.135	81.76517	-19.21268	14.28	14.23051	100	0	22	13.47412	0.8441333	117.1264	
15:33:46	47.45238	-122.3105	80.029	80.67211	20.85736	14.31	13.98003	100	0	26	8.460544	3.800336	133.49	
15:33:48	47.45228	-122.3104	80.094	80.3502	16.63847	14.14	13.5822	100	0	29	0.4731497	4.450861	139.9841	
15:33:49	47.4521	-122.3101	80.528	80.4373	8.435997	14.04	13.52373	100	0	29	-3.940491	3.977983	138.6258	
15:33:51	47.45193	-122.3098	80.738	80.64185	6.397691	14.34	13.82381	100	0	28	0.2579454	3.43755	135.0129	
15:33:53	47.45181	-122.3096	80.848	80.82668	3.884269	14.5	14.14731	100	0	27	3.81559	2.803579	136.9039	
15:33:55	47.45171	-122.3095	80.784	80.8313	5.175283	14.63	14.344	100	0	26	3.024787	2.584493	141.0137	
15:33:56	47.45147	-122.3091	80.785	80.83883	6.660004	14.77	14.57173	100	0	25	1.992475	2.381154	144.2542	
15:33:58	47.45131	-122.309	80.799	80.83085	1.511457	14.8	14.60421	100	0	25	-2.567377	2.230621	142.7864	
15:34:00	47.45113	-122.3087	80.606	80.6918	-3.592077	14.9	14.68133	100	0	25	-2.789709	2.070799	138.935	
15:34:01	47.45095	-122.3085	80.419	80.52081	1.385421	15.01	14.75294	100	0	25	-0.3245719	2.376238	136.8018	
15:34:03	47.4508	-122.3083	80.297	80.37433	-0.6908531	15.05	14.8295	100	0	25	1.08091	2.439031	137.323	
15:34:05	47.45065	-122.308	80.219	80.27109	-0.6241315	15.08	14.89728	100	0	25	0.6388637	2.509495	138.5204	
15:34:06	47.45046	-122.3078	80.109	80.16434	-1.943678	15.12	14.94286	100	0	26	-0.5061015	2.510649	138.6722	
15:34:08	47.45027	-122.3076	79.999	80.05775	0.5170544	15.17	14.98653	100	0	26	-1.238462	2.66481	137.7829	
15:34:10	47.45012	-122.3074	79.961	79.99746	0.3856975	15.18	15.00917	100	0	26	-0.8282858	2.668146	136.6844	
15:34:12	47.44995	-122.3071	79.91	79.95906	1.802599	15.21	15.02494	100	0	26	-0.5014805	2.746	136.1736	
15:34:13	47.44976	-122.3069	79.868	79.9023	-1.030952	15.23	15.03282	100	0	26	0.1612226	2.708422	136.3403	
15:34:15	47.4496	-122.3066	79.855	79.87486	2.407863	15.24	15.05268	100	0	26	0.1627644	2.849733	136.8549	
15:34:17	47.44943	-122.3064	79.86	79.88905	2.25971	15.25	15.06295	100	0	26	-0.4912335	2.831682	137.0161	
15:34:18	47.44928	-122.3062	79.812	79.85791	1.920765	15.26	15.07654	100	0	26	-0.6845717	2.902237	136.7391	
15:34:20	47.4491	-122.306	79.786	79.80704	0.4783121	15.27	15.08772	100	0	26	-0.8628153	2.919727	136.393	
15:34:22	47.449	-122.3058	79.793	79.82685	6.21154	15.28	15.09994	100	0	26	-0.6893812	3.119389	135.7772	
15:34:23	47.449	-122.3058	79.793	79.83674	7.196453	15.28	15.09994	100	0	26	-0.2948989	3.275111	135.0274	
15:34:25	47.44858	-122.3053	79.734	79.81385	-1.746355	15.34	15.14372	100	0	26	-4.143718	3.039942	136.8753	
15:34:27	47.44841	-122.305	79.127	79.1347	-36.68052	15.67	15.2952	100	0	28	-12.01845	1.867478	116.3868	
15:34:28	47.44827	-122.3047	79.41	79.41873	41.40081	15.5	15.22532	100	0	27	-0.6478681	4.481453	126.9513	
15:34:30	47.44814	-122.3045	79.604	79.39656	-83.00671	15.46	15.44981	100	0	34	-36.27147	0.5490057	102.7336	
15:34:32	47.44815	-122.3041	77.837	78.30788	-13.67263	16.47	16.73235	100	0	33	-42.03085	2.939715	51.14317	
15:34:34	47.44835	-122.3039	77.086	77.66082	25.74235	16.47	17.02077	100	0	34	-42.73079	5.12866	-2.198587	
15:34:35	47.44856	-122.304	77.234	77.49837	49.20102	15.98	16.18648	100	0	35	-40.17681	6.876617	-55.05814	
15:34:37	47.44865	-122.3043	78.843	78.63589	112.4801	14.92	15.35599	100	0	32	-26.73833	9.068275	-99.63882	
15:34:39	47.4486	-122.3046	81.153	80.74924	59.72095	13.72	13.89636	100	0	29	-13.10062	6.259381	-120.6027	
15:34:40	47.44847	-122.3049	81.361	81.25801	-41.5725	14.1	14.19502	100	0	27	-17.72487	1.454735	-141.3432	
15:34:42	47.44832	-122.305	80.848	80.97388	-28.36004	14.4	14.4522	100	0	29	29.71725	2.220505	-142.2866	
15:34:44	47.4482	-122.3053	79.212	79.38535	-52.97442	15.47	14.83932	100	0	38	41.51176	2.639524	-87.10177	
15:34:45	47.4483	-122.3056	78.641	79.09143	51.23792	15.87	15.89396	100	0	37	44.78642	6.023687	-26.06557	
15:34:47	47.44851	-122.3057	79.408	79.45804	42.20123	15.31	15.78978	100	0	34	40.92377	7.313035	32.66905	
15:34:49	47.44867	-122.3054	80.78	80.50671	48.44842	14.49	14.98486	100	0	28	24.52711	7.81674	74.25982	
15:34:51	47.44869	-122.3051	81.308	81.00585	-54.52673	14.3	14.75688	100	0	28	27.0917	3.574199	99.79839	
15:34:52	47.44859	-122.3048	80.013	80.10246	-68.15649	15.15	15.23101	100	0	30	33.65847	3.0277	138.2262	
15:34:54	47.44839	-122.3047	79.275	79.39749	-5.613988	15.64	15.33214	100	0	33	36.64737	5.840685	-177.2865	
15:34:56	47.44816	-122.3048	79.705	79.51984	18.06056	15.5	15.11506	100	0	35	38.02743	7.40052	-131.9659	
15:34:57	47.44808	-122.3051	80.864	80.34461	8.66901	15.09	14.91148	100	0	34	36.89708	7.073502	-88.45936	
15:34:59	47.44814	-122.3054	81.693	81.2015	-16.89607	14.79	14.76099	100	0	30	34.64529	4.592259	-46.56163	
15:35:01	47.44832	-122.3056	81.512	81.39054	-16.46464	14.72	15.03613	100	0	25	29.36732	3.618653	-6.683356	
15:35:02	47.44855	-122.3055	80.757	80.94514	-47.05713	14.62	15.02897	100	0	26	28.89224	2.613571	27.21369	
15:35:04	47.44872	-122.3053	79.442	79.69228	-59.41169	15.01	15.26356	100	0	30	33.83074	3.003785	66.71684	
15:35:06	47.44874	-122.305	78.712	78.8231	-4.362814	15.3	15.32384	100	0	33	36.44323	5.802332	111.7059	
15:35:07	47.44859	-122.3047	79.641	79.26796	34.5199	15.05	14.83156	100	0	35	37.11004	7.173732	157.4078	
15:35:09	47.44839	-122.3047	80.844	80.45045	32.72695	14.79	14.656	100	0	32	36.12474	6.092405	-158.7888	
15:35:11	47.44821	-122.3049	81.314	81.20547	-0.4801855	14.7	14.73097	100	0	29	34.7449	3.864619	-116.0123	
15:35:13	47.44817	-122.3052	80.807	81.01705	-21.29699	14.85	14.82504	100	0	28	33.73469	2.885835	-73.30141	
15:35:14	47.44831	-122.3055	79.74	80.19805	-21.85128	15.09	15.20941	100	0	29	34.84316	3.265949	-29.40573	
15:35:16	47.44853	-122.3055	79.048	79.35735	-11.45466	15.09	15.26241	100	0	31	35.55106	4.783172	15.4885	
15:35:18	47.44868	-122.3054	79.022	79.06881	4.672188	14.99	14.86151	100	0	34	35.36964	5.93558	59.61596	
15:35:19	47.44876	-122.3051	79.259	79.22694	19.51029	15.07	15.02347	100	0	33	35.88361	6.083674	105.0186	
15:35:21	47.44864	-122.3048	79.986	79.7862	24.74689	14.96	15.12137	100	0	32	36.16987	6.004046	150.2764	
15:35:23	47.44843	-122.3047	80.661	80.45306	12.43034	14.83	14.78596	100	0	31	34.86495	4.921287	-166.5357	
15:35:24	47.44823	-122.3049	80.614	80.69453	2.16445	14.93	14.82436	100	0	29	34.34386	3.940881	-123.6003	
15:35:26	47.44816	-122.3052	80.203	80.401	-6.44488	15.04	15.03421	100	0	30	35.00362	3.694366	-79.96539	
15:35:28	47.44825	-122.3055	79.889	80.04237	-5.291731	15.02	14.97764	100	0	31	34.8566	4.360074	-36.09666	
15:35:30	47.44846	-122.3056	79.501	79.67157	-4.804904	15.05	15.05799	100	0	32	35.27454	4.629735	8.30153	
15:35:31	47.44867	-122.3054	79.309	79.41743	1.594624	15.03	15.0582	100	0	33	35.70011	5.110433	53.15869	
15:35:33	47.44875	-122.3051	79.563	79.44387	13.56783	14.93	15.04486	100	0	32	35.38472	5.62138	98.89877	
15:35:35	47.44865	-122.3048	80.269	79.97198	21.58662	14.77	14.80925	100	0	32	35.09074	5.383988	144.2148	
15:35:36	47.44847	-122.3047	80.882	80.72287	19.28939	14.69	14.56607	100	0	31	34.33886	4.303893	-171.8853	
15:35:38	47.44823	-122.3049	80.638	80.91347	3.564576	14.92	14.999	100	0	28	34.46957	3.158067	-127.4179	
15:35:40	47.44816	-122.3052	80.062	80.39854	-10.03417	15.05	15.08601	100	0	29	34.77395	3.455905	-82.89948	
15:35:41	47.44825	-122.3055	79.372	79.68615	-11.30072	15.17	15.12121	100	0	31	35.477	4.47226	-38.27834	
15:35:43	47.44848	-122.3056	79.144	79.24001	-3.438326	15.12	15.12045	100	0	33	35.68021	5.629419	6.548322	
15:35:45	47.44866	-122.3055	79.452	79.29662	6.520095	14.98	14.89363	100	0	34	35.51114	6.289706	50.80815	
15:35:46	47.44875	-122.3052	80.113	79.76777	8.36861	14.85	14.80103	100	0	33	34.63841	5.935605	94.58737	
15:35:48	47.44867	-122.3049	80.673	80.34026	0.8671882	14.85	14.90487	100	0	31	34.77539	4.521543	137.9756	
15:35:50	47.44852	-122.3047	80.811	80.73299	8.377119	14.92	15.06989	100	0	28	33.69276	4.028649	-178.6514	
15:35:52	47.44829	-122.3048	80.412	80.62418	-1.618281	15.13	15.11261	100	0	29	34.7273	2.791992	-134.4374	
15:35:53	47.44816	-122.3051	79.638	80.01729	2.3151	15.29	15.29304	100	0	29	35.43197	3.539759	-89.28201	
15:35:55	47.44822	-122.3054	79.224	79.52203	6.763984	15.23	15.20724	100	0	32	36.0314	4.56186	-43.97484	
15:35:57	47.44839	-122.3056	79.183	79.31234	10.03819	15.08	15.09687	100	0	33	35.77934	5.659017	1.806409	
15:35:58	47.44864	-122.3055	79.459	79.38393	3.5848	14.9	14.98264	100	0	33	35.30024	5.546221	46.25312	
15:36:00	47.44873	-122.3052	79.823	79.62557	7.19661	14.8	14.92012	100	0	32	34.90742	5.739728	91.18535	
15:36:02	47.44866	-122.3049	80.439	80.08183	3.453877	14.73	14.77621	100	0	32	34.82364	5.235848	135.174	
15:36:03	47.44849	-122.3047	80.81	80.5952	3.977938	14.8	14.68607	100	0	31	34.41925	4.555465	178.4955	
15:36:05	47.44826	-122.3048	80.689	80.78976	-1.496157	15.02	14.79543	100	0	30	34.6775	3.736973	-138.1168	
