Date	Latitude(deg) 	Longitude(deg)	hamsl(m)	hafl(m)	climbrate(cm/s)	GroundSpeed(m/s)	Airspeed(m/s)	Mav_Link(%)	Rssi_Link(%)	Throttle	Roll(deg)	Pitch(deg)	Yaw(deg)
15:58:52	0	0	0	-0.142793	-0.4052093	0	3	39	0	4	0.09071345	0.2622524	58.93694	
15:58:54	0	0	0	-0.9482446	-27.1431	0	3	50	0	6	0.1310387	0.3038479	59.24711	
15:58:56	0	0	0	-0.05501544	11.14866	0	3	60	0	4	0.1563482	0.3219384	59.49071	
15:58:58	0	0	0	0.3322398	11.96192	0	3	66	0	4	0.1704548	0.3025576	59.61367	
15:58:59	0	0	0	-0.2885343	-22.56203	0	3	70	0	5	0.1507875	0.2826284	59.66375	
15:59:01	0	0	0	-0.2155181	-9.494459	0	3	75	0	4	0.1239101	0.2261297	59.60044	
15:59:03	0	0	0	0.05374773	1.1959	0	3	78	0	5	0.08482014	0.141377	59.51998	
15:59:04	0	0	0	0.04458272	-4.294845	0	3	80	0	5	0.06824929	0.1127961	59.41965	
15:59:06	0	0	0	-0.1164352	-12.15433	0	3	83	0	4	0.08959031	0.116858	59.33792	
15:59:08	47.4469	-122.3168	16.031	13.66926	564.6169	33.17	33.17989	84	0	4	-3.066609	-1.262986	49.19534	
15:59:09	47.4469	-122.3168	16.031	20.15429	481.677	33.17	33.17989	86	0	5	-4.426779	-1.041184	39.90971	
15:59:11	47.4469	-122.3168	16.031	19.06199	175.2623	33.17	33.00268	87	0	5	-5.553659	-0.8189166	33.23946	
15:59:13	47.4469	-122.3168	16.031	17.07809	16.98059	33.17	33.00268	89	0	5	-6.207026	-1.039436	24.23317	
15:59:14	47.4469	-122.3168	16.031	16.14351	-13.98781	33.17	32.98946	90	0	4	-6.636314	-1.098181	16.94522	
15:59:16	47.4469	-122.3168	16.031	15.99658	-1.079864	33.17	32.96612	91	0	5	-6.935368	-1.009094	11.29559	
15:59:18	47.4469	-122.3168	16.031	16.08698	11.43555	33.17	32.93777	91	0	5	-6.900166	-0.8619992	5.871282	
15:59:19	47.4469	-122.3168	16.031	16.15919	15.13577	33.17	32.80823	92	0	4	-6.907638	-0.6010544	1.928324	
15:59:21	47.4469	-122.3168	16.031	16.17274	13.7815	33.17	32.70245	93	0	4	-6.898723	-0.3024307	-0.9506632	
15:59:23	47.4469	-122.3168	16.031	16.1586	11.793	33.17	31.48098	93	0	5	-6.625042	0.03663134	-3.036988	
15:59:25	47.4469	-122.3168	16.031	16.14409	10.60016	33.17	31.57256	94	0	4	-6.442344	0.3527532	-4.36819	
15:59:26	47.4469	-122.3168	16.031	16.13375	9.771231	33.17	32.10337	94	0	4	-6.289608	0.6249467	-5.171124	
15:59:28	47.4407	-122.3181	0.02	11.03649	-212.138	0	9.343677	95	0	4	-6.544478	-0.9562654	-7.401525	
15:59:30	47.4407	-122.3181	0.02	-2.352782	-564.5377	0	5.212341	95	0	4	-3.654599	0.09672195	-11.36963	
15:59:31	47.4407	-122.3181	0.02	-3.79214	-315.755	0	4.058788	96	0	4	-1.26739	0.5657489	-13.53427	
15:59:33	47.4407	-122.3181	0.02	-1.88521	-70.35332	0	3	96	0	4	0.2592967	0.5354258	-12.732	
15:59:35	47.4407	-122.3181	0.02	-0.3303601	20.04889	0	3	96	0	4	1.313011	0.5570236	-11.3232	
15:59:36	47.4407	-122.3181	0.02	0.1522083	20.49285	0	3	96	0	4	2.051353	0.5290267	-9.699977	
15:59:38	47.4407	-122.3181	0.02	0.1171259	2.606484	0	3	97	0	4	2.526187	0.425243	-7.115385	
15:59:40	47.4407	-122.3181	0.02	-0.0009020285	-7.47833	0	3	97	0	5	2.846794	0.3611765	-4.998294	
15:59:41	47.4407	-122.3181	0.02	-0.0592676	-9.557137	0	3	97	0	4	3.061273	0.308892	-3.216543	
15:59:43	47.4407	-122.3181	0.02	-0.06662598	-8.017802	0	3	97	0	4	3.041296	0.2220371	-0.9303578	
15:59:45	47.4407	-122.3181	0.02	-0.05065264	-6.010086	0	3	97	0	4	3.018186	0.2057149	0.7357883	
15:59:47	47.4407	-122.3181	0.02	-0.03570995	-4.979075	0	3	98	0	4	3.003381	0.2077899	1.941193	
15:59:48	47.4407	-122.3181	0.02	-0.02755611	-4.346287	0	3	98	0	5	2.77976	0.1916746	3.319619	
15:59:50	47.4407	-122.3181	0.02	-0.02164546	-3.595144	0	3	98	0	5	2.628507	0.2074385	4.219585	
15:59:52	47.4407	-122.3181	0.02	-0.01498476	-3.005319	0	3	98	0	4	2.522647	0.230311	4.793542	
15:59:53	47.4407	-122.3181	0.02	-0.008188936	-2.578655	0	3	98	0	5	2.267695	0.2299985	5.348374	
15:59:55	47.4407	-122.3181	0.02	-0.004247074	-2.140673	0	3	98	0	4	2.076638	0.2384992	5.61475	
15:59:57	47.4407	-122.3181	0.02	-0.0006783748	-1.847377	0	3	98	0	5	1.955248	0.244928	5.708912	
15:59:58	47.4407	-122.3181	0.02	0.003709716	-1.450945	0	3	98	0	5	1.713495	0.2386165	5.690981	
16:00:00	47.4407	-122.3181	0.02	0.006900162	-0.9598802	0	3	99	0	5	1.54878	0.2583432	5.547229	
16:00:02	47.4407	-122.3181	0.02	0.01294512	-0.2242754	0	3	99	0	5	1.434425	0.2605477	5.353127	
16:00:03	47.4407	-122.3181	0.02	0.01700458	-0.2687185	0	3	99	0	4	1.248859	0.2424896	5.039278	
16:00:05	47.4407	-122.3181	0.02	0.01679252	-0.2524665	0	3	99	0	5	1.113042	0.2177028	4.700575	
16:00:07	47.4407	-122.3181	0.02	0.01649454	-0.4042619	0.21	3	99	0	37	0.9892398	-0.0176004	3.738477	
16:00:09	47.44073	-122.3181	0.022	-0.005644113	-7.096761	5.79	6.16665	99	0	98	0.4207573	1.217149	-3.748756	
16:00:10	47.44093	-122.3181	0.089	0.08113546	70.00578	16.7	16.51665	99	0	100	3.92791	4.915158	5.423553	
16:00:12	47.44123	-122.318	2.951	2.451519	211.8551	21.68	21.73283	99	0	98	5.84475	5.832856	13.88022	
16:00:14	47.44154	-122.318	6.551	6.42689	225.4516	24.46	25.13524	99	0	100	2.381711	4.634582	18.52443	
16:00:15	47.44194	-122.3178	10.452	9.906007	181.7267	27.09	27.36686	99	0	100	0.8522802	3.310332	20.37807	
16:00:17	47.44235	-122.3175	13.381	13.08833	165.2291	29.04	29.21233	99	0	100	0.3962176	2.403043	21.26364	
16:00:19	47.44274	-122.3173	15.36	15.4014	114.4034	30.32	30.41608	99	0	98	-0.2557573	1.448175	21.23908	
16:00:20	47.44321	-122.317	16.753	16.78573	76.63439	31.28	31.27791	99	0	98	0.1679501	1.085897	22.16393	
16:00:22	47.44361	-122.3168	17.617	17.62281	39.35047	31.8	31.812	99	0	100	0.3477804	0.6158779	23.05621	
16:00:24	47.4441	-122.3165	18.366	18.34367	42.63486	32.29	32.25857	99	0	100	0.6181818	0.7316644	24.26087	
16:00:26	47.44453	-122.3162	18.733	18.7313	14.11098	32.58	32.51537	99	0	100	0.4929375	0.3162313	25.23058	
16:00:27	47.44499	-122.3158	18.512	18.68791	-2.217974	32.76	32.66553	99	0	98	0.3430631	0.2653151	26.37853	
16:00:29	47.44542	-122.3155	17.775	18.06966	-30.39198	32.84	32.68229	99	0	98	0.4647608	0.1311856	27.59428	
16:00:31	47.44583	-122.3152	17.444	17.30131	-42.95716	32.88	32.70975	99	0	98	0.5924773	0.1213728	29.2861	
16:00:32	47.44617	-122.3149	17.188	16.96879	-25.16075	32.89	32.70478	99	0	98	0.6594137	0.1859189	30.33914	
16:00:34	47.44624	-122.3148	17.194	17.00704	-8.678915	32.91	32.71908	99	0	98	1.969145	0.3176976	32.41548	
16:00:36	47.4471	-122.314	14.935	15.47129	-71.59447	33.19	32.97628	99	0	98	-0.2768293	-0.08731151	33.72108	
16:00:37	47.44755	-122.3136	13.577	13.75756	-81.15603	33.33	33.13174	99	0	98	-0.5638019	0.0451665	33.02591	
16:00:39	47.44801	-122.3131	12.778	12.57282	-70.89987	33.38	33.18886	99	0	98	-1.177884	0.08155199	31.42181	
16:00:41	47.44834	-122.3128	12.394	12.09298	-44.93681	33.32	33.12104	99	0	100	-1.392389	0.05129021	29.18318	
16:00:42	47.44886	-122.3124	12.388	12.13801	-11.13082	33.14	32.96233	99	0	100	-1.238976	0.1155996	26.27476	
16:00:44	47.44928	-122.3121	12.441	12.3689	8.822405	32.86	32.66093	99	0	98	-1.33355	0.1386888	22.89561	
16:00:46	47.44973	-122.3118	12.567	12.5772	12.17593	32.42	32.30795	99	0	100	-1.366985	0.1086661	19.33907	
16:00:48	47.4501	-122.3116	12.862	12.80045	11.11836	32.15	31.99716	99	0	100	-0.9846168	0.04844873	15.30617	
16:00:49	47.45068	-122.3113	13.355	13.2402	18.57729	31.78	31.72579	99	0	98	-0.9477243	0.0634096	11.40943	
16:00:51	47.45112	-122.3111	13.756	13.67741	24.9507	31.5	31.37616	99	0	100	-0.3805043	0.1357699	7.356974	
16:00:53	47.45142	-122.311	13.808	13.97082	17.16305	31.42	31.33689	99	0	100	-0.8430858	-0.0605312	4.223422	
16:00:54	47.4515	-122.311	13.847	13.87184	-6.966061	31.35	31.28299	99	0	100	1.507428	-0.156264	1.071286	
16:00:56	47.45251	-122.3109	16.108	15.3251	77.51028	31.01	31.15332	99	0	98	4.859069	0.4211978	3.382458	
16:00:58	47.453	-122.3108	17.848	17.61587	107.6042	31.56	31.46705	99	0	100	3.698641	0.4196366	5.413253	
16:00:59	47.45353	-122.3107	19.411	19.29203	98.06532	32.08	31.87407	99	0	100	2.591961	0.3584698	7.973263	
16:01:01	47.45396	-122.3106	20.444	20.4833	78.64175	32.31	32.11326	99	0	98	1.906183	0.2685468	10.39014	
16:01:03	47.45448	-122.3104	21.477	21.46558	64.80347	32.46	31.76578	99	0	98	1.266403	0.218668	12.09692	
16:01:04	47.45493	-122.3103	22.254	22.22487	52.02527	32.63	32.04678	99	0	100	0.9221364	0.1593841	13.81607	
16:01:06	47.45542	-122.3101	23.057	22.97483	31.28419	32.36	32.0139	99	0	91	0.8856107	-0.1284568	15.05168	
16:01:08	47.45587	-122.3099	23.183	23.21564	17.38262	32.11	31.7824	99	0	91	0.5363609	-0.1771975	16.38654	
16:01:10	47.45609	-122.3098	23.305	23.41923	22.33835	32.01	31.67978	99	0	91	0.4521056	0.02332814	18.12033	
16:01:11	47.45679	-122.3095	25.081	23.95295	49.80813	31.59	31.26719	99	0	91	-0.5945773	0.8915899	19.36087	
16:01:13	47.45723	-122.3092	25.761	25.46201	61.14152	31.6	31.30303	99	0	89	0.8077116	0.03785839	20.34125	
16:01:15	47.45758	-122.309	26.134	26.51652	63.30463	31.6	31.3103	99	0	91	0.5992935	0.05346631	21.4881	
16:01:16	47.45758	-122.309	26.134	26.67079	47.88256	31.6	31.3103	99	0	91	1.192573	0.3244423	21.87675	
16:01:18	47.45853	-122.3084	26.538	26.61842	8.095736	31.76	31.49668	99	0	91	0.1955931	-0.0646493	23.88643	
16:01:20	47.45898	-122.3081	27.115	26.93502	16.43544	31.7	31.51383	99	0	71	0.5336297	-0.1108738	25.37593	
16:01:21	47.45945	-122.3077	27.203	27.16041	-1.250416	30.15	30.01248	99	0	70	0.4591326	-0.6192297	26.62834	
16:01:23	47.45978	-122.3075	26.804	27.02725	-6.51278	29.51	29.17581	99	0	70	0.5221373	-0.6502075	27.82431	
16:01:25	47.46009	-122.3072	26.789	26.68218	4.797435	29.08	28.82224	99	0	70	0.2974103	-0.2830222	28.84093	
16:01:26	47.46018	-122.3072	26.987	27.06472	21.69772	28.98	28.6964	99	0	47	-0.4428369	-0.6310468	30.80977	
16:01:28	47.46363	-122.3078	0.021	21.07775	-273.9421	0	3	99	0	4	0.7374412	2.376417	33.98564	
16:01:30	47.46363	-122.3078	0.02	-3.510587	-955.4955	0	3	99	0	4	0.7161959	1.703083	44.86239	
16:01:31	47.46363	-122.3078	0.02	-6.515548	-611.0336	0	3	99	0	4	0.4246105	1.2748	50.25652	
16:01:33	47.46363	-122.3078	0.02	-3.568648	-144.2843	0	3	99	0	4	0.3136669	0.8916657	65.22503	
16:01:35	47.46363	-122.3078	0.02	-0.660475	47.37114	0	3	99	0	4	0.2754039	0.6429398	84.73913	
16:01:37	47.46363	-122.3078	0.02	0.4323781	62.34435	0	3	99	0	4	0.1725681	0.4842047	105.3309	
16:01:38	47.46363	-122.3078	0.02	0.4417386	30.63617	0	3	99	0	5	0.05507392	0.3670438	127.8395	
16:01:40	47.46363	-122.3078	0.02	0.2217532	8.791479	0	3	99	0	4	-0.06785818	0.3346978	147.6665	
16:01:42	47.46363	-122.3078	0.02	0.08817236	2.613399	0	3	99	0	4	-0.1818181	0.3110425	163.2572	
16:01:43	47.46363	-122.3078	0.02	0.05525493	3.231725	0	3	99	0	4	-0.2731096	0.2904823	177.1412	
16:01:45	47.46363	-122.3078	0.02	0.05982732	4.373138	0	3	99	0	5	-0.3557624	0.2961743	-171.9949	
16:01:47	47.46363	-122.3078	0.02	0.0599219	3.643268	0	3	99	0	4	-0.4169687	0.3077754	-164.0348	
16:01:48	47.46363	-122.3078	0.02	0.05557349	3.513568	0	3	99	0	4	-0.4518771	0.2543012	-158.1597	
16:01:50	47.46363	-122.3078	0.02	0.05608355	3.603539	0	3	99	0	4	-0.4859394	0.2096125	-153.7449	
16:01:52	47.46363	-122.3078	0.02	0.05405642	3.125799	0	3	99	0	4	-0.5142214	0.1776695	-150.5258	
16:01:53	47.46363	-122.3078	0.02	0.05069114	2.930822	0	3	99	0	4	-0.5157736	0.1264894	-149.27	
16:01:55	47.46363	-122.3078	0.02	0.04840838	2.700638	0	3	99	0	4	-0.5119103	0.0770357	-148.6049	
16:01:57	47.46363	-122.3078	0.02	0.04588049	2.437634	0	3	99	0	4	-0.5086579	0.04753444	-148.101	
16:01:59	47.46363	-122.3078	0.02	0.04178645	1.681676	0	3	99	0	5	-0.4852343	0.02350897	-149.0245	
16:02:00	47.46363	-122.3078	0.02	0.03122196	0.4861749	0	3	99	0	4	-0.4296412	0.01715897	-147.9119	
16:02:02	47.46363	-122.3078	0.02	0.02889471	1.172183	0	3	99	0	5	-0.4336308	-0.01287724	-146.8767	
16:02:04	47.46363	-122.3078	0.02	0.02958151	1.285612	0	3	99	0	5	-0.4595207	-0.0243262	-141.2007	
16:02:05	47.46363	-122.3078	0.02	0.02988551	0.7995012	0	3	99	0	4	-0.4403391	-0.05666091	-139.1458	
16:02:07	47.46363	-122.3078	0.02	0.02699663	0.7711874	0	3	99	0	4	-0.3677704	-0.09647703	-142.8841	
16:02:09	47.46363	-122.3078	0.02	0.03114176	1.409837	0	3	99	0	4	-0.3259562	-0.113813	-146.9696	
16:02:10	47.46363	-122.3078	0.02	0.03517776	1.652474	0	3	99	0	5	-0.2811771	-0.1267231	-150.895	
16:02:12	47.46363	-122.3078	0.02	0.03048049	0.4187731	0	3	99	0	5	-0.2375825	-0.1205763	-152.7555	
16:02:14	47.46363	-122.3078	0.02	0.02698979	0.4107941	0	3	99	0	4	-0.1956222	-0.09737492	-154.2431	
16:02:15	47.46363	-122.3078	0.02	0.02622269	0.8021952	0	3	99	0	4	-0.1715987	-0.1039786	-158.8042	
16:02:17	47.46363	-122.3078	0.02	0.02941773	1.061468	0	3	99	0	4	-0.1440549	-0.08261188	-162.7197	
16:02:19	47.46363	-122.3078	0.02	0.03048634	1.110113	0	3	99	0	4	-0.1293685	-0.05613016	-165.9862	
16:02:21	47.46363	-122.3078	0.02	0.03056185	1.067315	0	3	99	0	4	-0.1181192	-0.04312372	-168.7675	
16:02:22	47.46363	-122.3078	0.02	0.03046283	1.019729	0	3	99	0	5	-0.1047904	-0.02795149	-171.4015	
16:02:24	47.46363	-122.3078	0.02	0.02716541	0.3098556	0	3	99	0	5	-0.1004248	-0.01133493	-173.3322	
16:02:26	47.46363	-122.3078	0.02	0.0173181	-0.8100709	0	3	99	0	5	-0.08950217	-0.003701793	-174.8648	
16:02:27	47.46363	-122.3078	0.02	0.01290204	-0.7790786	0	3	99	0	5	-0.07740355	0.005068534	-176.1741	
16:02:29	47.46363	-122.3078	0.02	0.01313854	-0.5634077	0	3	99	0	4	-0.06498688	-0.003029974	-177.1335	
16:02:31	47.46363	-122.3078	0.02	0.02074395	0.6364368	0	3	99	0	4	-0.05933714	-0.0174147	-177.8243	
16:02:32	47.46363	-122.3078	0.02	0.02656828	0.8317651	0	3	99	0	5	-0.05680916	-0.01492042	-178.3007	
16:02:34	47.46363	-122.3078	0.02	0.0248331	0.007201754	0	3	99	0	4	-0.05231949	0.004363156	-178.6537	
16:02:36	47.46363	-122.3078	0.02	0.01793235	-0.5558134	0	3	99	0	4	-0.04132277	0.006252233	-178.8642	
16:02:37	47.46363	-122.3078	0.02	0.0164032	-0.4398453	0	3	99	0	5	-0.03630867	0.01461812	-178.8813	
16:02:39	47.46363	-122.3078	0.02	0.01552053	-0.3744065	0	3	70	0	5	-0.02743752	0.01334812	-178.8992	
16:02:41	47.46363	-122.3078	0.02	0.01723318	-0.3108009	0	3	72	0	4	-0.02566156	0.01052171	-178.8633	
16:02:42	47.46363	-122.3078	0.02	0.01876367	0.1923078	0	3	73	0	4	-0.0214257	0.00495362	-178.6604	
16:02:44	47.46363	-122.3078	0.02	0.02293114	0.5512707	0	3	75	0	4	-0.02011507	-0.00145963	-178.5149	
16:02:46	47.46363	-122.3078	0.02	0.02533552	0.4633473	0	3	76	0	5	-0.02513188	0.002337664	-178.3546	
16:02:48	47.46363	-122.3078	0.02	0.02137432	-0.16207	0	3	77	0	5	-0.01954326	0.01467635	-178.0928	
16:02:49	47.46363	-122.3078	0.02	0.01532876	-0.6099504	0	3	79	0	4	-0.01062815	-0.005985736	-177.8988	
16:02:51	47.46363	-122.3078	0.02	0.01792903	0.06166606	0	3	80	0	4	-0.01136102	-0.005969929	-177.7146	
16:02:53	47.46363	-122.3078	0.02	0.02218143	0.261012	0	3	59	0	5	-0.01552841	-0.001976685	-177.4687	
16:02:54	47.46363	-122.3078	0.02	0.01990815	-0.3513595	0	3	61	0	5	-0.01161763	0.005064826	-177.291	
16:02:56	47.46363	-122.3078	0.02	0.01541042	-0.4754356	0	3	63	0	4	-0.002991773	0.005021039	-177.1341	
16:02:58	47.46363	-122.3078	0.02	0.02026047	0.4824002	0	3	65	0	4	-0.003590944	0.000373754	-176.9291	
16:02:59	47.46363	-122.3078	0.02	0.02981771	0.9183431	0.11	3	66	0	41	0.2372111	-0.00368806	-177.7851	
16:03:01	47.46361	-122.3078	0.021	0.02827927	1.539498	3.95	4.174617	68	0	58	0.3898784	1.407204	174.4569	
16:03:03	47.46351	-122.3077	0.024	0.05025435	5.076625	9.5	9.915488	70	0	58	0.5636517	1.460519	-176.1391	
16:03:05	47.46331	-122.3078	0.027	0.082013	3.834787	14.31	14.31305	71	0	62	1.088881	0.6404666	-174.691	
16:03:06	47.46308	-122.3078	0.03	0.06508884	4.201929	17.8	18.24239	73	0	62	1.211953	0.8810979	-173.0143	
16:03:08	47.46278	-122.3078	0.03	0.1280802	9.819057	20.42	20.73985	74	0	65	1.422742	1.092028	-173.3744	
16:03:10	47.46246	-122.3079	0.033	0.1067398	5.390884	22.05	22.1387	75	0	59	1.166519	1.179043	-178.7404	
16:03:11	47.46215	-122.3079	0.032	0.09235167	2.730635	22.46	22.52782	77	0	61	1.34434	1.269226	178.4221	
16:03:13	47.46178	-122.3079	0.031	0.08374326	6.739144	22.97	22.94815	78	0	59	1.318477	1.467856	175.4936	
16:03:15	47.46141	-122.3079	0.033	-0.03096865	-5.518697	23.46	23.42559	79	0	59	1.342626	0.8350232	173.5694	
16:03:16	47.46103	-122.3078	0.031	0.1112739	17.02959	23.89	23.86918	81	0	59	0.8421504	1.090111	171.9549	
16:03:18	47.46072	-122.3077	0.033	0.110509	6.073012	24.17	24.13571	82	0	59	0.9789758	1.078039	170.9934	
16:03:20	47.46031	-122.3077	0.031	0.06685051	0.5458874	23.93	24.0281	83	0	40	1.126555	0.9624875	171.4635	
16:03:21	47.46007	-122.3076	0.029	0.03365823	7.075961	22.94	22.76261	84	0	40	1.083988	0.9262507	173.7768	
16:03:23	47.45967	-122.3076	0.03	0.1834486	20.09212	22.14	21.94046	85	0	43	1.423445	0.6943555	175.3291	
16:03:25	47.45932	-122.3076	0.03	0.1973923	9.056384	22.03	21.81837	86	0	44	1.323981	0.3112378	176.1554	
16:03:27	47.45895	-122.3075	0.029	0.1360589	4.705115	22.03	21.83497	87	0	44	0.8049219	0.289572	176.5199	
16:03:28	47.45865	-122.3075	0.03	0.02928391	-11.0212	22.01	21.83492	87	0	44	0.7520992	0.08195998	176.648	
16:03:30	47.45834	-122.3075	0.028	-0.08404925	-12.21166	22	21.83865	88	0	44	0.6887059	-0.4382514	176.5924	
16:03:32	47.45795	-122.3075	0.031	-0.0835861	-7.796493	22.09	21.93957	89	0	44	0.6420258	-0.4087669	176.3127	
16:03:33	47.45763	-122.3075	0.029	-0.01043199	0.8010283	22.13	22.00257	90	0	44	0.6472184	-0.4551888	175.8757	
16:03:35	47.4573	-122.3075	0.029	-0.01874802	-2.407316	22.22	22.10176	90	0	83	0.9333517	-0.6212801	175.5894	
16:03:37	47.45691	-122.3075	0.055	0.0655342	17.10094	26.6	25.91562	91	0	100	-0.2809561	0.03209304	174.428	
16:03:38	47.45652	-122.3075	0.98	0.9642801	90.09019	29.35	29.51052	91	0	100	-0.2759536	0.7958491	173.4913	
16:03:40	47.45603	-122.3074	3.05	2.722017	104.1232	31	30.99828	92	0	100	0.1832266	0.6815736	173.0987	
16:03:42	47.45552	-122.3074	5.049	4.663396	102.7008	31.93	31.87951	92	0	100	0.6380202	0.4258446	172.858	
16:03:43	47.45509	-122.3073	6.518	6.469568	105.1122	32.35	32.31364	93	0	100	0.5567981	0.3772548	172.8714	
16:03:45	47.45465	-122.3073	8.1	8.151087	98.83014	32.67	32.62401	93	0	100	0.7844405	0.2608933	172.9246	
16:03:47	47.4546	-122.3073	8.335	8.754266	61.76372	32.7	32.65376	94	0	23	-0.8309127	0.2063144	172.4312	
16:03:49	47.45427	-122.3072	9.57	9.61425	51.16731	32.84	32.75767	94	0	5	-3.284734	0.2133401	172.4796	
16:03:50	47.45427	-122.3072	9.57	9.795942	10.22933	32.84	32.70634	95	0	4	-4.65101	0.3112074	173.8986	
16:03:52	47.46363	-122.3077	0.02	2.010322	-300.7943	0	3	95	0	5	-2.330323	2.914458	177.6732	
16:03:54	47.46363	-122.3077	0.02	-2.197401	-279.5133	0	3	95	0	4	-1.354032	2.24173	-179.6519	
16:03:55	47.46363	-122.3077	0.02	-2.114297	-160.738	0	3	96	0	5	-0.4350664	1.603759	-178.3072	
16:03:57	47.46363	-122.3077	0.02	-0.9251644	-29.47261	0	3	96	0	4	-0.0248267	1.270227	-177.106	
16:03:59	47.46363	-122.3077	0.02	-0.1322823	10.9341	0	3	96	0	5	0.2563283	0.9401011	-176.2717	
16:04:00	47.46363	-122.3077	0.02	0.08883642	10.84966	0.2	3	96	0	61	0.7622275	0.7927631	-177.2285	
16:04:02	47.46359	-122.3077	0.022	0.1014904	9.075944	5.75	4.688959	97	0	61	0.769991	2.276671	178.3678	
16:04:04	47.46346	-122.3077	0.024	0.1015655	6.745192	11.23	11.10256	97	0	61	1.218053	1.576439	-174.0454	
16:04:05	47.46328	-122.3078	0.027	0.03208095	-1.57209	15.06	15.45518	97	0	61	1.232543	1.016961	-172.4012	
16:04:07	47.46299	-122.3078	0.031	0.002334586	-2.27657	18.59	18.67292	97	0	61	1.360836	0.620268	-170.8496	
16:04:09	47.46272	-122.3078	0.031	0.02887263	3.408871	20.71	21.01786	97	0	61	1.454224	0.7058796	-170.2589	
16:04:11	47.46237	-122.3079	0.033	0.02270282	1.386537	22.41	22.52571	97	0	61	1.529743	0.6768902	-170.5021	
16:04:12	47.46201	-122.308	0.034	0.02969311	-0.281845	23.47	23.50733	98	0	61	1.623662	0.7787072	-171.2806	
16:04:14	47.46167	-122.308	0.031	0.0008394602	-19.57395	24.03	24.06337	98	0	59	0.46157	0.7687144	-173.2191	
16:04:16	47.46128	-122.3081	0.036	0.1023523	33.05517	24.18	24.15956	98	0	58	1.603859	0.5884877	-178.0461	
16:04:17	47.46093	-122.3081	0.037	0.186231	-0.9907916	23.72	23.64599	98	0	59	1.226692	0.9218662	174.3703	
16:04:19	47.46056	-122.3081	0.031	-0.03192187	-11.05097	23.47	23.20045	98	0	59	0.8850994	1.219174	167.8547	
16:04:21	47.46021	-122.308	0.032	-0.09649013	-5.200204	23.3	23.09129	98	0	59	0.3923919	1.014859	162.3087	
16:04:22	47.45989	-122.3079	0.029	-0.4481793	-90.66948	23.57	23.48703	98	0	59	0.2819668	0.02233319	159.1876	
16:04:24	47.45952	-122.3077	0.031	-0.5494548	-35.20122	24.23	24.07788	98	0	59	0.4691654	0.09567218	159.8317	
16:04:26	47.45917	-122.3075	0.029	-0.1182936	13.01643	22.42	22.57323	98	0	5	0.1551967	-0.1762665	162.3263	
16:04:28	47.45886	-122.3074	0.028	0.05508305	0.2019994	19.02	19.14284	99	0	41	-0.03996022	0.2059317	168.4025	
16:04:29	47.45861	-122.3073	0.035	-0.1579621	23.91835	21.41	21.29564	99	0	100	-1.638226	8.062204	171.2432	
16:04:31	47.45838	-122.3073	4.287	3.5875	-110.8474	23.24	22.78915	99	0	100	-0.1597138	1.257915	171.516	
16:04:33	47.45838	-122.3073	4.287	3.035121	-306.4861	23.24	22.78915	99	0	98	-0.6027608	-3.903676	171.9961	
16:04:34	47.45743	-122.3072	8.653	8.214523	538.8135	25.6	24.54154	99	0	100	0.8225697	12.06881	176.2672	
16:04:36	47.457	-122.3071	18.07	15.32308	168.2008	28.22	26.95762	99	0	100	0.3404073	3.152988	178.9939	
16:04:38	47.45659	-122.3071	21.883	21.21428	214.3305	29.64	28.67341	99	0	98	0.549852	1.784041	-178.4655	
16:04:39	47.45606	-122.3072	24.497	24.69818	185.3279	31.07	30.53279	99	0	100	0.6056017	0.9009408	-176.7537	
16:04:41	47.45562	-122.3072	25.672	26.28449	117.7591	32.01	31.63916	99	0	98	0.594619	0.4482799	-175.4704	
16:04:43	47.45515	-122.3073	25.724	26.43672	46.337	32.64	32.44755	99	0	100	0.8295805	0.07285235	-174.3579	
16:04:44	47.4546	-122.3074	25.421	25.84545	2.847373	33.28	33.06137	99	0	98	0.7329561	-0.001243875	-173.3026	
16:04:46	47.45415	-122.3074	24.797	25.11115	-18.59559	33.53	33.3706	99	0	100	0.4545082	-0.1262084	-172.5193	
16:04:48	47.45361	-122.3076	23.647	24.12086	-27.79208	33.73	33.55044	99	0	98	0.7399278	-0.04624979	-171.6018	
16:04:50	47.45335	-122.3076	23.072	23.05958	-31.74732	33.8	33.60411	99	0	98	0.8462424	0.02131878	-170.5851	
16:04:51	47.45335	-122.3076	23.072	22.98196	-23.86754	33.8	33.60411	99	0	100	1.688546	0.3180636	-169.3326	
16:04:53	47.45226	-122.308	0.861	3.78254	-1248.528	26.4	27.10185	99	0	100	30.27998	7.085396	167.5566	
16:04:55	47.45226	-122.308	0.861	-13.56987	-2420.35	26.4	24.17213	99	0	100	127.3887	33.67931	-162.2986	
16:04:56	47.45226	-122.308	0.861	-31.4278	-3994.579	26.4	21.66075	99	0	55	-130.924	-14.0521	-127.1341	
16:04:58	47.46363	-122.3077	0.02	-29.11798	-2175.761	0	7.265815	99	0	5	-76.09283	-32.44099	-152.4311	
16:05:00	47.46363	-122.3077	0.019	-13.89216	-530.7936	0	7.265815	99	0	4	-55.07604	-24.00199	-162.163	
16:05:01	47.46363	-122.3077	0.019	-6.121661	67.75861	0	7.265815	99	0	28	-36.23947	-15.18311	-169.0322	
16:05:03	47.46363	-122.3077	0.019	-0.7894353	516.5304	0	6.902525	99	0	80	-21.4897	-5.138069	-169.2737	
16:05:05	47.46363	-122.3077	0.024	5.88964	789.6854	0	6.557398	99	0	5	-12.71175	6.898904	-165.914	
16:05:06	47.46363	-122.3077	0.02	7.732423	812.8484	0	5.550184	99	0	28	-5.036746	0.1220123	-161.9986	
16:05:08	47.46363	-122.3077	0.019	7.631787	717.9658	0	3	99	0	5	0.3081363	2.527453	-163.6791	
16:05:10	47.46363	-122.3077	0.02	6.776587	625.0171	0	3	99	0	5	3.863688	3.638635	-167.6782	
16:05:11	47.46363	-122.3077	0.02	5.935962	544.1216	0	3	99	0	4	6.415096	5.363477	-172.9402	
16:05:13	47.46363	-122.3077	0.02	5.162745	473.1886	0	3	99	0	4	8.066748	6.746695	-178.3605	
16:05:15	47.46363	-122.3077	0.02	4.510916	414.418	0	3	99	0	4	8.998018	7.756468	176.1518	
16:05:17	47.46363	-122.3077	0.02	3.968367	365.995	0	3	99	0	5	9.239427	8.22631	170.3874	
16:05:18	47.46363	-122.3077	0.02	3.517639	325.4507	0	3	99	0	5	9.529486	8.420197	165.8408	
16:05:20	47.46363	-122.3077	0.02	3.130681	290.2606	0	3	99	0	5	9.664926	8.339232	161.9887	
16:05:22	47.46363	-122.3077	0.02	2.805381	261.6019	0	3	99	0	5	9.38395	7.780638	158.658	
16:05:23	47.46363	-122.3077	0.02	2.538245	237.4561	0	3	99	0	4	9.351193	7.241484	156.5211	
16:05:25	47.46363	-122.3077	0.02	2.299634	214.6127	0	3	99	0	4	9.300195	6.634692	155.1656	
16:05:27	47.46363	-122.3077	0.02	2.092325	196.6781	0	3	72	0	4	8.817379	5.657448	154.5582	
16:05:28	47.46363	-122.3077	0.02	1.925282	181.2845	0	3	73	0	4	8.534111	4.89607	154.6587	
16:05:30	47.46363	-122.3077	0.02	1.766881	165.5415	0	3	57	0	5	8.272288	4.278986	155.1792	
16:05:32	47.46363	-122.3077	0.02	1.613414	150.5857	0	3	59	0	5	7.611497	3.490681	156.4367	
16:05:33	47.46363	-122.3077	0.02	1.476478	138.1453	0	3	61	0	5	7.151713	2.898026	157.9224	
16:05:35	47.46363	-122.3077	0.02	1.354814	126.7914	0	3	62	0	4	6.776031	2.432237	159.4487	
16:05:37	47.46363	-122.3077	0.02	1.247437	116.9186	0	3	64	0	4	6.04413	1.847049	161.6392	
16:05:39	47.46363	-122.3077	0.02	1.149919	107.3435	0	3	66	0	4	5.518016	1.485747	163.6662	
16:05:40	47.46363	-122.3077	0.02	1.053405	97.87486	0	3	67	0	4	5.092361	1.262263	165.5527	
16:05:42	47.46363	-122.3077	0.02	0.9650625	89.65566	0	3	69	0	4	4.445868	0.9746603	167.8683	
16:05:44	47.46363	-122.3077	0.02	0.8855161	81.98975	0	3	71	0	5	3.982806	0.8151782	169.8858	
16:05:45	47.46363	-122.3077	0.02	0.8050222	73.99006	0	3	72	0	4	3.645384	0.7473408	171.6411	
16:05:47	47.46363	-122.3077	0.02	0.7340484	67.59993	0	3	74	0	5	3.123804	0.6031055	173.6046	
16:05:49	47.46363	-122.3077	0.02	0.669406	61.27481	0	3	75	0	5	2.754092	0.5495318	175.2908	
16:05:50	47.46363	-122.3077	0.02	0.6043165	54.60026	0	3	76	0	5	2.480417	0.5372641	176.7098	
16:05:52	47.46363	-122.3077	0.02	0.5443991	49.47683	0	3	78	0	4	2.108262	0.4724776	178.1668	
16:05:54	47.46363	-122.3077	0.02	0.5010357	45.85164	0	3	79	0	4	1.842018	0.4465608	179.4153	
16:05:55	47.46363	-122.3077	0.02	0.46274	42.00272	0	3	80	0	4	1.650316	0.445328	-179.546	
16:05:57	47.46363	-122.3077	0.02	0.422822	37.94917	0	3	81	0	4	1.385218	0.410535	-178.5842	
16:05:59	47.46363	-122.3077	0.02	0.3830778	34.07898	0	3	82	0	4	1.197347	0.3838826	-177.7477	
16:06:01	47.46363	-122.3077	0.02	0.3461123	30.33731	0	3	83	0	4	1.051302	0.3906154	-177.0555	
16:06:02	47.46363	-122.3077	0.02	0.3112853	27.32845	0	3	84	0	4	0.881516	0.363019	-176.4989	
16:06:04	47.46363	-122.3077	0.02	0.2804254	24.18984	0	3	85	0	5	0.7535659	0.3514683	-176.0053	
16:06:06	47.46363	-122.3077	0.02	0.2525138	21.95777	0	3	86	0	4	0.6679646	0.3501945	-175.5978	
16:06:07	47.46363	-122.3077	0.02	0.2318675	19.84932	0	3	87	0	4	0.5555596	0.3161616	-175.3441	
16:06:09	47.46363	-122.3077	0.02	0.210629	17.93656	0	3	88	0	4	0.4717597	0.291111	-175.1023	
16:06:11	47.46363	-122.3077	0.02	0.1907968	15.83734	0	3	89	0	5	0.4071913	0.265478	-174.8888	
16:06:12	47.46363	-122.3077	0.02	0.1683801	13.43612	0	3	89	0	5	0.3332983	0.2706142	-174.8307	
16:06:14	47.46363	-122.3077	0.02	0.1473965	11.91581	0	3	90	0	5	0.286468	0.2395891	-174.7453	
16:06:16	47.46363	-122.3077	0.02	0.1387676	11.57253	0	3	91	0	4	0.2479254	0.2213178	-174.6598	
16:06:17	47.46363	-122.3077	0.02	0.1318858	10.58727	0	3	91	0	5	0.195232	0.1937706	-174.6941	
16:06:19	47.46363	-122.3077	0.02	0.1199469	9.450247	0	3	92	0	4	0.1697863	0.1714307	-174.7147	
16:06:21	47.46363	-122.3077	0.02	0.1100069	8.143428	0	3	92	0	5	0.1504347	0.1625895	-174.71	
16:06:23	47.46363	-122.3077	0.02	0.09299053	6.328535	0	3	93	0	4	0.1171345	0.1974539	-174.8013	
16:06:24	47.46363	-122.3077	0.02	0.07925019	5.330325	0	3	93	0	4	0.09188937	0.2283906	-174.8698	
16:06:26	47.46363	-122.3077	0.02	0.07152037	4.809036	0	3	94	0	4	0.07465652	0.2495202	-174.9168	
16:06:28	47.46363	-122.3077	0.02	0.06811181	4.799193	0	3	94	0	5	0.06106336	0.2143295	-175.029	
16:06:29	47.46363	-122.3077	0.02	0.06615134	4.26622	0	3	94	0	5	0.04799514	0.1940612	-175.1164	
16:06:31	47.46363	-122.3077	0.02	0.06069246	3.834722	0	3	95	0	4	0.04836713	0.1489944	-175.1723	
16:06:33	47.46363	-122.3077	0.02	0.06158334	4.407926	0	3	95	0	4	0.03739749	0.0949787	-175.2641	
16:06:34	47.46363	-122.3077	0.02	0.06519573	4.620584	0	3	95	0	5	0.03073129	0.06105131	-175.3322	
16:06:36	47.46363	-122.3077	0.02	0.06389872	4.196025	0	3	96	0	4	0.02650026	0.04369806	-175.3728	
16:06:38	47.46363	-122.3077	0.02	0.05964767	3.588978	0	3	96	0	4	0.03679904	0.02711494	-175.4502	
16:06:39	47.46363	-122.3077	0.02	0.05265239	2.976843	0	3	96	0	4	0.02679835	0.006887536	-175.5084	
16:06:41	47.46363	-122.3077	0.02	0.05002291	2.846673	0	3	96	0	5	0.01553025	-0.01355263	-175.5457	
16:06:43	47.46363	-122.3077	0.02	0.04249478	1.59969	0	3	97	0	4	0.009659866	-0.01884447	-175.5944	
16:06:45	47.46363	-122.3077	0.02	0.03611648	1.346551	0	3	97	0	4	0.01194919	-0.02350472	-175.633	
16:06:46	47.46363	-122.3077	0.02	0.03560722	1.760159	0	3	97	0	4	0.009371932	-0.02776001	-175.6592	
16:06:48	47.46363	-122.3077	0.02	0.03929483	2.134346	0	3	97	0	4	0.006447716	-0.04323979	-175.6932	
16:06:50	47.46363	-122.3077	0.02	0.04133141	2.155761	0	3	97	0	4	0.002822173	-0.04592546	-175.7197	
16:06:51	47.46363	-122.3077	0.02	0.04027347	1.853224	0	3	98	0	5	-0.0007841334	-0.03711731	-175.7377	
16:06:53	47.46363	-122.3077	0.02	0.03491207	1.142212	0	3	98	0	5	-0.003401208	-0.02785554	-175.7624	
16:06:55	47.46363	-122.3077	0.02	0.02853829	0.7027723	0	3	98	0	4	0.00348893	-0.01767773	-175.7814	
16:06:56	47.46363	-122.3077	0.02	0.02989795	1.177115	0	3	98	0	4	0.0008941049	-0.025529	-175.7954	
16:06:58	47.46363	-122.3077	0.02	0.03190347	1.227042	0	3	98	0	4	-0.0001303735	-0.03665769	-175.8107	
16:07:00	47.46363	-122.3077	0.02	0.03216857	1.229065	0	3	98	0	4	-0.000417091	-0.04003008	-175.8229	
16:07:01	47.46363	-122.3077	0.02	0.03084131	0.9507819	0	3	98	0	5	-0.002518802	-0.04992852	-175.8306	
16:07:03	47.46363	-122.3077	0.02	0.0283791	0.6594198	0	3	98	0	4	-0.006589408	-0.03715402	-175.8365	
16:07:05	47.46363	-122.3077	0.02	0.02759182	0.7882673	0	3	98	0	4	-0.005256209	-0.0331117	-175.8416	
16:07:07	47.46363	-122.3077	0.02	0.02729907	0.5580093	0	3	98	0	5	-0.01051128	-0.03575877	-175.8463	
16:07:08	47.46363	-122.3077	0.02	0.02275874	0.05693344	0	3	99	0	5	-0.00956584	-0.01785373	-175.8511	
16:07:10	47.46363	-122.3077	0.02	0.01751051	-0.3790238	0	3	99	0	5	-0.0005078021	-0.01604393	-175.857	
16:07:12	47.46363	-122.3077	0.02	0.01661354	-0.2981298	0	3	99	0	4	-0.001622623	-0.0007716126	-175.8622	
16:07:13	47.46363	-122.3077	0.02	0.02009012	0.366731	0	3	99	0	4	-0.001116113	-0.003343989	-175.868	
16:07:15	47.46363	-122.3077	0.02	0.02460005	0.7017493	0	3	99	0	4	-0.001914402	-0.005312249	-175.8719	
16:07:17	47.46363	-122.3077	0.02	0.02658072	0.7173535	0	3	99	0	4	-0.00192265	-0.009374252	-175.8746	
16:07:18	47.46363	-122.3077	0.02	0.02687985	0.5962961	0	3	99	0	4	-0.002134467	-0.01087885	-175.8767	
16:07:20	47.46363	-122.3077	0.02	0.02382047	0.0452246	0	3	99	0	5	-0.006108039	0.001191448	-175.879	
16:07:22	47.46363	-122.3077	0.02	0.01615176	-0.8418137	0	3	99	0	4	-0.000896665	0.006807081	-175.8821	
16:07:23	47.46363	-122.3077	0.02	0.0173764	-0.00757071	0	3	99	0	4	0.001163433	-0.002688788	-175.8847	
16:07:25	47.46363	-122.3077	0.02	0.02248412	0.4959905	0	3	99	0	4	0.001262927	-0.001477421	-175.8867	
16:07:27	47.46363	-122.3077	0.02	0.02484013	0.4975981	0	3	99	0	4	0.001196987	-0.008501492	-175.8884	
16:07:29	47.46363	-122.3077	0.02	0.02527908	0.4435486	0	3	99	0	5	0.001007247	-0.01084823	-175.8893	
16:07:30	47.46363	-122.3077	0.02	0.02240155	0.1518506	0	3	99	0	5	-0.002647975	-0.0005261304	-175.891	
16:07:32	47.46363	-122.3077	0.02	0.01805544	-0.6592015	0	3	99	0	4	-8.387639E-05	0.02555482	-175.8934	
16:07:34	47.46363	-122.3077	0.02	0.01320015	-0.7801685	0	3	99	0	5	-0.002324749	0.0006995195	-175.894	
16:07:35	47.46363	-122.3077	0.02	0.01254779	-0.859676	0	3	99	0	5	-0.0006856272	0.01151092	-175.8945	
16:07:37	47.46363	-122.3077	0.02	0.01169013	-0.6399245	0	3	99	0	4	0.005135701	0.01070673	-175.8953	
16:07:39	47.46363	-122.3077	0.02	0.01872223	0.4075535	0	3	99	0	4	0.003957904	0.0008051244	-175.8957	
16:07:40	47.46363	-122.3077	0.02	0.02468411	0.4730457	0	3	99	0	5	-0.003671523	0.00767687	-175.8959	
16:07:42	47.46363	-122.3077	0.02	0.01988133	-0.4315271	0	3	99	0	4	-0.000906616	0.02249082	-175.8962	
16:07:44	47.46363	-122.3077	0.02	0.01892758	0.1281033	0	3	99	0	4	0.00139013	0.01246673	-175.8945	
16:07:45	47.46363	-122.3077	0.02	0.02304474	0.4926601	0	3	99	0	5	-0.0007029502	0.001167179	-175.8923	
16:07:47	47.46363	-122.3077	0.02	0.02292938	0.1032152	0	3	99	0	4	0.001524437	0.00266877	-175.8903	
16:07:49	47.46363	-122.3077	0.02	0.02276772	0.3062043	0	3	99	0	4	0.0001363237	0.002436162	-175.8891	
16:07:51	47.46363	-122.3077	0.02	0.02433532	0.4625319	0	3	99	0	4	-0.0002355193	-0.00464821	-175.8867	
16:07:52	47.46363	-122.3077	0.02	0.02186199	-0.2426217	0	3	99	0	4	0.0009420664	0.003706597	-175.8853	
16:07:54	47.46363	-122.3077	0.02	0.01923638	0.03133271	0	3	99	0	4	0.001206375	-0.002550859	-175.8844	
16:07:56	47.46363	-122.3077	0.02	0.0210354	0.01897019	0	3	99	0	4	0.0002971671	0.001111869	-175.8835	
16:07:57	47.46363	-122.3077	0.02	0.02057816	0.07713018	0	3	99	0	4	0.002364577	-0.006259771	-175.8838	
16:07:59	47.46363	-122.3077	0.02	0.02041947	-0.1234477	0	3	99	0	4	-0.003616739	-0.005722522	-175.8837	
16:08:01	47.46363	-122.3077	0.02	0.02005874	-0.001097233	0	3	99	0	4	-0.0002791188	0.0007835019	-175.8845	
16:08:02	47.46363	-122.3077	0.02	0.01952087	-0.2298107	0	3	99	0	4	0.0006053836	-0.009050502	-175.8848	
16:08:04	47.46363	-122.3077	0.02	0.01339002	-1.039989	0	3	99	0	4	-0.006948138	-0.03168888	-175.8783	
16:08:06	47.46363	-122.3077	0.02	0.008908713	-1.243827	0	3	99	0	4	-0.01220901	-0.04723864	-175.8674	
16:08:07	47.46363	-122.3077	0.02	0.008340905	-1.1218	0	3	99	0	4	-0.01581888	-0.05789802	-175.8551	
16:08:09	47.46363	-122.3077	0.02	0.009647155	-0.9441083	0	3	99	0	5	-0.01799624	-0.06399943	-175.8424	
16:08:11	47.46363	-122.3077	0.02	0.01114985	-0.8082991	0	3	99	0	5	-0.01905004	-0.0664428	-175.8301	
16:08:13	47.46363	-122.3077	0.02	0.01227275	-0.7161652	0	3	99	0	4	-0.01977034	-0.06811854	-175.8205	
16:08:14	47.46363	-122.3077	0.02	0.0131283	-0.6431736	0	3	99	0	4	-0.019689	-0.06725899	-175.8122	
16:08:16	47.46363	-122.3077	0.02	0.01383091	-0.5781196	0	3	99	0	4	-0.01891359	-0.06415694	-175.8058	
16:08:18	47.46363	-122.3077	0.02	0.0144794	-0.5159737	0	3	99	0	5	-0.01838242	-0.06204265	-175.8018	
16:08:19	47.46363	-122.3077	0.02	0.01506651	-0.4613789	0	3	99	0	5	-0.01750704	-0.05886347	-175.7996	
16:08:21	47.46363	-122.3077	0.02	0.01557824	-0.4136988	0	3	99	0	4	-0.01607522	-0.05386401	-175.7993	
16:08:23	47.46363	-122.3077	0.02	0.01603647	-0.3710484	0	3	99	0	4	-0.01508391	-0.05040643	-175.8002	
16:08:24	47.46363	-122.3077	0.02	0.0164456	-0.3332099	0	3	99	0	4	-0.01399165	-0.04665629	-175.8023	
16:08:26	47.46363	-122.3077	0.02	0.01681169	-0.2989276	0	3	99	0	5	-0.01253108	-0.04170261	-175.8063	
16:08:28	47.46363	-122.3077	0.02	0.01713023	-0.2696026	0	3	99	0	5	-0.01153143	-0.0383117	-175.8105	
16:08:29	47.46363	-122.3077	0.02	0.0174197	-0.2416462	0	3	99	0	4	-0.01054552	-0.03498624	-175.815	
16:08:31	47.46363	-122.3077	0.02	0.01768987	-0.2159948	0	3	99	0	5	-0.009291708	-0.03078428	-175.8209	
16:08:33	47.46363	-122.3077	0.02	0.01793183	-0.1937207	0	3	99	0	4	-0.008418395	-0.02785517	-175.8262	
16:08:34	47.46363	-122.3077	0.02	0.01814426	-0.1739187	0	3	99	0	4	-0.007639117	-0.02524831	-175.8314	
16:08:36	47.46363	-122.3077	0.02	0.01833295	-0.1560132	0	3	99	0	4	-0.006640798	-0.02192337	-175.8373	
16:08:38	47.46363	-122.3077	0.02	0.01850955	-0.1393819	0	3	99	0	4	-0.005952582	-0.01962952	-175.8425	
16:08:40	47.46363	-122.3077	0.02	0.01866807	-0.1243939	0	3	99	0	5	-0.005338928	-0.01758732	-175.8472	
16:08:41	47.46363	-122.3077	0.02	0.01880922	-0.1112965	0	3	99	0	4	-0.004597831	-0.01512909	-175.8522	
16:08:43	47.46363	-122.3077	0.02	0.01893636	-0.09930781	0	3	99	0	4	-0.004085266	-0.01342778	-175.8565	
16:08:45	47.46363	-122.3077	0.02	0.0190513	-0.08851945	0	3	99	0	4	-0.003664815	-0.01203342	-175.8602	
16:08:46	47.46363	-122.3077	0.02	0.01915573	-0.07873328	0	3	99	0	4	-0.003119639	-0.01023166	-175.8639	
16:08:48	47.46363	-122.3077	0.02	0.01924702	-0.07043546	0	3	99	0	4	-0.002743847	-0.008989136	-175.8671	
16:08:50	47.46363	-122.3077	0.02	0.01932491	-0.0632617	0	3	99	0	4	-0.002453299	-0.008028885	-175.8698	
16:08:51	47.46363	-122.3077	0.02	0.01939393	-0.05677276	0	3	99	0	4	-0.002070331	-0.006767601	-175.8723	
16:08:53	47.46363	-122.3077	0.02	0.01945682	-0.05084913	0	3	99	0	4	-0.001802233	-0.005884378	-175.8744	
16:08:55	47.46363	-122.3077	0.02	0.01951465	-0.04526734	0	3	99	0	5	-0.001610201	-0.005251796	-175.8762	
16:08:56	47.46363	-122.3077	0.02	0.01956823	-0.04022365	0	3	99	0	5	-0.001343905	-0.004377828	-175.8776	
16:08:58	47.46363	-122.3077	0.02	0.01961558	-0.03587568	0	3	99	0	4	-0.001159223	-0.003771642	-175.8788	
16:09:00	47.46363	-122.3077	0.02	0.0196556	-0.0322774	0	3	99	0	5	-0.00102566	-0.003333372	-175.8799	
16:09:02	47.46363	-122.3077	0.02	0.01969075	-0.02901874	0	3	99	0	4	-0.0008529425	-0.002768489	-175.8805	
16:09:03	47.46363	-122.3077	0.02	0.01972214	-0.02600197	0	3	99	0	5	-0.0007337784	-0.00237874	-175.8811	
16:09:05	47.46363	-122.3077	0.02	0.01975195	-0.02314389	0	3	99	0	5	-0.0006444441	-0.002086701	-175.8816	
16:09:07	47.46363	-122.3077	0.02	0.01977881	-0.02064587	0	3	99	0	4	-0.0005336709	-0.001725709	-175.8817	
16:09:08	47.46363	-122.3077	0.02	0.01980274	-0.01840278	0	3	99	0	4	-0.0004565385	-0.001474361	-175.8819	
16:09:10	47.46363	-122.3077	0.02	0.01982427	-0.01639156	0	3	99	0	5	-0.0004010651	-0.001293643	-175.882	
16:09:12	47.46363	-122.3077	0.02	0.01984303	-0.01467203	0	3	99	0	4	-0.0003290105	-0.001059721	-175.8819	
16:09:13	47.46363	-122.3077	0.02	0.01985914	-0.01321983	0	3	99	0	4	-0.0002794515	-0.0008988366	-175.8818	
16:09:15	47.46363	-122.3077	0.02	0.01987331	-0.01188059	0	3	99	0	5	-0.0002451701	-0.0007875557	-175.8818	
16:09:17	47.46363	-122.3077	0.02	0.01988635	-0.010642	0	3	99	0	4	-0.0001994066	-0.0006395654	-175.8815	
16:09:18	47.46363	-122.3077	0.02	0.01989841	-0.009499697	0	3	99	0	4	-0.0001677594	-0.0005372337	-175.8813	
16:09:20	47.46363	-122.3077	0.02	0.01990917	-0.008495867	0	3	99	0	4	-0.0001458863	-0.0004665083	-175.8812	
16:09:22	47.46363	-122.3077	0.02	0.01991862	-0.007620635	0	3	99	0	4	-0.0001184093	-0.0003779991	-175.8809	
16:09:24	47.46363	-122.3077	0.02	0.01992699	-0.006844145	0	3	99	0	4	-9.859304E-05	-0.0003141844	-175.8806	
16:09:25	47.46363	-122.3077	0.02	0.01993437	-0.006159863	0	3	99	0	4	-8.482715E-05	-0.0002698568	-175.8805	
16:09:27	47.46363	-122.3077	0.02	0.01994096	-0.005537736	0	3	99	0	4	-6.813362E-05	-0.0002163103	-175.8802	
16:09:29	47.46363	-122.3077	0.02	0.01994692	-0.004972829	0	3	99	0	4	-5.615496E-05	-0.0001778957	-175.88	
16:09:30	47.46363	-122.3077	0.02	0.01995249	-0.004444415	0	3	99	0	4	-4.796666E-05	-0.0001516374	-175.8799	
16:09:32	47.46363	-122.3077	0.02	0.01995752	-0.003973661	0	3	99	0	5	-3.83941E-05	-0.0001210731	-175.8797	
16:09:34	47.46363	-122.3077	0.02	0.01996196	-0.003565212	0	3	99	0	4	-3.119317E-05	-9.809293E-05	-175.8795	
16:09:35	47.46363	-122.3077	0.02	0.01996584	-0.003198165	0	3	99	0	5	-2.628675E-05	-8.243563E-05	-175.8794	
16:09:37	47.46363	-122.3077	0.02	0.01996937	-0.002871588	0	3	99	0	4	-2.077929E-05	-6.494692E-05	-175.8792	
16:09:39	47.46363	-122.3077	0.02	0.01997252	-0.002569366	0	3	99	0	4	-1.667379E-05	-5.19179E-05	-175.8791	
16:09:40	47.46363	-122.3077	0.02	0.01997545	-0.002296036	0	3	99	0	5	-1.381434E-05	-4.284335E-05	-175.879	
16:09:42	47.46363	-122.3077	0.02	0.01997805	-0.002052244	0	3	99	0	5	-1.073027E-05	-3.3116E-05	-175.8789	
16:09:44	47.46363	-122.3077	0.02	0.01998036	-0.00183602	0	3	99	0	5	-8.427403E-06	-2.585812E-05	-175.8788	
16:09:46	47.46363	-122.3077	0.02	0.01998241	-0.001650601	0	3	99	0	5	-6.847021E-06	-2.087732E-05	-175.8788	
16:09:47	47.46363	-122.3077	0.02	0.01998414	-0.001488988	0	3	99	0	4	-5.190264E-06	-1.569527E-05	-175.8787	
16:09:49	47.46363	-122.3077	0.02	0.01998572	-0.001342769	0	3	99	0	5	-3.930612E-06	-1.176047E-05	-175.8786	
16:09:51	47.46363	-122.3077	0.02	0.01998715	-0.001204097	0	3	99	0	5	-3.066401E-06	-9.060929E-06	-175.8786	
16:09:52	47.46363	-122.3077	0.02	0.01998849	-0.001079425	0	3	99	0	4	-2.204586E-06	-6.397325E-06	-175.8786	
16:09:54	47.46363	-122.3077	0.02	0.01998966	-0.0009685981	0	3	99	0	4	-1.5593E-06	-4.40652E-06	-175.8785	
16:09:56	47.46363	-122.3077	0.02	0.01999078	-0.0008561692	0	3	99	0	4	-1.112907E-06	-3.029334E-06	-175.8785	
16:09:57	47.46363	-122.3077	0.02	0.01999182	-0.0007643712	0	3	99	0	4	-7.028945E-07	-1.786693E-06	-175.8785	
16:09:59	47.46363	-122.3077	0.02	0.01999264	-0.0006921127	0	3	99	0	4	-3.907145E-07	-8.455157E-07	-175.8785	
16:10:01	47.46363	-122.3077	0.02	0.01999339	-0.0006176481	0	3	99	0	4	-1.761434E-07	-1.986161E-07	-175.8785	
16:10:02	47.46363	-122.3077	0.02	0.01999413	-0.0005442571	0	3	99	0	4	2.993657E-09	3.228596E-07	-175.8785	
16:10:04	47.46363	-122.3077	0.02	0.01999484	-0.000479288	0	3	99	0	4	1.328601E-07	6.969304E-07	-175.8785	
16:10:06	47.46363	-122.3077	0.02	0.01999538	-0.0004357888	0	3	99	0	4	2.230444E-07	9.567E-07	-175.8785	
16:10:08	47.46363	-122.3077	0.02	0.01999578	-0.0004009223	0	3	99	0	5	2.81459E-07	1.107052E-06	-175.8785	
16:10:09	47.46363	-122.3077	0.02	0.01999614	-0.0003652831	0	3	99	0	4	3.207958E-07	1.202623E-06	-175.8785	
16:10:11	47.46363	-122.3077	0.02	0.01999651	-0.0003270063	0	3	99	0	5	3.480285E-07	1.268788E-06	-175.8785	
16:10:13	47.46363	-122.3077	0.02	0.01999689	-0.0002888525	0	3	99	0	5	3.525901E-07	1.259488E-06	-175.8785	
16:10:14	47.46363	-122.3077	0.02	0.01999727	-0.0002516835	0	3	99	0	4	3.483562E-07	1.224315E-06	-175.8785	
16:10:16	47.46363	-122.3077	0.02	0.01999763	-0.0002157819	0	3	99	0	4	3.454514E-07	1.200185E-06	-175.8785	
16:10:18	47.46363	-122.3077	0.02	0.01999801	-0.0001772262	0	3	99	0	4	3.280559E-07	1.128656E-06	-175.8785	
16:10:19	47.46363	-122.3077	0.02	0.01999836	-0.000148944	0	3	99	0	4	3.072356E-07	1.04781E-06	-175.8785	
16:10:21	47.46363	-122.3077	0.02	0.01999852	-0.000144018	0	3	99	0	4	2.930485E-07	9.927217E-07	-175.8785	
16:10:23	47.46363	-122.3077	0.02	0.01999853	-0.0001463041	0	3	99	0	4	2.691563E-07	9.068604E-07	-175.8785	
16:10:24	47.46363	-122.3077	0.02	0.01999853	-0.0001488429	0	3	99	0	4	2.452572E-07	8.224391E-07	-175.8785	
16:10:26	47.46363	-122.3077	0.02	0.01999852	-0.000150744	0	3	99	0	4	2.289014E-07	7.646637E-07	-175.8785	
16:10:28	47.46363	-122.3077	0.02	0.01999851	-0.0001514089	0	3	99	0	5	2.0657E-07	6.871543E-07	-175.8785	
16:10:29	47.46363	-122.3077	0.02	0.01999851	-0.0001516656	0	3	99	0	4	1.847019E-07	6.11671E-07	-175.8785	
16:10:31	47.46363	-122.3077	0.02	0.01999851	-0.0001517745	0	3	99	0	5	1.695703E-07	5.594393E-07	-175.8785	
16:10:33	47.46363	-122.3077	0.02	0.0199985	-0.0001518271	0	3	99	0	4	1.509334E-07	4.955311E-07	-175.8785	
16:10:35	47.46363	-122.3077	0.02	0.0199985	-0.0001517642	0	3	99	0	4	1.333759E-07	4.354661E-07	-175.8785	
16:10:36	47.46363	-122.3077	0.02	0.0199985	-0.0001517004	0	3	99	0	4	1.211258E-07	3.935586E-07	-175.8785	
16:10:38	47.46363	-122.3077	0.02	0.0199985	-0.0001516383	0	3	99	0	5	1.078065E-07	3.490813E-07	-175.8785	
16:10:40	47.46363	-122.3077	0.02	0.0199985	-0.0001515746	0	3	99	0	5	9.378527E-08	3.029363E-07	-175.8785	
16:10:41	47.46363	-122.3077	0.02	0.0199985	-0.0001515123	0	3	99	0	4	8.416092E-08	2.712617E-07	-175.8785	
16:10:43	47.46363	-122.3077	0.02	0.0199985	-0.0001514495	0	3	99	0	4	7.41524E-08	2.38631E-07	-175.8785	
16:10:45	47.46363	-122.3077	0.02	0.0199985	-0.000151386	0	3	99	0	5	6.410564E-08	2.060634E-07	-175.8785	
16:10:46	47.46363	-122.3077	0.02	0.0199985	-0.000151323	0	3	99	0	5	5.717332E-08	1.835917E-07	-175.8785	
16:10:48	47.46363	-122.3077	0.02	0.0199985	-0.0001512599	0	3	99	0	4	5.078994E-08	1.626033E-07	-175.8785	
16:10:50	47.46363	-122.3077	0.02	0.0199985	-0.000151197	0	3	99	0	4	4.346176E-08	1.380895E-07	-175.8785	
16:10:51	47.46363	-122.3077	0.02	0.0199985	-0.0001511345	0	3	99	0	5	3.836536E-08	1.210411E-07	-175.8785	
16:10:53	47.46363	-122.3077	0.02	0.0199985	-0.0001510711	0	3	99	0	4	3.402927E-08	1.066638E-07	-175.8785	
16:10:55	47.46363	-122.3077	0.02	0.0199985	-0.000151009	0	3	99	0	5	2.866224E-08	8.914189E-08	-175.8785	
16:10:57	47.46363	-122.3077	0.02	0.0199985	-0.0001509461	0	3	99	0	4	2.498163E-08	7.712577E-08	-175.8785	
16:10:58	47.46363	-122.3077	0.02	0.0199985	-0.0001508823	0	3	99	0	4	2.188698E-08	6.733836E-08	-175.8785	
16:11:00	47.46363	-122.3077	0.02	0.0199985	-0.0001508193	0	3	99	0	4	1.829818E-08	5.670227E-08	-175.8785	
16:11:02	47.46363	-122.3077	0.02	0.0199985	-0.0001507561	0	3	99	0	5	1.584682E-08	4.943735E-08	-175.8785	
16:11:03	47.46363	-122.3077	0.02	0.0199985	-0.000150693	0	3	99	0	5	1.390852E-08	4.343028E-08	-175.8785	
16:11:05	47.46363	-122.3077	0.02	0.0199985	-0.0001506301	0	3	99	0	5	1.154833E-08	3.517638E-08	-175.8785	
16:11:07	47.46363	-122.3077	0.02	0.0199985	-0.0001505672	0	3	99	0	5	9.90237E-09	2.941891E-08	-175.8785	
16:11:08	47.46363	-122.3077	0.02	0.0199985	-0.0001505046	0	3	99	0	4	8.66339E-09	2.503018E-08	-175.8785	
16:11:10	47.46363	-122.3077	0.02	0.0199985	-0.0001504412	0	3	99	0	4	7.262326E-09	1.981842E-08	-175.8785	
16:11:12	47.46363	-122.3077	0.02	0.0199985	-0.0001503791	0	3	99	0	4	6.308087E-09	1.626811E-08	-175.8785	
16:11:13	47.46363	-122.3077	0.02	0.0199985	-0.0001503154	0	3	99	0	4	5.600698E-09	1.362225E-08	-175.8785	
16:11:15	47.46363	-122.3077	0.02	0.0199985	-0.0001502522	0	3	99	0	4	4.511149E-09	9.39175E-09	-175.8785	
16:11:17	47.46363	-122.3077	0.02	0.0199985	-0.0001501899	0	3	99	0	5	3.75119E-09	6.440467E-09	-175.8785	
16:11:19	47.46363	-122.3077	0.02	0.0199985	-0.0001501271	0	3	99	0	4	3.232983E-09	4.428011E-09	-175.8785	
16:11:20	47.46363	-122.3077	0.02	0.0199985	-0.0001500644	0	3	99	0	4	2.875432E-09	3.039453E-09	-175.8785	
16:11:22	47.46363	-122.3077	0.02	0.0199985	-0.0001500014	0	3	99	0	4	2.631813E-09	2.093343E-09	-175.8785	
16:11:24	47.46363	-122.3077	0.02	0.0199985	-0.0001499377	0	3	99	0	4	2.465192E-09	1.44626E-09	-175.8785	
16:11:25	47.46363	-122.3077	0.02	0.0199985	-0.0001498749	0	3	99	0	5	2.34936E-09	9.964278E-10	-175.8785	
16:11:27	47.46363	-122.3077	0.02	0.0199985	-0.0001498118	0	3	99	0	4	2.269643E-09	6.868432E-10	-175.8785	
16:11:29	47.46363	-122.3077	0.02	0.0199985	-0.0001497496	0	3	99	0	5	2.214677E-09	4.733901E-10	-175.8785	
16:11:30	47.46363	-122.3077	0.02	0.0199985	-0.0001496861	0	3	99	0	4	2.177058E-09	3.272885E-10	-175.8785	
16:11:32	47.46363	-122.3077	0.02	0.0199985	-0.0001496233	0	3	99	0	4	2.150871E-09	2.255872E-10	-175.8785	
16:11:34	47.46363	-122.3077	0.02	0.0199985	-0.0001495604	0	3	99	0	5	2.132902E-09	1.558057E-10	-175.8785	
16:11:35	47.46363	-122.3077	0.02	0.0199985	-0.0001494975	0	3	99	0	4	2.120405E-09	1.072738E-10	-175.8785	
16:11:37	47.46363	-122.3077	0.02	0.0199985	-0.0001494347	0	3	99	0	5	2.111863E-09	7.41152E-11	-175.8785	
16:11:39	47.46363	-122.3077	0.02	0.0199985	-0.0001493718	0	3	99	0	4	2.105909E-09	5.099446E-11	-175.8785	
16:11:40	47.46363	-122.3077	0.02	0.0199985	-0.0001493094	0	3	99	0	4	2.101837E-09	3.516908E-11	-175.8785	
16:11:42	47.46363	-122.3077	0.02	0.0199985	-0.0001492458	0	3	99	0	4	2.099026E-09	2.426164E-11	-175.8785	
16:11:44	47.46363	-122.3077	0.02	0.0199985	-0.0001491827	0	3	100	0	4	2.097085E-09	1.672353E-11	-175.8785	
16:11:46	47.46363	-122.3077	0.02	0.0199985	-0.0001491198	0	3	100	0	4	2.095742E-09	1.151612E-11	-175.8785	
16:11:47	47.46363	-122.3077	0.02	0.0199985	-0.0001490568	0	3	100	0	5	2.09482E-09	7.929992E-12	-175.8785	
16:11:49	47.46363	-122.3077	0.02	0.0199985	-0.0001489947	0	3	100	0	5	2.094185E-09	5.466056E-12	-175.8785	
16:11:51	47.46363	-122.3077	0.02	0.0199985	-0.0001489311	0	3	100	0	4	2.093749E-09	3.765292E-12	-175.8785	
16:11:52	47.46363	-122.3077	0.02	0.0199985	-0.0001488689	0	3	100	0	4	2.093448E-09	2.601371E-12	-175.8785	
16:11:54	47.46363	-122.3077	0.02	0.0199985	-0.0001488051	0	3	100	0	4	2.09324E-09	1.794727E-12	-175.8785	
16:11:56	47.46363	-122.3077	0.02	0.0199985	-0.0001487421	0	3	100	0	4	2.093098E-09	1.234378E-12	-175.8785	
16:11:57	47.46363	-122.3077	0.02	0.0199985	-0.0001486793	0	3	100	0	4	2.092997E-09	8.494565E-13	-175.8785	
16:11:59	47.46363	-122.3077	0.02	0.0199985	-0.000148617	0	3	100	0	5	2.092929E-09	5.869987E-13	-175.8785	
16:12:01	47.46363	-122.3077	0.02	0.0199985	-0.0001485534	0	3	100	0	4	2.092883E-09	4.058189E-13	-175.8785	
16:12:02	47.46363	-122.3077	0.02	0.0199985	-0.0001484906	0	3	100	0	4	2.092853E-09	2.801497E-13	-175.8785	
16:12:04	47.46363	-122.3077	0.02	0.0199985	-0.0001484284	0	3	100	0	4	2.09283E-09	1.942747E-13	-175.8785	
16:12:06	47.46363	-122.3077	0.02	0.0199985	-0.000148365	0	3	100	0	4	2.092809E-09	1.353599E-13	-175.8785	
16:12:08	47.46363	-122.3077	0.02	0.0199985	-0.000148302	0	3	100	0	4	2.092805E-09	9.367726E-14	-175.8785	
16:12:09	47.46363	-122.3077	0.02	0.0199985	-0.0001482392	0	3	100	0	4	2.092803E-09	6.530076E-14	-175.8785	
16:12:11	47.46363	-122.3077	0.02	0.0199985	-0.0001481763	0	3	100	0	4	2.092802E-09	4.528563E-14	-175.8785	
16:12:13	47.46363	-122.3077	0.02	0.0199985	-0.0001481133	0	3	100	0	5	2.092801E-09	3.163161E-14	-175.8785	
16:12:14	47.46363	-122.3077	0.02	0.0199985	-0.0001480504	0	3	100	0	5	2.0928E-09	2.238812E-14	-175.8785	
16:12:16	47.46363	-122.3077	0.02	0.0199985	-0.0001479884	0	3	100	0	5	2.0928E-09	1.587792E-14	-175.8785	
16:12:18	47.46363	-122.3077	0.02	0.0199985	-0.0001479246	0	3	100	0	5	2.0928E-09	1.143012E-14	-175.8785	
16:12:19	47.46363	-122.3077	0.02	0.0199985	-0.0001478617	0	3	100	0	5	2.092799E-09	8.48562E-15	-175.8785	
16:12:21	47.46363	-122.3077	0.02	0.0199985	-0.0001477988	0	3	100	0	5	2.092799E-09	6.398381E-15	-175.8785	
16:12:23	47.46363	-122.3077	0.02	0.0199985	-0.0001477358	0	3	100	0	5	2.092799E-09	4.994464E-15	-175.8785	
16:12:24	47.46363	-122.3077	0.02	0.0199985	-0.0001476731	0	3	100	0	4	2.092799E-09	3.963269E-15	-175.8785	
16:12:26	47.46363	-122.3077	0.02	0.0199985	-0.0001476108	0	3	100	0	4	2.092799E-09	3.04389E-15	-175.8785	
16:12:28	47.46363	-122.3077	0.02	0.01999851	-0.0001475634	0	3	100	0	4	2.092799E-09	2.98177E-15	-175.8785	
16:12:29	47.46363	-122.3077	0.02	0.01999851	-0.0001476736	0	3	100	0	5	2.092799E-09	2.98177E-15	-175.8785	
16:12:31	47.46363	-122.3077	0.02	0.01999851	-0.0001477836	0	3	100	0	4	2.092799E-09	2.969346E-15	-175.8785	
16:12:33	47.46363	-122.3077	0.02	0.01999851	-0.0001478925	0	3	100	0	5	2.092799E-09	2.956922E-15	-175.8785	
16:12:35	47.46363	-122.3077	0.02	0.01999851	-0.0001480028	0	3	100	0	4	2.092799E-09	2.91965E-15	-175.8785	
16:12:36	47.46363	-122.3077	0.02	0.01999851	-0.0001481149	0	3	100	0	4	2.092799E-09	2.869953E-15	-175.8785	
16:12:38	47.46363	-122.3077	0.02	0.01999851	-0.0001482235	0	3	100	0	4	2.092799E-09	2.869953E-15	-175.8785	
16:12:40	47.46363	-122.3077	0.02	0.01999851	-0.000148335	0	3	100	0	4	2.092799E-09	2.857529E-15	-175.8785	
16:12:41	47.46363	-122.3077	0.02	0.01999851	-0.0001484436	0	3	100	0	4	2.092799E-09	2.857529E-15	-175.8785	
16:12:43	47.46363	-122.3077	0.02	0.01999851	-0.0001485556	0	3	100	0	5	2.092799E-09	2.832681E-15	-175.8785	
16:12:45	47.46363	-122.3077	0.02	0.01999851	-0.0001486661	0	3	100	0	4	2.092799E-09	2.807833E-15	-175.8785	
16:12:46	47.46363	-122.3077	0.02	0.01999851	-0.0001487768	0	3	100	0	4	2.092799E-09	2.807833E-15	-175.8785	
16:12:48	47.46363	-122.3077	0.02	0.01999851	-0.0001488859	0	3	100	0	5	2.092799E-09	2.795409E-15	-175.8785	
16:12:50	47.46363	-122.3077	0.02	0.01999851	-0.000148997	0	3	100	0	4	2.092799E-09	2.795409E-15	-175.8785	
16:12:51	47.46363	-122.3077	0.02	0.01999851	-0.0001491057	0	3	100	0	4	2.092799E-09	2.795409E-15	-175.8785	
16:12:53	47.46363	-122.3077	0.02	0.01999851	-0.0001492173	0	3	100	0	4	2.092799E-09	2.795409E-15	-175.8785	
16:12:55	47.46363	-122.3077	0.02	0.01999851	-0.0001493275	0	3	100	0	4	2.092799E-09	2.795409E-15	-175.8785	
16:12:57	47.46363	-122.3077	0.02	0.01999851	-0.0001494364	0	3	100	0	5	2.092799E-09	2.782985E-15	-175.8785	
16:12:58	47.46363	-122.3077	0.02	0.01999851	-0.0001495474	0	3	100	0	5	2.092799E-09	2.782985E-15	-175.8785	
16:13:00	47.46363	-122.3077	0.02	0.01999851	-0.0001496579	0	3	100	0	4	2.092799E-09	2.782985E-15	-175.8785	
16:13:02	47.46363	-122.3077	0.02	0.01999851	-0.0001497681	0	3	100	0	4	2.092799E-09	2.782985E-15	-175.8785	
16:13:03	47.46363	-122.3077	0.02	0.01999851	-0.000149878	0	3	100	0	4	2.092799E-09	2.782985E-15	-175.8785	
16:13:05	47.46363	-122.3077	0.02	0.01999851	-0.0001499882	0	3	100	0	5	2.092799E-09	2.782985E-15	-175.8785	
16:13:07	47.46363	-122.3077	0.02	0.01999851	-0.0001500973	0	3	100	0	5	2.092799E-09	2.782985E-15	-175.8785	
16:13:08	47.46363	-122.3077	0.02	0.01999851	-0.000150207	0	3	100	0	4	2.092799E-09	2.782985E-15	-175.8785	
16:13:10	47.46363	-122.3077	0.02	0.01999851	-0.0001503173	0	3	100	0	4	2.092799E-09	2.782985E-15	-175.8785	
16:13:12	47.46363	-122.3077	0.02	0.01999851	-0.0001504272	0	3	100	0	4	2.092799E-09	2.782985E-15	-175.8785	
16:13:13	47.46363	-122.3077	0.02	0.01999851	-0.0001505374	0	3	100	0	5	2.092799E-09	2.782985E-15	-175.8785	
16:13:15	47.46363	-122.3077	0.02	0.01999851	-0.000150649	0	3	100	0	4	2.092799E-09	2.782985E-15	-175.8785	
16:13:17	47.46363	-122.3077	0.02	0.01999851	-0.0001507589	0	3	100	0	4	2.092799E-09	2.782985E-15	-175.8785	
16:13:19	47.46363	-122.3077	0.02	0.01999851	-0.0001508688	0	3	100	0	4	2.092799E-09	2.782985E-15	-175.8785	
16:13:20	47.46363	-122.3077	0.02	0.01999851	-0.0001509773	0	3	100	0	5	2.092799E-09	2.782985E-15	-175.8785	
16:13:22	47.46363	-122.3077	0.02	0.01999851	-0.0001510874	0	3	100	0	4	2.092799E-09	2.782985E-15	-175.8785	
16:13:24	47.46363	-122.3077	0.02	0.01999851	-0.0001511986	0	3	100	0	4	2.092799E-09	2.782985E-15	-175.8785	
16:13:25	47.46363	-122.3077	0.02	0.01999851	-0.000151309	0	3	100	0	4	2.092799E-09	2.782985E-15	-175.8785	
16:13:27	47.46363	-122.3077	0.02	0.01999851	-0.0001514188	0	3	100	0	4	2.092799E-09	2.782985E-15	-175.8785	
16:13:29	47.46363	-122.3077	0.02	0.01999851	-0.0001515278	0	3	100	0	4	2.092799E-09	2.782985E-15	-175.8785	
16:13:30	47.46363	-122.3077	0.02	0.01999851	-0.0001516381	0	3	100	0	5	2.092799E-09	2.770561E-15	-175.8785	
16:13:32	47.46363	-122.3077	0.02	0.01999851	-0.0001517496	0	3	100	0	4	2.092799E-09	2.758137E-15	-175.8785	
16:13:34	47.46363	-122.3077	0.02	0.01999851	-0.0001518594	0	3	100	0	4	2.092799E-09	2.758137E-15	-175.8785	
16:13:35	47.46363	-122.3077	0.02	0.0199985	-0.0001518172	0	3	100	0	5	2.092799E-09	2.758137E-15	-175.8785	
16:13:37	47.46363	-122.3077	0.02	0.0199985	-0.0001517544	0	3	100	0	5	2.092799E-09	2.758137E-15	-175.8785	
16:13:39	47.46363	-122.3077	0.02	0.0199985	-0.0001516916	0	3	100	0	4	2.092799E-09	2.758137E-15	-175.8785	
16:13:41	47.46363	-122.3077	0.02	0.0199985	-0.0001516286	0	3	100	0	5	2.092799E-09	2.745713E-15	-175.8785	
16:13:42	47.46363	-122.3077	0.02	0.0199985	-0.0001515656	0	3	100	0	4	2.092799E-09	2.745713E-15	-175.8785	
16:13:44	47.46363	-122.3077	0.02	0.0199985	-0.0001515025	0	3	100	0	5	2.092799E-09	2.733289E-15	-175.8785	
16:13:46	47.46363	-122.3077	0.02	0.0199985	-0.0001514397	0	3	100	0	5	2.092799E-09	2.733289E-15	-175.8785	
16:13:47	47.46363	-122.3077	0.02	0.0199985	-0.0001513767	0	3	100	0	4	2.092799E-09	2.733289E-15	-175.8785	
16:13:49	47.46363	-122.3077	0.02	0.0199985	-0.0001513138	0	3	100	0	4	2.092799E-09	2.733289E-15	-175.8785	
16:13:51	47.46363	-122.3077	0.02	0.0199985	-0.0001512509	0	3	100	0	5	2.092799E-09	2.733289E-15	-175.8785	
16:13:52	47.46363	-122.3077	0.02	0.0199985	-0.0001511887	0	3	100	0	4	2.092799E-09	2.733289E-15	-175.8785	
16:13:54	47.46363	-122.3077	0.02	0.0199985	-0.0001511257	0	3	100	0	4	2.092799E-09	2.733289E-15	-175.8785	
16:13:56	47.46363	-122.3077	0.02	0.0199985	-0.0001510619	0	3	100	0	4	2.092799E-09	2.720865E-15	-175.8785	
16:13:57	47.46363	-122.3077	0.02	0.0199985	-0.000150999	0	3	100	0	4	2.092799E-09	2.720865E-15	-175.8785	
16:13:59	47.46363	-122.3077	0.02	0.0199985	-0.0001509359	0	3	100	0	4	2.092799E-09	2.720865E-15	-175.8785	
16:14:01	47.46363	-122.3077	0.02	0.0199985	-0.000150873	0	3	100	0	5	2.092799E-09	2.720865E-15	-175.8785	
16:14:02	47.46363	-122.3077	0.02	0.0199985	-0.0001508109	0	3	100	0	5	2.092799E-09	2.720865E-15	-175.8785	
16:14:04	47.46363	-122.3077	0.02	0.0199985	-0.0001507482	0	3	100	0	5	2.092799E-09	2.720865E-15	-175.8785	
16:14:06	47.46363	-122.3077	0.02	0.0199985	-0.0001506845	0	3	100	0	4	2.092799E-09	2.720865E-15	-175.8785	
16:14:08	47.46363	-122.3077	0.02	0.0199985	-0.0001506222	0	3	100	0	5	2.092799E-09	2.720865E-15	-175.8785	
16:14:09	47.46363	-122.3077	0.02	0.0199985	-0.0001505594	0	3	100	0	5	2.092799E-09	2.720865E-15	-175.8785	
16:14:11	47.46363	-122.3077	0.02	0.0199985	-0.0001504957	0	3	100	0	5	2.092799E-09	2.720865E-15	-175.8785	
16:14:13	47.46363	-122.3077	0.02	0.0199985	-0.0001504328	0	3	100	0	4	2.092799E-09	2.720865E-15	-175.8785	
16:14:14	47.46363	-122.3077	0.02	0.0199985	-0.00015037	0	3	100	0	4	2.092799E-09	2.720865E-15	-175.8785	
16:14:16	47.46363	-122.3077	0.02	0.0199985	-0.0001503079	0	3	100	0	4	2.092799E-09	2.720865E-15	-175.8785	
16:14:18	47.46363	-122.3077	0.02	0.0199985	-0.000150244	0	3	100	0	4	2.092799E-09	2.708441E-15	-175.8785	
16:14:19	47.46363	-122.3077	0.02	0.0199985	-0.0001501817	0	3	100	0	5	2.092799E-09	2.696017E-15	-175.8785	
16:14:21	47.46363	-122.3077	0.02	0.0199985	-0.0001501182	0	3	100	0	5	2.092799E-09	2.696017E-15	-175.8785	
16:14:23	47.46363	-122.3077	0.02	0.0199985	-0.0001500562	0	3	100	0	4	2.092799E-09	2.696017E-15	-175.8785	
16:14:24	47.46363	-122.3077	0.02	0.0199985	-0.0001499927	0	3	100	0	4	2.092799E-09	2.696017E-15	-175.8785	
16:14:26	47.46363	-122.3077	0.02	0.0199985	-0.0001499304	0	3	100	0	4	2.092799E-09	2.696017E-15	-175.8785	
16:14:28	47.46363	-122.3077	0.02	0.0199985	-0.0001498666	0	3	100	0	5	2.092799E-09	2.696017E-15	-175.8785	
16:14:30	47.46363	-122.3077	0.02	0.0199985	-0.0001498043	0	3	100	0	5	2.092799E-09	2.696017E-15	-175.8785	
16:14:31	47.46363	-122.3077	0.02	0.0199985	-0.0001497412	0	3	100	0	4	2.092799E-09	2.696017E-15	-175.8785	
16:14:33	47.46363	-122.3077	0.02	0.0199985	-0.0001496772	0	3	100	0	4	2.092799E-09	2.683593E-15	-175.8785	
16:14:35	47.46363	-122.3077	0.02	0.0199985	-0.0001496152	0	3	100	0	4	2.092799E-09	2.683593E-15	-175.8785	
16:14:36	47.46363	-122.3077	0.02	0.0199985	-0.0001495514	0	3	100	0	4	2.092799E-09	2.683593E-15	-175.8785	
16:14:38	47.46363	-122.3077	0.02	0.0199985	-0.0001494883	0	3	100	0	4	2.092799E-09	2.683593E-15	-175.8785	
16:14:40	47.46363	-122.3077	0.02	0.0199985	-0.0001494252	0	3	100	0	5	2.092799E-09	2.683593E-15	-175.8785	
16:14:41	47.46363	-122.3077	0.02	0.0199985	-0.0001493631	0	3	100	0	4	2.092799E-09	2.683593E-15	-175.8785	
16:14:43	47.46363	-122.3077	0.02	0.0199985	-0.0001492994	0	3	100	0	4	2.092799E-09	2.683593E-15	-175.8785	
16:14:45	47.46363	-122.3077	0.02	0.0199985	-0.0001492365	0	3	100	0	4	2.092799E-09	2.683593E-15	-175.8785	
16:14:46	47.46363	-122.3077	0.02	0.0199985	-0.0001491744	0	3	100	0	5	2.092799E-09	2.683593E-15	-175.8785	
16:14:48	47.46363	-122.3077	0.02	0.0199985	-0.0001491115	0	3	100	0	4	2.092799E-09	2.683593E-15	-175.8785	
16:14:50	47.46363	-122.3077	0.02	0.0199985	-0.0001490478	0	3	100	0	5	2.092799E-09	2.683593E-15	-175.8785	
16:14:52	47.46363	-122.3077	0.02	0.0199985	-0.0001489848	0	3	100	0	4	2.092799E-09	2.683593E-15	-175.8785	
16:14:53	47.46363	-122.3077	0.02	0.0199985	-0.0001489217	0	3	100	0	4	2.092799E-09	2.671169E-15	-175.8785	
16:14:55	47.46363	-122.3077	0.02	0.0199985	-0.0001488587	0	3	100	0	5	2.092799E-09	2.671169E-15	-175.8785	
16:14:57	47.46363	-122.3077	0.02	0.0199985	-0.0001487956	0	3	100	0	4	2.092799E-09	2.633897E-15	-175.8785	
16:14:58	47.46363	-122.3077	0.02	0.0199985	-0.0001487332	0	3	100	0	4	2.092799E-09	2.633897E-15	-175.8785	
16:15:00	47.46363	-122.3077	0.02	0.0199985	-0.0001486705	0	3	100	0	4	2.092799E-09	2.633897E-15	-175.8785	
16:15:02	47.46363	-122.3077	0.02	0.0199985	-0.0001486068	0	3	100	0	4	2.092799E-09	2.633897E-15	-175.8785	
16:15:03	47.46363	-122.3077	0.02	0.0199985	-0.0001485446	0	3	100	0	5	2.092799E-09	2.633897E-15	-175.8785	
16:15:05	47.46363	-122.3077	0.02	0.0199985	-0.0001484818	0	3	100	0	5	2.092799E-09	2.633897E-15	-175.8785	
16:15:07	47.46363	-122.3077	0.02	0.0199985	-0.0001484182	0	3	100	0	5	2.092799E-09	2.633897E-15	-175.8785	
16:15:08	47.46363	-122.3077	0.02	0.0199985	-0.0001483561	0	3	100	0	20	2.092799E-09	2.633897E-15	-175.8785	
16:15:10	47.46363	-122.3077	0.02	0.0199985	-0.0001482933	0	3	100	0	56	2.092799E-09	2.633897E-15	-175.8785	
16:15:12	47.46363	-122.3077	0.02	0.0199985	-0.0001482304	0	3	100	0	5	2.092799E-09	2.633897E-15	-175.8785	
16:15:13	47.46363	-122.3077	0.02	0.0199985	-0.0001481666	0	3	100	0	5	2.092799E-09	2.633897E-15	-175.8785	
16:15:15	47.46363	-122.3077	0.02	0.0199985	-0.0001481035	0	3	100	0	5	2.092799E-09	2.633897E-15	-175.8785	
16:15:17	47.46363	-122.3077	0.02	0.0199985	-0.000148041	0	3	100	0	5	2.092799E-09	2.633897E-15	-175.8785	
16:15:19	47.46363	-122.3077	0.02	0.0199985	-0.0001479773	0	3	100	0	5	2.092799E-09	2.633897E-15	-175.8785	
16:15:20	47.46363	-122.3077	0.02	0.0199985	-0.0001479144	0	3	100	0	5	2.092799E-09	2.633897E-15	-175.8785	
16:15:22	47.46363	-122.3077	0.02	0.0199985	-0.0001478512	0	3	100	0	4	2.092799E-09	2.621473E-15	-175.8785	
