Date	Latitude(deg) 	Longitude(deg)	hamsl(m)	hafl(m)	climbrate(cm/s)	GroundSpeed(m/s)	Airspeed(m/s)	Mav_Link(%)	Rssi_Link(%)	Throttle	Roll(deg)	Pitch(deg)	Yaw(deg)
10:53:22	0	0	0	0	0	0	3	36	0	50	0	0	14.42718	
10:53:23	0	0	0	1.028053	-11.68161	0	3	46	0	50	0.548652	0.5249164	17.94622	
10:53:25	0	0	0	0.5940613	-28.05221	0	3	53	0	50	0.9348559	0.8598553	17.63322	
10:53:27	0	0	0	0.2673721	-33.86179	0	3	59	0	50	1.075654	0.9062389	16.30431	
10:53:28	0	0	0	0.4136162	-16.60653	0	3	64	0	50	1.068684	0.8944384	16.03683	
10:53:30	0	0	0	0.5247329	-8.060222	0	3	68	0	50	1.021501	0.8845971	15.98343	
10:53:32	0	0	0	0.7132186	-5.666993	0	3	72	0	50	1.070413	0.9120294	16.16491	
10:53:33	0	0	0	0.617432	-11.70794	0	3	75	0	50	1.072925	0.9311337	16.11024	
10:53:35	0	0	0	0.7921585	-3.990336	0	3	77	0	50	1.106444	0.8807247	16.10367	
10:53:37	0	0	0	0.6116122	-12.14675	0	3	80	0	50	0.9859066	0.8892179	16.10581	
10:53:38	0	0	0	0.9695868	1.341924	0	3	82	0	50	1.015946	0.921277	16.31161	
10:53:40	0	0	0	0.6511902	-13.87186	0	3	83	0	50	1.038225	0.9659556	16.41565	
10:53:42	0	0	0	0.505545	-16.6128	0	3	85	0	50	1.026437	0.9518244	16.4905	
10:53:44	0	0	0	0.6846381	-1.424229	0	3	86	0	50	1.015537	0.931016	16.51694	
10:53:45	0	0	0	0.3997446	-12.52111	0	3	87	0	50	1.043499	0.9565877	16.56749	
10:53:51	0	0	0	0.2586705	-12.45048	0	3	88	0	50	1.052888	0.9541008	16.55778	
10:53:51	0	0	0	0.4127426	-0.1623517	0	3	89	0	50	1.063171	1.010682	16.52769	
10:53:52	0	0	0	0.5029649	-4.049364	0	3	90	0	50	1.08465	1.036088	16.50893	
10:53:53	0	0	0	0.1287749	-16.00927	0	3	91	0	50	1.122978	1.032667	16.47561	
10:53:54	0	0	0	0.4438184	2.469275	0	3	92	0	50	1.087743	0.9451127	16.3938	
10:53:55	0	0	0	0.5013344	3.005733	0	3	92	0	50	1.083011	1.008756	16.35967	
10:53:57	0	0	0	0.2289101	-11.96209	0	3	93	0	50	1.08006	0.9891853	16.31718	
10:53:59	0	0	0	0.1543856	-9.261961	0	3	93	0	50	1.086631	0.9263132	16.27444	
10:54:03	0	0	0	0.01288549	-10.47735	0	3	94	0	50	1.070542	0.9704097	16.20962	
10:54:03	0	0	0	0.1036158	-3.243785	0	3	94	0	50	1.094422	0.9728748	16.16746	
10:54:04	0	0	0	0.1268103	-3.57841	0	3	95	0	50	1.084986	0.972672	16.1122	
10:54:05	0	0	0	0.170348	-0.02977488	0	3	95	0	50	1.110573	0.8782012	16.08389	
10:54:07	0	0	0	0.09370363	-3.992166	0	3	95	0	50	1.096257	0.936063	16.06602	
10:54:09	0	0	0	0.02846379	-5.642767	0	3	96	0	50	1.091123	0.9815704	16.0442	
10:54:10	0	0	0	-0.03854465	-5.644607	0	3	96	0	50	1.074428	0.8504183	15.96314	
10:54:12	0	0	0	0.4087382	14.10277	0	3	96	0	50	1.079824	0.8330591	15.9479	
10:54:14	0	0	0	0.5541598	13.93828	0	3	96	0	50	1.087166	0.7848167	15.92425	
10:54:16	0	0	0	0.7707419	9.107391	0	3	97	0	50	1.065337	0.8507854	15.87362	
10:54:17	0	0	0	0.4162367	-6.965146	0	3	97	0	50	1.045117	0.8098149	15.89878	
10:54:19	0	0	0	0.7217268	8.320002	0	3	97	0	50	1.059685	0.7884632	15.87105	
10:54:21	0	0	0	0.4544674	-6.671328	0	3	97	0	50	1.04137	0.6828876	15.82119	
10:54:22	0	0	0	0.3726111	-6.128685	0	3	97	0	50	1.018873	0.7309142	15.81613	
10:54:24	0	0	0	0.1223582	-14.42462	0	3	97	0	50	1.036873	0.7959377	15.82259	
10:54:26	0	0	0	0.2651479	-1.123691	0	3	98	0	50	1.05055	0.8615958	15.83134	
10:54:27	0	0	0	0.117039	-6.468393	0	3	98	0	50	1.072338	0.8865653	15.84939	
10:54:29	0	0	0	0.3285844	6.055218	0	3	98	0	50	1.100996	0.9133461	15.85883	
10:54:31	0	0	0	0.7832069	18.24372	0	3	98	0	50	1.159613	0.9573004	15.84516	
10:54:32	0	0	0	0.4296657	-5.097171	0	3	98	0	50	1.145638	0.9597311	15.86263	
10:54:34	0	0	0	0.3647974	-4.921092	0	3	98	0	50	1.130149	0.9370137	15.84227	
10:54:36	0	0	0	0.2774604	-4.944518	0	3	98	0	50	1.111451	0.9250512	15.83287	
10:54:37	0	0	0	0.03127818	-10.61753	0	3	98	0	50	1.091801	0.9437711	15.83223	
10:54:39	0	0	0	0.3731249	8.265473	0	3	98	0	50	1.126689	0.9831057	15.85773	
10:54:41	0	0	0	0.4112498	3.115361	0	3	98	0	50	1.176683	0.9955084	15.845	
10:54:43	0	0	0	0.2304026	-5.538461	0	3	99	0	50	1.17672	1.087908	15.85528	
10:54:46	0	0	0	0.3853272	3.277789	0	3	99	0	50	1.169293	1.058316	15.85916	
10:54:47	0	0	0	0.6381955	9.634506	0	3	99	0	50	1.140058	1.034113	15.84374	
10:54:48	0	0	0	0.439971	-3.370446	0	3	99	0	50	1.145885	1.018786	15.80366	
10:54:49	0	0	0	0.4605145	-0.5062113	0	3	99	0	50	1.110222	1.000615	15.81563	
10:54:51	0	0	0	0.3346187	-6.118038	0	3	99	0	50	1.08763	0.9540366	15.81566	
10:54:53	0	0	0	0.3546914	-0.9668641	0	3	99	0	50	1.107443	1.008339	15.84337	
10:54:56	0	0	0	0.7193007	11.84775	0	3	99	0	50	1.110363	1.000234	15.83197	
10:54:56	0	0	0	0.4174393	-6.467371	0	3	99	0	50	1.102868	1.00761	15.81668	
10:54:58	0	0	0	0.1364189	-12.83429	0	3	99	0	50	1.081421	0.9960788	15.83066	
10:54:59	0	0	0	0.3245525	4.523955	0	3	99	0	50	1.068395	0.9335442	15.85006	
10:55:01	0	0	0	0.5143789	8.770088	0	3	99	0	50	1.088695	0.8909444	15.83332	
10:55:03	0	0	0	0.3818351	-4.081234	0	3	99	0	50	1.125242	0.8740524	15.8313	
10:55:04	0	0	0	0.07444318	-11.47339	0	3	99	0	50	1.104641	0.8690631	15.83961	
10:55:06	0	0	0	0.3190601	3.679171	0	3	99	0	50	1.058279	0.8482126	15.8131	
10:55:09	0	0	0	0.3075392	-1.554609	0	3	99	0	50	1.045671	0.7983801	15.82414	
10:55:10	0	0	0	0.3716864	-0.3692885	0	3	99	0	50	1.069525	0.8354918	15.83282	
10:55:11	0	0	0	0.2382008	-4.787472	0	3	99	0	50	1.052566	0.8431462	15.86576	
10:55:13	0	0	0	0.2685695	-0.4186835	0	3	99	0	50	1.084484	0.8861398	15.83292	
10:55:15	0	0	0	0.2513647	-2.090863	0	3	99	0	50	1.062874	0.8554719	15.81553	
10:55:16	0	0	0	-0.1447214	-14.6263	0	3	99	0	50	1.037962	0.8489125	15.84999	
10:55:18	0	0	0	-0.04781351	-1.361833	0	3	99	0	50	0.9974654	0.8169473	15.85625	
10:55:20	0	0	0	-0.03780061	-1.78178	0	3	99	0	50	1.024957	0.8585154	15.87301	
10:55:23	0	0	0	0.08302926	3.426561	0	3	99	0	50	1.036543	0.8417137	15.89138	
10:55:23	0	0	0	0.2501934	9.040787	0	3	99	0	50	1.06601	0.8716264	15.87401	
10:55:25	0	0	0	0.3169273	7.282997	0	3	99	0	50	1.08999	0.9471278	15.90261	
10:55:26	0	0	0	0.2763556	-0.3160776	0	3	99	0	50	1.10361	1.005225	15.89408	
10:55:28	0	0	0	0.09918595	-6.078601	0	3	99	0	50	1.133067	1.016127	15.89032	
10:55:30	0	0	0	0.1546707	-1.234372	0	3	99	0	50	1.106195	1.001286	15.88622	
10:55:31	0	0	0	0.3317406	8.308352	0	3	99	0	50	1.050106	1.013377	15.898	
10:55:33	0	0	0	0.09334829	-5.756698	0	3	99	0	50	1.071446	0.9901763	15.89038	
10:55:35	0	0	0	-0.01147141	-5.233244	0	3	99	0	50	1.034215	0.9586644	15.87551	
10:55:36	0	0	0	0.1949059	5.723554	0	3	99	0	50	1.020297	0.941541	15.88337	
10:55:38	0	0	0	0.3960929	12.56916	0	3	99	0	50	1.015601	0.8970516	15.88278	
10:55:40	0	0	0	0.7615207	17.19919	0	3	99	0	50	1.004709	0.8711683	15.87057	
10:55:41	0	0	0	0.9345766	12.59169	0	3	99	0	50	1.034535	0.902873	15.91482	
10:55:43	0	0	0	0.6197405	-5.993463	0	3	99	0	50	1.016111	0.8976949	15.8984	
10:55:45	0	0	0	0.5891452	-5.103648	0	3	99	0	50	1.009676	0.8529659	15.87613	
10:55:47	0	0	0	0.3990984	-7.991657	0	3	99	0	50	1.036495	0.8666599	15.89034	
10:55:48	0	0	0	0.6359331	5.51277	0	3	99	0	50	1.016536	0.850527	15.91154	
10:55:50	0	0	0	0.4224705	-6.153071	0	3	99	0	50	1.025051	0.920808	15.904	
10:55:52	0	0	0	0.6481305	5.696911	0	3	99	0	50	1.040487	0.9133994	15.90088	
10:55:53	0	0	0	0.860698	11.15444	0	3	99	0	50	1.020196	0.9386248	15.9337	
10:55:55	0	0	0	0.816222	1.290938	0	3	99	0	50	1.032788	0.8609445	15.90672	
10:55:57	0	0	0	0.6004568	-6.60241	0	3	99	0	50	1.039505	0.82882	15.88664	
10:55:58	0	0	0	0.4155687	-11.02107	0	3	99	0	50	1.040495	0.822036	15.90533	
10:56:00	0	0	0	0.5022495	-0.5727355	0	3	99	0	50	1.018133	0.8840439	15.89853	
10:56:02	0	0	0	0.504198	-1.374172	0	3	99	0	50	1.071712	0.9222653	15.89373	
10:56:03	0	0	0	0.3992818	-4.451442	0	3	99	0	50	1.052753	0.9210646	15.84369	
10:56:05	0	0	0	0.2621964	-5.597856	0	3	99	0	50	1.044899	0.8833838	15.819	
10:56:07	0	0	0	0.5671031	9.09079	0	3	99	0	50	1.004522	0.8728781	15.83145	
10:56:08	0	0	0	0.9240546	18.74377	0	3	99	0	50	1.021252	0.8876486	15.83984	
10:56:10	0	0	0	0.8572333	3.766318	0	3	99	0	50	1.049431	0.8658798	15.87702	
10:56:12	0	0	0	0.7230574	-2.693206	0	3	99	0	50	1.035618	0.7854409	15.8604	
10:56:13	0	0	0	0.5295087	-9.476634	0	3	99	0	50	1.023941	0.7635722	15.81663	
10:56:15	0	0	0	0.6462693	0.1178372	0	3	99	0	50	1.032821	0.79468	15.81877	
10:56:17	0	0	0	0.2431533	-15.53821	0	3	99	0	50	1.051847	0.8561128	15.83806	
10:56:19	0	0	0	0.1863465	-8.871432	0	3	99	0	50	1.04819	0.8704417	15.831	
10:56:20	0	0	0	0.5165592	10.8822	0	3	99	0	50	1.03121	0.8671573	15.84042	
10:56:22	0	0	0	0.5040165	1.365321	0	3	99	0	50	1.037253	0.8842215	15.85954	
10:56:24	0	0	0	0.6146845	6.100752	0	3	99	0	50	1.074781	0.854785	15.88731	
10:56:25	0	0	0	0.7684867	7.565029	0	3	99	0	50	1.067371	0.873435	15.88558	
10:56:27	0	0	0	0.6693235	0.3894022	0	3	99	0	50	1.076159	0.9076644	15.90611	
10:56:29	0	0	0	0.3657722	-10.10397	0	3	99	0	50	1.061329	0.9462436	15.92419	
10:56:30	0	0	0	0.771441	12.07491	0	3	99	0	50	1.064866	0.890919	15.91376	
10:56:32	0	0	0	0.9341686	10.04176	0	3	99	0	50	1.070552	0.8963134	15.90123	
10:56:34	0	0	0	0.6108723	-9.723125	0	3	99	0	50	1.069149	0.8569258	15.89431	
10:56:35	0	0	0	0.532253	-7.024684	0	3	99	0	50	1.08882	0.9206065	15.89221	
10:56:37	0	0	0	0.5418059	-2.747867	0	3	99	0	50	1.073155	0.9447569	15.89569	
10:56:39	0	0	0	0.814975	9.458443	0	3	99	0	50	1.086135	0.9896467	15.91606	
10:56:40	0	0	0	0.7140424	-1.004565	0	3	99	0	50	1.130977	0.9466797	15.91123	
10:56:42	0	0	0	0.6420354	-4.133576	0	3	99	0	50	1.070954	0.907816	15.83592	
10:56:44	0	0	0	0.6222175	-0.9810932	0	3	99	0	50	1.057376	0.9330941	15.83346	
10:56:45	0	0	0	0.6911751	0.6882541	0	3	99	0	50	1.079414	0.939813	15.84932	
10:56:47	0	0	0	0.5263525	-4.441352	0	3	99	0	50	1.052417	0.9129465	15.86102	
10:56:49	0	0	0	0.8173183	10.5441	0	3	99	0	50	1.055927	0.8560902	15.84102	
10:56:51	0	0	0	0.8245713	1.988364	0	3	99	0	50	1.04919	0.7759664	15.87537	
10:56:52	0	0	0	0.7955143	2.927972	0	3	99	0	50	1.055332	0.8369493	15.86658	
10:56:54	0	0	0	0.4686268	-9.478995	0	3	99	0	50	1.060098	0.8564457	15.88672	
10:56:56	0	0	0	0.4750801	-4.840216	0	3	99	0	50	1.095972	0.8214002	15.82566	
10:56:57	0	0	0	0.784669	8.189241	0	3	99	0	50	1.090244	0.843643	15.8357	
10:56:59	0	0	0	0.7979521	5.115594	0	3	99	0	50	1.062849	0.8464078	15.82306	
10:57:02	0	0	0	0.8527731	3.967125	0	3	99	0	50	1.062618	0.8939263	15.86151	
10:57:02	0	0	0	0.7497837	-2.415534	0	3	99	0	50	1.081742	0.8531827	15.88739	
10:57:04	0	0	0	0.7616941	-0.6287891	0	3	99	0	50	1.072679	0.8889598	15.87789	
10:57:06	0	0	0	0.7898295	0.6623458	0	3	99	0	50	1.080791	0.8878914	15.91023	
10:57:07	0	0	0	0.8681221	1.969787	0	3	99	0	50	1.070399	0.8882536	15.92096	
10:57:11	0	0	0	0.9434427	4.029436	0	3	99	0	50	1.056729	0.8988988	15.90396	
10:57:11	0	0	0	0.9995865	2.056309	0	3	99	0	50	1.04089	0.8978591	15.87627	
10:57:12	0	0	0	0.9511347	-0.3705861	0	3	99	0	50	1.062542	0.9463825	15.87966	
10:57:14	0	0	0	1.105318	3.118964	0	3	99	0	50	1.038479	0.9288291	15.86867	
10:57:18	0	0	0	0.9523492	-2.764277	0	3	99	0	50	1.06787	0.8513279	15.83731	
10:57:18	0	0	0	0.8173112	-2.971785	0	3	99	0	50	1.075361	0.8526432	15.83306	
10:57:19	0	0	0	0.7856865	-3.661845	0	3	99	0	50	1.064934	0.862648	15.80651	
10:57:21	0	0	0	0.4403165	-15.7099	0	3	99	0	50	1.048434	0.8370121	15.83661	
10:57:23	0	0	0	0.2101617	-13.10617	0	3	99	0	50	1.057098	0.8240838	15.82717	
10:57:24	0	0	0	0.5921026	9.801142	0	3	99	0	50	1.041332	0.9126864	15.84599	
10:57:26	0	0	0	0.7513367	6.459064	0	3	99	0	50	1.063263	0.9474182	15.86451	
10:57:28	0	0	0	0.745355	4.074534	0	3	99	0	50	1.05638	0.953519	15.87556	
10:57:29	0	0	0	0.6971844	-1.922319	0	3	99	0	50	1.058159	1.032	15.88726	
10:57:31	0	0	0	0.8133026	5.381493	0	3	99	0	50	1.084631	1.029824	15.89418	
10:57:33	0	0	0	0.8245013	2.619637	0	3	99	0	50	1.081709	1.010937	15.8829	
10:57:34	0	0	0	1.061285	12.65286	0	3	99	0	50	1.079351	1.038723	15.92036	
10:57:36	0	0	0	1.151329	5.878263	0	3	99	0	50	1.080249	0.9954636	15.94591	
10:57:38	0	0	0	0.9979596	-1.476283	0	3	99	0	50	1.117543	0.9907507	15.96426	
10:57:39	0	0	0	0.9054934	-3.026143	0	3	99	0	50	1.125397	0.9796529	15.92962	
10:57:41	0	0	0	0.7999705	-6.328953	0	3	99	0	50	1.145996	1.029505	15.93566	
10:57:43	0	0	0	0.8871439	0.3667726	0	3	99	0	50	1.095211	0.9804844	15.91303	
10:57:44	0	0	0	1.155806	8.480812	0	3	99	0	50	1.078892	0.9604673	15.92481	
10:57:46	0	0	0	1.331026	11.98413	0	3	99	0	50	1.077902	0.9440635	15.93077	
10:57:48	0	0	0	1.360335	4.401012	0	3	99	0	50	1.043004	0.927319	15.91536	
10:57:50	0	0	0	1.200011	-3.924353	0	3	99	0	50	1.074114	0.9656425	15.88641	
10:57:51	0	0	0	1.37762	7.500054	0	3	99	0	50	1.089597	0.9711149	16.57292	
10:57:53	0	0	0	1.232463	-1.154651	0	3	99	0	50	1.132247	0.9267732	16.25488	
10:57:55	0	0	0	1.217591	-1.678777	0	3	99	0	50	1.082243	0.902694	15.82267	
10:57:56	0	0	0	1.190732	-1.063623	0	3	99	0	50	1.090526	0.9634297	15.53945	
10:57:58	0	0	0	1.22492	0.114835	0	3	99	0	50	1.0961	0.9197339	15.24049	
10:58:00	0	0	0	0.9660491	-9.251663	0	3	99	0	50	1.07221	0.9466054	15.00284	
10:58:01	0	0	0	0.847626	-6.905898	0	3	99	0	50	1.08592	0.9035094	14.8268	
10:58:03	0	0	0	1.110774	6.888731	0	3	99	0	50	1.087574	0.8741609	14.66096	
10:58:05	0	0	0	0.8786999	-4.664322	0	3	99	0	50	1.062747	0.8950337	14.56546	
10:58:06	0	0	0	0.8694452	-1.917849	0	3	99	0	50	1.065482	0.9069378	14.49588	
10:58:08	0	0	0	1.008366	0.8119726	0	3	99	0	50	1.083856	0.7688211	14.4213	
10:58:10	0	0	0	0.7520164	-11.18306	0	3	99	0	50	1.079384	0.7840385	14.39151	
10:58:11	0	0	0	0.7080991	-4.917305	0	3	99	0	50	1.037687	0.7713959	14.35549	
10:58:13	0	0	0	0.7191424	-5.267718	0	3	99	0	50	1.07062	0.7762121	14.34972	
10:58:15	0	0	0	0.5657731	-9.150498	0	3	99	0	50	1.063298	0.7870724	14.3628	
10:58:16	0	0	0	0.7530048	4.399774	0	3	99	0	50	1.053465	0.8021617	14.36291	
10:58:18	0	0	0	0.6506441	-2.822386	0	3	99	0	50	1.06108	0.8461063	14.38431	
10:58:20	0	0	0	0.7273927	4.220452	0	3	99	0	50	1.073707	0.8216249	14.39453	
10:58:22	0	0	0	0.9974885	10.68071	0	3	99	0	50	1.097034	0.8076862	14.39963	
10:58:23	0	0	0	0.48216	-16.26821	0	3	99	0	50	1.059247	0.8516076	14.40256	
10:58:25	0	0	0	0.6312613	2.230841	0	3	99	0	50	1.041603	0.7953976	14.43373	
10:58:27	0	0	0	1.023713	13.35699	0	3	99	0	50	1.019684	0.850522	14.48475	
10:58:28	0	0	0	0.9606233	2.804457	0	3	99	0	50	1.089025	0.9098941	14.51183	
10:58:30	0	0	0	0.9519443	1.627727	0	3	99	0	50	1.107738	0.982523	14.53707	
10:58:32	0	0	0	0.6411204	-14.42428	0	3	99	0	50	1.079789	0.9999423	14.54331	
10:58:33	0	0	0	1.098254	11.5959	0	3	99	0	50	1.09422	1.008861	14.55096	
10:58:35	0	0	0	1.22176	8.388465	0	3	99	0	50	1.092791	0.9328822	14.53326	
10:58:37	0	0	0	1.199708	2.145303	0	3	99	0	50	1.106036	0.913848	14.50633	
10:58:38	0	0	0	1.111008	-2.655824	0	3	99	0	50	1.087966	0.917831	14.50224	
10:58:40	0	0	0	0.8852951	-8.674561	0	3	99	0	50	1.082231	0.8923323	14.47709	
10:58:42	0	0	0	0.8334204	-5.997866	0	3	99	0	50	1.095044	0.8958368	14.4803	
10:58:43	0	0	0	0.7194632	-6.299195	0	3	99	0	50	1.07246	0.9033322	14.52215	
10:58:45	0	0	0	0.8388433	2.714094	0	3	99	0	50	1.072799	0.9419556	14.56647	
10:58:47	0	0	0	0.653155	-7.646126	0	3	99	0	50	1.056021	0.9703631	14.5945	
10:58:48	0	0	0	0.693529	-2.830844	0	3	99	0	50	1.063896	0.9910596	14.61979	
10:58:50	0	0	0	0.7349055	-0.6527225	0	3	99	0	50	1.064972	1.078202	14.66721	
10:58:52	0	0	0	0.7810009	0.8987656	0	3	99	0	50	1.078107	1.058407	14.66493	
10:58:54	0	0	0	0.5259632	-7.504822	0	3	99	0	50	1.10908	1.132435	14.67072	
10:58:55	0	0	0	0.4415195	-5.464982	0	3	99	0	50	1.109607	1.116683	14.66082	
10:58:57	0	0	0	0.4108329	-6.204552	0	3	99	0	50	1.097523	1.102304	14.6975	
10:58:59	0	0	0	0.6601862	7.529179	0	3	99	0	50	1.076314	0.9907313	14.68467	
10:59:00	0	0	0	0.8911452	10.12064	0	3	99	0	50	1.046569	0.9981429	14.69039	
10:59:02	0	0	0	0.7221229	-1.080188	0	3	99	0	50	1.045151	0.9647255	14.67274	
10:59:04	0	0	0	0.8184923	3.165666	0	3	99	0	50	1.021657	0.9812791	14.63989	
10:59:05	0	0	0	0.5505359	-8.913404	0	3	99	0	50	0.9917396	0.9037801	14.64337	
10:59:07	0	0	0	0.8621423	8.490646	0	3	99	0	50	1.029663	0.9141352	14.63844	
10:59:09	0	0	0	0.9914973	7.326146	0	3	99	0	50	1.027513	0.8935948	14.64588	
10:59:10	0	0	0	0.9534331	2.201828	0	3	99	0	50	0.998306	0.8547525	14.63287	
10:59:12	0	0	0	1.153687	6.699429	0	3	99	0	50	1.031729	0.8688066	14.62296	
10:59:14	0	0	0	1.200222	2.901195	0	3	99	0	50	0.9910126	0.840168	14.59184	
10:59:15	0	0	0	1.290489	5.608572	0	3	99	0	50	0.9927097	0.8596475	14.62015	
10:59:17	0	0	0	1.271932	1.079117	0	3	99	0	50	0.9417728	0.7955565	14.64046	
10:59:19	0	0	0	1.195785	-4.650529	0	3	99	0	50	0.9797248	0.7622666	14.6738	
10:59:20	0	0	0	1.064137	-7.39314	0	3	99	0	50	1.020571	0.7788828	14.6973	
10:59:22	0	0	0	0.9972369	-5.004873	0	3	99	0	50	1.035289	0.8024247	14.71788	
10:59:24	0	0	0	1.385876	14.61447	0	3	99	0	50	1.04443	0.8701335	14.75077	
10:59:26	0	0	0	1.365795	1.64994	0	3	100	0	50	1.04741	0.8513878	14.69683	
10:59:27	0	0	0	1.305341	-0.3114001	0	3	100	0	50	1.019447	0.8926697	14.69812	
10:59:29	0	0	0	1.412368	3.37417	0	3	100	0	50	1.021373	0.8671648	14.72989	
10:59:31	0	0	0	1.553968	6.081209	0	3	100	0	50	1.022824	0.8823649	14.69308	
10:59:32	0	0	0	1.559685	3.981902	0	3	100	0	50	1.021856	0.8238146	14.68989	
10:59:34	0	0	0	1.396933	-4.672327	0	3	100	0	50	0.9982623	0.7965763	14.65363	
10:59:36	0	0	0	1.316137	-3.757308	0	3	100	0	50	0.9923327	0.8858216	14.64358	
10:59:37	0	0	0	1.225933	-5.914695	0	3	100	0	50	1.056816	0.926384	14.63132	
10:59:39	0	0	0	1.077519	-6.775615	0	3	100	0	50	1.071126	0.8786075	14.64491	
10:59:41	0	0	0	1.085544	-2.9294	0	3	100	0	50	1.063995	0.8508093	14.6156	
10:59:42	0	0	0	0.9972596	-3.229968	0	3	100	0	50	1.051584	0.8166775	14.62404	
10:59:44	0	0	0	0.8875871	-5.146736	0	3	100	0	50	1.074569	0.8921933	14.60246	
10:59:46	0	0	0	1.192614	8.414594	0	3	100	0	50	1.062352	0.8760926	14.58721	
10:59:47	0	0	0	1.116309	0.9451246	0	3	100	0	50	1.06953	0.8401858	14.64054	
10:59:49	0	0	0	0.7505177	-13.03166	0	3	100	0	50	1.036847	0.8106396	14.61066	
10:59:51	0	0	0	1.189063	16.09321	0	3	100	0	50	1.031034	0.8163536	14.62453	
10:59:52	0	0	0	1.556225	16.27304	0	3	100	0	50	1.010536	0.8364556	14.61977	
10:59:54	0	0	0	1.179987	-6.441689	0	3	100	0	50	0.9770036	0.7610341	14.65792	
10:59:56	0	0	0	1.23759	-0.3967361	0	3	100	0	50	0.9711308	0.7931971	14.71046	
10:59:58	0	0	0	1.023076	-8.767314	0	3	100	0	50	1.020121	0.9039335	14.72855	
10:59:59	0	0	0	1.283272	7.615899	0	3	100	0	50	1.023456	0.8762639	14.73233	
11:00:01	0	0	0	1.264573	0.5165593	0	3	100	0	50	1.068151	0.8727953	14.71269	
11:00:03	0	0	0	1.237136	-0.02490741	0	3	100	0	50	1.071652	0.9139536	14.65962	
11:00:04	0	0	0	1.457374	5.750452	0	3	100	0	50	1.092079	0.9188564	14.62148	
11:00:06	0	0	0	1.316736	-2.941953	0	3	100	0	50	1.091525	0.9551474	14.57	
11:00:08	0	0	0	1.082509	-9.961498	0	3	100	0	50	1.120616	1.04688	14.56373	
11:00:09	0	0	0	1.080096	-6.033433	0	3	100	0	50	1.083954	1.02129	14.54423	
11:00:11	0	0	0	1.037625	-3.869132	0	3	100	0	50	1.053502	1.002118	14.55479	
11:00:13	0	0	0	1.406635	10.63597	0	3	100	0	50	1.068041	1.063519	14.57315	
11:00:14	0	0	0	1.457709	6.759726	0	3	100	0	50	1.06778	1.004883	14.52446	
11:00:16	0	0	0	1.119254	-10.69362	0	3	100	0	50	1.072672	0.9918761	14.51599	
11:00:18	0	0	0	1.324164	4.57068	0	3	100	0	50	1.071459	0.9315407	14.54772	
11:00:19	0	0	0	1.535084	10.89442	0	3	100	0	50	1.071966	0.988327	14.53337	
11:00:21	0	0	0	1.374641	-3.789677	0	3	100	0	50	1.070279	0.9904073	14.54666	
11:00:23	0	0	0	1.421584	1.688933	0	3	100	0	50	1.060007	0.927763	14.53693	
11:00:24	0	0	0	1.450101	1.924426	0	3	100	0	50	1.014479	0.940779	14.54075	
11:00:26	0	0	0	1.570918	4.137845	0	3	100	0	50	1.024368	0.9729158	14.54152	
11:00:28	0	0	0	1.559955	1.981746	0	3	100	0	50	1.01088	0.9345924	14.55448	
11:00:30	0	0	0	1.512828	-1.419483	0	3	100	0	50	0.9964637	0.9401919	14.56497	
11:00:31	0	0	0	1.164768	-13.90738	0	3	100	0	50	1.002792	0.9410445	14.56058	
11:00:33	0	0	0	1.435146	3.984883	0	3	100	0	50	1.021014	0.9142383	14.55536	
11:00:35	0	0	0	1.129689	-10.3493	0	3	100	0	50	1.030928	0.9045501	14.59005	
11:00:36	0	0	0	1.185188	-2.606861	0	3	100	0	50	1.038535	0.9134482	14.60943	
11:00:38	0	0	0	1.46238	9.281516	0	3	100	0	50	1.071148	0.9751883	14.62534	
11:00:40	0	0	0	1.42616	4.493086	0	3	100	0	50	1.072205	0.9475443	14.62274	
11:00:41	0	0	0	1.57095	6.833772	0	3	100	0	50	1.073677	0.9514763	14.59655	
11:00:43	0	0	0	1.649652	2.945097	0	3	100	0	50	1.107038	0.9494436	14.61127	
11:00:45	0	0	0	1.505441	-1.594547	0	3	100	0	50	1.101794	0.9810337	14.62681	
11:00:46	0	0	0	1.322642	-7.48688	0	3	100	0	50	1.117658	0.8905179	14.57378	
11:00:48	0	0	0	1.63665	9.204044	0	3	100	0	50	1.124968	0.8481687	14.55342	
11:00:50	0	0	0	1.377617	-8.265074	0	3	100	0	50	1.108823	0.8616869	14.53038	
11:00:51	0	0	0	1.036988	-14.85162	0	3	100	0	50	1.107181	0.9404949	14.50207	
11:00:53	0	0	0	1.286428	1.713096	0	3	100	0	50	1.091572	0.9146927	14.50715	
11:00:55	0	0	0	1.317838	-1.099432	0	3	100	0	50	1.054421	0.910271	14.52591	
11:00:56	0	0	0	1.33832	5.295057	0	3	100	0	50	1.079703	0.8580297	14.49708	
11:00:58	0	0	0	1.433439	4.738701	0	3	100	0	50	1.090088	0.8008954	14.46774	
11:01:00	0	0	0	1.243569	-4.367611	0	3	100	0	50	1.085113	0.7961927	14.49308	
11:01:02	0	0	0	1.288136	-0.5478194	0	3	100	0	50	1.030897	0.7902513	14.50553	
11:01:03	0	0	0	0.9510033	-12.26381	0	3	100	0	50	1.025479	0.7825704	14.46822	
11:01:05	0	0	0	1.271716	7.659744	0	3	100	0	50	1.039991	0.8147165	14.48853	
11:01:07	0	0	0	1.126537	-0.646973	0	3	100	0	50	1.04367	0.8782859	14.52661	
11:01:08	0	0	0	1.255865	2.819767	0	3	100	0	50	1.051633	0.8621311	14.56955	
11:01:10	0	0	0	1.135928	-2.961421	0	3	100	0	50	1.072296	0.8882269	14.56522	
11:01:12	0	0	0	1.056795	-2.835674	0	3	100	0	50	1.028295	0.8433827	14.58157	
11:01:13	0	0	0	1.097006	0.1841459	0	3	100	0	50	1.024113	0.8720913	14.57816	
11:01:15	0	0	0	1.207576	4.863915	0	3	100	0	50	1.028877	0.8544543	14.59023	
11:01:17	0	0	0	1.317895	4.458275	0	3	100	0	50	1.025308	0.8758146	14.59447	
11:01:18	0	0	0	1.307454	2.089224	0	3	100	0	50	1.046031	0.8510314	14.63471	
11:01:20	0	0	0	1.527788	8.931949	0	3	100	0	50	1.062752	0.8848934	14.61835	
11:01:22	0	0	0	1.571155	3.505541	0	3	100	0	50	1.084241	0.9638597	14.5939	
11:01:23	0	0	0	1.424248	-3.978375	0	3	100	0	50	1.09092	0.9168423	14.58721	
11:01:25	0	0	0	1.465022	0.1709643	0	3	100	0	50	1.119572	0.9832633	14.58141	
11:01:27	0	0	0	1.347291	-4.136075	0	3	100	0	50	1.106572	1.024667	14.57119	
11:01:28	0	0	0	1.422649	1.901796	0	3	100	0	50	1.121306	0.9444952	14.53933	
11:01:30	0	0	0	1.560233	6.045005	0	3	100	0	50	1.114027	0.930117	14.54063	
11:01:32	0	0	0	1.333825	-7.528525	0	3	100	0	50	1.085872	0.9113385	14.51572	
11:01:34	0	0	0	1.209513	-4.459298	0	3	100	0	50	1.062005	0.9387487	14.52254	
11:01:35	0	0	0	1.099497	-6.935682	0	3	100	0	50	1.045666	0.9018366	14.5389	
11:01:37	0	0	0	1.027813	-6.937076	0	3	100	0	50	1.084375	0.892508	14.51519	
11:01:39	0	0	0	0.9261634	-5.307669	0	3	100	0	50	1.085422	0.791388	14.49779	
11:01:40	0	0	0	0.7396132	-10.01941	0	3	100	0	50	1.090051	0.8676388	14.5567	
11:01:42	0	0	0	0.9510435	4.067342	0	3	100	0	50	1.092046	0.9038317	14.55551	
11:01:44	0	0	0	1.398811	20.84762	0	3	100	0	50	1.088145	0.9353022	14.57753	
11:01:45	0	0	0	1.464652	7.621041	0	3	100	0	50	1.013314	0.8824979	14.56175	
11:01:47	0	0	0	1.240617	-5.680708	0	3	100	0	50	1.018453	0.8708096	14.59014	
11:01:49	0	0	0	1.363451	0.2402147	0	3	100	0	50	1.01751	0.8951946	14.60803	
11:01:50	0	0	0	1.475329	5.313578	0	3	100	0	50	1.053493	0.8799504	14.62051	
11:01:52	0	0	0	0.8755879	-21.67677	0	3	100	0	50	1.05269	0.9661579	14.61819	
11:01:54	0	0	0	0.8094075	-7.688663	0	3	100	0	50	1.053338	0.9801809	14.64195	
11:01:55	0	0	0	1.051917	7.91718	0	3	100	0	50	1.08351	0.9603848	14.65925	
11:01:57	0	0	0	1.508745	21.2336	0	3	100	0	50	1.110346	1.008453	14.62565	
11:01:59	0	0	0	1.271574	0.243893	0	3	100	0	50	1.070761	0.9736285	14.58102	
11:02:01	0	0	0	0.7523496	-22.30208	0	3	100	0	50	1.061102	0.9433556	14.60652	
11:02:02	0	0	0	0.9296353	0.4045494	0	3	100	0	50	1.059239	0.9565384	14.63248	
11:02:04	0	0	0	1.344292	13.68449	0	3	100	0	50	1.049258	0.9102832	14.64087	
11:02:06	0	0	0	1.464842	9.092588	0	3	100	0	50	1.027321	0.8999827	14.64956	
11:02:07	0	0	0	1.319186	-1.013858	0	3	100	0	50	1.030685	0.8852361	14.64158	
11:02:09	0	0	0	1.176958	-7.2346	0	3	100	0	50	1.058743	0.8794678	14.65347	
11:02:11	0	0	0	1.326448	2.380026	0	3	100	0	50	1.020167	0.8831972	14.64155	
11:02:12	0	0	0	1.310504	-0.8612025	0	3	100	0	50	1.038311	0.8780822	14.67294	
11:02:14	0	0	0	1.319108	-0.428322	0	3	100	0	50	1.031771	0.8670999	14.62995	
11:02:16	0	0	0	1.309763	-1.848143	0	3	100	0	50	1.075515	0.9176698	14.64492	
11:02:17	0	0	0	1.306579	-1.326217	0	3	100	0	50	1.086892	0.8800324	14.59761	
11:02:19	0	0	0	1.155701	-3.858005	0	3	100	0	50	1.085271	0.923725	14.61213	
11:02:21	0	0	0	1.483534	10.37412	0	3	100	0	50	1.044137	0.8958747	14.59132	
11:02:22	0	0	0	1.040749	-11.91729	0	3	100	0	50	1.062659	0.9014717	14.58902	
11:02:24	0	0	0	0.9773646	-7.747513	0	3	100	0	50	1.03731	0.8939607	14.61125	
11:02:26	0	0	0	1.101471	1.974651	0	3	100	0	50	1.022225	0.8512095	14.62759	
11:02:27	0	0	0	1.184771	3.330581	0	3	100	0	50	1.041036	0.889927	14.6371	
11:02:29	0	0	0	0.8581361	-13.2687	0	3	100	0	50	1.063006	0.9406583	14.65869	
11:02:31	0	0	0	0.4621148	-16.20256	0	3	100	0	50	1.088686	0.9567602	14.65575	
11:02:33	0	0	0	0.8915424	6.942821	0	3	100	0	50	1.100493	0.9421405	14.64884	
11:02:34	0	0	0	0.9266803	3.232909	0	3	100	0	50	1.041502	0.9164863	14.64232	
11:02:36	0	0	0	0.9246091	0.7196266	0	3	100	0	50	1.060476	0.9388658	14.63625	
11:02:38	0	0	0	0.9189649	-1.580976	0	3	100	0	50	1.039847	0.9839854	14.61844	
11:02:39	0	0	0	1.119502	6.936232	0	3	100	0	50	1.025768	0.9678758	14.60764	
11:02:41	0	0	0	1.173392	5.259932	0	3	100	0	50	1.01058	0.994573	14.6076	
11:02:43	0	0	0	1.189023	2.71084	0	3	100	0	50	1.010672	0.9985414	14.59438	
11:02:44	0	0	0	1.188938	2.701791	0	3	100	0	50	1.013783	0.9823278	14.60806	
11:02:46	0	0	0	1.177021	1.297754	0	3	100	0	50	1.02051	0.9008008	14.62153	
11:02:48	0	0	0	1.329481	5.850364	0	3	100	0	50	1.002207	0.9343426	14.61783	
11:02:49	0	0	0	1.109369	-5.226617	0	3	100	0	50	1.006152	0.8905905	14.62458	
11:02:51	0	0	0	1.270414	3.836287	0	3	100	0	50	0.9985011	0.9286221	14.64214	
11:02:53	0	0	0	1.372213	9.41492	0	3	100	0	50	1.04036	0.9182414	14.67487	
11:02:54	0	0	0	1.542572	7.54116	0	3	100	0	50	1.06883	0.920405	14.64012	
11:02:56	0	0	0	0.9682204	-19.45448	0	3	100	0	50	1.0574	0.8146596	14.59421	
11:02:58	0	0	0	0.8998007	-10.91765	0	3	100	0	50	1.052068	0.8047765	14.56552	
11:02:59	0	0	0	1.145455	5.40846	0	3	100	0	50	1.075212	0.7888562	14.51556	
11:03:01	0	0	0	0.9850394	-2.863704	0	3	100	0	50	1.100815	0.8577086	14.5145	
11:03:03	0	0	0	1.102019	2.578973	0	3	100	0	50	1.050747	0.8068756	14.51222	
11:03:05	0	0	0	0.8141454	-8.287969	0	3	100	0	50	1.069397	0.8810357	14.51013	
11:03:06	0	0	0	1.173947	9.383933	0	3	100	0	50	1.076321	0.8849839	14.51862	
11:03:08	0	0	0	0.9400112	-3.158596	0	3	100	0	50	1.069407	0.8874558	14.54647	
11:03:10	0	0	0	1.204227	8.035729	0	3	100	0	50	1.067002	0.8613967	14.54117	
11:03:11	0	0	0	1.221777	4.179305	0	3	100	0	50	1.061584	0.8603358	14.5736	
11:03:13	0	0	0	1.194006	0.06987671	0	3	100	0	50	1.071092	0.8501113	14.63021	
11:03:15	0	0	0	1.118942	-4.26704	0	3	100	0	50	1.079017	0.8931457	14.61451	
11:03:16	0	0	0	0.729708	-18.82038	0	3	100	0	50	1.084765	0.8762616	14.5855	
11:03:18	0	0	0	0.6819466	-7.53126	0	3	100	0	50	1.115286	0.9336651	14.56852	
11:03:20	0	0	0	1.024524	10.53145	0	3	100	0	50	1.095281	1.023899	14.59632	
11:03:21	0	0	0	1.354717	17.62861	0	3	100	0	50	1.085771	0.9651557	14.62577	
11:03:23	0	0	0	1.211073	2.754954	0	3	100	0	50	1.066384	0.9556625	14.5903	
11:03:25	0	0	0	1.145475	-2.924509	0	3	100	0	50	1.097017	0.9852997	14.61121	
11:03:26	0	0	0	0.9704805	-6.928898	0	3	100	0	50	1.089931	0.9281781	14.62914	
11:03:28	0	0	0	1.065585	-0.4778288	0	3	100	0	50	1.097579	0.9438205	14.65369	
11:03:30	0	0	0	0.9502838	-5.637393	0	3	100	0	50	1.071231	0.8999395	14.63732	
11:03:31	0	0	0	0.879033	-5.223642	0	3	100	0	50	1.051473	0.8750506	14.63876	
11:03:33	0	0	0	1.271249	12.71359	0	3	100	0	50	1.033628	0.8972353	14.62781	
11:03:35	0	0	0	1.30052	4.064877	0	3	100	0	50	1.059226	0.9282324	14.61944	
11:03:37	0	0	0	1.354719	6.302276	0	3	100	0	50	1.032179	0.8530776	14.604	
11:03:38	0	0	0	1.565348	9.772687	0	3	100	0	50	1.061556	0.8787032	14.61912	
11:03:40	0	0	0	1.430383	-2.08798	0	3	100	0	50	1.072721	0.8790998	14.62049	
11:03:42	0	0	0	1.329252	-4.69989	0	3	100	0	50	1.056525	0.948505	14.63151	
11:03:43	0	0	0	1.083736	-11.77163	0	3	100	0	50	1.078307	0.8959033	14.57465	
11:03:45	0	0	0	0.9215039	-10.79961	0	3	100	0	50	1.070184	0.947563	14.59703	
11:03:47	0	0	0	0.803403	-7.571852	0	3	100	0	50	1.043314	0.8944358	14.62095	
11:03:48	0	0	0	0.9490014	2.073755	0	3	100	0	50	0.9901164	0.9293578	14.61662	
11:03:50	0	0	0	1.118546	5.792864	0	3	100	0	50	1.003552	0.8800215	14.69056	
11:03:52	0	0	0	1.094567	4.233499	0	3	100	0	50	0.9779881	0.901581	14.69338	
11:03:53	0	0	0	1.118451	0.9049656	0	3	100	0	50	1.018376	0.95826	14.71199	
11:03:55	0	0	0	1.092639	-1.133984	0	3	100	0	50	1.01579	0.9055436	14.69857	
11:03:57	0	0	0	0.9000002	-7.735834	0	3	100	0	50	1.023819	0.8841773	14.68884	
11:03:58	0	0	0	0.5137988	-16.87434	0	3	100	0	50	1.021877	0.8557993	14.63885	
11:04:00	0	0	0	0.746219	3.012267	0	3	100	0	50	1.025074	0.8063897	14.62078	
11:04:02	0	0	0	1.110777	13.75248	0	3	100	0	50	1.041795	0.8320386	14.65323	
11:04:03	0	0	0	1.654647	22.39928	0	3	100	0	50	1.112846	0.8945662	14.64102	
11:04:05	0	0	0	1.810827	14.06005	0	3	100	0	50	1.094032	0.8775992	14.57174	
11:04:07	0	0	0	1.861925	10.49592	0	3	100	0	50	1.08374	0.8752648	14.55547	
11:04:09	0	0	0	1.63605	-6.193485	0	3	100	0	50	1.054189	0.8760747	14.56437	
11:04:10	0	0	0	1.201489	-21.29276	0	3	100	0	50	1.033859	0.9094933	14.55198	
11:04:12	0	0	0	1.277189	-3.716239	0	3	100	0	50	1.052815	0.9523496	14.59993	
11:04:14	0	0	0	1.606927	11.80255	0	3	100	0	50	1.040416	1.020868	14.59947	
11:04:15	0	0	0	1.659989	5.13994	0	3	100	0	50	1.009027	0.9764308	14.59818	
11:04:17	0	0	0	1.689326	4.438434	0	3	100	0	50	1.012952	0.9739787	14.62541	
11:04:19	0	0	0	1.729755	1.035762	0	3	100	0	50	1.010976	0.9691119	14.62757	
11:04:20	0	0	0	1.482636	-10.18863	0	3	100	0	50	1.03779	0.9650217	14.61421	
11:04:22	0	0	0	1.043773	-18.58056	0	3	100	0	50	1.02178	0.928708	14.60111	
11:04:24	0	0	0	1.362394	5.253243	0	3	100	0	50	1.002863	0.8478297	14.58731	
11:04:25	0	0	0	1.296318	-0.5327249	0	3	100	0	50	1.012646	0.9070873	14.58464	
11:04:27	0	0	0	1.045486	-11.29149	0	3	100	0	50	0.9938565	0.8460012	14.55614	
11:04:29	0	0	0	0.7889419	-14.24382	0	3	100	0	50	0.9783762	0.8634924	14.57165	
11:04:30	0	0	0	0.9262571	0.5227569	0	3	100	0	50	0.9843448	0.8676442	14.60545	
11:04:32	0	0	0	1.473735	19.7157	0	3	100	0	50	0.9848131	0.8466271	14.62485	
11:04:34	0	0	0	1.623343	10.25691	0	3	100	0	50	0.980851	0.8454083	14.64074	
11:04:35	0	0	0	1.756177	9.187513	0	3	100	0	50	0.9947273	0.8340352	14.63632	
11:04:37	0	0	0	1.540344	-2.727812	0	3	100	0	50	0.9817612	0.8513357	14.6397	
11:04:39	0	0	0	1.670446	3.861562	0	3	100	0	50	0.9782758	0.888432	14.65633	
11:04:41	0	0	0	1.517644	-5.527148	0	3	100	0	50	0.966145	0.9422953	14.66069	
11:04:42	0	0	0	1.182243	-13.22514	0	3	100	0	50	0.9884466	0.9382516	14.67137	
11:04:44	0	0	0	1.104941	-8.937957	0	3	100	0	50	0.9680701	0.9159884	14.6607	
11:04:46	0	0	0	0.9689974	-9.002601	0	3	100	0	50	0.9818934	0.894479	14.66655	
11:04:47	0	0	0	1.013105	-5.859089	0	3	100	0	50	0.9682652	0.8828144	14.68924	
11:04:49	0	0	0	0.8201416	-6.429681	0	3	100	0	50	0.9713644	0.9105669	14.68745	
11:04:51	0	0	0	1.289459	18.44174	0	3	100	0	50	0.9921651	0.9083706	14.68461	
11:04:52	0	0	0	1.4457	13.93167	0	3	100	0	50	1.003181	0.9496086	14.64587	
11:04:54	0	0	0	1.896727	23.24779	0	3	100	0	50	1.00903	0.937925	14.63813	
11:04:56	0	0	0	1.922913	9.545086	0	3	100	0	50	1.042565	0.9602915	14.65863	
11:04:57	0	0	0	1.779602	-1.933816	0	3	100	0	50	1.048879	0.9443425	14.65462	
11:04:59	0	0	0	1.385037	-16.21366	0	3	100	0	50	1.072897	0.9408407	14.67785	
11:05:01	0	0	0	1.157858	-15.93451	0	3	100	0	50	1.062678	0.9761018	14.64365	
11:05:02	0	0	0	1.298199	0.1432337	0	3	100	0	50	1.08471	0.9437062	14.65724	
11:05:04	0	0	0	1.479606	6.485759	0	3	100	0	50	1.062406	0.9408848	14.65927	
11:05:06	0	0	0	1.18652	-9.325738	0	3	100	0	50	1.050366	0.9726413	14.6668	
11:05:07	0	0	0	1.059783	-11.44078	0	3	100	0	50	1.032142	0.9836946	14.66737	
11:05:09	0	0	0	1.131268	-0.5978187	0	3	100	0	50	1.056192	0.9972818	14.63965	
11:05:11	0	0	0	1.037892	-6.389264	0	3	100	0	50	1.085411	0.9887287	14.62109	
11:05:13	0	0	0	1.217625	4.187825	0	3	100	0	50	1.069759	1.000785	14.6333	
11:05:14	0	0	0	1.116512	-9.778332	0	3	100	0	50	1.095733	0.9594532	14.63198	
11:05:16	0	0	0	0.9732034	-8.705499	0	3	100	0	50	1.086893	0.9556831	14.61607	
11:05:18	0	0	0	1.221489	7.117797	0	3	100	0	50	1.107923	0.9889804	14.57852	
11:05:19	0	0	0	0.895327	-8.879371	0	3	100	0	50	1.06126	0.9726686	14.58164	
11:05:21	0	0	0	0.9799321	0.638876	0	3	100	0	50	1.053114	1.010781	14.61415	
11:05:23	0	0	0	1.008447	2.190876	0	3	100	0	50	1.064461	1.035096	14.61007	
11:05:24	0	0	0	1.107801	6.417662	0	3	100	0	50	1.045164	1.012947	14.6463	
11:05:26	0	0	0	1.225625	7.524734	0	3	100	0	50	1.081711	0.9906507	14.66352	
11:05:28	0	0	0	1.134554	2.00293	0	3	100	0	50	1.052648	0.9916792	14.64723	
11:05:29	0	0	0	1.683702	21.32684	0	3	100	0	50	1.07357	0.9727253	14.63922	
11:05:31	0	0	0	1.617992	4.996245	0	3	100	0	50	1.034059	0.9284589	14.63321	
11:05:33	0	0	0	1.708707	5.828025	0	3	100	0	50	1.058319	0.9232513	14.62678	
11:05:34	0	0	0	1.644628	-0.9485292	0	3	100	0	50	1.048648	0.9503332	14.64141	
11:05:36	0	0	0	1.048325	-20.83408	0	3	100	0	50	1.05132	0.89314	14.62771	
11:05:38	0	0	0	1.420277	7.473249	0	3	100	0	50	1.014084	0.7837685	14.58641	
11:05:40	0	0	0	2.02771	24.18174	0	3	100	0	50	0.9955313	0.7478027	14.58183	
11:05:41	0	0	0	1.859468	4.049656	0	3	100	0	50	1.045439	0.8385335	14.5987	
11:05:43	0	0	0	1.511891	-10.21121	0	3	100	0	50	1.061392	0.9123669	14.61515	
11:05:45	0	0	0	1.596951	-1.274354	0	3	100	0	50	1.052153	0.8717574	14.63439	
11:05:46	0	0	0	1.659647	2.007514	0	3	100	0	50	1.055968	0.8462021	14.63505	
11:05:48	0	0	0	1.873615	10.02125	0	3	100	0	50	1.045412	0.853036	14.62065	
11:05:50	0	0	0	1.755388	-0.8683592	0	3	100	0	50	1.044524	0.9137011	14.6406	
11:05:51	0	0	0	1.741967	0.5913305	0	3	100	0	50	1.000928	0.9266671	14.65049	
11:05:53	0	0	0	1.861523	5.733919	0	3	100	0	50	1.019446	0.9926957	14.64451	
11:05:55	0	0	0	1.979028	7.694323	0	3	100	0	50	1.0166	0.9547704	14.68744	
11:05:56	0	0	0	2.314379	13.39233	0	3	100	0	50	1.006806	0.9896341	14.70339	
11:05:58	0	0	0	1.947692	-9.00363	0	3	100	0	50	1.024262	0.9596401	14.66481	
11:06:00	0	0	0	1.773573	-11.84875	0	3	100	0	50	1.028284	0.9526474	14.64147	
11:06:01	0	0	0	1.709854	-7.942648	0	3	100	0	50	1.005284	0.9005802	14.61887	
11:06:03	0	0	0	1.759867	-0.6479254	0	3	100	0	50	1.030524	0.9327539	14.61071	
11:06:05	0	0	0	1.756979	0.6323207	0	3	100	0	50	1.045043	0.9780122	14.60347	
11:06:06	0	0	0	1.672246	-4.450777	0	3	100	0	50	1.024908	1.025735	14.587	
11:06:08	0	0	0	1.713042	-1.414276	0	3	100	0	50	1.028247	0.9689863	14.58757	
11:06:10	0	0	0	1.671059	-1.035186	0	3	100	0	50	1.049137	0.951827	14.59376	
11:06:11	0	0	0	1.479449	-7.855639	0	3	100	0	50	1.051147	1.005708	14.63189	
11:06:13	0	0	0	1.571794	-1.058898	0	3	100	0	50	1.01345	0.9014998	14.64041	
11:06:15	0	0	0	1.819128	10.49228	0	3	100	0	50	1.015177	0.9698254	14.67749	
11:06:17	0	0	0	1.904509	5.172555	0	3	100	0	50	1.029285	0.9314774	14.68869	
11:06:18	0	0	0	1.800522	0.5992978	0	3	100	0	50	0.9860371	0.8382536	14.65476	
11:06:20	0	0	0	1.824437	-1.811636	0	3	100	0	50	0.9748083	0.8383494	14.652	
11:06:22	0	0	0	1.753116	-5.064801	0	3	100	0	50	0.969423	0.8483505	14.64712	
11:06:23	0	0	0	1.539491	-7.545333	0	3	100	0	50	0.9695727	0.839031	14.65712	
11:06:25	0	0	0	1.898644	10.70714	0	3	100	0	50	0.9940203	0.8493975	14.65869	
11:06:27	0	0	0	1.935243	4.520089	0	3	100	0	50	0.9993944	0.8606483	14.65106	
11:06:28	0	0	0	1.971275	2.439024	0	3	100	0	50	0.9987	0.8544399	14.67538	
11:06:30	0	0	0	1.842803	-2.815991	0	3	100	0	50	1.034432	0.8733987	14.64123	
11:06:32	0	0	0	1.982936	3.950434	0	3	100	0	50	1.027982	0.9153224	14.63054	
11:06:33	0	0	0	1.966232	-0.4755565	0	3	100	0	50	1.065134	0.9354541	14.6086	
11:06:35	0	0	0	1.796794	-5.205894	0	3	100	0	50	1.070822	0.8591962	14.5734	
11:06:37	0	0	0	1.694339	-7.824539	0	3	100	0	50	1.022924	0.8551572	14.54904	
11:06:38	0	0	0	1.647337	-5.521767	0	3	100	0	50	1.03081	0.856675	14.5399	
11:06:40	0	0	0	1.605454	-3.149595	0	3	100	0	50	1.017267	0.8712856	14.57471	
11:06:42	0	0	0	1.814196	4.627438	0	3	100	0	50	0.995373	0.8929682	14.59449	
11:06:43	0	0	0	1.849862	3.206625	0	3	100	0	50	0.991345	0.8647469	14.60686	
11:06:45	0	0	0	1.875372	2.767666	0	3	100	0	50	0.9692685	0.8473273	14.63604	
11:06:47	0	0	0	1.947009	4.579981	0	3	100	0	50	0.976307	0.8693295	14.66957	
11:06:49	0	0	0	1.820995	-1.296376	0	3	100	0	50	0.9726067	0.8066658	14.68939	
11:06:50	0	0	0	1.543764	-12.03346	0	3	100	0	50	0.9563741	0.8417754	14.70459	
11:06:52	0	0	0	1.616883	0.7108766	0	3	100	0	50	0.9548788	0.8871854	14.70801	
11:06:54	0	0	0	1.785008	5.428613	0	3	100	0	50	0.9685391	0.8867629	14.66397	
11:06:55	0	0	0	2.048323	11.47561	0	3	100	0	50	0.9504395	0.8390018	14.69673	
11:06:57	0	0	0	2.0019	1.005212	0	3	100	0	50	0.9768825	0.8800232	14.71173	
11:06:59	0	0	0	1.963088	1.627272	0	3	100	0	50	1.012502	0.9026726	14.73039	
11:07:00	0	0	0	1.845275	-3.11253	0	3	100	0	50	1.039766	1.013352	14.75117	
11:07:02	0	0	0	2.068022	7.985845	0	3	100	0	50	1.057584	0.985678	14.7119	
11:07:04	0	0	0	2.234846	10.30259	0	3	100	0	50	1.063343	0.9848092	14.71965	
11:07:05	0	0	0	2.144588	1.835578	0	3	100	0	50	1.073315	1.072933	14.66656	
11:07:07	0	0	0	2.023741	-3.464482	0	3	100	0	50	1.04842	1.006386	14.65363	
11:07:09	0	0	0	1.957657	-2.720792	0	3	100	0	50	1.067113	1.034621	14.64457	
11:07:10	0	0	0	2.191051	3.716851	0	3	100	0	50	1.081377	1.065935	14.63873	
11:07:12	0	0	0	2.136592	-0.9814569	0	3	100	0	50	1.094132	1.06211	14.63653	
11:07:14	0	0	0	2.069731	-3.91495	0	3	100	0	50	1.060261	0.9499189	14.61795	
11:07:15	0	0	0	1.820602	-11.35619	0	3	100	0	50	1.059515	1.004558	14.59657	
11:07:17	0	0	0	1.965636	-1.16082	0	3	100	0	50	1.026325	1.029018	14.6073	
11:07:19	0	0	0	2.241961	10.24272	0	3	100	0	50	1.036332	1.055727	14.64263	
11:07:21	0	0	0	2.429204	10.71957	0	3	100	0	50	1.041024	1.054077	14.67263	
11:07:22	0	0	0	2.345416	-0.2218734	0	3	100	0	50	1.056455	1.063506	14.69877	
11:07:24	0	0	0	2.051925	-11.64212	0	3	100	0	50	1.074343	1.087518	14.68518	
11:07:26	0	0	0	1.990161	-2.880839	0	3	100	0	50	1.066266	1.018807	14.63247	
11:07:27	0	0	0	2.350749	10.23418	0	3	100	0	50	1.055227	0.9468409	14.63495	
11:07:29	0	0	0	2.241677	0.3927781	0	3	100	0	50	1.10245	1.054392	14.65419	
11:07:31	0	0	0	2.179686	-2.331033	0	3	100	0	50	1.098298	1.020825	14.65343	
11:07:32	0	0	0	2.027975	-8.358274	0	3	100	0	50	1.092089	0.9710827	14.63026	
11:07:34	0	0	0	1.938689	-5.579151	0	3	100	0	50	1.082726	0.9240027	14.62184	
11:07:36	0	0	0	1.772225	-9.354588	0	3	100	0	50	1.072636	0.8686268	14.55698	
11:07:37	0	0	0	1.887118	2.720638	0	3	100	0	50	1.04737	0.8673502	14.5717	
11:07:39	0	0	0	2.031318	3.608137	0	3	100	0	50	1.040064	0.8563689	14.55001	
11:07:41	0	0	0	1.939478	-0.665645	0	3	100	0	50	0.9617191	0.8221604	14.51751	
11:07:42	0	0	0	2.171205	9.572821	0	3	100	0	50	0.9880593	0.7877063	14.54048	
11:07:44	0	0	0	2.448343	16.95571	0	3	100	0	50	0.9744389	0.7621974	14.58053	
11:07:50	0	0	0	2.415234	3.904846	0	3	100	0	50	0.9583139	0.6797798	14.60084	
11:07:50	0	0	0	2.459274	3.51156	0	3	100	0	50	0.9308981	0.6719922	14.60887	
11:07:50	0	0	0	2.465422	2.799927	0	3	100	0	50	0.9640486	0.7010498	14.6195	
11:07:51	0	0	0	2.344342	-4.185524	0	3	100	0	50	0.9728144	0.7392892	14.60205	
11:07:53	0	0	0	2.226786	-5.372137	0	3	100	0	50	1.000375	0.8632442	14.6267	
11:07:54	0	0	0	2.30298	2.277833	0	3	100	0	50	1.00383	0.8650348	14.64891	
11:07:56	0	0	0	2.127888	-3.2305	0	3	100	0	50	0.9946281	0.8988584	14.66995	
11:07:58	0	0	0	2.359709	6.073959	0	3	100	0	50	1.023439	0.9719574	14.63565	
11:07:59	0	0	0	2.642944	14.06098	0	3	100	0	50	0.9985245	0.9160859	14.63997	
11:08:01	0	0	0	2.468054	-0.4328684	0	3	100	0	50	1.015015	0.9343974	14.65948	
11:08:03	0	0	0	2.284319	-7.333627	0	3	100	0	50	0.9618178	0.884813	14.61624	
11:08:04	0	0	0	2.046852	-12.95983	0	3	100	0	50	0.995128	0.901099	14.63306	
11:08:06	0	0	0	2.049728	-3.678023	0	3	100	0	50	1.018779	0.9329435	14.63767	
11:08:08	0	0	0	2.149261	2.190932	0	3	100	0	50	1.031815	0.9936507	14.68976	
11:08:09	0	0	0	2.160828	2.326946	0	3	100	0	50	1.025991	1.047417	14.71017	
11:08:11	0	0	0	2.381416	9.939311	0	3	100	0	50	1.056359	1.050662	14.71714	
11:08:13	0	0	0	2.149249	-4.298903	0	3	100	0	50	1.021445	1.004398	14.71953	
11:08:14	0	0	0	1.916523	-9.893467	0	3	100	0	50	1.02236	0.9602703	14.69062	
11:08:16	0	0	0	1.968816	-0.1499247	0	3	100	0	50	0.9977227	0.9727395	14.67345	
11:08:18	0	0	0	2.046358	4.067316	0	3	100	0	50	0.9644603	0.9313377	14.71499	
11:08:19	0	0	0	1.982344	0.4155825	0	3	100	0	50	0.9994252	0.9110023	14.7444	
11:08:21	0	0	0	2.216091	9.379494	0	3	100	0	50	0.9944742	0.8636096	14.72581	
11:08:23	0	0	0	2.048053	-2.056825	0	3	100	0	50	1.020766	0.860561	14.71233	
11:08:25	0	0	0	2.064792	0.541174	0	3	100	0	50	1.024745	0.7935579	14.64445	
11:08:26	0	0	0	1.95268	-4.827381	0	3	100	0	50	1.012739	0.8508638	14.65956	
11:08:28	0	0	0	1.896932	-3.87656	0	3	100	0	50	1.017423	0.8971971	14.67303	
11:08:30	0	0	0	1.789536	-3.880304	0	3	100	0	50	1.023112	0.869544	14.64769	
11:08:31	0	0	0	2.145505	9.495492	0	3	100	0	50	0.9992612	0.8385711	14.62597	
11:08:33	0	0	0	1.499029	-23.71772	0	3	100	0	50	0.9895061	0.8439803	14.64964	
11:08:35	0	0	0	1.214218	-15.94082	0	3	100	0	50	0.9889261	0.888267	14.68313	
11:08:36	0	0	0	1.480518	3.518584	0	3	100	0	50	0.9889433	0.91171	14.70281	
11:08:38	0	0	0	1.933244	19.33928	0	3	100	0	50	1.01716	0.9383566	14.68087	
11:08:40	0	0	0	2.11315	15.41286	0	3	100	0	50	1.043324	1.006994	14.68413	
11:08:41	0	0	0	1.883038	-4.771898	0	3	100	0	50	1.016749	0.9292334	14.66183	
11:08:43	0	0	0	1.892619	-1.523304	0	3	100	0	50	1.040633	1.005667	14.68489	
11:08:45	0	0	0	1.836235	-3.121446	0	3	100	0	50	1.051355	0.9944095	14.67595	
11:08:46	0	0	0	1.800622	-2.944037	0	3	100	0	50	1.037125	0.9682516	14.66856	
11:08:48	0	0	0	1.825805	-0.7777364	0	3	100	0	50	1.04493	0.9234241	14.65858	
11:08:50	0	0	0	1.961477	4.864407	0	3	100	0	50	1.033466	0.910745	14.6582	
11:08:51	0	0	0	1.937785	-0.2238514	0	3	100	0	50	1.027478	0.9223357	14.64524	
11:08:53	0	0	0	1.774032	-6.152135	0	3	100	0	50	1.013491	0.9257513	14.62998	
11:08:55	0	0	0	1.689266	-4.886184	0	3	100	0	50	0.9939308	0.9474925	14.64772	
11:08:57	0	0	0	2.265073	19.62484	0	3	100	0	50	1.016216	0.9441557	14.67006	
11:08:58	0	0	0	2.276608	8.047998	0	3	100	0	50	1.017015	0.9119538	14.66522	
11:09:00	0	0	0	2.52677	9.172547	0	3	100	0	50	0.9992206	0.9103115	14.6469	
11:09:02	0	0	0	2.345056	0.02424838	0	3	100	0	50	0.9817659	0.8510674	14.69224	
11:09:03	0	0	0	2.242507	-6.5708	0	3	100	0	50	0.9778992	0.814113	14.6737	
11:09:05	0	0	0	1.817586	-18.67824	0	3	100	0	50	0.9641905	0.8103094	14.6827	
11:09:07	0	0	0	1.645903	-15.4872	0	3	100	0	50	0.9711465	0.8885816	14.73292	
11:09:08	0	0	0	1.757652	0.2170933	0	3	100	0	50	0.9759891	0.9242976	14.72914	
11:09:10	0	0	0	1.922197	4.964544	0	3	100	0	50	0.9812287	0.9647754	14.69926	
11:09:12	0	0	0	2.058625	8.246737	0	3	100	0	50	0.9551849	0.9168851	14.66665	
11:09:13	0	0	0	2.066984	2.191636	0	3	100	0	50	0.9266748	0.9013026	14.67348	
11:09:15	0	0	0	2.115161	3.656777	0	3	100	0	50	0.9229094	0.8301261	14.65419	
11:09:17	0	0	0	2.441682	14.3879	0	3	100	0	50	0.945264	0.8582085	14.66541	
11:09:18	0	0	0	2.539591	7.489279	0	3	100	0	50	0.9845453	0.9563362	14.68286	
11:09:20	0	0	0	2.370983	-1.21432	0	3	100	0	50	0.9367882	0.8958828	14.70659	
11:09:22	0	0	0	2.192537	-6.995959	0	3	100	0	50	0.9693121	0.9860663	14.70783	
11:09:23	0	0	0	1.888661	-11.2102	0	3	100	0	50	0.9477019	0.9486449	14.72391	
11:09:25	0	0	0	1.818048	-9.046957	0	3	100	0	50	0.9812601	0.9894884	14.72036	
11:09:27	0	0	0	1.606673	-10.65541	0	3	100	0	50	0.9648191	0.9679216	14.71577	
11:09:29	0	0	0	1.888655	7.259128	0	3	100	0	50	0.9528715	0.9876277	14.70906	
11:09:30	0	0	0	1.816791	-2.944178	0	3	100	0	50	0.9514688	1.038779	14.7254	
11:09:32	0	0	0	1.666447	-5.176559	0	3	100	0	50	0.9400971	0.9787499	14.7433	
11:09:34	0	0	0	2.00668	8.433175	0	3	100	0	50	0.9818028	0.9936628	14.77272	
11:09:35	0	0	0	2.362227	16.36518	0	3	100	0	50	0.9809269	1.004772	14.75879	
11:09:37	0	0	0	1.994801	-8.139547	0	3	100	0	50	0.9824973	0.9671763	14.7447	
11:09:39	0	0	0	1.71742	-11.60356	0	3	100	0	50	0.9383579	0.9043006	14.70627	
11:09:40	0	0	0	1.522339	-14.09155	0	3	100	0	50	0.9988534	0.8941543	14.68997	
11:09:42	0	0	0	1.576625	-0.9853441	0	3	100	0	50	1.014139	0.8628537	14.68912	
11:09:44	0	0	0	1.496459	-5.222194	0	3	100	0	50	1.00475	0.8917329	14.65135	
11:09:45	0	0	0	1.685734	3.887498	0	3	100	0	50	0.990441	0.8534138	14.66336	
11:09:47	0	0	0	1.999295	14.29234	0	3	100	0	50	0.9714636	0.7901648	14.67824	
11:09:49	0	0	0	2.378076	20.35797	0	3	100	0	50	0.9836518	0.784349	14.66912	
11:09:50	0	0	0	2.119506	-0.2650952	0	3	100	0	50	0.9891435	0.8289501	14.66584	
11:09:52	0	0	0	1.930186	-7.221454	0	3	100	0	50	0.9701937	0.828043	14.67095	
11:09:54	0	0	0	1.882326	-5.547845	0	3	100	0	50	0.9621916	0.814231	14.67116	
11:09:56	0	0	0	1.627194	-11.78737	0	3	100	0	50	0.9611105	0.8879741	14.69354	
11:09:57	0	0	0	1.69267	0.6531904	0	3	100	0	50	0.9753192	0.9217493	14.67329	
11:09:59	0	0	0	1.729328	1.463046	0	3	100	0	50	0.9694682	0.9410154	14.72232	
11:10:01	0	0	0	1.721441	1.469724	0	3	100	0	50	0.9734156	0.9466219	14.70568	
11:10:02	0	0	0	1.880938	7.180039	0	3	100	0	50	0.9989004	0.9586257	14.7165	
11:10:04	0	0	0	2.042512	8.167477	0	3	100	0	50	1.019737	0.9484452	14.69145	
11:10:06	0	0	0	1.705242	-11.14684	0	3	100	0	50	1.064749	1.011744	14.64546	
11:10:07	0	0	0	1.942491	7.582173	0	3	100	0	50	1.046593	1.00418	14.65425	
11:10:09	0	0	0	2.172045	12.12554	0	3	100	0	50	1.033296	0.9779195	14.65667	
11:10:11	0	0	0	2.188347	8.221677	0	3	100	0	50	1.041135	0.9091789	14.62695	
11:10:12	0	0	0	1.942566	-7.135046	0	3	100	0	50	1.031037	0.9688264	14.64684	
11:10:14	0	0	0	1.616413	-15.06247	0	3	100	0	50	1.039887	0.9850577	14.63251	
11:10:16	0	0	0	1.675328	-4.442291	0	3	100	0	50	1.014167	0.9815399	14.62549	
11:10:17	0	0	0	1.73147	1.022377	0	3	100	0	50	1.00049	0.931486	14.63449	
11:10:19	0	0	0	1.850986	4.130349	0	3	100	0	50	0.9815939	0.9096414	14.59909	
11:10:21	0	0	0	1.894132	0.9397583	0	3	100	0	50	0.9978169	0.901495	14.58467	
11:10:22	0	0	0	2.013628	5.869696	0	3	100	0	50	1.012894	0.8745249	14.58131	
11:10:24	0	0	0	1.981597	-0.5680763	0	3	100	0	50	1.026186	0.8411701	14.60158	
11:10:26	0	0	0	1.870188	-4.552346	0	3	100	0	50	1.0113	0.8549029	14.58113	
11:10:28	0	0	0	1.742232	-5.288168	0	3	100	0	50	1.002067	0.8752863	14.60116	
11:10:29	0	0	0	1.794594	-2.12019	0	3	100	0	50	1.040185	0.9118918	14.57227	
11:10:31	0	0	0	1.989764	8.152781	0	3	100	0	50	1.032614	0.8791342	14.54132	
11:10:33	0	0	0	1.947576	1.282596	0	3	100	0	50	1.045595	0.8707155	14.54931	
11:10:34	0	0	0	1.690527	-11.30497	0	3	100	0	50	0.9660357	0.8255215	14.57358	
11:10:36	0	0	0	1.585233	-5.658463	0	3	100	0	50	0.9287302	0.7647064	14.58824	
11:10:38	0	0	0	1.840406	5.050574	0	3	100	0	50	0.9239179	0.8195074	14.61017	
11:10:39	0	0	0	1.439419	-13.0039	0	3	100	0	50	0.9487916	0.7935889	14.58759	
11:10:41	0	0	0	1.537845	-2.819563	0	3	100	0	50	0.9401908	0.760779	14.62992	
11:10:43	0	0	0	1.594082	4.122423	0	3	100	0	50	0.9106176	0.8019739	14.62662	
11:10:44	0	0	0	1.665611	3.246854	0	3	100	0	50	0.9268559	0.8570206	14.69161	
11:10:46	0	0	0	1.747292	4.858161	0	3	100	0	50	0.9473854	0.8618639	14.74602	
11:10:48	0	0	0	1.68902	0.3913299	0	3	100	0	50	0.9532282	0.9221327	14.75041	
11:10:49	0	0	0	1.727997	1.792236	0	3	100	0	50	0.9813679	0.9114553	14.74979	
11:10:51	0	0	0	2.061035	14.87392	0	3	100	0	50	0.9489458	0.9041463	14.76476	
11:10:53	0	0	0	2.173252	8.950344	0	3	100	0	50	0.9538286	0.962508	14.7564	
11:10:54	0	0	0	1.802831	-10.12927	0	3	100	0	50	0.9643838	0.9263238	14.74916	
11:10:56	0	0	0	1.723848	-7.255406	0	3	100	0	50	0.9519845	0.918978	14.7595	
11:10:58	0	0	0	1.821903	2.084435	0	3	100	0	50	0.9566113	0.909323	14.77208	
11:11:00	0	0	0	1.821279	-1.729849	0	3	100	0	50	0.9626823	0.9175043	14.74549	
11:11:01	0	0	0	1.783514	-1.593386	0	3	100	0	50	0.9531018	0.9187472	14.71617	
11:11:03	0	0	0	2.143031	11.86572	0	3	100	0	50	0.982895	0.875815	14.7259	
11:11:05	0	0	0	2.260769	7.523054	0	3	100	0	50	1.008594	0.9372538	14.69837	
11:11:06	0	0	0	2.112092	-2.093712	0	3	100	0	50	0.9779953	0.9542812	14.67714	
11:11:08	0	0	0	2.097457	-1.819711	0	3	100	0	50	0.9772487	0.9254928	14.68134	
11:11:10	0	0	0	1.78355	-13.33951	0	3	100	0	50	0.9806228	0.8748263	14.67173	
11:11:11	0	0	0	1.612037	-9.674453	0	3	100	0	50	1.01323	0.9260279	14.64682	
11:11:13	0	0	0	1.744885	1.890225	0	3	100	0	50	1.007308	0.9577951	14.6237	
11:11:15	0	0	0	1.629452	-8.04293	0	3	100	0	50	0.9983966	0.922043	14.61536	
11:11:16	0	0	0	1.488477	-7.57364	0	3	100	0	50	0.9696035	0.9889342	14.65398	
11:11:18	0	0	0	1.984998	15.03743	0	3	100	0	50	1.004698	1.059589	14.69147	
11:11:20	0	0	0	2.085028	10.89893	0	3	100	0	50	0.9993292	1.064648	14.69905	
11:11:21	0	0	0	2.045747	2.381511	0	3	100	0	50	0.9863224	0.9916098	14.69523	
11:11:23	0	0	0	1.603729	-15.3908	0	3	100	0	50	1.010389	1.03645	14.72337	
11:11:25	0	0	0	1.418769	-13.42648	0	3	100	0	50	0.9949822	1.026224	14.74819	
11:11:26	0	0	0	1.973054	13.25998	0	3	100	0	50	0.9953293	1.034214	14.76288	
11:11:28	0	0	0	1.92051	2.032481	0	3	100	0	50	1.004659	1.045446	14.73198	
11:11:30	0	0	0	2.036748	7.245056	0	3	100	0	50	0.9585648	0.9890257	14.73534	
11:11:32	0	0	0	2.020764	1.589511	0	3	100	0	50	0.9597241	0.8874198	14.70775	
11:11:33	0	0	0	2.098832	3.274549	0	3	100	0	50	0.9960541	0.9164335	14.69235	
11:11:35	0	0	0	2.18373	4.262422	0	3	100	0	50	1.019343	0.9770429	14.69519	
11:11:37	0	0	0	1.928962	-6.512424	0	3	100	0	50	1.023694	1.027482	14.68127	
11:11:38	0	0	0	1.63285	-11.73556	0	3	100	0	50	1.005475	1.040219	14.68529	
11:11:40	0	0	0	1.459207	-13.60024	0	3	100	0	50	1.012525	1.008536	14.69333	
11:11:42	0	0	0	1.744351	5.609138	0	3	100	0	50	1.058207	0.9680939	14.70409	
11:11:43	0	0	0	1.933264	9.6096	0	3	100	0	50	1.085838	0.9981549	14.68171	
11:11:45	0	0	0	1.916101	4.008461	0	3	100	0	50	1.103945	0.9482154	14.61675	
11:11:47	0	0	0	2.098939	9.780249	0	3	100	0	50	1.062405	0.9773123	14.61033	
11:11:48	0	0	0	2.328017	13.69443	0	3	100	0	50	1.038573	0.9437356	14.6266	
11:11:50	0	0	0	2.053022	-5.514534	0	3	100	0	50	1.079551	0.9383618	14.60605	
11:11:52	0	0	0	1.590933	-17.45262	0	3	100	0	50	1.096519	0.9697973	14.55758	
11:11:53	0	0	0	1.214825	-20.416	0	3	100	0	50	1.078646	0.9799517	14.57933	
11:11:55	0	0	0	1.585186	7.923008	0	3	100	0	50	1.07358	0.9703604	14.5963	
11:11:57	0	0	0	1.649895	3.399487	0	3	100	0	50	1.099762	1.001824	14.634	
11:11:58	0	0	0	2.043274	16.91583	0	3	100	0	50	1.096884	0.9748006	14.63777	
11:12:00	0	0	0	2.204581	10.88977	0	3	100	0	50	1.10506	1.005266	14.63634	
11:12:02	0	0	0	2.236612	7.572876	0	3	100	0	50	1.093412	1.054978	14.63287	
11:12:03	0	0	0	2.14229	-0.3539933	0	3	100	0	50	1.055408	1.088817	14.65205	
11:12:05	0	0	0	1.928221	-9.259459	0	3	100	0	50	1.077661	1.032652	14.66416	
11:12:07	0	0	0	1.990915	0.07587361	0	3	100	0	50	1.055706	1.018546	14.63285	
11:12:09	0	0	0	2.157791	7.868458	0	3	100	0	50	1.040032	1.027757	14.6557	
11:12:10	0	0	0	2.190176	2.383173	0	3	100	0	50	1.039907	1.021167	14.66468	
11:12:12	0	0	0	1.995632	-2.726779	0	3	100	0	50	1.046861	1.008813	14.67049	
11:12:14	0	0	0	2.033346	0.1035038	0	3	100	0	50	1.048766	0.9650871	14.6752	
11:12:15	0	0	0	2.323723	12.83238	0	3	100	0	50	1.047477	0.9269518	14.6856	
11:12:17	0	0	0	2.32948	4.075233	0	3	100	0	50	1.077352	0.9224775	14.66566	
11:12:19	0	0	0	2.14832	-5.520435	0	3	100	0	50	1.061371	0.8897098	14.67789	
11:12:20	0	0	0	1.989558	-7.438665	0	3	100	0	50	1.041144	0.9125443	14.62703	
11:12:22	0	0	0	1.975432	-4.991851	0	3	100	0	50	1.089748	0.8878939	14.57002	
11:12:24	0	0	0	2.163879	5.860767	0	3	100	0	50	1.085506	0.9434993	14.58372	
11:12:25	0	0	0	2.288071	7.0287	0	3	100	0	50	1.085759	0.9591245	14.57306	
11:12:27	0	0	0	2.389703	3.067505	0	3	100	0	50	1.11386	1.018127	14.58446	
11:12:29	0	0	0	2.389116	1.089674	0	3	100	0	50	1.09834	0.9942605	14.5719	
11:12:30	0	0	0	2.192828	-6.235734	0	3	100	0	50	1.084597	1.053715	14.5878	
11:12:32	0	0	0	2.217348	-2.027517	0	3	100	0	50	1.054816	1.005758	14.59591	
11:12:34	0	0	0	2.191619	1.47641	0	3	100	0	50	1.042754	1.028778	14.59688	
11:12:36	0	0	0	2.148917	-2.816733	0	3	100	0	50	1.029612	1.025883	14.63661	
11:12:37	0	0	0	2.107619	-0.03538923	0	3	100	0	50	1.051427	1.037676	14.61755	
11:12:39	0	0	0	2.593738	17.67258	0	3	100	0	50	1.054778	1.0388	14.63508	
11:12:41	0	0	0	2.521136	4.176826	0	3	100	0	50	1.081398	1.039018	14.64305	
11:12:42	0	0	0	2.744973	10.25189	0	3	100	0	50	1.065682	1.020204	14.65541	
11:12:44	0	0	0	2.756477	4.75592	0	3	100	0	50	1.047707	0.9417653	14.63636	
11:12:46	0	0	0	2.567716	-7.840321	0	3	100	0	50	1.036904	0.9442286	14.64332	
11:12:47	0	0	0	2.170955	-19.14907	0	3	100	0	50	1.032871	0.9128811	14.6254	
11:12:49	0	0	0	2.312573	-4.07487	0	3	100	0	50	1.054098	0.9955891	14.66185	
11:12:51	0	0	0	2.221042	-5.506566	0	3	100	0	50	1.031951	0.9682252	14.66227	
11:12:52	0	0	0	2.082873	-6.727705	0	3	100	0	50	1.027942	0.9192899	14.65865	
11:12:54	0	0	0	2.288939	5.416958	0	3	100	0	50	0.9957259	0.8737817	14.62613	
11:12:56	0	0	0	2.318882	4.607294	0	3	100	0	50	0.9525324	0.8240741	14.61987	
11:12:57	0	0	0	2.119105	-7.913812	0	3	100	0	50	0.9745727	0.7790983	14.60558	
11:12:59	0	0	0	1.600349	-22.30073	0	3	100	0	50	0.9959581	0.8614176	14.62636	
11:13:01	0	0	0	2.231378	13.94365	0	3	100	0	50	1.02218	0.839745	14.60852	
11:13:02	0	0	0	2.201234	5.915551	0	3	100	0	50	1.021701	0.8192555	14.63406	
11:13:04	0	0	0	2.280961	2.072963	0	3	100	0	50	0.9893051	0.8220937	14.64584	
11:13:06	0	0	0	2.190701	-1.097189	0	3	100	0	50	0.9749761	0.8369615	14.649	
11:13:08	0	0	0	2.293755	3.731411	0	3	100	0	50	0.988726	0.8681909	14.65751	
11:13:09	0	0	0	2.21147	-1.151848	0	3	100	0	50	1.017238	0.9288416	14.64662	
11:13:11	0	0	0	2.428987	7.085094	0	3	100	0	50	1.024306	0.9320356	14.67978	
11:13:13	0	0	0	2.45198	4.693946	0	3	100	0	50	1.03316	0.9239908	14.70308	
11:13:14	0	0	0	2.285531	-5.455735	0	3	100	0	50	1.055947	0.9793138	14.70083	
11:13:16	0	0	0	2.129659	-8.695151	0	3	100	0	50	1.061277	0.958249	14.70466	
11:13:18	0	0	0	2.3017	3.562818	0	3	100	0	50	1.041416	1.025124	14.69742	
11:13:19	0	0	0	2.515676	8.062809	0	3	100	0	50	1.064516	1.04394	14.71343	
11:13:21	0	0	0	2.630577	6.02448	0	3	100	0	50	1.077293	1.036151	14.72861	
11:13:23	0	0	0	2.471436	-5.47508	0	3	100	0	50	1.090767	1.0564	14.70733	
11:13:24	0	0	0	2.389274	-6.34798	0	3	100	0	50	1.093033	1.046683	14.67915	
11:13:26	0	0	0	2.343363	-3.810156	0	3	100	0	50	1.077387	1.089899	14.65473	
11:13:28	0	0	0	2.243676	-5.289277	0	3	100	0	50	1.092918	1.178657	14.67161	
11:13:29	0	0	0	2.270848	0.8149586	0	3	100	0	50	1.088073	1.157723	14.66044	
11:13:31	0	0	0	2.354389	5.499652	0	3	100	0	50	1.083512	1.088354	14.64421	
11:13:33	0	0	0	2.172747	-6.105423	0	3	100	0	50	1.014397	1.038186	14.63972	
11:13:34	0	0	0	2.597607	14.79748	0	3	100	0	50	0.9857188	0.9859024	14.64297	
11:13:36	0	0	0	2.513259	1.61431	0	3	100	0	50	1.017926	0.9266171	14.68432	
11:13:38	0	0	0	2.379712	-5.108059	0	3	100	0	50	1.057473	0.9310656	14.66608	
11:13:39	0	0	0	2.323573	-1.788582	0	3	100	0	50	1.045121	0.9693941	14.69252	
11:13:41	0	0	0	2.474838	6.767751	0	3	100	0	50	1.058374	0.9718145	14.74325	
11:13:43	0	0	0	2.548518	3.93196	0	3	100	0	50	1.047911	0.9704762	14.70791	
11:13:45	0	0	0	2.499099	1.553194	0	3	100	0	50	1.044972	0.9169269	14.6891	
11:13:46	0	0	0	2.293694	-7.176126	0	3	100	0	50	1.057449	0.9656037	14.6669	
11:13:48	0	0	0	2.111207	-9.521658	0	3	100	0	50	1.040477	0.920401	14.66725	
11:13:50	0	0	0	2.365891	5.640035	0	3	100	0	50	1.03911	0.8656739	14.61639	
11:13:51	0	0	0	2.394106	3.552845	0	3	100	0	50	1.072751	0.8119864	14.62175	
11:13:53	0	0	0	2.518337	4.653975	0	3	100	0	50	1.056475	0.8693576	14.63586	
11:13:55	0	0	0	2.278512	-4.730328	0	3	100	0	50	1.053164	0.8438134	14.62557	
11:13:56	0	0	0	2.366331	-0.04468665	0	3	100	0	50	1.054001	0.8615733	14.62364	
11:13:58	0	0	0	2.359823	2.540442	0	3	100	0	50	1.060371	0.8324465	14.60268	
11:14:00	0	0	0	2.186982	-3.369525	0	3	100	0	50	1.04853	0.8490093	14.59612	
11:14:01	0	0	0	2.249131	1.392511	0	3	100	0	50	1.069882	0.8934366	14.59056	
11:14:03	0	0	0	2.516361	12.56889	0	3	100	0	50	1.056208	0.8899689	14.56257	
11:14:05	0	0	0	2.463558	5.717173	0	3	100	0	50	1.033382	0.9417728	14.58156	
11:14:06	0	0	0	2.135899	-11.03	0	3	100	0	50	1.030318	0.9634875	14.57478	
11:14:08	0	0	0	2.105917	-4.280396	0	3	100	0	50	1.037706	0.9837368	14.58312	
11:14:10	0	0	0	1.898207	-10.27242	0	3	100	0	50	1.030897	0.9801458	14.5853	
11:14:12	0	0	0	1.904715	-4.681977	0	3	100	0	50	1.054509	1.0149	14.60479	
11:14:13	0	0	0	1.984361	1.458348	0	3	100	0	50	1.063273	0.9310834	14.6281	
11:14:15	0	0	0	1.98913	-2.02578	0	3	100	0	50	1.062775	0.8957221	14.63171	
11:14:17	0	0	0	2.002755	0.02111858	0	3	100	0	50	1.05501	0.8916439	14.63665	
11:14:18	0	0	0	1.950292	0.3036883	0	3	100	0	50	1.049241	0.8821388	14.60702	
11:14:20	0	0	0	2.353225	17.53902	0	3	100	0	50	1.05897	0.8002449	14.56981	
11:14:22	0	0	0	2.106216	-4.329447	0	3	100	0	50	1.049662	0.8853952	14.58137	
11:14:23	0	0	0	2.077666	0.9570059	0	3	100	0	50	1.063438	0.9220918	14.58835	
11:14:25	0	0	0	2.220487	5.258396	0	3	100	0	50	1.033044	0.9264487	14.57728	
11:14:27	0	0	0	2.253339	2.10767	0	3	100	0	50	1.000199	0.8935601	14.57667	
11:14:28	0	0	0	2.054919	-3.509254	0	3	100	0	50	0.981815	0.8938249	14.59906	
11:14:30	0	0	0	2.339314	7.703537	0	3	100	0	50	1.015594	0.939363	14.61897	
11:14:32	0	0	0	2.489648	7.579361	0	3	100	0	50	1.019373	0.9497607	14.63916	
11:14:33	0	0	0	2.299417	-3.002151	0	3	100	0	50	1.012144	0.9395343	14.61172	
11:14:35	0	0	0	2.28527	-2.568223	0	3	100	0	50	0.9992691	0.946101	14.65014	
11:14:37	0	0	0	2.246747	-1.943228	0	3	100	0	50	1.010662	0.9340194	14.7003	
11:14:38	0	0	0	2.368008	2.00584	0	3	100	0	50	1.045474	0.9763343	14.66692	
11:14:40	0	0	0	2.186704	-5.729882	0	3	100	0	50	1.015178	0.9996036	14.67986	
11:14:42	0	0	0	2.428045	5.927041	0	3	100	0	50	0.9928033	0.9613562	14.6752	
11:14:44	0	0	0	2.292591	-3.548662	0	3	100	0	50	0.9895909	0.9028827	14.67536	
11:14:45	0	0	0	2.121578	-7.52266	0	3	100	0	50	0.9920723	0.8920954	14.70915	
11:14:47	0	0	0	2.221812	0.7722333	0	3	100	0	50	0.9880139	0.9234589	14.71787	
11:14:49	0	0	0	2.319006	3.609971	0	3	100	0	50	1.034318	0.8971813	14.72986	
11:14:50	0	0	0	2.39789	3.353638	0	3	100	0	50	1.060602	0.9098551	14.70892	
11:14:52	0	0	0	2.357241	-3.307019	0	3	100	0	50	1.061278	0.9582068	14.68336	
11:14:54	0	0	0	2.345847	-1.882501	0	3	100	0	50	1.015619	0.9520553	14.69755	
11:14:55	0	0	0	2.580522	9.603167	0	3	100	0	50	0.9979718	0.9208059	14.66274	
11:14:57	0	0	0	2.467273	1.926566	0	3	100	0	50	1.008869	0.8831608	14.66037	
11:14:59	0	0	0	2.553506	4.72504	0	3	100	0	50	1.020664	0.902961	14.65099	
11:15:00	0	0	0	2.509692	1.072023	0	3	100	0	50	1.038763	0.8767711	14.61087	
11:15:02	0	0	0	2.309708	-7.761311	0	3	100	0	50	1.066038	0.8722568	14.61116	
11:15:04	0	0	0	2.496008	5.089008	0	3	100	0	50	1.072858	0.861751	14.5817	
11:15:05	0	0	0	2.603897	5.114154	0	3	100	0	50	1.081697	0.8503339	14.57503	
11:15:07	0	0	0	2.527479	-1.840787	0	3	100	0	50	1.091867	0.8650597	14.54517	
11:15:09	0	0	0	2.215979	-12.35177	0	3	100	0	50	1.075002	0.9061773	14.53812	
11:15:10	0	0	0	2.322073	-0.7690632	0	3	100	0	50	1.055002	0.8879064	14.55007	
11:15:12	0	0	0	2.476145	6.575485	0	3	100	0	50	1.041692	0.9352559	14.54876	
11:15:14	0	0	0	2.3314	-3.01609	0	3	100	0	50	1.025848	0.8641729	14.51347	
11:15:16	0	0	0	2.193453	-6.272293	0	3	100	0	50	1.048916	0.8758463	14.52165	
11:15:17	0	0	0	2.446841	8.327539	0	3	100	0	50	1.02727	0.8699833	14.56391	
11:15:19	0	0	0	2.700301	9.580843	0	3	100	0	50	1.003741	0.8826994	14.58838	
11:15:21	0	0	0	2.442563	-3.738346	0	3	100	0	50	1.002107	0.8735978	14.5948	
11:15:22	0	0	0	2.271437	-5.321713	0	3	100	0	50	1.010892	0.8788233	14.63686	
11:15:24	0	0	0	2.595805	9.94185	0	3	100	0	50	1.061155	0.919753	14.68988	
11:15:26	0	0	0	2.651697	5.256504	0	3	100	0	50	1.050993	0.9162608	14.69212	
11:15:27	0	0	0	2.311603	-10.96501	0	3	100	0	50	1.041835	0.9807505	14.74058	
11:15:29	0	0	0	2.317566	-5.069038	0	3	100	0	50	1.000252	0.9532585	14.71914	
11:15:31	0	0	0	2.301691	-1.426983	0	3	100	0	50	1.021195	0.9675814	14.75075	
11:15:32	0	0	0	2.358298	2.047013	0	3	100	0	50	1.059706	1.006791	14.76704	
11:15:34	0	0	0	2.374407	2.629684	0	3	100	0	50	1.049358	0.9948114	14.74171	
11:15:36	0	0	0	2.62983	10.10266	0	3	100	0	50	1.06899	0.9631884	14.71874	
11:15:37	0	0	0	2.367013	-5.748233	0	3	100	0	50	1.089682	0.9435784	14.74653	
11:15:39	0	0	0	2.635855	10.29749	0	3	100	0	50	1.103132	0.9871806	14.724	
11:15:41	0	0	0	2.835062	9.116143	0	3	100	0	50	1.105726	1.041206	14.70628	
