Date	Latitude(deg) 	Longitude(deg)	hamsl(m)	hafl(m)	climbrate(cm/s)	GroundSpeed(m/s)	Airspeed(m/s)	Mav_Link(%)	Rssi_Link(%)	Throttle	Roll(deg)	Pitch(deg)	Yaw(deg)
23:52:32	0	0	0	0.4771702	-1.481178	0	3	72	0	12	0.4948829	-0.08945671	58.90579	
23:52:34	0	0	0	1.03401	20.11436	0	3	80	0	12	0.4753084	-0.06946443	58.83585	
23:52:35	0	0	0	0.6555154	-10.43107	0	3	85	0	12	0.4838099	-0.02885261	58.77909	
23:52:37	0	0	0	0.1186984	-28.16428	0	3	88	0	12	0.4577504	-0.020377	58.73809	
23:52:39	47.46363	-122.3077	0.02	-0.106796	-24.42545	0	3	90	0	12	0.3995481	-0.01975775	63.28709	
23:52:41	47.46363	-122.3077	0.02	-0.1509404	-13.83544	0	3	92	0	12	0.1986934	-0.08546886	80.06921	
23:52:42	47.46363	-122.3077	0.02	-0.07387622	-4.980153	0	3	93	0	12	0.04912868	-0.08968687	98.24023	
23:52:44	47.46363	-122.3077	0.02	-0.01895721	-1.891653	0	3	94	0	12	-0.05009519	-0.05927643	111.5675	
23:52:46	47.46363	-122.3077	0.02	-0.000719182	-1.730438	0	3	95	0	12	-0.1217432	-0.005345609	132.4558	
23:52:47	47.46363	-122.3077	0.02	8.373399E-05	-2.095575	0	3	95	0	12	-0.1576117	0.03891403	148.7181	
23:52:49	47.46363	-122.3077	0.02	-0.001406447	-2.178704	0	3	96	0	12	-0.1729548	0.06877866	162.9091	
23:52:51	47.46363	-122.3077	0.02	-0.0009499348	-2.014459	0	3	96	0	12	-0.1726466	0.08699592	176.0222	
23:52:52	47.46363	-122.3077	0.02	0.0009270656	-1.781257	0	3	96	0	12	-0.1751449	0.09070238	-174.3317	
23:52:54	47.46363	-122.3077	0.02	0.003136138	-1.562009	0	3	97	0	12	-0.1785125	0.08617553	-167.2513	
23:52:56	47.46363	-122.3077	0.02	0.005106924	-1.385415	0	3	97	0	12	-0.1739264	0.07345677	-161.7323	
23:52:57	47.46363	-122.3077	0.02	0.006752277	-1.236206	0	3	97	0	12	-0.1732469	0.0607412	-157.6915	
23:52:59	47.46363	-122.3077	0.02	0.008194258	-1.10145	0	3	97	0	11	-0.1727782	0.04809285	-154.8421	
23:53:01	47.46363	-122.3077	0.02	0.009452911	-0.9842564	0	3	98	0	12	-0.1639436	0.03067015	-153.7271	
23:53:03	47.46363	-122.3077	0.02	0.01061367	-0.875253	0	3	98	0	12	-0.1581133	0.01783898	-152.8645	
23:53:04	47.46363	-122.3077	0.02	0.0116525	-0.7781449	0	3	98	0	12	-0.1527234	0.007456223	-152.4747	
23:53:06	47.46363	-122.3077	0.02	0.01256639	-0.6936532	0	3	98	0	12	-0.1395697	-0.004673957	-153.5989	
23:53:08	47.46363	-122.3077	0.02	0.0133429	-0.62352	0	3	98	0	12	-0.1303456	-0.01228251	-154.4363	
23:53:09	47.46363	-122.3077	0.02	0.0140266	-0.5603618	0	3	98	0	12	-0.1226701	-0.01743899	-155.274	
23:53:11	47.46363	-122.3077	0.02	0.01464656	-0.5007856	0	3	98	0	8	-0.10872	-0.02246834	-157.2844	
23:53:13	47.46363	-122.3077	0.02	0.01520915	-0.4476347	0	3	99	0	4	-0.09915551	-0.02478657	-158.768	
23:53:14	47.46363	-122.3077	0.02	0.01572198	-0.3998049	0	3	99	0	5	-0.09139211	-0.02576726	-160.0848	
23:53:16	47.46363	-122.3077	0.02	0.0161812	-0.3567128	0	3	99	0	4	-0.07960267	-0.02582245	-162.1494	
23:53:18	47.46363	-122.3077	0.02	0.01659391	-0.3177457	0	3	99	0	4	-0.07171857	-0.02497753	-163.6795	
23:53:19	47.46363	-122.3077	0.02	0.01696657	-0.2831895	0	3	99	0	4	-0.06558026	-0.02374678	-164.9582	
23:53:21	47.46363	-122.3077	0.02	0.01729591	-0.252346	0	3	99	0	4	-0.056627	-0.02164306	-166.7133	
23:53:23	47.46363	-122.3077	0.02	0.01758884	-0.2250328	0	3	99	0	4	-0.05064694	-0.01961855	-167.9836	
23:53:25	47.46363	-122.3077	0.02	0.01784584	-0.2016344	0	3	99	0	4	-0.04620532	-0.0177944	-169.0076	
23:53:26	47.46363	-122.3077	0.02	0.01806451	-0.1817553	0	3	99	0	4	-0.03968151	-0.0153188	-170.3325	
23:53:28	47.46363	-122.3077	0.02	0.01825502	-0.1636774	0	3	99	0	4	-0.03526606	-0.0132851	-171.2885	
23:53:30	47.46363	-122.3077	0.02	0.01843668	-0.1462132	0	3	99	0	5	-0.03201483	-0.01162648	-172.0365	
23:53:31	47.46363	-122.3077	0.02	0.01860159	-0.1306083	0	3	99	0	4	-0.02740448	-0.009581988	-172.9245	
23:53:33	47.46363	-122.3077	0.02	0.01875129	-0.1167996	0	3	99	0	4	-0.02424672	-0.008016025	-173.5765	
23:53:35	47.46363	-122.3077	0.02	0.01888392	-0.1042628	0	3	99	0	4	-0.02199569	-0.00681722	-174.0659	
23:53:36	47.46363	-122.3077	0.02	0.01900397	-0.09300797	0	3	99	0	4	-0.01870667	-0.005382499	-174.6067	
23:53:38	47.46363	-122.3077	0.02	0.01910985	-0.08323058	0	3	99	0	4	-0.01644503	-0.00433029	-175.0074	
23:53:40	47.46363	-122.3077	0.02	0.01920309	-0.0744997	0	3	99	0	4	-0.01489273	-0.003566664	-175.3021	
23:53:41	47.46363	-122.3077	0.02	0.01928867	-0.06645115	0	3	99	0	4	-0.0125944	-0.002684455	-175.5984	
23:53:43	47.46363	-122.3077	0.02	0.01936327	-0.0595516	0	3	99	0	4	-0.01098545	-0.002045148	-175.8172	
23:53:45	47.46363	-122.3077	0.02	0.01942965	-0.05342686	0	3	99	0	4	-0.009854129	-0.001584927	-175.9775	
23:53:47	47.46363	-122.3077	0.02	0.01948923	-0.04782166	0	3	99	0	5	-0.008280396	-0.001094956	-176.1071	
23:53:48	47.46363	-122.3077	0.02	0.01954203	-0.04285141	0	3	99	0	4	-0.007194365	-0.0007507871	-176.2016	
23:53:50	47.46363	-122.3077	0.02	0.01959099	-0.03819245	0	3	99	0	4	-0.006441368	-0.0005080973	-176.2709	
23:53:52	47.46363	-122.3077	0.02	0.01963491	-0.03405475	0	3	99	0	4	-0.005396144	-0.0002702488	-176.3006	
23:53:53	47.46363	-122.3077	0.02	0.01967421	-0.03043946	0	3	99	0	5	-0.004640784	-0.0001007916	-176.3217	
23:53:55	47.46363	-122.3077	0.02	0.01970934	-0.02715355	0	3	99	0	4	-0.004115185	1.767375E-05	-176.3376	
23:53:57	47.46363	-122.3077	0.02	0.01974043	-0.02426443	0	3	99	0	4	-0.003443385	0.0001131481	-176.321	
23:53:58	47.46363	-122.3077	0.02	0.01976736	-0.02178852	0	3	99	0	4	-0.002936373	0.0001806764	-176.304	
23:54:00	47.46363	-122.3077	0.02	0.01979155	-0.01954246	0	3	99	0	5	-0.002583045	0.0002274225	-176.2919	
23:54:02	47.46363	-122.3077	0.02	0.0198126	-0.01753956	0	3	99	0	4	-0.002147461	0.0002518785	-176.2546	
23:54:03	47.46363	-122.3077	0.02	0.01983259	-0.01562687	0	3	99	0	4	-0.001818439	0.0002672302	-176.2234	
23:54:05	47.46363	-122.3077	0.02	0.0198508	-0.01392066	0	3	99	0	4	-0.001591692	0.0002774609	-176.201	
23:54:07	47.46363	-122.3077	0.02	0.01986701	-0.01242469	0	3	99	0	4	-0.00131804	0.000269765	-176.162	
23:54:08	47.46363	-122.3077	0.02	0.01988117	-0.01110112	0	3	99	0	4	-0.0011077	0.0002613949	-176.1298	
23:54:10	47.46363	-122.3077	0.02	0.01989365	-0.009958738	0	3	99	0	4	-0.0009619114	0.0002553607	-176.107	
23:54:12	47.46363	-122.3077	0.02	0.01990467	-0.008940998	0	3	99	0	4	-0.0007927982	0.0002362775	-176.0735	
23:54:14	47.46363	-122.3077	0.02	0.01991412	-0.008060806	0	3	99	0	5	-0.0006616419	0.0002197939	-176.0457	
23:54:15	47.46363	-122.3077	0.02	0.019923	-0.007199118	0	3	99	0	4	-0.0005700733	0.0002081619	-176.0258	
23:54:17	47.46363	-122.3077	0.02	0.01993137	-0.006391466	0	3	43	0	4	-0.0004648385	0.000187083	-175.9999	
23:54:19	47.46363	-122.3077	0.02	0.01993913	-0.005673285	0	3	44	0	4	-0.0003846857	0.0001699817	-175.979	
23:54:20	47.46363	-122.3077	0.02	0.01994559	-0.005085968	0	3	46	0	4	-0.0003292802	0.0001581043	-175.9639	
23:54:22	47.46363	-122.3077	0.02	0.01995132	-0.004558953	0	3	48	0	4	-0.0002681352	0.0001402477	-175.9462	
23:54:24	47.46363	-122.3077	0.02	0.01995633	-0.004089747	0	3	50	0	4	-0.000219399	0.0001251672	-175.9318	
23:54:25	47.46363	-122.3077	0.02	0.01996075	-0.003683893	0	3	52	0	4	-0.0001856256	0.0001146939	-175.921	
23:54:27	47.46363	-122.3077	0.02	0.01996467	-0.00332052	0	3	54	0	4	-0.0001494919	0.0001004845	-175.91	
23:54:29	47.46363	-122.3077	0.02	0.01996818	-0.002980677	0	3	56	0	31	-0.0001206683	8.852493E-05	-175.9009	
23:54:30	47.46363	-122.3077	0.02	0.01997155	-0.002657948	0	3	58	0	38	-0.0001008474	8.02918E-05	-175.8943	
23:54:32	47.46363	-122.3077	0.02	0.01997467	-0.002358818	0	3	59	0	4	-8.025627E-05	6.975377E-05	-175.8881	
23:54:34	47.46363	-122.3077	0.02	0.0190242	0.1475463	0.19	3	61	0	4	0.3525687	0.1413098	-177.6009	
23:54:36	47.46362	-122.3077	0.02	0.05693382	7.523685	2.23	3	63	0	98	0.4795041	2.035584	172.6776	
23:54:37	47.46349	-122.3077	0.03	0.1635813	20.82471	13.29	12.05637	65	0	98	0.4637347	2.034791	-178.821	
23:54:39	47.46323	-122.3077	0.501	0.6190551	100.4524	19.87	19.64114	66	0	98	7.477036	4.083462	-170.3205	
23:54:41	47.46289	-122.3078	3.132	2.742805	160.2462	23.59	23.6687	68	0	98	5.6597	4.455429	-161.0012	
23:54:42	47.46257	-122.3079	5.896	5.639617	150.7361	26	26.46659	70	0	100	2.617175	3.556324	-156.2203	
23:54:44	47.46217	-122.3082	8.584	8.367363	124.0418	28.23	28.58228	71	0	98	1.154403	2.388248	-153.6154	
23:54:46	47.46176	-122.3085	10.434	10.39813	106.4919	29.82	30.00516	73	0	98	0.2662913	1.840004	-152.4104	
23:54:47	47.4613	-122.3088	11.823	11.68087	75.07808	31.09	31.25381	74	0	98	-0.1618309	1.301341	-152.1393	
23:54:49	47.46091	-122.3091	12.809	12.73759	49.84611	31.8	31.82924	75	0	98	-0.003665329	0.7868452	-152.6365	
23:54:51	47.46046	-122.3094	13.443	13.40016	7.875472	32.34	32.27942	77	0	98	-0.6125255	0.09788386	-153.7261	
23:54:53	47.46005	-122.3097	13.748	13.78104	28.93519	32.61	32.51529	78	0	98	-0.5065669	0.4554041	-155.2427	
23:54:54	47.45958	-122.3101	14.808	14.48895	34.32763	32.75	32.61031	79	0	100	-0.5619446	0.3172919	-157.1419	
23:54:56	47.45911	-122.3104	16.014	15.73958	57.89383	32.79	32.61128	81	0	98	2.03272	0.2558225	-155.3104	
23:54:58	47.4587	-122.3107	17.067	16.96075	63.92729	32.85	32.67894	82	0	98	1.522658	0.140065	-154.0213	
23:54:59	47.45823	-122.311	18.198	18.11776	69.4743	32.93	32.73289	83	0	98	1.015808	0.06144313	-152.9406	
23:55:01	47.45784	-122.3113	19.401	19.00785	66.47276	32.97	32.75887	84	0	98	1.568808	0.1243467	-150.8772	
23:55:03	47.45738	-122.3117	20.976	20.70795	91.03411	32.96	32.74469	85	0	100	0.5464033	0.1728197	-150.1971	
23:55:04	47.45693	-122.3122	22.913	22.69866	111.2803	33.05	32.80456	86	0	98	0.3479018	0.1702137	-149.4877	
23:55:06	47.45654	-122.3125	24.786	24.75343	124.3663	33.02	32.79023	87	0	98	0.1091416	0.153234	-148.7787	
23:55:08	47.45608	-122.313	26.975	26.81916	133.5402	32.99	32.77349	87	0	98	0.45667	0.1953105	-147.6735	
23:55:09	47.45568	-122.3134	28.95	28.7327	125.0658	33	32.75005	88	0	98	0.3264648	0.1491677	-146.7172	
23:55:11	47.45528	-122.3138	31.492	31.15663	113.2715	31.91	32.18396	89	0	19	1.219981	-0.4964336	-144.8794	
23:55:13	47.4549	-122.3142	32.086	32.21322	8.890574	26.74	26.6064	90	0	19	1.367788	-2.827461	-143.1149	
23:55:15	47.45462	-122.3146	31.211	31.66433	-38.51839	23.95	23.383	90	0	5	1.261026	-3.738734	-141.216	
23:55:16	47.45435	-122.3149	28.812	29.61612	-108.6076	21.83	21.45869	91	0	5	0.7975101	-4.393421	-139.2251	
23:55:18	47.45411	-122.3152	26.316	26.68573	-146.8019	20.41	20.06277	91	0	5	0.6615126	-4.345873	-137.5979	
23:55:20	47.45407	-122.3153	26.021	25.125	-101.5909	20.23	19.90829	92	0	5	-0.07975648	-4.966036	-135.6604	
23:55:21	47.45407	-122.3153	26.021	25.50607	-13.78431	20.23	19.9882	92	0	5	-0.6971611	-5.72074	-134.069	
23:55:23	47.46368	-122.3179	0.02	7.148402	-802.424	0	3	93	0	4	1.970209	-3.03156	-142.982	
23:55:25	47.46368	-122.3179	0.02	-5.826684	-769.474	0	3	93	0	4	1.633488	-1.741094	-152.2863	
23:55:26	47.46368	-122.3179	0.02	-4.574116	-253.7701	0	3	94	0	4	1.188073	-0.967196	-158.7122	
23:55:28	47.46368	-122.3179	0.02	-1.236464	26.30998	0	3	94	0	4	0.8005074	-0.5421118	-162.6662	
23:55:30	47.46368	-122.3179	0.02	0.2647007	80.84097	0	3	95	0	5	0.3891132	-0.1276707	-167.9354	
23:55:31	47.46368	-122.3179	0.02	0.6325012	58.61322	0	3	95	0	4	0.0808582	0.1585273	-172.278	
23:55:33	47.46368	-122.3179	0.02	0.4390253	27.79614	0	3	95	0	4	-0.1333398	0.3232946	-175.3371	
23:55:35	47.46368	-122.3179	0.02	0.2414427	14.02837	0	3	96	0	4	-0.3032492	0.4315429	-177.7675	
23:55:36	47.46368	-122.3179	0.02	0.1574072	11.44436	0	3	96	0	4	-0.4214483	0.4964173	-179.5019	
23:55:38	47.46368	-122.3179	0.02	0.1390575	11.65976	0	3	96	0	5	-0.5025288	0.5594884	179.2605	
23:55:40	47.46368	-122.3179	0.02	0.1345091	11.09489	0	3	96	0	5	-0.5341495	0.5604611	178.6946	
23:55:42	47.46368	-122.3179	0.02	0.1197613	9.178953	0	3	97	0	4	-0.5448614	0.3419116	178.3506	
23:55:43	47.46368	-122.3179	0.02	0.115034	9.358008	0	3	97	0	4	-0.5545474	0.5099462	178.1435	
23:55:45	47.46368	-122.3179	0.02	0.110066	8.581067	0	3	97	0	4	-0.5231394	0.5024338	178.4589	
23:55:47	47.46368	-122.3179	0.02	0.1014895	7.618024	0	3	97	0	5	-0.4979461	0.4926584	178.7588	
23:55:48	47.46368	-122.3179	0.02	0.09204362	6.687051	0	3	97	0	4	-0.4790356	0.5132152	178.9598	
23:55:50	47.46368	-122.3179	0.02	0.08454268	6.106103	0	3	97	0	5	-0.4328462	0.4880592	179.5406	
23:55:52	47.46368	-122.3179	0.02	0.07825679	5.358393	0	3	98	0	4	-0.3976709	0.4626039	-179.9193	
23:55:53	47.46368	-122.3179	0.02	0.07391021	5.353611	0	3	98	0	4	-0.3673848	0.4409159	-179.563	
23:55:55	47.46368	-122.3179	0.02	0.06892239	4.48951	0	3	98	0	4	-0.3387434	0.40191	-178.9561	
23:55:57	47.46368	-122.3179	0.02	0.06292528	3.962082	0	3	98	0	4	-0.3057731	0.3687401	-178.419	
23:55:58	47.46368	-122.3179	0.02	0.05931671	3.694279	0	3	98	0	5	-0.2894046	0.3449449	-178.0294	
23:56:00	47.46368	-122.3179	0.02	0.05385209	3.054363	0	3	98	0	4	-0.2486888	0.3117836	-177.5186	
23:56:02	47.46368	-122.3179	0.02	0.04965619	2.796325	0	3	98	0	4	-0.223188	0.2714217	-177.0829	
23:56:04	47.46368	-122.3179	0.02	0.04710395	2.583797	0	3	98	0	4	-0.2055562	0.2443715	-176.7708	
23:56:05	47.46368	-122.3179	0.02	0.04434076	2.261113	0	3	98	0	5	-0.1859655	0.2187941	-176.3913	
23:56:07	47.46368	-122.3179	0.02	0.04153334	1.999948	0	3	99	0	4	-0.1586603	0.1969425	-176.0723	
23:56:09	47.46368	-122.3179	0.02	0.0394538	1.896176	0	3	99	0	4	-0.1291211	0.1714237	-175.8585	
23:56:10	47.46367	-122.3179	0.02	0.03243816	1.444054	2.19	3	99	0	62	0.7102454	1.377965	178.1583	
23:56:12	47.46358	-122.3178	0.024	0.03383768	1.206845	9.12	8.859106	99	0	62	0.3237951	1.317935	-175.6878	
23:56:14	47.46343	-122.3179	0.026	0.07759481	8.635469	13.66	14.30282	99	0	62	1.070489	1.265711	-169.0628	
23:56:15	47.46318	-122.3179	0.033	0.08790782	5.002123	17.71	17.97502	99	0	62	1.392833	0.7177733	-164.5974	
23:56:17	47.46291	-122.318	0.1	0.1838801	53.23753	20.36	20.99435	99	0	62	4.40389	2.489811	-161.0864	
23:56:19	47.46259	-122.3182	1.698	1.548187	100.9357	22.03	22.50887	99	0	62	3.354897	2.845899	-157.3436	
23:56:20	47.46223	-122.3184	4.025	3.651959	104.8192	23.26	23.54701	99	0	62	1.330614	2.096011	-156.4751	
23:56:22	47.46193	-122.3186	5.442	5.449027	94.52522	23.91	24.23042	99	0	56	0.4155375	1.582461	-157.4992	
23:56:24	47.46159	-122.3188	6.953	6.780124	62.39505	24.07	24.18035	99	0	55	-0.09109	0.7396473	-159.1359	
23:56:26	47.46125	-122.319	8.103	7.989179	61.43475	24.05	24.07942	99	0	50	-0.2474922	0.4680561	-161.5792	
23:56:27	47.4609	-122.3192	8.877	8.918445	45.95367	23.74	23.6641	99	0	50	-0.3991966	0.02365888	-164.1434	
23:56:29	47.46056	-122.3193	9.352	9.452406	36.6505	23.57	23.50265	99	0	50	-0.5210323	-0.06259124	-166.9807	
23:56:31	47.46018	-122.3195	9.788	9.815012	30.34432	23.39	23.34523	99	0	50	-0.5005245	-0.0106326	-170.1311	
23:56:32	47.45984	-122.3196	10.263	10.10807	22.50792	23.25	23.22054	99	0	44	-0.2780682	-0.05861687	-173.0178	
23:56:34	47.45953	-122.3197	10.776	10.64184	13.56927	22.73	22.65313	99	0	43	0.2479341	-0.5625716	-175.6421	
23:56:36	47.45918	-122.3197	10.415	10.70224	4.338622	22.35	22.27933	99	0	43	0.2855007	-0.6735595	-177.965	
23:56:37	47.45883	-122.3198	10.417	10.43758	1.671378	22.13	22.03961	99	0	43	0.2713083	-0.4031798	-179.947	
23:56:39	47.4585	-122.3198	10.343	10.39405	3.7666	21.96	21.92279	99	0	43	0.3497367	-0.2450645	178.0901	
23:56:41	47.45816	-122.3199	10.114	10.33088	1.243525	21.83	21.81122	99	0	43	0.242009	-0.1299071	176.3716	
23:56:42	47.45816	-122.3199	10.114	10.17063	-1.017707	21.83	21.79869	99	0	43	1.175649	0.04054287	174.1704	
23:56:44	47.45753	-122.3199	8.667	9.095023	-49.52724	21.73	21.71117	99	0	43	0.5509163	-0.1039188	173.8633	
23:56:46	47.45716	-122.3198	7.669	7.762401	-70.2275	21.79	21.74412	99	0	43	0.8969349	-0.09054863	173.8643	
23:56:48	47.45687	-122.3198	6.952	6.899566	-51.61952	21.8	21.75858	99	0	43	0.8342713	0.2233515	173.8027	
23:56:49	47.45652	-122.3198	6.111	6.236369	-44.12342	21.82	21.79545	99	0	43	0.9074024	0.2842867	173.5587	
23:56:51	47.45616	-122.3198	4.946	5.191327	-54.22855	21.92	21.86745	99	0	44	0.9200874	0.3450594	173.5315	
23:56:53	47.45586	-122.3197	3.887	3.987919	-68.56834	22.04	21.97976	99	0	44	1.001832	0.2990231	173.5927	
23:56:54	47.4555	-122.3197	3.022	2.957393	-63.81258	22.19	22.1047	99	0	53	0.9264888	0.3715041	173.7282	
23:56:56	47.45517	-122.3197	2.611	2.833598	69.05634	22.6	22.54356	99	0	55	0.3825997	3.754809	173.5225	
23:56:58	47.45485	-122.3197	3.175	3.316486	76.3539	22.74	22.67684	99	0	55	0.720863	4.420867	173.6374	
23:56:59	47.45445	-122.3196	3.765	3.762821	-3.468035	24.32	23.94432	99	0	77	0.1135609	2.178773	173.1306	
23:57:01	47.45411	-122.3196	3.891	4.052222	59.67502	26.91	27.00731	99	0	98	0.3037618	2.812052	172.5328	
23:57:03	47.45366	-122.3195	4.836	4.745363	39.89066	29.18	29.10556	99	0	98	0.9095997	2.305548	172.6184	
23:57:05	47.45323	-122.3194	5.454	5.224274	4.377467	30.45	30.53918	99	0	98	1.007375	1.586477	172.9384	
23:57:06	47.4528	-122.3194	5.949	5.6378	-20.01525	30.95	30.96474	99	0	91	1.035759	0.7332523	173.409	
23:57:08	47.45235	-122.3193	5.976	5.450907	-48.65197	31.19	30.991	99	0	91	0.04601077	-0.2062127	174.2443	
23:57:10	47.45178	-122.3193	7.463	6.73802	42.18554	31.04	31.04433	99	0	88	0.8713397	0.9281167	176.1572	
23:57:11	47.45132	-122.3192	9.138	8.378551	40.06693	30.63	30.61259	99	0	82	1.100357	0.2757092	177.5548	
23:57:13	47.45089	-122.3192	10.081	9.839949	52.22737	30.33	30.18531	99	0	82	0.7697302	0.1137935	178.5115	
23:57:15	47.45041	-122.3192	10.851	10.82779	48.88	30.26	30.1176	99	0	82	0.6591859	0.03241533	179.0723	
23:57:16	47.45	-122.3192	11.366	11.50246	46.14642	30.29	30.15171	99	0	82	0.2253098	0.2369891	179.3809	
23:57:18	47.44954	-122.3192	12.899	12.63961	61.53706	30.31	30.15556	99	0	82	0.3406035	0.2030629	179.5657	
23:57:20	47.44905	-122.3191	14.286	14.19406	85.95618	30.37	30.20511	99	0	82	0.4104314	0.2178398	179.5499	
23:57:21	47.44858	-122.3191	15.332	15.48039	86.70203	30.41	30.25152	99	0	82	-0.1258319	0.2602847	-179.2974	
23:57:23	47.44814	-122.3192	16.627	16.60983	76.19187	30.31	30.15876	99	0	82	1.113526	0.171949	-177.6594	
23:57:25	47.44806	-122.3192	16.904	17.46242	68.71655	30.31	30.14291	99	0	4	0.3139139	-0.01089566	-176.1377	
23:57:27	47.44806	-122.3192	16.904	17.42836	39.87585	30.31	30.13721	99	0	4	-0.7116683	-0.156511	-174.3878	
23:57:28	47.4407	-122.318	0.02	6.749962	-469.3965	0	3	99	0	4	-0.9371737	1.131167	-171.8434	
23:57:30	47.4407	-122.318	0.02	-3.617716	-546.5308	0	3	99	0	4	-0.6390015	0.8133218	-168.5704	
23:57:32	47.4407	-122.318	0.02	-3.887977	-301.5041	0	3	99	0	4	-0.4263831	0.6582824	-166.9878	
23:57:33	47.4407	-122.318	0.02	-3.421601	-219.7769	0	3	99	0	4	-0.2215689	0.5614362	-165.6905	
23:57:35	47.4407	-122.318	0.02	-1.177997	-6.212232	0	3	99	0	4	-0.09169518	0.6333041	-160.0729	
23:57:37	47.4407	-122.318	0.02	0.1256696	48.94126	0	3	99	0	5	0.01460293	0.6725683	-152.6905	
23:57:38	47.4407	-122.318	0.02	0.3797808	34.30236	0	3	99	0	4	0.1330117	0.662424	-142.4296	
23:57:40	47.4407	-122.318	0.02	0.2578707	14.64507	0	3	99	0	4	0.2431966	0.6013903	-128.1488	
23:57:42	47.4407	-122.318	0.02	0.1280531	5.611346	0	3	99	0	4	0.3295995	0.5206576	-110.6405	
23:57:43	47.4407	-122.318	0.02	0.07575831	4.218918	0	3	99	0	4	0.3830466	0.4254467	-90.10384	
23:57:45	47.4407	-122.318	0.02	0.06981734	5.02386	0	3	99	0	5	0.3843965	0.3098188	-66.22461	
23:57:47	47.4407	-122.318	0.02	0.07003054	4.88742	0	3	99	0	5	0.35372	0.2425281	-44.89624	
23:57:48	47.4407	-122.318	0.02	0.06861157	4.789331	0	3	99	0	4	0.2990659	0.2252358	-26.77068	
23:57:50	47.4407	-122.318	0.02	0.06713189	4.603976	0	3	99	0	4	0.226311	0.2185784	-10.23992	
23:57:52	47.4407	-122.318	0.02	0.06287666	3.91432	0	3	99	0	4	0.165228	0.2428859	1.92256	
23:57:54	47.4407	-122.318	0.02	0.05804573	3.571052	0	3	99	0	4	0.1136193	0.2652739	10.86413	
23:57:55	47.4407	-122.318	0.02	0.0531267	3.131742	0	3	99	0	4	0.05941933	0.2843683	17.85314	
23:57:57	47.4407	-122.318	0.02	0.04901421	2.546738	0	3	99	0	4	0.01632321	0.311682	23.04882	
23:57:59	47.4407	-122.318	0.02	0.04641455	2.450067	0	3	99	0	4	-0.02141386	0.3267321	26.45691	
23:58:00	47.4407	-122.318	0.02	0.04507076	2.334328	0	3	99	0	5	-0.06368441	0.3244748	28.11779	
23:58:02	47.4407	-122.318	0.02	0.04125124	1.921048	0	3	99	0	4	-0.08216634	0.3249006	29.28981	
23:58:04	47.4407	-122.318	0.02	0.03808743	1.631786	0	3	54	0	4	-0.1061195	0.3151746	29.69886	
23:58:05	47.4407	-122.318	0.02	0.03528144	1.419387	0	3	56	0	5	-0.1307727	0.2869814	28.44516	
23:58:07	47.4407	-122.318	0.02	0.03344195	1.226858	0	3	57	0	4	-0.1361587	0.2663994	27.50997	
23:58:09	47.4407	-122.318	0.02	0.03276413	1.226828	0	3	59	0	4	-0.1444078	0.2568168	26.35031	
23:58:10	47.4407	-122.318	0.02	0.03334154	1.431383	0	3	61	0	4	-0.1476149	0.2110287	23.83514	
23:58:12	47.4407	-122.318	0.02	0.03164682	1.043981	0	3	63	0	4	-0.1453967	0.1897125	21.93061	
23:58:14	47.4407	-122.318	0.02	0.02970809	0.7295377	0	3	65	0	4	-0.1408112	0.1797246	20.09495	
23:58:16	47.4407	-122.318	0.02	0.02746416	0.6662685	0	3	66	0	4	-0.1328053	0.1480357	17.54359	
23:58:17	47.4407	-122.318	0.02	0.02595521	0.4453932	0	3	68	0	4	-0.1237856	0.1360672	15.60676	
23:58:19	47.4407	-122.318	0.02	0.02529146	0.4261983	0	3	69	0	5	-0.1148795	0.1262849	13.91909	
23:58:21	47.4407	-122.318	0.02	0.0261757	0.755989	0	3	71	0	5	-0.1054437	0.1151661	11.71813	
23:58:22	47.4407	-122.318	0.02	0.02670787	0.6295284	0	3	73	0	4	-0.09171852	0.1037358	10.04866	
23:58:24	47.4407	-122.318	0.02	0.02596884	0.5365014	0	3	74	0	5	-0.08400837	0.0990233	8.709349	
23:58:26	47.4407	-122.318	0.02	0.02417504	0.4006869	0	3	75	0	5	-0.07517006	0.08134577	7.022901	
23:58:27	47.4407	-122.318	0.02	0.02467891	0.4795994	0	3	77	0	4	-0.05860238	0.07262203	5.801814	
23:58:29	47.4407	-122.318	0.02	0.02421261	0.4648119	0	3	78	0	4	-0.05262195	0.06046879	4.836569	
23:58:31	47.4407	-122.318	0.02	0.02458449	0.4431098	0	3	79	0	4	-0.0440335	0.0511592	3.736975	
23:58:32	47.4407	-122.318	0.02	0.02316986	0.3376637	0	3	80	0	4	-0.04018139	0.04183878	2.952798	
23:58:34	47.4407	-122.318	0.02	0.02372472	0.3002652	0	3	82	0	4	-0.03252202	0.04400547	2.334581	
23:58:36	47.4407	-122.318	0.02	0.02273358	0.1225669	0	3	83	0	4	-0.02708598	0.03803459	1.673177	
23:58:38	47.4407	-122.318	0.02	0.02104192	0.0593244	0	3	84	0	5	-0.02355598	0.04431213	1.195429	
23:58:39	47.4407	-122.318	0.02	0.02072428	-0.006573628	0	3	85	0	4	-0.02013097	0.04601684	0.8318757	
23:58:41	47.4407	-122.318	0.02	0.01913095	-0.07176983	0	3	86	0	5	-0.02179123	0.04409552	0.4924218	
23:58:43	47.4407	-122.318	0.02	0.01991776	0.06531058	0	3	86	0	4	-0.01024644	0.04313248	0.248198	
23:58:44	47.4407	-122.318	0.02	0.02149953	0.07144687	0	3	87	0	4	-0.008280726	0.03873757	0.06946401	
23:58:46	47.4407	-122.318	0.02	0.01941088	-0.04449499	0	3	88	0	4	-0.007514698	0.03570902	-0.06595065	
23:58:48	47.4407	-122.318	0.02	0.02079901	0.07959581	0	3	89	0	4	-0.006895764	0.02489233	-0.1675123	
23:58:49	47.4407	-122.318	0.02	0.02213495	0.1936507	0	3	89	0	4	-0.005628064	0.01909794	-0.236814	
23:58:51	47.4407	-122.318	0.02	0.02333691	0.3909744	0	3	90	0	4	-0.004158656	0.01204199	-0.2641015	
23:58:53	47.4407	-122.318	0.02	0.02197468	0.1240971	0	3	91	0	4	-0.003200593	0.01059354	-0.2820003	
23:58:54	47.4407	-122.318	0.02	0.02102728	-0.02080507	0	3	91	0	5	-0.00246596	0.01355905	-0.2932288	
23:58:56	47.4407	-122.318	0.02	0.02071549	0.158935	0	3	92	0	5	-0.006203935	0.01425874	-0.255598	
23:58:58	47.4407	-122.318	0.02	0.02113091	0.03377282	0	3	92	0	4	0.0008995754	0.02098597	-0.2292965	
23:59:00	47.4407	-122.318	0.02	0.01938442	-0.1222224	0	3	93	0	5	-0.002328999	0.004393805	-0.2063222	
23:59:01	47.4407	-122.318	0.02	0.01879191	-0.07039339	0	3	93	0	4	-0.0002847767	0.002320601	-0.1560289	
23:59:03	47.4407	-122.318	0.02	0.01860186	-0.1365345	0	3	94	0	4	0.003769466	-0.0225419	-0.118469	
23:59:05	47.4407	-122.318	0.02	0.01576222	-0.8260282	0.59	3	94	0	52	-0.1108303	-0.204838	-2.093855	
23:59:06	47.44074	-122.3181	0.022	-0.00450293	-2.041306	6	4.982099	95	0	64	-0.2929633	1.481464	-7.489132	
23:59:08	47.44089	-122.3181	0.026	-0.0103019	-6.830838	12.48	13.09271	95	0	65	0.3429631	0.6352984	1.693235	
23:59:10	47.44113	-122.318	0.156	0.2219793	84.45666	17.38	17.99894	95	0	70	6.146438	4.32045	6.541881	
23:59:11	47.44138	-122.318	1.976	2.134091	151.9385	19.52	20.03865	95	0	70	6.74973	5.342462	15.08182	
23:59:13	47.44168	-122.3179	4.619	4.698686	146.6236	21.36	21.88571	96	0	61	3.908021	4.184171	20.19671	
23:59:15	47.44202	-122.3177	7.001	6.777951	78.33215	22.12	22.38478	96	0	53	2.01166	2.237231	22.84245	
23:59:16	47.44233	-122.3175	7.854	7.855307	41.36071	22.6	22.7425	96	0	53	0.750259	1.274436	23.6557	
23:59:18	47.44265	-122.3172	8.123	8.28559	22.87024	23.23	23.16712	97	0	55	0.03264322	1.039794	23.39047	
23:59:20	47.44299	-122.317	8.088	8.236588	5.811722	23.73	23.68703	97	0	55	-0.4901268	1.01962	22.39261	
23:59:22	47.44332	-122.3168	8.041	8.099041	-14.90282	24	23.9245	97	0	55	-0.3445902	0.6871353	21.09198	
23:59:23	47.44362	-122.3166	7.758	7.811504	-25.84335	24.19	24.16128	97	0	53	-0.5470923	0.4422342	19.58296	
23:59:25	47.444	-122.3164	7.32	7.371559	-29.40146	24.23	24.14518	97	0	55	-0.6633685	0.4006849	17.86807	
23:59:27	47.44432	-122.3162	6.883	6.877192	-27.80393	24.29	24.2063	97	0	55	-0.4458949	0.4519832	15.83104	
23:59:28	47.44469	-122.3161	6.208	6.348969	-32.52713	24.3	24.21239	98	0	55	-0.325814	0.3697287	13.79722	
23:59:30	47.44503	-122.3159	5.505	5.517502	-49.25996	24.24	24.15841	98	0	58	-0.2214422	0.2391764	11.87098	
23:59:32	47.44542	-122.3158	4.42	4.631476	-46.81976	24.54	24.39792	98	0	61	-0.3533826	0.4264135	9.382276	
23:59:33	47.44578	-122.3157	3.889	3.906231	-38.83617	24.71	24.7124	98	0	61	-0.2195044	0.5943002	6.952566	
23:59:35	47.44598	-122.3156	3.705	3.446201	-32.81931	24.77	24.74817	98	0	61	0.3659877	0.4041995	4.978456	
23:59:37	47.44607	-122.3156	3.666	3.410261	-26.31072	24.79	24.76653	98	0	61	1.462286	0.003098196	2.236124	
23:59:38	47.4469	-122.3154	2.445	2.715927	-12.79706	24.98	25.02381	98	0	61	-0.5759229	0.5661139	0.2557551	
23:59:40	47.44726	-122.3154	2.203	2.175352	-25.07945	24.95	24.96911	98	0	76	0.03812316	0.5400841	-1.964433	
23:59:42	47.44769	-122.3154	2.303	2.20797	15.73706	26.05	25.97289	98	0	74	-0.1484244	1.247781	-4.630524	
23:59:44	47.44805	-122.3154	2.559	2.503018	16.49447	26.5	26.56132	99	0	74	0.4298312	1.033579	-6.552918	
23:59:45	47.44847	-122.3155	2.849	2.713306	3.729049	26.94	26.90273	99	0	74	0.770018	0.6683819	-8.427334	
23:59:47	47.44885	-122.3156	3.124	3.035954	9.372622	27.26	27.21904	99	0	74	0.5220894	0.4820636	-9.873688	
23:59:49	47.44931	-122.3157	3.489	3.384131	19.18417	27.56	27.44536	99	0	74	0.6502109	0.5063107	-10.88534	
23:59:50	47.44972	-122.3158	3.894	3.773579	21.64828	27.76	27.6423	99	0	74	0.676557	0.4316163	-12.08564	
23:59:52	47.45015	-122.3159	4.573	4.195419	23.59944	27.96	27.85683	99	0	74	1.019601	0.3704814	-13.21373	
23:59:54	47.45053	-122.316	5.716	5.343151	50.9328	28.11	28.0094	99	0	74	0.8975572	0.2355544	-13.93117	
23:59:55	47.45097	-122.3162	7.135	6.89579	84.42094	28.29	28.15972	99	0	79	1.020504	0.3521648	-14.49645	
23:59:57	47.45136	-122.3163	8.358	8.448698	107.2309	28.66	28.54776	99	0	79	0.783741	0.550468	-15.01972	
23:59:59	47.45136	-122.3163	8.358	8.985915	69.9009	28.66	28.54776	99	0	79	0.9652694	0.2004544	-15.50668	
00:00:00	47.45224	-122.3166	12.465	10.91608	148.1952	29.02	28.93182	99	0	79	0.4673487	0.3638168	-16.05773	
00:00:02	47.45265	-122.3167	15.36	15.01963	201.0554	29.07	28.97777	99	0	79	0.850628	0.523273	-16.57961	
00:00:04	47.45311	-122.3169	18.196	18.23347	185.1302	29.12	28.98438	99	0	79	2.806352	0.2903603	-12.91118	
00:00:06	47.4535	-122.317	20.406	20.43604	150.5958	29.28	29.09517	99	0	79	1.587007	0.2494244	-10.47226	
00:00:07	47.45396	-122.3171	23.178	22.8939	158.1533	29.41	29.23648	99	0	79	1.311789	0.3444688	-8.421369	
00:00:09	47.4544	-122.3172	25.619	25.51256	148.8342	29.51	29.29712	99	0	79	-9.06596	0.2907872	-6.9743	
00:00:11	47.45483	-122.3173	27.719	27.76053	149.3601	29.63	29.4526	99	0	79	1.569573	0.2821636	-8.142858	
00:00:12	47.45532	-122.3173	29.685	29.73712	88.6804	27.87	28.79103	99	0	5	2.52047	-1.054355	-5.329784	
00:00:14	47.45568	-122.3174	29.195	29.47931	-68.05289	24.06	23.63388	99	0	4	2.401475	-3.895722	-2.84358	
00:00:16	47.45601	-122.3174	26.712	27.22703	-133.8058	21.92	21.50316	99	0	5	1.28447	-4.566804	-0.741603	
00:00:17	47.45635	-122.3174	23.349	24.17396	-158.8468	20.52	20.09685	99	0	5	1.14084	-4.221845	1.184482	
00:00:19	47.45642	-122.3174	22.657	21.70841	-155.5964	20.25	19.8574	99	0	4	2.025219	-3.939342	2.997794	
00:00:21	47.45673	-122.3173	19.281	20.08962	-170.4171	19.27	18.87199	99	0	4	3.268332	-5.840858	5.818027	
00:00:22	47.46367	-122.3178	0.021	16.55511	-198.2582	0	3	99	0	4	5.903703	-6.975868	8.401658	
00:00:24	47.46367	-122.3178	0.02	-2.539797	-730.8935	0	3	99	0	4	3.900551	-4.076732	11.83356	
00:00:26	47.46367	-122.3178	0.02	-4.771838	-580.9489	0	3	99	0	5	2.25528	-2.808588	12.77088	
00:00:28	47.46367	-122.3178	0.02	-3.415015	-173.7059	0	3	99	0	5	1.038948	-1.643465	16.81464	
00:00:29	47.46367	-122.3178	0.02	-0.791146	37.09285	0	3	99	0	4	0.3312149	-0.8319727	21.78071	
00:00:31	47.46367	-122.3178	0.02	0.4603296	75.59353	0	3	99	0	4	-0.1124991	-0.2687359	28.13924	
00:00:33	47.46367	-122.3178	0.02	0.6058618	51.91833	0	3	99	0	4	-0.4278992	0.2554789	37.81305	
00:00:34	47.46367	-122.3178	0.02	0.4198298	28.65696	0	3	99	0	4	-0.5552925	0.7020093	50.40602	
00:00:36	47.46367	-122.3178	0.02	0.2675621	18.52202	0	3	99	0	5	-0.5304051	1.041403	66.1989	
00:00:38	47.46367	-122.3178	0.02	0.2009955	16.10832	0	3	99	0	4	-0.3064067	1.270326	87.62881	
00:00:39	47.46367	-122.3178	0.02	0.1822502	15.65703	0	3	70	0	4	-0.09977436	1.322304	110.4552	
00:00:41	47.46367	-122.3178	0.02	0.1734209	14.77784	0	3	71	0	4	0.02328978	1.334925	131.4304	
00:00:43	47.46367	-122.3178	0.02	0.1618243	13.41377	0	3	73	0	5	0.09080947	1.231432	152.3571	
00:00:44	47.46367	-122.3178	0.02	0.1471566	11.90256	0	3	74	0	4	0.04597156	1.179688	168.9255	
00:00:46	47.46367	-122.3178	0.02	0.1340569	10.69252	0	3	58	0	4	-0.07360654	1.137549	-178.7333	
00:00:48	47.46367	-122.3178	0.02	0.1229716	9.692832	0	3	60	0	4	-0.2050293	1.053284	-168.1641	
00:00:50	47.46367	-122.3178	0.02	0.1125702	8.653602	0	3	62	0	4	-0.3501375	1.001863	-160.1846	
00:00:51	47.46367	-122.3178	0.02	0.1024018	7.672209	0	3	63	0	4	-0.4796747	0.9715172	-154.2403	
00:00:53	47.46367	-122.3178	0.02	0.09332802	6.835584	0	3	65	0	4	-0.5907035	0.875667	-150.4342	
00:00:55	47.46367	-122.3178	0.02	0.08537403	6.118221	0	3	67	0	5	-0.6870453	0.8084287	-147.5787	
00:00:56	47.46367	-122.3178	0.02	0.07864555	5.499575	0	3	68	0	4	-0.7503794	0.7581346	-145.3778	
00:00:58	47.46367	-122.3178	0.02	0.07209755	4.879202	0	3	70	0	4	-0.7888463	0.644557	-145.3073	
00:01:00	47.46367	-122.3178	0.02	0.06736208	4.483939	0	3	72	0	4	-0.8110778	0.5520034	-145.4183	
00:01:01	47.46367	-122.3178	0.02	0.06279717	4.008019	0	3	73	0	4	-0.8269849	0.4934734	-145.6162	
00:01:03	47.46367	-122.3178	0.02	0.05881191	3.646084	0	3	75	0	4	-0.8010705	0.404379	-147.377	
00:01:05	47.46367	-122.3178	0.02	0.05532958	3.367367	0	3	76	0	4	-0.7735631	0.3330976	-149.086	
00:01:06	47.46367	-122.3178	0.02	0.05193698	3.001551	0	3	77	0	5	-0.7571253	0.2894497	-150.3895	
00:01:08	47.46367	-122.3178	0.02	0.04819456	2.604611	0	3	78	0	4	-0.6944628	0.2384966	-152.7391	
00:01:10	47.46367	-122.3178	0.02	0.04660259	2.586913	0	3	80	0	4	-0.642749	0.1860182	-154.9062	
00:01:12	47.46367	-122.3178	0.02	0.04399882	2.261848	0	3	81	0	5	-0.6037365	0.1573275	-156.496	
00:01:13	47.46367	-122.3178	0.02	0.04101355	1.824433	0	3	82	0	4	-0.5483118	0.1293508	-158.8117	
00:01:15	47.46367	-122.3178	0.02	0.03796752	1.74492	0	3	83	0	4	-0.4869328	0.09911472	-160.8639	
00:01:17	47.46367	-122.3178	0.02	0.03661055	1.565379	0	3	84	0	4	-0.4475347	0.08789758	-162.3792	
00:01:18	47.46367	-122.3178	0.02	0.03491939	1.393334	0	3	85	0	4	-0.3929649	0.07436436	-164.2618	
00:01:20	47.46367	-122.3178	0.02	0.03420326	1.330941	0	3	86	0	4	-0.3460994	0.06148119	-165.9665	
00:01:22	47.46367	-122.3178	0.02	0.03241111	1.137315	0	3	87	0	4	-0.3148246	0.05796894	-167.2368	
00:01:23	47.46367	-122.3178	0.02	0.03142166	1.075415	0	3	88	0	4	-0.2747842	0.04491998	-168.606	
00:01:25	47.46367	-122.3178	0.02	0.03170096	1.19962	0	3	88	0	4	-0.239132	0.0514326	-169.8158	
00:01:27	47.46367	-122.3178	0.02	0.03125139	0.9979801	0	3	89	0	4	-0.2168049	0.05662204	-170.7199	
00:01:28	47.46367	-122.3178	0.02	0.02858754	0.706322	0	3	90	0	4	-0.1861022	0.05272993	-171.59	
00:01:30	47.46367	-122.3178	0.02	0.02713296	0.6302384	0	3	90	0	5	-0.1659984	0.05429852	-172.3841	
00:01:32	47.46367	-122.3178	0.02	0.02522141	0.4540723	0	3	91	0	5	-0.1449779	0.06463864	-172.9701	
00:01:34	47.46367	-122.3178	0.02	0.02462859	0.4487322	0	3	92	0	4	-0.1228969	0.05221032	-173.4913	
00:01:35	47.46367	-122.3178	0.02	0.02443754	0.4313996	0	3	92	0	4	-0.1022204	0.03223911	-173.9498	
00:01:37	47.46367	-122.3178	0.02	0.02420634	0.4739326	0	3	93	0	4	-0.09000263	0.03328385	-174.2919	
00:01:39	47.46367	-122.3178	0.02	0.02377415	0.2586434	0	3	93	0	5	-0.08322939	0.02768515	-174.5648	
00:01:40	47.46367	-122.3178	0.02	0.02259183	0.1784498	0	3	93	0	4	-0.06599263	0.05211923	-174.785	
00:01:42	47.46367	-122.3178	0.02	0.02072337	0.09332231	0	3	94	0	4	-0.05379003	0.03101093	-174.9538	
00:01:44	47.46367	-122.3178	0.02	0.02175414	0.2437319	0	3	94	0	5	-0.04799629	0.02621336	-175.0649	
00:01:45	47.46367	-122.3178	0.02	0.02218804	0.2428598	0	3	95	0	5	-0.0402143	0.01921449	-175.1367	
00:01:47	47.46367	-122.3178	0.02	0.02295045	0.3011274	0	3	95	0	5	-0.03989623	0.0225445	-175.1916	
00:01:49	47.46367	-122.3178	0.02	0.02263098	0.231298	0	3	95	0	4	-0.02490522	0.004342057	-175.2079	
00:01:50	47.46367	-122.3178	0.02	0.02470762	0.5821797	0	3	96	0	4	-0.0231335	0.004320748	-175.2042	
00:01:52	47.46367	-122.3178	0.02	0.02396498	0.2725518	0	3	96	0	4	-0.01946213	0.009567101	-175.1993	
00:01:54	47.46367	-122.3178	0.02	0.0229723	0.3132523	0	3	96	0	4	-0.01757144	0.01374559	-175.1743	
00:01:56	47.46367	-122.3178	0.02	0.02319711	0.3437551	0	3	96	0	4	-0.01408515	0.01087048	-175.1272	
00:01:57	47.46367	-122.3178	0.02	0.0221765	0.119426	0	3	97	0	5	-0.01718667	0.008495159	-175.0997	
00:01:59	47.46367	-122.3178	0.02	0.0206999	0.008825526	0	3	97	0	4	-0.009513404	0.01533445	-175.0544	
00:02:01	47.46367	-122.3178	0.02	0.0206087	0.1026094	0	3	97	0	4	-0.007780944	0.009043634	-174.998	
00:02:02	47.46367	-122.3178	0.02	0.02065354	0.04474187	0	3	97	0	4	-0.006918669	0.0004641151	-174.9562	
00:02:04	47.46367	-122.3178	0.02	0.02025705	0.005198733	0	3	97	0	4	-0.005015796	0.002377816	-174.9102	
00:02:06	47.46367	-122.3178	0.02	0.0200159	-0.005841246	0	3	97	0	5	-0.009236417	0.004622386	-174.8589	
00:02:07	47.46367	-122.3178	0.02	0.01958625	-0.04879121	0	3	98	0	4	-0.001182197	0.01099292	-174.8215	
00:02:09	47.46367	-122.3178	0.02	0.01252344	-1.751038	1.71	3	98	0	83	0.6728817	1.153402	-179.8203	
00:02:11	47.46357	-122.3178	0.027	0.01045259	0.8056359	10.82	11.33987	98	0	83	0.9605787	1.473127	-171.4778	
00:02:12	47.46333	-122.3179	0.083	0.1277611	46.24752	18.07	18.04806	98	0	85	3.394589	3.70968	-167.1714	
00:02:14	47.46305	-122.318	1.987	1.83908	160.1205	21.52	22.23031	98	0	83	5.454559	5.182453	-159.6011	
00:02:16	47.46269	-122.3182	5.899	4.990884	176.1595	24.18	24.53428	98	0	83	2.681038	3.957549	-155.5162	
00:02:18	47.46236	-122.3184	9.298	8.688556	184.2557	25.96	26.35917	98	0	79	1.170215	2.930962	-153.6196	
00:02:19	47.46202	-122.3186	11.756	11.59557	98.10754	25.74	26.24263	98	0	44	2.428731	0.53312	-152.1884	
00:02:21	47.46168	-122.3188	12.676	12.65728	41.7004	24.69	24.7461	98	0	44	0.4689763	-0.596716	-151.956	
00:02:23	47.46136	-122.3191	13.219	13.26577	36.45226	24.23	24.17391	99	0	40	0.04300287	-0.6277047	-152.8657	
00:02:24	47.46102	-122.3193	13.638	13.70428	26.62017	23.53	23.39366	99	0	40	-0.2412893	-0.7184095	-154.3214	
00:02:26	47.46069	-122.3196	13.826	13.94042	17.99526	23.03	22.93377	99	0	40	-0.3593419	-0.7542928	-156.2069	
00:02:28	47.46036	-122.3198	13.944	14.03019	19.24848	22.64	22.52998	99	0	40	-0.3909452	-0.4724569	-158.295	
00:02:29	47.46006	-122.32	14.159	14.17488	16.14859	22.32	22.223	99	0	38	-0.3164661	-0.3577673	-160.3566	
00:02:31	47.45978	-122.3202	15.656	15.09044	45.8507	22	21.86389	99	0	38	-0.4372765	-0.3665101	-161.5822	
00:02:33	47.45946	-122.3204	17.437	17.07898	98.59061	21.83	21.67577	99	0	40	2.770633	-0.2522306	-156.0403	
00:02:34	47.45913	-122.3206	19.768	19.35882	114.8922	21.43	21.39866	99	0	31	2.410167	-0.5673184	-153.2465	
00:02:36	47.45889	-122.3208	21.278	21.34109	109.2162	21.01	20.82219	99	0	29	1.732485	-1.009841	-150.7243	
00:02:38	47.4586	-122.321	22.986	23.06107	110.4706	20.61	20.4584	99	0	29	1.13455	-0.9920108	-149.1495	
00:02:40	47.45832	-122.3213	24.744	24.69559	113.292	20.32	20.18756	99	0	29	0.6725857	-0.7453094	-147.9999	
00:02:41	47.45832	-122.3213	24.744	25.22759	78.24081	20.32	20.15944	99	0	29	0.4941049	-0.9593384	-147.3878	
00:02:43	47.45784	-122.3218	27.192	26.4385	102.6399	19.9	19.72968	99	0	29	0.539155	-0.5935682	-146.1461	
00:02:45	47.45758	-122.322	24.301	26.27608	24.5356	19.47	19.36563	99	0	31	0.5105162	-0.03187948	-145.5227	
00:02:46	47.45735	-122.3223	21.67	22.76076	-132.5817	19.32	19.19138	99	0	31	0.009945276	-0.213869	-145.1475	
00:02:48	47.45711	-122.3225	19.126	19.15125	-192.2056	19.13	18.98104	99	0	23	0.401128	-0.0939965	-144.4755	
00:02:50	47.45686	-122.3228	16.484	16.35413	-209.4513	18.61	18.53277	99	0	23	0.6484525	-1.079804	-143.9843	
00:02:51	47.45666	-122.3231	13.955	13.7686	-185.4244	18.45	18.32144	99	0	22	-0.08494439	-1.073093	-145.8172	
00:02:53	47.45642	-122.3233	10.904	11.30733	-167.1966	18.12	18.08718	99	0	22	-2.601946	-1.123055	-151.2147	
00:02:55	47.45621	-122.3235	8.263	8.457955	-170.1826	17.84	17.80471	99	0	22	-1.982644	-0.8202531	-154.3232	
00:02:56	47.45595	-122.3237	9.772	7.540315	-88.03255	17.62	17.60954	99	0	29	-1.168688	-0.719506	-157.6002	
00:02:58	47.45573	-122.3239	11.795	10.55176	113.0504	17.8	17.88595	99	0	29	-1.432594	0.4874278	-161.7006	
00:03:00	47.45547	-122.3241	14.318	14.06477	174.0872	17.55	17.65936	99	0	25	-0.3848285	0.3538519	-164.4113	
00:03:02	47.45524	-122.3242	15.999	16.3568	148.0333	17.37	17.38006	99	0	25	4.294417	-0.4171465	-159.1193	
00:03:03	47.45498	-122.3243	17.88	18.02279	134.7012	17.41	17.30982	99	0	25	3.944767	0.01881887	-156.2376	
00:03:05	47.45476	-122.3245	17.733	18.69474	79.39868	17.45	17.3387	99	0	25	2.366387	0.05258732	-153.7334	
00:03:07	47.4545	-122.3247	17.639	18.16097	18.26252	17.51	17.37231	99	0	25	1.27518	0.285296	-151.8917	
00:03:08	47.45429	-122.3249	17.239	17.71787	-10.33391	17.48	17.36943	99	0	25	0.7597721	0.257005	-150.7043	
00:03:10	47.45404	-122.3251	15.135	15.92979	-77.60139	17.47	17.36553	99	0	25	0.7927694	0.1328314	-149.7005	
00:03:12	47.45381	-122.3253	13.15	13.5499	-121.9072	17.42	17.33668	99	0	25	-2.428353	0.07321203	-153.5326	
00:03:13	47.45361	-122.3255	11.264	11.26284	-136.5803	17.39	17.34546	99	0	25	-1.497608	0.05856591	-157.797	
00:03:15	47.45336	-122.3256	3.066	4.728217	-330.74	17.31	17.29239	99	0	25	-1.158406	0.005321598	-160.8684	
00:03:17	47.45309	-122.3258	6.784	0.6888545	-271.0002	17.33	17.36047	99	0	25	-0.8050102	0.06367836	-163.3374	
00:03:18	47.45306	-122.3258	6.527	4.986965	43.25319	17.31	17.34988	99	0	43	-0.5384927	0.2705506	-165.3251	
00:03:20	47.45263	-122.326	3.498	4.973952	69.96061	18.15	18.19784	99	0	43	-1.190119	2.817053	-170.351	
00:03:22	47.45231	-122.3261	3.515	3.481597	-51.28005	18.15	18.24792	99	0	40	0.02409169	2.081167	-173.0334	
00:03:24	47.45208	-122.3262	3.863	3.177743	-50.90818	18.37	18.48158	99	0	47	0.5171894	1.295999	-174.9412	
00:03:25	47.45176	-122.3263	4.119	3.766404	20.97065	19.3	19.2946	99	0	47	0.272994	1.985644	-176.8663	
00:03:27	47.4515	-122.3263	4.735	4.642412	42.9623	19.73	19.80193	99	0	47	0.8315941	2.023719	-178.008	
00:03:29	47.45116	-122.3263	5.419	5.340497	36.48032	20.23	20.23234	99	0	47	0.8252049	1.693619	-178.8678	
00:03:30	47.45084	-122.3264	5.578	5.748765	21.72126	20.64	20.53977	99	0	46	1.107063	1.366904	-179.6057	
00:03:32	47.45056	-122.3264	5.508	5.63108	-0.3994948	20.99	21.00493	99	0	47	0.9900227	1.07405	179.8385	
00:03:34	47.45022	-122.3265	5.29	5.346262	-21.01122	21.39	21.35994	99	0	47	0.8605317	0.683759	179.342	
00:03:35	47.44997	-122.3265	4.977	4.985365	-15.11275	21.65	21.66733	99	0	46	1.306061	0.9146829	179.0666	
00:03:37	47.44957	-122.3265	4.583	4.644337	-18.59565	21.86	21.84907	99	0	47	0.6082488	0.7840576	178.9167	
00:03:39	47.44922	-122.3265	4.191	4.234593	-26.20546	22.07	22.02324	99	0	46	1.080669	0.5785419	178.6861	
00:03:40	47.44892	-122.3265	3.723	3.758941	-27.50993	22.22	22.17801	99	0	47	0.6217086	0.5457829	178.567	
00:03:42	47.44858	-122.3265	3.218	3.266111	-30.34114	22.45	22.40248	99	0	47	0.871318	0.4114319	178.3275	
00:03:44	47.44831	-122.3265	2.872	2.793941	-23.47755	22.59	22.54184	99	0	50	1.018224	0.558793	178.1728	
00:03:46	47.44831	-122.3265	2.872	2.754152	-7.818577	22.59	22.54184	99	0	50	1.735095	1.107339	177.7156	
00:03:47	47.44754	-122.3265	2.357	2.366681	-35.92318	23.04	22.98448	99	0	50	0.4572399	0.3246242	176.8993	
00:03:49	47.44719	-122.3265	2.076	1.95365	-29.81575	23.24	23.21658	99	0	50	0.2298605	0.3759558	176.0009	
00:03:51	47.44682	-122.3265	1.709	1.648273	-23.66622	23.43	23.37389	99	0	50	0.61431	0.3533244	175.5988	
00:03:52	47.44645	-122.3265	2.003	1.695053	-1.056602	23.64	23.54782	99	0	53	0.595241	0.5306664	175.5703	
00:03:54	47.44608	-122.3265	2.437	2.232506	22.44133	23.99	23.9209	99	0	53	0.6571939	0.5728214	175.7362	
00:03:56	47.44575	-122.3265	2.29	2.71395	23.7289	24.22	24.13569	99	0	53	0.7415721	0.4766178	176.0956	
00:03:57	47.44539	-122.3264	1.271	1.873694	-24.39334	24.41	24.3521	99	0	55	0.6746333	0.4652019	176.4993	
00:03:59	47.445	-122.3264	0.23	0.5356367	-43.30579	25	24.96529	99	0	79	0.4151742	0.8603032	176.7948	
00:04:01	47.4446	-122.3264	0.324	0.218906	-20.8331	26.56	26.41105	99	0	92	0.2395697	1.609633	177.0378	
00:04:02	47.44421	-122.3264	0.396	0.3482454	30.43443	28.83	28.94372	99	0	98	0.1642949	2.024019	177.1884	
00:04:04	47.44373	-122.3264	0.975	0.8899394	27.66913	30.56	30.6716	99	0	98	0.4334094	1.636098	177.5531	
00:04:06	47.44324	-122.3263	1.28	1.200054	-1.021577	31.51	31.47134	99	0	100	0.6349482	1.067206	177.7993	
00:04:08	47.44278	-122.3263	1.177	1.200564	-6.443829	32.14	32.17275	99	0	100	0.6484433	0.8557929	178.0074	
00:04:09	47.44266	-122.3263	1.195	0.9772038	-37.67912	32.26	32.27739	99	0	100	0.2449453	-0.01670831	178.0969	
00:04:11	47.44266	-122.3263	1.195	0.9772038	-37.67912	32.26	32.27739	99	0	100	-0.03695299	-0.9320362	178.1588	
00:04:13	47.44135	-122.3263	0.779	0.9157943	49.1928	32.82	32.80672	99	0	100	0.7606156	1.134313	178.9753	
00:04:14	47.44077	-122.3263	2.083	1.626001	13.58794	32.64	32.60307	99	0	100	0.56477	0.8097234	179.4852	
00:04:16	47.44027	-122.3263	4.028	3.0174	37.10326	32.71	32.63497	99	0	98	0.5965323	0.501266	179.7452	
00:04:18	47.43979	-122.3263	5.062	4.828354	72.74271	32.73	32.64121	99	0	98	0.3717112	0.481721	-179.996	
00:04:19	47.43927	-122.3263	5.919	5.931655	60.72307	32.86	32.71981	99	0	100	0.4913004	0.3881126	-179.8379	
00:04:21	47.43885	-122.3263	6.402	6.518228	33.73881	32.98	32.85979	99	0	98	0.4681419	0.1787517	-179.7246	
00:04:23	47.43832	-122.3263	6.891	6.924099	27.56803	33.02	32.88806	99	0	100	0.484904	0.2270262	-179.6906	
00:04:24	47.43793	-122.3263	7.156	7.2046	13.33249	33.12	32.98656	99	0	100	0.6191344	0.17015	-179.7394	
00:04:26	47.43793	-122.3263	7.156	7.236016	8.602951	33.12	32.98656	99	0	100	0.9094761	0.4684471	-179.5616	
00:04:28	47.43686	-122.3264	13.864	7.859388	71.81962	32.04	31.83981	99	0	98	0.5374843	1.408497	-178.5342	
00:04:30	47.43631	-122.3264	20.064	18.20417	307.0661	31.46	31.31997	99	0	95	1.150822	0.3196238	-175.0715	
00:04:31	47.43586	-122.3265	20.802	22.37313	209.1461	30.85	30.69392	99	0	73	1.432668	-0.385305	-172.6782	
00:04:33	47.43539	-122.3266	20.406	21.71567	22.12251	29.03	29.05013	99	0	58	1.53842	-0.7565311	-170.8646	
00:04:35	47.43499	-122.3266	18.987	19.52237	-94.11902	27.65	27.39393	99	0	58	0.7351348	-1.038109	-169.38	
00:04:36	47.43454	-122.3268	16.755	17.21137	-120.196	26.96	26.76677	99	0	58	0.6481318	-0.703038	-168.3282	
00:04:38	47.43417	-122.3269	14.868	14.83903	-131.8524	26.67	26.467	99	0	58	0.3068684	-0.5862267	-167.5197	
00:04:40	47.43375	-122.327	13.505	13.23859	-102.9105	26.63	26.43435	99	0	58	-0.3106095	-0.4743376	-168.0594	
00:04:41	47.43339	-122.3271	12.668	12.50351	-55.33491	26.66	26.49446	99	0	58	-0.0326962	-0.2726279	-168.1835	
00:04:43	47.433	-122.3272	11.71	11.85117	-32.75917	26.67	26.51527	99	0	58	-0.04787317	-0.0642496	-168.3912	
00:04:45	47.433	-122.3272	11.71	11.78163	-6.843397	26.67	26.51527	99	0	58	0.06370791	0.4312202	-168.5191	
00:04:46	47.4322	-122.3275	10.352	11.10131	-55.15365	26.6	26.44705	99	0	58	0.03781831	-0.0583651	-168.7151	
00:04:48	47.43182	-122.3276	9.31	9.404239	-69.68617	26.72	26.57328	99	0	58	0.3044491	-0.029182	-169.0526	
00:04:50	47.43143	-122.3278	8.212	8.247687	-64.23096	26.79	26.63226	99	0	59	-0.03205941	-0.1951299	-169.5272	
00:04:52	47.431	-122.3279	7.625	7.462111	-33.46815	26.81	26.67414	99	0	58	0.06459837	0.1436949	-169.9112	
00:04:53	47.43061	-122.328	7.383	7.310635	-12.08472	26.75	26.60684	99	0	58	0.1354659	-0.09734702	-170.439	
00:04:55	47.43018	-122.3282	7.183	7.27176	6.572323	26.68	26.54719	99	0	58	0.1496814	0.02006542	-170.8611	
00:04:57	47.42982	-122.3283	7.389	7.406227	17.76482	26.61	26.48613	99	0	58	0.08619213	-0.01332137	-171.432	
00:04:58	47.42945	-122.3284	7.622	7.76551	36.97927	26.54	26.41112	99	0	56	0.1291234	0.1409482	-172.0138	
00:05:00	47.42903	-122.3285	7.976	8.121599	35.08721	26.39	26.24183	99	0	58	0.2950344	0.05421666	-172.4089	
00:05:02	47.42866	-122.3286	8.273	8.475467	38.04427	26.33	26.18983	99	0	58	0.1396572	0.1476931	-172.967	
00:05:03	47.42825	-122.3287	8.254	8.55419	26.19974	26.25	26.1132	99	0	58	0.1224616	0.1757766	-173.5036	
00:05:05	47.42784	-122.3288	8.291	8.491506	17.57212	26.17	26.04683	99	0	58	0.3091625	0.2685822	-173.9824	
00:05:07	47.42784	-122.3288	8.291	8.42968	7.166765	26.17	26.03326	99	0	58	0.6285355	-0.01811988	-174.4296	
00:05:08	47.42706	-122.3289	8.785	8.666683	35.06747	25.95	25.81481	99	0	58	0.06645034	0.4282118	-174.1494	
00:05:10	47.42706	-122.3289	8.785	9.191504	55.27951	25.95	25.8152	99	0	58	-1.280804	0.5883697	-173.3167	
00:05:12	47.42706	-122.3289	8.785	9.263084	44.59145	25.95	25.81441	99	0	58	-2.195963	0.7084418	-171.9868	
00:05:14	47.42706	-122.3289	8.785	9.167455	31.75067	25.95	25.8107	99	0	58	-2.739516	0.7897587	-170.3557	
00:05:15	47.42706	-122.3289	8.785	9.071248	24.19724	25.95	25.80564	99	0	59	-3.078011	0.8423917	-168.755	
00:05:17	47.42706	-122.3289	8.785	9.01344	20.44508	25.95	25.8013	99	0	58	-3.315171	0.8722163	-167.4255	
00:05:19	47.42706	-122.3289	8.785	8.982013	18.34687	25.95	25.80053	99	0	58	-3.295521	0.8425176	-166.1014	
00:05:20	47.42706	-122.3289	8.785	8.96347	16.95039	25.95	25.79535	99	0	58	-3.203107	0.7808478	-165.0807	
00:05:22	47.42706	-122.3289	8.785	8.948855	15.55412	25.95	25.7908	99	0	58	-3.143091	0.7215185	-164.38	
00:05:24	47.42706	-122.3289	8.785	8.935014	14.25428	25.95	25.79607	99	0	58	-2.928955	0.6261616	-163.8529	
00:05:25	47.42706	-122.3289	8.785	8.923985	13.34148	25.95	25.80138	99	0	58	-2.663469	0.5146081	-163.5895	
00:05:27	47.42706	-122.3289	8.785	8.914929	12.49767	25.95	25.80795	99	0	58	-2.486498	0.4306904	-163.5464	
00:05:29	47.42706	-122.3289	8.785	8.906229	11.63982	25.95	25.80997	99	0	58	-2.227135	0.3350759	-163.6728	
00:05:31	47.42706	-122.3289	8.785	8.899046	11.03797	25.95	25.81132	99	0	58	-1.927908	0.2363307	-164.0089	
00:05:32	47.42706	-122.3289	8.785	8.892811	10.41778	25.95	25.815	99	0	58	-1.723371	0.1689766	-164.3954	
00:05:34	47.42706	-122.3289	8.785	8.885988	9.682686	25.95	25.81655	99	0	56	-1.474366	0.1001708	-164.9292	
00:05:36	47.42706	-122.3289	8.785	8.879311	9.072353	25.95	25.81684	99	0	58	-1.20981	0.03606892	-165.5736	
00:05:37	47.42706	-122.3289	8.785	8.873479	8.512661	25.95	25.81663	99	0	58	-1.029872	-0.005012291	-166.1889	
00:05:39	47.42706	-122.3289	8.785	8.867348	7.859793	25.95	25.81652	99	0	58	-0.8327453	-0.04334476	-166.8411	
00:05:41	47.42706	-122.3289	8.785	8.86109	7.249525	25.95	25.81463	99	0	58	-0.616639	-0.08015291	-167.5683	
00:05:42	47.42706	-122.3289	8.785	8.855091	6.676666	25.95	25.81283	99	0	58	-0.4673832	-0.1029801	-168.2065	
00:05:44	47.42706	-122.3289	8.785	8.849429	6.120837	25.95	25.81285	99	0	58	-0.3149085	-0.123857	-168.8325	
00:05:46	47.42706	-122.3289	8.785	8.844164	5.618018	25.95	25.81327	99	0	58	-0.1522948	-0.1442095	-169.4764	
00:05:47	47.42706	-122.3289	8.785	8.839106	5.127343	25.95	25.81376	99	0	58	-0.03944344	-0.1569604	-170.0318	
00:05:49	47.42706	-122.3289	8.785	8.834217	4.642506	25.95	25.81403	99	0	58	0.06946049	-0.1689785	-170.543	
00:05:51	47.42706	-122.3289	8.785	8.829727	4.224906	25.95	25.81304	99	0	58	0.1876248	-0.1818792	-171.0424	
00:05:53	47.42706	-122.3289	8.785	8.825595	3.829441	25.95	25.81288	99	0	58	0.2685812	-0.1903434	-171.4707	
00:05:54	47.42706	-122.3289	8.785	8.821825	3.468704	25.95	25.81384	99	0	58	0.3440546	-0.1987308	-171.8386	
00:05:56	47.42706	-122.3289	8.785	8.818296	3.135648	25.95	25.81511	99	0	58	0.4268355	-0.2084652	-172.1817	
00:05:58	47.42706	-122.3289	8.785	8.815062	2.829014	25.95	25.81603	99	0	58	0.4834647	-0.2151811	-172.4741	
00:05:59	47.42706	-122.3289	8.785	8.812102	2.546691	25.95	25.81626	99	0	58	0.5349295	-0.2219522	-172.7139	
00:06:01	47.42706	-122.3289	8.785	8.80943	2.298711	25.95	25.81627	99	0	58	0.5914467	-0.2299834	-172.9156	
00:06:03	47.42706	-122.3289	8.785	8.807041	2.068963	25.95	25.81672	99	0	58	0.6302493	-0.235599	-173.0943	
00:06:04	47.42706	-122.3289	8.785	8.804807	1.853417	25.95	25.81729	99	0	58	0.6626913	-0.2408182	-173.2293	
00:06:06	47.42706	-122.3289	8.785	8.802737	1.661308	25.95	25.81786	99	0	58	0.7007129	-0.2473948	-173.3231	
00:06:08	47.42706	-122.3289	8.785	8.800931	1.496204	25.95	25.81822	99	0	59	0.7267833	-0.2519279	-173.4108	
00:06:09	47.42706	-122.3289	8.785	8.799336	1.343948	25.95	25.8183	99	0	58	0.7460818	-0.2554158	-173.4858	
00:06:11	47.42706	-122.3289	8.785	8.797889	1.209334	25.95	25.81835	99	0	58	0.7720283	-0.2606904	-173.5007	
00:06:13	47.42706	-122.3289	8.785	8.796603	1.090597	25.95	25.81853	99	0	58	0.7899002	-0.2641917	-173.5258	
00:06:15	47.42706	-122.3289	8.785	8.795443	0.9791864	25.95	25.81867	99	0	58	0.8024167	-0.2666235	-173.5515	
00:06:16	47.42706	-122.3289	8.785	8.79439	0.8809321	25.95	25.81876	99	0	58	0.8192306	-0.2702817	-173.526	
00:06:18	47.42706	-122.3289	8.785	8.793424	0.7884497	25.95	25.81881	99	0	58	0.8309622	-0.272612	-173.517	
00:06:20	47.42706	-122.3289	8.785	8.792536	0.7031101	25.95	25.81882	99	0	58	0.8392045	-0.2741604	-173.5135	
00:06:21	47.42706	-122.3289	8.785	8.791699	0.6252469	25.95	25.81883	99	0	58	0.849805	-0.276301	-173.4792	
00:06:23	47.42706	-122.3289	8.785	8.790994	0.561273	25.95	25.81884	99	0	56	0.8572066	-0.2776439	-173.4556	
00:06:25	47.42706	-122.3289	8.785	8.790391	0.5054662	25.95	25.81885	99	0	58	0.8623165	-0.2784099	-173.4433	
00:06:26	47.42706	-122.3289	8.785	8.789842	0.4543958	25.95	25.81885	99	0	58	0.868894	-0.2796346	-173.4009	
00:06:28	47.42706	-122.3289	8.785	8.789351	0.4077208	25.95	25.81885	99	0	58	0.8735674	-0.2802773	-173.3743	
00:06:30	47.42706	-122.3289	8.785	8.788893	0.3641416	25.95	25.81885	99	0	58	0.8767999	-0.2806073	-173.3554	
00:06:32	47.42706	-122.3289	8.785	8.788481	0.3244233	25.95	25.81884	99	0	59	0.880841	-0.2811538	-173.3191	
00:06:33	47.42706	-122.3289	8.785	8.788112	0.291141	25.95	25.81884	99	0	58	0.8837647	-0.281376	-173.294	
00:06:35	47.42706	-122.3289	8.785	8.787788	0.2613046	25.95	25.81884	99	0	56	0.8858044	-0.2814219	-173.2767	
00:06:37	47.42706	-122.3289	8.785	8.787503	0.2342058	25.95	25.81884	99	0	58	0.8882786	-0.2815946	-173.2478	
00:06:38	47.42706	-122.3289	8.785	8.787242	0.2090773	25.95	25.81884	99	0	58	0.8900595	-0.2816071	-173.2263	
00:06:40	47.42706	-122.3289	8.785	8.787002	0.1870556	25.95	25.81884	99	0	58	0.8913172	-0.2815139	-173.2123	
00:06:42	47.42706	-122.3289	8.785	8.786793	0.1679264	25.95	25.81884	99	0	58	0.8927562	-0.2814972	-173.1919	
00:06:43	47.42706	-122.3289	8.785	8.786607	0.1500949	25.95	25.81884	99	0	58	0.8938758	-0.2814079	-173.1761	
00:06:45	47.42706	-122.3289	8.785	8.786442	0.1344132	25.95	25.81884	99	0	58	0.8946547	-0.2812814	-173.165	
00:06:47	47.42706	-122.3289	8.785	8.786285	0.1202814	25.95	25.81885	99	0	58	0.8955105	-0.2811993	-173.1509	
00:06:48	47.42706	-122.3289	8.785	8.786152	0.1080185	25.95	25.81885	99	0	58	0.896156	-0.281092	-173.1401	
00:06:50	47.42706	-122.3289	8.785	8.786036	0.09709826	25.95	25.81885	99	0	58	0.8966137	-0.2809715	-173.1325	
00:06:52	47.42706	-122.3289	8.785	8.785929	0.08677325	25.95	25.81885	99	0	58	0.8970889	-0.2808857	-173.124	
00:06:54	47.42706	-122.3289	8.785	8.785834	0.07742865	25.95	25.81885	99	0	58	0.8974633	-0.2807967	-173.1172	
00:06:55	47.42706	-122.3289	8.785	8.785745	0.06863332	25.95	25.81885	99	0	58	0.8977328	-0.2807049	-173.1125	
00:06:57	47.42706	-122.3289	8.785	8.785662	0.06082209	25.95	25.81885	99	0	56	0.8979988	-0.2806427	-173.1076	
00:06:59	47.42706	-122.3289	8.785	8.785583	0.05451571	25.95	25.81885	100	0	58	0.8982002	-0.2805844	-173.1039	
00:07:00	47.42706	-122.3289	8.785	8.785527	0.04919719	25.95	25.81885	100	0	58	0.8983411	-0.2805277	-173.1013	
00:07:02	47.42706	-122.3289	8.785	8.785475	0.04411725	25.95	25.81885	100	0	58	0.8984748	-0.2804985	-173.099	
00:07:04	47.42706	-122.3289	8.785	8.785421	0.03970945	25.95	25.81885	100	0	58	0.8985776	-0.2804728	-173.0972	
00:07:05	47.42706	-122.3289	8.785	8.785379	0.0357055	25.95	25.81885	100	0	58	0.8986499	-0.2804472	-173.0959	
00:07:07	47.42706	-122.3289	8.785	8.785341	0.03179596	25.95	25.81885	100	0	58	0.8987085	-0.2804428	-173.095	
00:07:09	47.42706	-122.3289	8.785	8.785307	0.02827495	25.95	25.81885	100	0	58	0.8987533	-0.2804406	-173.0944	
00:07:10	47.42706	-122.3289	8.785	8.785274	0.02520159	25.95	25.81885	100	0	58	0.8987847	-0.2804359	-173.094	
00:07:12	47.42706	-122.3289	8.785	8.785241	0.02245292	25.95	25.81885	100	0	58	0.8988051	-0.2804498	-173.0939	
00:07:14	47.42706	-122.3289	8.785	8.785218	0.02053794	25.95	25.81885	100	0	58	0.8988209	-0.2804635	-173.0939	
00:07:16	47.42706	-122.3289	8.785	8.785199	0.01861039	25.95	25.81886	100	0	58	0.8988287	-0.2804732	-173.0938	
00:07:17	47.42706	-122.3289	8.785	8.785179	0.01668972	25.95	25.81885	100	0	58	0.8988298	-0.2804955	-173.0941	
00:07:19	47.42706	-122.3289	8.785	8.785161	0.01488345	25.95	25.81885	100	0	58	0.8988284	-0.2805173	-173.0943	
00:07:21	47.42706	-122.3289	8.785	8.785146	0.01327668	25.95	25.81885	100	0	59	0.8988274	-0.2805332	-173.0945	
00:07:22	47.42706	-122.3289	8.785	8.785131	0.01182708	25.95	25.81885	100	0	58	0.8988192	-0.2805583	-173.0948	
00:07:24	47.42706	-122.3289	8.785	8.785116	0.01046225	25.95	25.81885	100	0	59	0.8988095	-0.2805816	-173.0951	
00:07:26	47.42706	-122.3289	8.785	8.785106	0.009312563	25.95	25.81885	100	0	58	0.8988085	-0.2805988	-173.0954	
00:07:27	47.42706	-122.3289	8.785	8.785095	0.008272988	25.95	25.81885	100	0	58	0.8988011	-0.280622	-173.0957	
00:07:29	47.42706	-122.3289	8.785	8.785085	0.00732245	25.95	25.81885	100	0	58	0.898791	-0.280643	-173.096	
00:07:31	47.42706	-122.3289	8.785	8.785077	0.006453992	25.95	25.81885	100	0	58	0.8987811	-0.2806587	-173.0962	
00:07:32	47.42706	-122.3289	8.785	8.785069	0.005656546	25.95	25.81885	100	0	58	0.898771	-0.2806776	-173.0965	
00:07:34	47.42706	-122.3289	8.785	8.785062	0.004960302	25.95	25.81886	100	0	58	0.8987607	-0.2806956	-173.0967	
00:07:36	47.42706	-122.3289	8.785	8.785056	0.004357645	25.95	25.81885	100	0	58	0.898752	-0.2807088	-173.0968	
00:07:38	47.42706	-122.3289	8.785	8.78505	0.003770119	25.95	25.81885	100	0	58	0.8987454	-0.2807238	-173.097	
00:07:39	47.42706	-122.3289	8.785	8.785045	0.003261246	25.95	25.81885	100	0	58	0.8987354	-0.2807378	-173.0972	
00:07:41	47.42706	-122.3289	8.785	8.78504	0.002762728	25.95	25.81885	100	0	59	0.8987342	-0.2807485	-173.0973	
00:07:43	47.42706	-122.3289	8.785	8.785035	0.002322754	25.95	25.81885	100	0	58	0.8987281	-0.2807593	-173.0974	
00:07:44	47.42706	-122.3289	8.785	8.785032	0.001974955	25.95	25.81885	100	0	58	0.8987199	-0.2807695	-173.0975	
00:07:46	47.42706	-122.3289	8.785	8.785028	0.001672802	25.95	25.81885	100	0	58	0.8987193	-0.2807773	-173.0975	
00:07:48	47.42706	-122.3289	8.785	8.785026	0.001359176	25.95	25.81885	100	0	58	0.8987142	-0.2807847	-173.0976	
00:07:49	47.42706	-122.3289	8.785	8.785023	0.0009461112	25.95	25.81885	100	0	58	0.8987092	-0.2807918	-173.0976	
00:07:51	47.42706	-122.3289	8.785	8.785019	0.0007625063	25.95	25.81885	100	0	58	0.8987086	-0.2807972	-173.0977	
00:07:53	47.42706	-122.3289	8.785	8.785018	0.0006191192	25.95	25.81885	100	0	58	0.8987042	-0.2808016	-173.0977	
00:07:54	47.42706	-122.3289	8.785	8.785015	0.0003530793	25.95	25.81885	100	0	58	0.8987031	-0.2808064	-173.0977	
00:07:56	47.42706	-122.3289	8.785	8.785014	0.0002393832	25.95	25.81885	100	0	58	0.8987026	-0.28081	-173.0977	
00:07:58	47.42706	-122.3289	8.785	8.785012	0.0001144721	25.95	25.81885	100	0	58	0.8986987	-0.2808127	-173.0977	
00:08:00	47.42706	-122.3289	8.785	8.785011	-2.05541E-05	25.95	25.81885	100	0	58	0.8986965	-0.2808155	-173.0977	
00:08:01	47.42706	-122.3289	8.785	8.78501	-0.0001479284	25.95	25.81885	100	0	58	0.8986962	-0.2808178	-173.0977	
00:08:03	47.42706	-122.3289	8.785	8.785009	-0.0003395462	25.95	25.81885	100	0	58	0.8986958	-0.2808192	-173.0977	
00:08:05	47.42706	-122.3289	8.785	8.785007	-0.000450018	25.95	25.81885	100	0	58	0.8986952	-0.280821	-173.0977	
00:08:06	47.42706	-122.3289	8.785	8.785007	-0.0005244918	25.95	25.81885	100	0	58	0.8986951	-0.2808221	-173.0977	
00:08:08	47.42706	-122.3289	8.785	8.785007	-0.000515023	25.95	25.81885	100	0	58	0.8986924	-0.2808229	-173.0977	
