Date	Latitude(deg) 	Longitude(deg)	hamsl(m)	hafl(m)	climbrate(cm/s)	GroundSpeed(m/s)	Airspeed(m/s)	Mav_Link(%)	Rssi_Link(%)	Throttle	Roll(deg)	Pitch(deg)	Yaw(deg)
12:02:15	0	0	0	-0.7139805	-41.0997	0	3	57	0	50	1.030158	0.8585534	15.5892	
12:02:17	0	0	0	0.08015093	-1.442513	0	3	66	0	50	1.036622	0.8573567	15.65523	
12:02:19	0	0	0	0.1569048	-8.020663	0	3	72	0	50	1.049362	0.9170582	15.68899	
12:02:20	0	0	0	-0.3519889	-30.87102	0	3	76	0	50	1.085946	0.8336859	15.67932	
12:02:22	0	0	0	-0.4164677	-22.99619	0	3	80	0	50	1.07766	0.8142551	15.63913	
12:02:24	0	0	0	-0.4816147	-21.14799	0	3	83	0	50	1.101246	0.7492614	15.582	
12:02:25	0	0	0	-0.2085335	-4.215354	0	3	85	0	50	1.118432	0.6778763	15.50706	
12:02:27	0	0	0	-0.06905352	-2.038033	0	3	87	0	50	1.098073	0.6675311	15.48281	
12:02:29	0	0	0	-0.115896	-10.38599	0	3	88	0	50	1.095025	0.6639851	15.452	
12:02:30	0	0	0	-0.2806875	-15.49208	0	3	89	0	50	1.045207	0.6422945	15.41761	
12:02:32	0	0	0	-0.2572821	-10.72725	0	3	91	0	50	1.046553	0.7070994	15.41548	
12:02:34	0	0	0	-0.3644896	-14.18138	0	3	91	0	50	1.048111	0.7261042	15.42918	
12:02:36	0	0	0	-0.5032962	-14.19719	0	3	92	0	50	1.017781	0.7387996	15.41712	
12:02:37	0	0	0	-0.1601555	7.193102	0	3	93	0	50	0.9884883	0.8215025	15.44274	
12:02:39	0	0	0	-0.1201524	0.8056836	0	3	94	0	50	0.9845515	0.8852853	15.46576	
12:02:41	0	0	0	0.02589978	4.397085	0	3	94	0	50	1.012716	0.8290175	15.88779	
12:02:42	0	0	0	0.4206098	12.99088	0	3	95	0	50	1.014719	0.8233748	16.28833	
12:02:44	0	0	0	0.3160094	0.5143793	0	3	95	0	50	0.9916864	0.8044181	16.49727	
12:02:46	0	0	0	0.06349088	-12.18022	0	3	95	0	50	1.130847	0.03238286	16.65723	
12:02:47	0	0	0	0.1665319	-3.350412	0	3	96	0	50	1.013104	0.8137455	16.77683	
12:02:49	0	0	0	0.186134	-3.141092	0	3	96	0	50	0.9828402	0.9162917	16.92342	
12:02:51	0	0	0	0.01519689	-9.121366	0	3	96	0	50	1.028218	0.6960509	16.96801	
12:02:52	0	0	0	0.06374511	-3.514072	0	3	97	0	50	0.9796989	0.843451	17.04146	
12:02:54	0	0	0	-0.03976383	-7.668396	0	3	97	0	50	1.041408	0.748792	17.11622	
12:02:56	0	0	0	-0.3052444	-16.63005	0	3	97	0	50	1.074395	0.8034849	17.12237	
12:02:57	0	0	0	-0.662617	-17.38887	0	3	97	0	50	1.080286	0.7950603	17.13481	
12:02:59	0	0	0	-0.2889375	2.232538	0	3	97	0	50	1.097078	0.7823068	17.1374	
12:03:01	0	0	0	-0.5111651	-8.070512	0	3	98	0	50	1.0201	0.9049585	17.11213	
12:03:02	0	0	0	-0.509658	-3.81073	0	3	98	0	50	1.038882	0.7908037	17.12321	
12:03:04	0	0	0	-0.3337866	6.990459	0	3	98	0	50	1.034361	0.7878563	17.13194	
12:03:06	0	0	0	0.095721	16.34865	0	3	98	0	50	1.00787	0.7233207	17.05197	
12:03:08	0	0	0	0.1044528	8.477322	0	3	98	0	50	0.9825441	0.7200754	16.99803	
12:03:09	0	0	0	0.07094184	1.219681	0	3	98	0	50	0.9576656	0.7036379	16.98809	
12:03:11	0	0	0	0.1058156	3.078014	0	3	98	0	50	0.9678273	0.6857461	16.97197	
12:03:13	0	0	0	0.1438773	3.113522	0	3	98	0	50	0.9854934	0.7009802	16.95181	
12:03:14	0	0	0	0.145363	1.068802	0	3	99	0	50	0.9678583	0.7493737	16.96309	
12:03:16	0	0	0	-0.003772894	-5.00331	0	3	99	0	50	0.9545295	0.7530551	16.95422	
12:03:18	0	0	0	-0.02830474	-2.778462	0	3	99	0	50	0.9603625	0.7409518	16.97824	
12:03:19	0	0	0	-0.04163051	-0.7636456	0	3	99	0	50	0.9719955	0.8007882	16.99315	
12:03:21	0	0	0	0.0416575	2.554429	0	3	99	0	50	1.003163	0.7852246	16.97487	
12:03:23	0	0	0	-0.1162735	-5.513713	0	3	99	0	50	1.01377	0.7927488	16.9809	
12:03:24	0	0	0	-0.2325763	-6.24677	0	3	99	0	50	1.006826	0.7765374	16.96049	
12:03:26	0	0	0	0.1406259	11.99938	0	3	99	0	50	0.9938793	0.8076169	16.94483	
12:03:28	0	0	0	0.2649708	6.071882	0	3	99	0	50	1.02082	0.7705638	16.89393	
12:03:29	0	0	0	0.1712385	-1.282556	0	3	99	0	50	1.003957	0.7141011	16.90813	
12:03:31	0	0	0	0.1506006	-2.231017	0	3	99	0	50	1.043089	0.6313264	16.85225	
12:03:33	0	0	0	-0.1287394	-13.5796	0	3	99	0	50	1.009588	0.6337228	16.82237	
12:03:34	0	0	0	-0.02636426	-1.86461	0	3	99	0	50	1.026325	0.667003	16.81722	
12:03:36	0	0	0	-0.2404468	-12.20457	0	3	99	0	50	1.076874	0.6995999	16.79046	
12:03:38	0	0	0	-0.3540056	-7.369545	0	3	99	0	50	1.095789	0.6609146	16.77588	
12:03:39	0	0	0	-0.2362382	-0.6522833	0	3	99	0	50	1.05261	0.7209603	16.79137	
12:03:41	0	0	0	-0.3648895	-6.203967	0	3	99	0	50	1.091846	0.7037376	16.7912	
12:03:43	0	0	0	-0.382054	-1.897118	0	3	99	0	50	1.087724	0.6605994	16.75595	
12:03:45	0	0	0	-0.4512356	-3.430298	0	3	99	0	50	1.100606	0.6184365	16.77126	
12:03:46	0	0	0	-0.2140067	9.602586	0	3	99	0	50	1.126113	0.6769919	16.75219	
12:03:48	0	0	0	-0.02873836	9.883525	0	3	99	0	50	1.087714	0.7438313	16.70282	
12:03:50	0	0	0	0.1528308	14.57504	0	3	99	0	50	1.094318	0.7862316	16.71139	
12:03:51	0	0	0	0.4364031	15.27153	0	3	99	0	50	1.108523	0.7328582	16.67997	
12:03:53	0	0	0	0.3397777	2.73025	0	3	99	0	50	1.07221	0.6932437	16.64245	
12:03:55	0	0	0	0.1878679	-5.366897	0	3	99	0	50	1.092814	0.7409419	16.67242	
12:03:56	0	0	0	0.1237979	-5.886638	0	3	99	0	50	1.110402	0.7693952	16.71033	
12:03:58	0	0	0	-0.1016541	-10.31116	0	3	99	0	50	1.111232	0.7877584	16.68992	
12:04:00	0	0	0	-0.03892304	-0.7308607	0	3	99	0	50	1.104638	0.8118265	16.69014	
12:04:01	0	0	0	-0.2449328	-7.852516	0	3	99	0	50	1.129024	0.7987543	16.71621	
12:04:03	0	0	0	0.0008964811	4.353635	0	3	99	0	50	1.152642	0.8010352	16.73121	
12:04:05	0	0	0	-0.3471825	-14.89676	0	3	99	0	50	1.175341	0.7974186	16.71649	
12:04:06	0	0	0	-0.4352356	-8.478013	0	3	99	0	50	1.136514	0.7950175	16.69129	
12:04:08	0	0	0	-0.6164137	-11.0094	0	3	99	0	50	1.124749	0.7226318	16.65637	
12:04:10	0	0	0	-0.546557	1.785627	0	3	99	0	50	1.10717	0.69415	16.66815	
12:04:11	0	0	0	-0.4931765	2.83827	0	3	99	0	50	1.102642	0.7101686	16.68829	
12:04:13	0	0	0	-0.2122383	10.30673	0	3	99	0	50	1.042878	0.6884727	16.70396	
12:04:15	0	0	0	0.06852893	13.78031	0	3	99	0	50	1.057582	0.7294332	16.75178	
12:04:17	0	0	0	-0.1965826	-1.118776	0	3	99	0	50	1.053769	0.6876939	16.75487	
12:04:18	0	0	0	-0.189988	1.140366	0	3	99	0	50	1.08929	0.6201121	16.74969	
12:04:20	0	0	0	0.06683178	10.77836	0	3	99	0	50	1.084619	0.7159429	16.74934	
12:04:22	0	0	0	-0.1661064	-3.487892	0	3	99	0	50	1.104552	0.683127	16.79223	
12:04:23	0	0	0	-0.4844627	-12.72279	0	3	99	0	50	1.117902	0.6745271	16.77231	
12:04:25	0	0	0	-0.6301598	-10.09374	0	3	99	0	50	1.117083	0.7191394	16.76757	
12:04:27	0	0	0	-0.302857	8.516457	0	3	99	0	50	1.128659	0.7344335	16.77133	
12:04:28	0	0	0	-0.0320607	14.94825	0	3	99	0	50	1.100129	0.6891462	16.75846	
12:04:30	0	0	0	-0.2410046	-3.016932	0	3	99	0	50	1.156254	0.6514269	16.78317	
12:04:32	0	0	0	-0.5994318	-15.32896	0	3	99	0	50	1.188796	0.7323548	16.78246	
12:04:33	0	0	0	-0.7865523	-11.33075	0	3	99	0	50	1.192369	0.79358	16.76946	
12:04:35	0	0	0	-0.6510204	1.199969	0	3	99	0	50	1.164448	0.7863916	16.75996	
12:04:37	0	0	0	-0.434619	9.071195	0	3	99	0	50	1.176665	0.7419385	16.77113	
12:04:38	0	0	0	-0.6316897	-6.486086	0	3	99	0	50	1.132089	0.7474657	16.73917	
12:04:40	0	0	0	-0.7474596	-4.357964	0	3	99	0	50	1.131516	0.7597545	16.71249	
12:04:42	0	0	0	-0.3022734	12.40225	0	3	99	0	50	1.070626	0.7025455	16.7239	
12:04:43	0	0	0	-0.2732642	6.774888	0	3	99	0	50	1.026801	0.6717244	16.76881	
12:04:45	0	0	0	-0.08477452	11.32119	0	3	99	0	50	1.000201	0.5973526	16.77534	
12:04:47	0	0	0	-0.2845673	-3.764762	0	3	99	0	50	1.014959	0.4515417	16.75122	
12:04:49	0	0	0	-0.4591123	-7.137985	0	3	99	0	50	1.011803	0.5426331	16.74882	
12:04:50	0	0	0	-0.3084571	2.314849	0	3	99	0	50	0.9867493	0.4949898	16.74506	
12:04:52	0	0	0	-0.09110019	9.844695	0	3	99	0	50	0.9785693	0.5232247	16.76137	
12:04:54	0	0	0	-0.4187825	-8.570869	0	3	99	0	50	0.9816262	0.57147	16.79242	
12:04:55	0	0	0	-0.6628768	-13.34747	0	3	99	0	50	0.9957888	0.5814011	16.75797	
12:04:57	0	0	0	-0.4012007	4.759602	0	3	99	0	50	0.9963614	0.6055048	16.753	
12:04:59	0	0	0	-0.3835959	3.638752	0	3	99	0	50	1.024107	0.6279929	16.76447	
12:05:00	0	0	0	-0.5585704	-9.054466	0	3	99	0	50	0.9742516	0.6350496	16.78476	
12:05:02	0	0	0	-0.7208482	-6.140368	0	3	99	0	50	0.9820501	0.6767568	16.79716	
12:05:04	0	0	0	-0.8187589	-7.584478	0	3	99	0	50	0.9829273	0.6129714	16.79475	
12:05:05	0	0	0	-0.6753301	2.186348	0	3	99	0	50	0.9821998	0.6665725	16.80772	
12:05:07	0	0	0	-0.4973078	6.948932	0	3	99	0	50	0.974245	0.769901	16.78506	
12:05:09	0	0	0	-0.429715	6.016564	0	3	99	0	50	0.9675329	0.8372418	16.82185	
12:05:10	0	0	0	-0.618507	-4.057715	0	3	99	0	50	0.938055	0.8554485	16.86351	
12:05:12	0	0	0	-0.3877587	7.646112	0	3	99	0	50	0.9424875	0.7872606	16.8768	
12:05:14	0	0	0	-0.4128556	1.678913	0	3	99	0	50	0.9590641	0.7227414	16.88527	
12:05:16	0	0	0	-0.850997	-13.64619	0	3	99	0	50	1.010049	0.7547912	16.90173	
12:05:17	0	0	0	-0.4677111	4.981128	0	3	99	0	50	1.031044	0.796426	16.89812	
12:05:19	0	0	0	-0.439379	2.947627	0	3	99	0	50	1.012484	0.686529	16.84817	
12:05:21	0	0	0	-0.3015252	5.544435	0	3	99	0	50	0.9824692	0.6564199	16.84811	
12:05:22	0	0	0	-0.2911467	3.573651	0	3	99	0	50	0.9860588	0.7281488	16.84014	
12:05:24	0	0	0	-0.2481427	3.343784	0	3	99	0	50	0.9809963	0.7020988	16.82952	
12:05:26	0	0	0	-0.2485721	1.007181	0	3	99	0	50	1.037593	0.7266839	16.80611	
12:05:27	0	0	0	-0.5533487	-12.04903	0	3	99	0	50	1.028291	0.7262129	16.82529	
12:05:29	0	0	0	-0.6324717	-6.554509	0	3	99	0	50	1.001771	0.7126595	16.80387	
12:05:31	0	0	0	-0.7088264	-6.460445	0	3	99	0	50	0.9771121	0.8019331	16.79755	
12:05:32	0	0	0	-0.8072394	-8.705761	0	3	99	0	50	0.9810173	0.732154	16.80987	
12:05:34	0	0	0	-0.8625791	-4.14481	0	3	99	0	50	0.9980076	0.7047437	16.81637	
12:05:36	0	0	0	-0.6718591	3.791165	0	3	99	0	50	0.9937915	0.6773157	16.83227	
12:05:37	0	0	0	-0.4604819	10.92752	0	3	99	0	50	1.000452	0.6745234	16.86565	
12:05:39	0	0	0	-0.3737228	3.933525	0	3	99	0	50	0.9832478	0.6665898	16.83646	
12:05:41	0	0	0	-0.4751362	-0.6619813	0	3	99	0	50	0.9843942	0.6436265	16.83605	
12:05:42	0	0	0	-0.497554	-1.44732	0	3	99	0	50	0.9748763	0.6284314	16.83354	
12:05:44	0	0	0	-0.4031561	3.156425	0	3	99	0	50	1.027964	0.6695067	16.84389	
12:05:46	0	0	0	0.03138856	13.83475	0	3	99	0	50	1.017164	0.6671364	16.86115	
12:05:47	0	0	0	-0.225282	-5.37207	0	3	99	0	50	1.097382	0.6976691	16.84314	
12:05:49	0	0	0	-0.4147391	-11.25362	0	3	99	0	50	1.146721	0.7470736	16.80691	
12:05:51	0	0	0	-0.4360942	-5.550522	0	3	99	0	50	1.112871	0.7399681	16.77979	
12:05:53	0	0	0	-0.2271397	2.525215	0	3	99	0	50	1.056239	0.7729216	16.76447	
12:05:54	0	0	0	-0.3166766	-3.106326	0	3	99	0	50	1.044303	0.8431553	16.80392	
12:05:56	0	0	0	-0.7987121	-18.22338	0	3	99	0	50	1.040336	0.8376594	16.80597	
12:05:58	0	0	0	-0.9344548	-11.78284	0	3	99	0	50	0.9933274	0.8253503	16.79613	
12:05:59	0	0	0	-0.6186733	9.135536	0	3	99	0	50	1.002906	0.9234527	16.82143	
12:06:01	0	0	0	-0.2584823	17.29009	0	3	99	0	50	0.9738032	0.7947625	16.87826	
12:06:03	0	0	0	-0.5218126	-3.81823	0	3	99	0	50	0.8937435	1.019338	16.89897	
12:06:04	0	0	0	-0.6188668	-5.894863	0	3	99	0	50	0.9763357	0.69367	16.93218	
12:06:06	0	0	0	-0.8929541	-12.08183	0	3	99	0	50	0.9885528	0.6623231	16.88617	
12:06:08	0	0	0	-1.270786	-20.05052	0	3	99	0	50	0.9762719	0.7321057	16.88036	
12:06:09	0	0	0	-0.9763882	2.563358	0	3	99	0	50	0.9689958	0.7272354	16.85546	
12:06:11	0	0	0	-0.2984037	24.27895	0	3	99	0	50	0.9716766	0.7061009	16.85352	
12:06:13	0	0	0	-0.1097863	17.97766	0	3	99	0	50	0.9541664	0.7301849	16.85444	
12:06:14	0	0	0	-0.2153686	2.326627	0	3	99	0	50	0.972568	0.7182665	16.82631	
12:06:16	0	0	0	-0.5021496	-10.14801	0	3	99	0	50	1.02081	0.6886945	16.83605	
12:06:18	0	0	0	-0.509813	-4.396155	0	3	99	0	50	1.05144	0.7259833	16.84898	
12:06:20	0	0	0	-0.9154198	-16.38013	0	3	99	0	50	1.076379	0.7962948	16.84196	
12:06:21	0	0	0	-1.108576	-11.73402	0	3	99	0	50	1.074048	0.7949216	16.79187	
12:06:23	0	0	0	-0.974287	0.454316	0	3	99	0	50	1.041066	0.8233814	16.81038	
12:06:25	0	0	0	-0.7912505	5.089116	0	3	99	0	50	1.067279	0.8690222	16.83363	
12:06:26	0	0	0	-0.7866429	2.492002	0	3	99	0	50	1.073031	0.7945538	16.82089	
12:06:28	0	0	0	-0.6238668	6.113089	0	3	99	0	50	1.094631	0.710888	16.79464	
12:06:30	0	0	0	-0.5671042	5.259283	0	3	99	0	50	1.028624	0.9918764	16.84172	
12:06:31	0	0	0	-0.7568443	0.08675754	0	3	99	0	50	3.205931	3.027766	13.19536	
12:06:33	0	0	0	-0.7884153	-24.42472	0	3	99	0	50	1.543562	-0.3618694	12.61967	
12:06:35	0	0	0	-0.6676126	3.10522	0	3	99	0	50	0.8123479	1.848909	14.08097	
12:06:36	0	0	0	-0.4396766	12.34548	0	3	99	0	50	0.965071	4.546066	9.675206	
12:06:38	0	0	0	-0.2819577	14.82414	0	3	99	0	50	2.438586	0.750077	11.73948	
12:06:40	0	0	0	-0.2657155	6.828265	0	3	99	0	50	2.312063	0.9053082	10.79565	
12:06:41	0	0	0	-0.4727025	-3.748389	0	3	99	0	50	2.18161	0.9376407	10.15976	
12:06:43	0	0	0	-0.7285436	-16.14009	0	3	99	0	50	2.112029	0.9400364	9.677998	
12:06:45	0	0	0	-0.6097823	-4.103854	0	3	99	0	50	-2.609916	-0.3824282	11.6656	
12:06:46	0	0	0	-0.6787022	-41.76698	0	3	99	0	50	2.192326	-6.84149	6.94201	
12:06:48	0	0	0	-0.5136308	0.6372041	0	3	99	0	50	-1.330997	-3.548996	5.164104	
12:06:50	0	0	0	-0.5384498	1.908929	0	3	99	0	50	7.809606	-3.118196	10.44299	
12:06:52	0	0	0	-0.2022015	8.034449	0	3	99	0	50	12.68148	-8.650672	11.58378	
12:06:53	0	0	0	-0.2205463	-2.745056	0	3	99	0	50	0.1675056	-4.639113	7.952769	
12:06:55	0	0	0	-0.4282537	-5.333925	0	3	99	0	50	-5.911939	-5.721972	5.906104	
12:06:57	0	0	0	-0.9040292	-61.66285	0	3	99	0	50	0.7806424	0.8780602	11.56645	
12:06:58	0	0	0	-0.8257751	-17.20913	0	3	99	0	50	0.9056396	0.844238	14.81767	
12:07:00	0	0	0	-0.5007094	7.594285	0	3	99	0	50	1.036145	0.5054273	17.07117	
12:07:02	0	0	0	-0.5177316	7.585823	0	3	99	0	50	1.096842	0.5520841	18.64113	
12:07:03	0	0	0	-0.3802781	9.963233	0	3	99	0	50	1.162491	0.6382989	20.20174	
12:07:05	0	0	0	-0.5874646	-1.018367	0	3	99	0	50	1.144841	0.5421895	21.31495	
12:07:07	0	0	0	-0.7103872	-1.512598	0	3	99	0	50	1.131941	0.5751243	22.12223	
12:07:08	0	0	0	-0.602476	4.242974	0	3	99	0	50	1.108163	0.6647466	22.81408	
12:07:10	0	0	0	-0.6717401	1.560569	0	3	99	0	50	1.070141	0.784855	23.31228	
12:07:12	0	0	0	-0.4238818	12.09576	0	3	99	0	50	1.054402	0.744197	23.7128	
12:07:13	0	0	0	-0.2622	10.75359	0	3	99	0	50	1.089195	0.7989635	23.99109	
12:07:15	0	0	0	-0.3361751	3.915591	0	3	99	0	50	1.119763	0.8154654	24.14195	
12:07:17	0	0	0	-0.297039	2.180454	0	3	99	0	50	1.113403	0.8443409	24.25034	
12:07:18	0	0	0	-0.3621595	-3.154224	0	3	99	0	50	1.042343	0.9259577	24.23259	
12:07:20	0	0	0	-0.441949	-4.702793	0	3	99	0	50	1.064403	0.8989837	24.23597	
12:07:22	0	0	0	-0.2275261	6.843799	0	3	99	0	50	1.068835	0.8657665	24.22937	
12:07:24	0	0	0	-0.3005731	3.02701	0	3	99	0	50	1.039067	0.8606409	24.12615	
12:07:25	0	0	0	0.04565262	15.3729	0	3	99	0	50	1.055422	0.8678159	24.03171	
12:07:27	0	0	0	-0.2085334	-5.048831	0	3	99	0	50	1.077312	0.7754926	23.96688	
12:07:29	0	0	0	-0.4902803	-9.960453	0	3	99	0	50	1.136231	0.794412	23.83627	
12:07:30	0	0	0	-0.3691782	-0.6733515	0	3	99	0	50	1.123253	0.8746833	23.6586	
12:07:32	0	0	0	-0.2802429	4.274471	0	3	99	0	50	1.146168	0.8336826	23.59719	
12:07:34	0	0	0	-0.4933091	-6.498631	0	3	99	0	50	1.147684	0.866401	23.46762	
12:07:35	0	0	0	-0.3720565	1.717775	0	3	99	0	50	1.168031	0.9276233	23.38051	
12:07:37	0	0	0	-0.8626201	-16.92787	0	3	99	0	50	1.138783	0.943366	23.28912	
12:07:39	0	0	0	-0.7242889	-0.7611988	0	3	99	0	50	1.131619	0.9409862	23.17872	
12:07:40	0	0	0	-0.7451875	-2.601596	0	3	99	0	50	1.112005	0.9168749	23.11284	
12:07:42	0	0	0	-0.7735769	-1.663797	0	3	99	0	50	1.146569	0.9753087	23.09066	
12:07:44	0	0	0	-0.7407615	0.8439046	0	3	99	0	50	1.127505	0.9023608	22.99376	
12:07:45	0	0	0	-0.4062118	12.34455	0	3	99	0	50	1.141161	0.8763502	22.88666	
12:07:47	0	0	0	-0.1823281	12.72198	0	3	99	0	50	1.152008	0.8686747	22.84295	
12:07:49	0	0	0	-0.4279893	-4.018019	0	3	100	0	50	1.151594	0.8689188	22.78665	
12:07:50	0	0	0	-0.2252827	8.660562	0	3	100	0	50	1.192782	0.7300484	22.71749	
12:07:52	0	0	0	0.1144465	14.71836	0	3	100	0	50	1.21043	0.7528425	22.63952	
12:07:54	0	0	0	-0.4360576	-12.669	0	3	100	0	50	1.178805	0.7690628	22.5798	
12:07:56	0	0	0	-0.3466131	-2.336033	0	3	100	0	50	1.19501	0.7500525	22.53702	
12:07:57	0	0	0	-0.1243199	6.954149	0	3	100	0	50	1.204199	0.765451	22.51202	
12:07:59	0	0	0	-0.1582285	0.2765144	0	3	100	0	50	1.206953	0.7807984	22.50853	
12:08:01	0	0	0	-0.2796842	-4.002597	0	3	100	0	50	1.157659	0.9673637	22.44345	
12:08:02	0	0	0	-0.3574595	-5.402401	0	3	100	0	50	1.229409	0.8519689	22.41308	
12:08:04	0	0	0	-0.366282	-2.706997	0	3	100	0	50	1.197419	0.8923339	22.44875	
12:08:06	0	0	0	-0.2703901	4.832948	0	3	100	0	50	1.173044	0.9083924	22.45403	
12:08:07	0	0	0	-0.3669251	-0.3918121	0	3	100	0	50	1.163163	0.8498846	22.42435	
12:08:09	0	0	0	-0.272182	3.455312	0	3	100	0	50	1.159965	0.8143069	22.40652	
12:08:11	0	0	0	-0.3044923	0.4116712	0	3	100	0	50	1.138138	0.8900136	22.4508	
12:08:12	0	0	0	-0.4368285	-5.145257	0	3	100	0	50	1.114786	0.8882288	22.51028	
12:08:14	0	0	0	-0.4013928	-0.3751636	0	3	100	0	50	1.100357	0.868633	22.5796	
12:08:16	0	0	0	-0.5004994	-4.769432	0	3	100	0	50	1.097409	0.8463982	22.58868	
12:08:17	0	0	0	-0.2545962	9.841162	0	3	100	0	50	1.083381	0.8285275	22.6009	
12:08:19	0	0	0	0.03073822	14.51551	0	3	100	0	50	1.114701	0.8701511	22.60252	
12:08:21	0	0	0	-0.4040001	-10.78916	0	3	100	0	50	1.054841	0.7903196	22.55402	
12:08:22	0	0	0	-0.8975893	-23.57393	0	3	100	0	50	1.091048	0.8263437	22.56087	
12:08:24	0	0	0	-0.8020694	-4.728787	0	3	100	0	50	1.078333	0.8099173	22.60948	
12:08:26	0	0	0	-0.3210849	11.92286	0	3	100	0	50	1.115284	0.7397057	22.5743	
12:08:28	0	0	0	-0.2658349	6.664974	0	3	100	0	50	1.117404	0.7280154	22.57648	
12:08:29	0	0	0	0.152279	19.91802	0	3	100	0	50	1.111431	0.785969	22.56312	
12:08:31	0	0	0	-0.06225727	-2.53535	0	3	100	0	50	1.090672	0.8023803	22.56409	
12:08:33	0	0	0	-0.2088752	-5.543419	0	3	100	0	50	1.070814	0.8091877	22.5836	
12:08:34	0	0	0	-0.2102838	-2.488808	0	3	100	0	50	1.05747	0.7811103	22.56589	
12:08:36	0	0	0	-0.09843205	4.347762	0	3	100	0	50	1.075642	0.7294204	22.5498	
12:08:38	0	0	0	-0.1337444	1.572709	0	3	100	0	50	1.042255	0.6731929	22.53125	
12:08:39	0	0	0	0.1016251	8.114857	0	3	100	0	50	1.058144	0.6945902	22.54654	
12:08:41	0	0	0	0.1847113	7.603387	0	3	100	0	50	1.076984	0.665565	22.53961	
12:08:43	0	0	0	-0.09242216	-7.892393	0	3	100	0	50	1.089244	0.7246249	22.53922	
12:08:44	0	0	0	-0.194627	-5.509479	0	3	100	0	50	1.081862	0.7177133	22.52737	
12:08:46	0	0	0	-0.175601	-3.64003	0	3	100	0	50	1.088234	0.6811917	22.51324	
12:08:48	0	0	0	0.01716938	7.080227	0	3	100	0	50	1.090172	0.6605346	22.49063	
12:08:49	0	0	0	-0.08954313	-0.8387309	0	3	100	0	50	1.076626	0.7100649	22.47456	
12:08:51	0	0	0	-0.1865473	-4.741941	0	3	100	0	50	1.081149	0.7881038	22.48612	
12:08:53	0	0	0	-0.2010989	-0.305164	0	3	100	0	50	1.1011	0.841474	22.55327	
12:08:54	0	0	0	-0.1267367	1.344184	0	3	100	0	50	1.121461	0.9263026	22.5554	
12:08:56	0	0	0	-0.3119091	-7.046721	0	3	100	0	50	1.177773	0.8608723	22.58731	
12:08:58	0	0	0	-0.3116949	-3.420561	0	3	100	0	50	1.171012	0.8383258	22.58465	
12:09:00	0	0	0	-0.424949	-4.673317	0	3	100	0	50	1.17442	0.7389977	22.59094	
12:09:01	0	0	0	-0.2453265	1.357922	0	3	100	0	50	1.18571	0.7835422	22.56832	
12:09:03	0	0	0	-0.1720335	2.247066	0	3	100	0	50	1.191758	0.8277104	22.55338	
12:09:05	0	0	0	-0.09873974	2.79904	0	3	100	0	50	1.15941	1.042296	22.57748	
12:09:06	0	0	0	-0.110998	0.6763352	0	3	100	0	50	1.181222	0.9745657	22.58646	
12:09:08	0	0	0	0.02597867	5.234416	0	3	100	0	50	1.156495	0.9095377	22.60166	
12:09:10	0	0	0	0.0594665	3.919435	0	3	100	0	50	1.128769	0.9192829	22.57895	
12:09:11	0	0	0	0.1265598	1.418931	0	3	100	0	50	1.129328	0.9363157	22.58978	
12:09:13	0	0	0	-0.08022147	-7.854886	0	3	100	0	50	1.125012	0.9302468	22.54426	
12:09:15	0	0	0	-0.2051299	-6.590881	0	3	100	0	50	1.126446	0.9258339	22.57111	
12:09:16	0	0	0	-0.2244439	-4.724999	0	3	100	0	50	1.117708	0.9411914	22.57862	
12:09:18	0	0	0	-0.0329663	5.972618	0	3	100	0	50	1.090704	1.037586	22.55956	
12:09:20	0	0	0	-0.07041705	1.171581	0	3	100	0	50	1.172925	0.7233347	22.55053	
12:09:21	0	0	0	-0.1559183	-3.088572	0	3	100	0	50	1.229767	0.7546914	22.52315	
12:09:23	0	0	0	-0.3862361	-7.702063	0	3	100	0	50	1.245689	0.7581977	22.50933	
12:09:25	0	0	0	-0.5901135	-9.516931	0	3	100	0	50	1.256857	0.7580394	22.46308	
12:09:27	0	0	0	-0.8069246	-13.16759	0	3	100	0	50	1.141842	0.919368	22.46173	
12:09:28	0	0	0	-0.334469	13.35704	0	3	100	0	50	1.194499	0.7255435	22.46303	
12:09:30	0	0	0	-0.2328532	8.608993	0	3	100	0	50	1.166479	0.7974091	22.4914	
12:09:32	0	0	0	-0.6751834	-13.10898	0	3	100	0	50	1.112596	0.7727359	22.48066	
12:09:33	0	0	0	-0.4299914	5.02059	0	3	100	0	50	1.105914	0.6926433	22.47668	
12:09:35	0	0	0	-0.5465875	-5.774002	0	3	100	0	50	1.060656	0.8945256	22.481	
12:09:37	0	0	0	-0.5176864	-0.6338947	0	3	100	0	50	1.048301	0.9365917	22.54024	
12:09:38	0	0	0	-0.396825	2.908163	0	3	100	0	50	1.089319	1.00696	22.58705	
12:09:40	0	0	0	-0.3127637	4.876404	0	3	100	0	50	1.125703	1.00396	22.61398	
12:09:42	0	0	0	0.004033101	11.01612	0	3	100	0	50	1.114213	0.9795192	22.61279	
12:09:43	0	0	0	-0.1607496	-1.459024	0	3	100	0	50	1.109457	0.9256011	22.64751	
12:09:45	0	0	0	0.1152277	9.609823	0	3	100	0	50	1.098398	1.011218	22.62981	
12:09:47	0	0	0	-0.2049738	-8.556437	0	3	100	0	50	1.08623	0.9841002	22.61963	
12:09:48	0	0	0	-0.2994133	-7.907928	0	3	100	0	50	1.080161	1.0128	22.65992	
12:09:50	0	0	0	-0.08008871	4.44097	0	3	100	0	50	1.109846	0.9890248	22.67206	
12:09:52	0	0	0	-0.1790012	-3.367053	0	3	100	0	50	1.096921	0.9623145	22.64908	
12:09:53	0	0	0	-0.07745568	5.070583	0	3	100	0	50	1.085228	0.9617634	22.6927	
12:09:55	0	0	0	-0.07879199	0.2687397	0	3	100	0	50	1.02516	0.9383929	22.69711	
12:09:57	0	0	0	-0.01795697	4.003631	0	3	100	0	50	1.02676	0.914981	22.71922	
12:09:59	0	0	0	-0.01021975	-1.366117	0	3	100	0	50	1.025811	0.9771653	22.729	
12:10:00	0	0	0	0.1310117	6.669359	0	3	100	0	50	0.9960306	0.9728705	22.72428	
12:10:02	0	0	0	0.3440341	10.40985	0	3	100	0	50	0.9917719	0.9692191	22.74173	
12:10:04	0	0	0	0.421436	6.717566	0	3	100	0	50	0.9948133	0.9167451	22.7362	
12:10:05	0	0	0	0.3359996	-1.336281	0	3	100	0	50	0.9876837	0.9664086	22.74342	
12:10:07	0	0	0	0.1599606	-8.118742	0	3	100	0	50	0.9918147	0.9713141	22.74318	
12:10:09	0	0	0	-0.06534813	-11.7525	0	3	100	0	50	1.029582	0.9695756	22.76556	
12:10:10	0	0	0	0.3449835	9.404552	0	3	100	0	50	1.07679	0.9392443	22.75196	
12:10:12	0	0	0	0.2991107	0.8506683	0	3	100	0	50	1.034043	0.916508	22.72525	
12:10:14	0	0	0	-0.09611887	-13.46636	0	3	100	0	50	1.045687	0.9238599	22.7283	
12:10:15	0	0	0	-0.1830382	-7.973209	0	3	100	0	50	1.099911	0.9943378	22.72879	
12:10:17	0	0	0	0.1322021	8.971568	0	3	100	0	50	1.087809	0.9794918	22.71676	
12:10:19	0	0	0	0.3927256	11.68162	0	3	100	0	50	1.128708	1.071942	22.70886	
12:10:20	0	0	0	0.1569577	-3.428651	0	3	100	0	50	1.050817	1.010301	22.7472	
12:10:22	0	0	0	0.193461	1.976508	0	3	100	0	50	1.057325	1.00404	22.71648	
12:10:24	0	0	0	0.2044676	0.6091992	0	3	100	0	50	1.072513	0.9355572	22.67164	
12:10:25	0	0	0	0.2676545	2.117597	0	3	100	0	50	1.04925	0.9646541	22.64355	
12:10:27	0	0	0	0.4215086	4.074849	0	3	100	0	50	1.014217	0.9512336	22.64468	
12:10:29	0	0	0	0.2378189	-4.758698	0	3	100	0	50	0.9662589	0.9399924	22.60398	
12:10:31	0	0	0	0.2038853	-2.684898	0	3	100	0	50	0.9763466	0.9019307	22.63392	
12:10:32	0	0	0	0.5238944	10.56115	0	3	100	0	50	0.9746631	0.9620791	22.669	
12:10:34	0	0	0	0.135518	-10.75714	0	3	100	0	50	1.012029	1.029977	22.7257	
12:10:36	0	0	0	0.1520198	-4.585072	0	3	100	0	50	1.000304	0.9254053	22.70092	
12:10:37	0	0	0	0.1213077	-2.801625	0	3	100	0	50	1.022046	0.9897804	22.70299	
12:10:39	0	0	0	-0.1414162	-9.140039	0	3	100	0	50	1.069309	1.009578	22.70311	
12:10:41	0	0	0	-0.3867725	-13.33658	0	3	100	0	50	1.029863	0.9807718	22.70424	
12:10:42	0	0	0	-0.4222402	-5.96625	0	3	100	0	50	1.040242	0.9501877	22.69994	
12:10:44	0	0	0	-0.2675615	3.050249	0	3	100	0	50	1.020046	0.9120226	22.67308	
12:10:46	0	0	0	-0.03117682	8.915024	0	3	100	0	50	1.012676	0.9341931	22.68125	
12:10:47	0	0	0	0.001708322	3.405146	0	3	100	0	50	1.021423	0.9181518	22.68711	
12:10:49	0	0	0	-0.1800208	-4.391343	0	3	100	0	50	1.018836	0.9555267	22.67504	
12:10:51	0	0	0	-0.315939	-7.767169	0	3	100	0	50	0.9824014	0.9817535	22.67015	
12:10:52	0	0	0	-0.3998632	-5.887027	0	3	100	0	50	0.9978052	0.9166374	22.66891	
12:10:54	0	0	0	-0.2286488	4.14132	0	3	100	0	50	1.013957	0.9546891	22.70188	
12:10:56	0	0	0	-0.07639899	7.157529	0	3	100	0	50	1.01824	0.9494827	22.68655	
12:10:57	0	0	0	-0.1980175	-3.107025	0	3	100	0	50	1.021064	0.911014	22.712	
12:10:59	0	0	0	-0.6071618	-15.69806	0	3	100	0	50	1.041513	0.9471835	22.71727	
12:11:01	0	0	0	-0.2330655	7.703792	0	3	100	0	50	1.041236	0.9523863	22.71446	
12:11:03	0	0	0	-0.03983224	11.89207	0	3	100	0	50	1.027281	1.020028	22.72303	
12:11:04	0	0	0	-0.04176451	3.006375	0	3	100	0	50	1.061161	1.064487	22.74764	
12:11:06	0	0	0	-0.169787	-2.633034	0	3	100	0	50	1.073021	1.046429	22.7399	
12:11:08	0	0	0	-0.0008286755	4.194848	0	3	100	0	50	1.080695	1.067039	22.67956	
12:11:09	0	0	0	0.1924734	10.11313	0	3	100	0	50	1.140436	1.036177	22.67765	
12:11:11	0	0	0	0.1128878	0.9771809	0	3	100	0	50	1.16953	1.057261	22.67297	
12:11:13	0	0	0	-0.1102941	-9.093367	0	3	100	0	50	1.129734	1.0491	22.66747	
12:11:14	0	0	0	-0.07091597	-1.587922	0	3	100	0	50	1.075844	0.9946402	22.62635	
12:11:16	0	0	0	0.03298932	2.767906	0	3	100	0	50	1.029585	1.003795	22.6499	
12:11:18	0	0	0	0.05353061	1.052793	0	3	100	0	50	1.017414	0.9815587	22.66546	
12:11:19	0	0	0	-0.178598	-10.54524	0	3	100	0	50	1.013386	0.9506774	22.68198	
12:11:21	0	0	0	-0.3668916	-11.34172	0	3	100	0	50	1.015833	0.9318025	22.67376	
12:11:23	0	0	0	-0.2846969	-1.843991	0	3	100	0	50	1.004385	0.9001204	22.68093	
12:11:24	0	0	0	-0.4833416	-8.4383	0	3	100	0	50	1.00578	0.8999807	22.68652	
12:11:26	0	0	0	0.02084563	17.1917	0	3	100	0	50	1.03205	0.8955443	22.69181	
12:11:28	0	0	0	0.2023468	15.20046	0	3	100	0	50	0.9978633	0.820724	22.68525	
12:11:29	0	0	0	0.1847923	3.649363	0	3	100	0	50	1.030806	0.8245024	22.6586	
12:11:31	0	0	0	0.07497464	-2.321165	0	3	100	0	50	1.022779	0.8218451	22.63741	
12:11:33	0	0	0	0.06597589	1.312834	0	3	100	0	50	1.020405	0.8449159	22.62931	
12:11:35	0	0	0	0.1577133	3.019825	0	3	100	0	50	1.009881	0.8668285	22.66176	
12:11:36	0	0	0	-0.1536169	-10.22463	0	3	100	0	50	1.021483	0.9168499	22.63993	
12:11:38	0	0	0	-0.4410335	-14.57573	0	3	100	0	50	1.039663	0.9037342	22.64037	
12:11:40	0	0	0	-0.1724831	3.219912	0	3	100	0	50	1.091323	0.9076065	22.62094	
12:11:41	0	0	0	-0.08767778	5.383363	0	3	100	0	50	1.065233	0.9318419	22.6174	
12:11:43	0	0	0	-0.1309865	-0.0635507	0	3	100	0	50	1.051343	0.9426578	22.57581	
12:11:45	0	0	0	0.12108	9.666132	0	3	100	0	50	1.074977	0.9533224	22.5982	
12:11:46	0	0	0	-0.2789443	-13.20866	0	3	100	0	50	1.072083	0.9493905	22.60651	
12:11:48	0	0	0	-0.3852137	-6.279597	0	3	100	0	50	1.048263	1.025038	22.60272	
12:11:50	0	0	0	-0.2065122	2.916548	0	3	100	0	50	1.062513	1.045435	22.6269	
12:11:51	0	0	0	-0.2908418	-2.376887	0	3	100	0	50	1.064651	1.037626	22.60752	
12:11:53	0	0	0	-0.195812	1.201174	0	3	100	0	50	1.102281	1.045236	22.61059	
12:11:55	0	0	0	-0.233636	-0.2409654	0	3	100	0	50	1.120438	1.014833	22.6048	
12:11:56	0	0	0	0.1964295	15.58514	0	3	100	0	50	1.124889	1.006534	22.59424	
12:11:58	0	0	0	0.04386826	1.256703	0	3	100	0	50	1.129408	1.009465	22.62026	
12:12:00	0	0	0	-0.0152652	-3.822436	0	3	100	0	50	1.12802	0.9819537	22.60155	
12:12:01	0	0	0	-0.1503579	-4.931207	0	3	100	0	50	1.145094	1.010568	22.59889	
12:12:03	0	0	0	0.2022215	10.64806	0	3	100	0	50	1.124214	1.03056	22.57763	
12:12:05	0	0	0	0.1948371	2.865897	0	3	100	0	50	1.090405	1.059231	22.59252	
12:12:07	0	0	0	0.04272183	-3.715337	0	3	100	0	50	1.085653	0.9950607	22.5556	
12:12:08	0	0	0	0.1018401	1.100396	0	3	100	0	50	1.065782	0.9619872	22.58124	
12:12:10	0	0	0	0.2563564	3.080623	0	3	100	0	50	1.064176	1.003414	22.60507	
12:12:12	0	0	0	0.2175334	0.8540018	0	3	100	0	50	1.077313	1.070232	22.60367	
12:12:13	0	0	0	0.2078111	-0.2331363	0	3	100	0	50	1.070399	1.029086	22.64771	
12:12:15	0	0	0	0.04604007	-2.376446	0	3	100	0	50	1.035981	1.002503	22.6498	
12:12:17	0	0	0	0.09947413	-1.791947	0	3	100	0	50	1.033893	1.03014	22.68262	
12:12:18	0	0	0	-0.1653846	-10.13545	0	3	100	0	50	1.017549	0.9537406	22.68514	
12:12:20	0	0	0	-0.03346257	1.176614	0	3	100	0	50	0.9915597	0.8950914	22.71289	
12:12:22	0	0	0	0.106314	4.045513	0	3	100	0	50	1.008261	0.8977751	22.6715	
12:12:23	0	0	0	0.2192715	7.064422	0	3	100	0	50	0.9717604	0.9264904	22.71253	
12:12:25	0	0	0	0.04468441	-3.12577	0	3	100	0	50	0.994628	0.9208827	22.73553	
12:12:27	0	0	0	-0.05938515	-3.14293	0	3	100	0	50	0.9696736	0.9154925	22.71659	
12:12:28	0	0	0	0.1022289	3.855364	0	3	100	0	50	1.003918	0.9335145	22.74894	
12:12:30	0	0	0	0.2815391	8.558804	0	3	100	0	50	1.014067	0.947217	22.73332	
12:12:32	0	0	0	0.2663034	3.714334	0	3	100	0	50	1.026096	0.9427598	22.70387	
12:12:33	0	0	0	0.5107148	12.12041	0	3	100	0	50	1.038371	0.9968592	22.7091	
12:12:35	0	0	0	0.1321685	-8.47052	0	3	100	0	50	1.006286	1.00639	22.71745	
12:12:37	0	0	0	0.01035333	-7.006227	0	3	100	0	50	1.034778	0.9839643	22.72386	
12:12:39	0	0	0	0.2278034	3.660232	0	3	100	0	50	1.007017	0.9741555	22.71894	
12:12:40	0	0	0	0.2522996	1.915666	0	3	100	0	50	0.9818416	0.9667026	22.72871	
12:12:42	0	0	0	-0.2448866	-19.33331	0	3	100	0	50	0.9722054	0.9544554	22.70706	
12:12:44	0	0	0	0.006173814	0.9219818	0	3	100	0	50	1.016806	0.9345165	22.7018	
12:12:45	0	0	0	0.032529	1.463403	0	3	100	0	50	1.025064	0.9370501	22.66317	
12:12:47	0	0	0	0.1684052	5.931283	0	3	100	0	50	1.007811	0.8246912	22.64894	
12:12:49	0	0	0	0.2192309	3.593799	0	3	100	0	50	1.014073	0.8065809	22.62593	
12:12:50	0	0	0	-0.1593725	-13.84468	0	3	100	0	50	0.9906608	0.8290375	22.64014	
12:12:52	0	0	0	0.0009669028	0.06361008	0	3	100	0	50	0.9752489	0.8297028	22.63237	
12:12:54	0	0	0	0.02610713	0.3427632	0	3	100	0	50	0.9908406	0.852909	22.63622	
12:12:55	0	0	0	0.2220535	8.668015	0	3	100	0	50	0.9743143	0.8704833	22.62664	
12:12:57	0	0	0	0.247604	3.818015	0	3	100	0	50	0.9785762	0.8587709	22.66317	
12:12:59	0	0	0	0.32423	3.454865	0	3	100	0	50	1.00975	0.932702	22.69925	
12:13:00	0	0	0	0.4624615	5.167736	0	3	100	0	50	1.049309	0.954913	22.70512	
12:13:02	0	0	0	0.05472928	-11.74674	0	3	100	0	50	1.047009	0.9182259	22.6971	
12:13:04	0	0	0	0.1917114	-0.6362228	0	3	100	0	50	1.059916	0.9063165	22.68396	
12:13:05	0	0	0	0.434499	9.722503	0	3	100	0	50	1.054316	0.9142082	22.67492	
12:13:07	0	0	0	0.3824247	0.1494869	0	3	100	0	50	1.100668	1.028616	22.68176	
12:13:09	0	0	0	0.3230153	-1.062503	0	3	100	0	50	1.133646	1.119462	22.70568	
12:13:11	0	0	0	0.4800825	2.58429	0	3	100	0	50	1.131415	1.130537	22.71702	
12:13:12	0	0	0	0.680507	6.963593	0	3	100	0	50	1.115137	1.057365	22.70364	
12:13:14	0	0	0	0.429902	-7.231395	0	3	100	0	50	1.117071	1.005307	22.66496	
12:13:16	0	0	0	0.5360944	2.41253	0	3	100	0	50	1.142554	1.00152	22.64257	
12:13:17	0	0	0	0.5513136	1.474909	0	3	100	0	50	1.120871	1.026291	22.60863	
12:13:19	0	0	0	0.7075393	7.493287	0	3	100	0	50	1.134985	1.07707	22.64885	
12:13:21	0	0	0	0.5017378	-5.014243	0	3	100	0	50	1.101092	1.081052	22.64384	
12:13:22	0	0	0	0.4338201	-4.232516	0	3	100	0	50	1.09736	1.077293	22.6601	
12:13:24	0	0	0	0.1650816	-13.76347	0	3	100	0	50	1.10649	1.053463	22.67574	
12:13:26	0	0	0	0.5697361	10.28108	0	3	100	0	50	1.106987	1.074532	22.68929	
12:13:27	0	0	0	0.8535695	13.20973	0	3	100	0	50	1.079018	1.102172	22.6917	
12:13:29	0	0	0	0.7119625	0.838477	0	3	100	0	50	1.092929	1.083728	22.70149	
12:13:31	0	0	0	0.7811521	6.830528	0	3	100	0	50	1.126004	1.131019	22.72286	
12:13:32	0	0	0	0.311375	-14.24586	0	3	100	0	50	1.099986	1.071096	22.69366	
12:13:34	0	0	0	0.3120182	-4.310527	0	3	100	0	50	1.117253	1.078068	22.70277	
12:13:36	0	0	0	0.4825927	3.444148	0	3	100	0	50	1.07447	0.9290234	22.69728	
12:13:37	0	0	0	0.3003686	-3.952942	0	3	100	0	50	1.092335	0.9095161	22.67866	
12:13:39	0	0	0	0.4859692	4.17104	0	3	100	0	50	1.101054	0.9448372	22.6477	
12:13:41	0	0	0	0.5121232	1.626862	0	3	100	0	50	1.089144	0.9240013	22.65042	
12:13:43	0	0	0	0.4663227	0.474014	0	3	100	0	50	1.080004	0.9251454	22.61451	
12:13:44	0	0	0	0.6877571	7.801878	0	3	100	0	50	1.047621	0.8995097	22.59215	
12:13:46	0	0	0	0.7202379	4.117885	0	3	100	0	50	1.037404	0.9235697	22.62162	
12:13:48	0	0	0	0.7188287	2.224603	0	3	100	0	50	1.052575	0.9043987	22.61856	
12:13:49	0	0	0	0.6647922	-1.262579	0	3	100	0	50	1.052759	0.8821097	22.61315	
12:13:51	0	0	0	0.5599882	-4.7726	0	3	100	0	50	1.043192	0.8809934	22.61059	
12:13:53	0	0	0	0.7287011	4.408723	0	3	100	0	50	1.080155	0.8846754	22.61248	
12:13:54	0	0	0	0.9083191	9.267191	0	3	100	0	50	1.102997	0.9255899	22.64417	
12:13:56	0	0	0	0.7896539	0.4402584	0	3	100	0	50	1.097579	0.8789474	22.57373	
12:13:58	0	0	0	0.5749492	-6.91189	0	3	100	0	50	1.093153	0.9206911	22.56494	
12:13:59	0	0	0	0.5017794	-5.754695	0	3	100	0	50	1.064807	0.9143441	22.53535	
12:14:01	0	0	0	0.4322227	-5.272292	0	3	100	0	50	1.088712	0.947203	22.54545	
12:14:03	0	0	0	0.5742146	5.156662	0	3	100	0	50	1.097158	1.052383	22.57691	
12:14:04	0	0	0	0.6959213	4.232545	0	3	100	0	50	1.095175	1.02244	22.5843	
12:14:06	0	0	0	0.05026237	-23.39491	0	3	100	0	50	1.14269	1.073006	22.62616	
12:14:08	0	0	0	-0.05144338	-12.44338	0	3	100	0	50	1.166221	1.053755	22.61204	
12:14:09	0	0	0	-0.05175979	-4.393998	0	3	100	0	50	1.137667	1.044548	22.60014	
12:14:11	0	0	0	0.2373455	10.64554	0	3	100	0	50	1.153866	1.126015	22.60903	
12:14:13	0	0	0	0.487412	13.13235	0	3	100	0	50	1.125389	1.093135	22.64081	
12:14:15	0	0	0	0.5924171	10.25176	0	3	100	0	50	1.094994	1.076877	22.67537	
12:14:16	0	0	0	0.7843257	9.027888	0	3	100	0	50	1.072864	1.061037	22.68056	
12:14:18	0	0	0	0.2598975	-18.30882	0	3	100	0	50	1.076222	0.9482173	22.6891	
12:14:20	0	0	0	-0.06838524	-18.92542	0	3	100	0	50	1.111102	1.004843	22.69398	
12:14:21	0	0	0	0.3575282	6.394534	0	3	100	0	50	1.095742	0.9773648	22.70866	
12:14:23	0	0	0	0.3644773	1.927768	0	3	100	0	50	1.088996	1.051607	22.72347	
12:14:25	0	0	0	0.4269695	2.478253	0	3	100	0	50	1.074998	1.043424	22.72118	
12:14:26	0	0	0	0.2341643	-4.31434	0	3	100	0	50	1.078181	0.961238	22.6764	
12:14:28	0	0	0	0.4588272	6.675421	0	3	100	0	50	1.072207	0.9687447	22.66439	
12:14:30	0	0	0	0.7074677	13.91142	0	3	100	0	50	1.061805	0.9953535	22.63828	
12:14:31	0	0	0	0.403869	-4.634176	0	3	100	0	50	1.06198	0.9895441	22.64734	
12:14:33	0	0	0	0.380329	-4.69683	0	3	100	0	50	1.082184	1.070959	22.67639	
12:14:35	0	0	0	0.8291668	15.2076	0	3	100	0	50	1.06472	1.142623	22.69839	
12:14:36	0	0	0	0.9403687	7.913852	0	3	100	0	50	1.052814	1.057902	22.70903	
12:14:38	0	0	0	0.615045	-10.0937	0	3	100	0	50	1.023499	1.032107	22.69723	
12:14:40	0	0	0	0.3049021	-16.77667	0	3	100	0	50	1.029688	1.034997	22.72527	
12:14:41	0	0	0	0.05416784	-12.37527	0	3	100	0	50	1.065517	1.019154	22.7151	
12:14:43	0	0	0	0.527505	12.60009	0	3	100	0	50	1.058816	0.9996001	22.71626	
12:14:45	0	0	0	0.4003536	0.3281132	0	3	100	0	50	1.052305	1.061217	22.72139	
12:14:47	0	0	0	0.5584573	5.633193	0	3	100	0	50	1.063626	1.040861	22.71253	
12:14:48	0	0	0	0.5908456	4.836315	0	3	100	0	50	1.057277	1.025026	22.71779	
12:14:50	0	0	0	0.5735256	3.031139	0	3	100	0	50	1.092927	1.043277	22.71358	
12:14:52	0	0	0	0.6137196	1.308414	0	3	100	0	50	1.073092	1.016086	22.70425	
12:14:53	0	0	0	0.592905	1.020657	0	3	100	0	50	1.050769	1.001583	22.7187	
12:14:55	0	0	0	0.9874263	14.75365	0	3	100	0	50	1.060991	0.9804902	22.72387	
12:14:57	0	0	0	1.000286	8.95213	0	3	100	0	50	1.05024	0.8875352	22.68269	
12:14:58	0	0	0	1.026289	4.655519	0	3	100	0	50	1.050331	0.848865	22.6209	
12:15:00	0	0	0	0.648205	-13.70272	0	3	100	0	50	1.017267	0.8327338	22.57799	
12:15:02	0	0	0	0.3651958	-17.08735	0	3	100	0	50	1.029918	0.7968654	22.58238	
12:15:03	0	0	0	0.4034822	-3.367909	0	3	100	0	50	1.022184	0.8026527	22.56254	
12:15:05	0	0	0	0.5783413	2.756526	0	3	100	0	50	1.019872	0.7673414	22.56395	
12:15:07	0	0	0	0.4455899	-1.474834	0	3	100	0	50	0.9936643	0.7832666	22.54809	
12:15:08	0	0	0	0.6811265	6.49203	0	3	100	0	50	1.010826	0.7513236	22.56304	
12:15:10	0	0	0	0.7955197	7.530775	0	3	100	0	50	1.025187	0.7797009	22.56	
12:15:12	0	0	0	0.715637	0.4381092	0	3	100	0	50	1.017228	0.7708061	22.58268	
12:15:13	0	0	0	0.7426063	1.215458	0	3	100	0	50	1.012893	0.7978331	22.57204	
12:15:15	0	0	0	0.4328086	-10.47204	0	3	100	0	50	1.01904	0.8113266	22.55535	
12:15:17	0	0	0	0.4426222	-6.756126	0	3	100	0	50	1.028456	0.8078917	22.54862	
12:15:19	0	0	0	0.5065758	2.654727	0	3	100	0	50	1.043312	0.8613669	22.56637	
12:15:20	0	0	0	0.5463399	-0.358897	0	3	100	0	50	1.018033	0.8562408	22.56506	
12:15:22	0	0	0	0.6989564	6.884311	0	3	100	0	50	0.9976119	0.8465677	22.56083	
12:15:24	0	0	0	0.7937791	6.697923	0	3	100	0	50	0.9709539	0.8991834	22.60337	
12:15:25	0	0	0	0.8434287	3.545641	0	3	100	0	50	0.9804688	0.8797637	22.61255	
12:15:27	0	0	0	0.5345944	-10.41615	0	3	100	0	50	1.012318	0.9186898	22.6507	
12:15:29	0	0	0	0.4058678	-10.33207	0	3	100	0	50	1.050936	0.9696811	22.68318	
12:15:30	0	0	0	0.4796112	-2.730408	0	3	100	0	50	1.105652	0.954416	22.67383	
12:15:32	0	0	0	0.5343615	3.74333	0	3	100	0	50	1.128763	0.9757953	22.65096	
12:15:34	0	0	0	0.6897011	5.123337	0	3	100	0	50	1.144696	0.9848623	22.60915	
12:15:35	0	0	0	0.8078932	10.88671	0	3	100	0	50	1.152023	0.973253	22.61398	
12:15:37	0	0	0	0.9563203	8.644852	0	3	100	0	50	1.176791	0.9679608	22.59053	
12:15:39	0	0	0	0.9293115	3.169982	0	3	100	0	50	1.182214	0.9515398	22.56276	
12:15:40	0	0	0	0.9507512	2.568809	0	3	100	0	50	1.191578	0.9605448	22.53864	
12:15:42	0	0	0	0.6669568	-10.04203	0	3	100	0	50	1.208014	1.015979	22.49648	
12:15:44	0	0	0	0.5257089	-7.613333	0	3	100	0	50	1.23536	1.074459	22.51499	
12:15:45	0	0	0	0.824484	8.79419	0	3	100	0	50	1.208867	1.144948	22.52409	
12:15:47	0	0	0	1.119732	13.77682	0	3	100	0	50	1.190026	1.159421	22.53133	
12:15:49	0	0	0	1.140314	7.747627	0	3	100	0	50	1.158522	1.103785	22.52134	
12:15:51	0	0	0	0.9990068	-2.456387	0	3	100	0	50	1.173908	1.084743	22.52387	
12:15:52	0	0	0	1.151012	7.389883	0	3	100	0	50	1.169371	1.021021	22.50686	
12:15:54	0	0	0	0.6971639	-14.89641	0	3	100	0	50	1.15435	0.9972731	22.48791	
12:15:56	0	0	0	0.3625361	-19.32784	0	3	100	0	50	1.134388	1.033159	22.49762	
12:15:57	0	0	0	0.4846674	-3.381534	0	3	100	0	50	1.138227	0.9739714	22.48276	
12:15:59	0	0	0	0.8402835	9.640938	0	3	100	0	50	1.119744	0.940898	22.49144	
12:16:01	0	0	0	0.9423973	10.42857	0	3	100	0	50	1.097409	0.9394636	22.48738	
12:16:02	0	0	0	0.6890276	-6.921443	0	3	100	0	50	1.102629	0.9754048	22.48362	
12:16:04	0	0	0	0.6193628	-4.591067	0	3	100	0	50	1.09082	0.9785759	22.52551	
12:16:06	0	0	0	0.6688067	-2.038635	0	3	100	0	50	1.07427	0.9819535	22.56977	
12:16:07	0	0	0	0.9061832	9.558377	0	3	100	0	50	1.041063	0.935102	22.60612	
12:16:09	0	0	0	0.9476729	3.63523	0	3	100	0	50	1.031924	0.9416752	22.645	
12:16:11	0	0	0	0.3906331	-17.36333	0	3	100	0	50	1.03282	0.9552748	22.66853	
12:16:12	0	0	0	0.2958607	-9.550531	0	3	100	0	50	1.011931	0.952435	22.66296	
12:16:14	0	0	0	0.7550334	14.66777	0	3	100	0	50	1.055434	0.9131039	22.69596	
12:16:16	0	0	0	1.00371	15.65486	0	3	100	0	50	1.082374	0.9809036	22.73191	
12:16:17	0	0	0	1.073582	10.33919	0	3	100	0	50	1.079377	1.018312	22.71752	
12:16:19	0	0	0	0.656348	-14.64146	0	3	100	0	50	1.090063	0.9668328	22.70816	
12:16:21	0	0	0	0.4861945	-11.42325	0	3	100	0	50	1.087472	0.9713641	22.67146	
12:16:23	0	0	0	0.8683863	9.087462	0	3	100	0	50	1.063091	0.9315473	22.67793	
12:16:24	0	0	0	0.8287126	1.757089	0	3	100	0	50	1.050094	0.9585169	22.68379	
12:16:26	0	0	0	0.7693176	-0.4414667	0	3	100	0	50	1.034049	0.9024093	22.67155	
12:16:28	0	0	0	1.029182	9.404794	0	3	100	0	50	1.044415	0.8359677	22.66086	
12:16:29	0	0	0	0.8594644	-0.2163404	0	3	100	0	50	1.04873	0.8240379	22.64149	
12:16:31	0	0	0	0.9198872	0.179269	0	3	100	0	50	1.071267	0.8705395	22.64491	
12:16:33	0	0	0	1.159782	9.733693	0	3	100	0	50	1.073015	0.9266102	22.64136	
12:16:34	0	0	0	1.023148	0.08364002	0	3	100	0	50	1.072176	0.9473941	22.65009	
12:16:36	0	0	0	1.022835	-1.128394	0	3	100	0	50	1.070415	0.9677968	22.68769	
12:16:38	0	0	0	1.231708	9.760359	0	3	100	0	50	1.07795	1.029013	22.69779	
12:16:39	0	0	0	1.197454	6.244815	0	3	100	0	50	1.059014	1.034148	22.68751	
12:16:41	0	0	0	0.899344	-9.418043	0	3	100	0	50	1.059636	1.100347	22.67067	
12:16:43	0	0	0	0.908779	-1.768026	0	3	100	0	50	1.07607	1.091551	22.6999	
12:16:44	0	0	0	0.9515414	-2.258602	0	3	100	0	50	1.058897	1.104855	22.72093	
12:16:46	0	0	0	0.8922882	-6.195203	0	3	100	0	50	1.089556	1.094782	22.71234	
12:16:48	0	0	0	0.821905	-3.31898	0	3	100	0	50	1.061825	1.103459	22.71663	
12:16:49	0	0	0	1.013481	6.52149	0	3	100	0	50	1.077087	1.158796	22.70787	
12:16:51	0	0	0	1.231382	14.60018	0	3	100	0	50	1.059147	1.133427	22.71836	
12:16:53	0	0	0	0.8936726	-6.896993	0	3	100	0	50	1.042385	1.08019	22.7036	
12:16:55	0	0	0	0.7084208	-10.08216	0	3	100	0	50	1.032037	0.9923642	22.71409	
12:16:56	0	0	0	1.030255	7.682379	0	3	100	0	50	1.022133	1.001135	22.70919	
12:16:58	0	0	0	1.074235	6.286919	0	3	100	0	50	1.019542	0.9541671	22.69905	
12:17:00	0	0	0	0.8014733	-10.85305	0	3	100	0	50	1.04621	0.9729359	22.704	
12:17:01	0	0	0	0.7146033	-5.970541	0	3	100	0	50	1.029929	0.9459097	22.66955	
12:17:03	0	0	0	1.17357	15.58148	0	3	100	0	50	1.01629	0.9729356	22.67359	
12:17:05	0	0	0	1.354341	10.73555	0	3	100	0	50	1.02025	1.02114	22.66743	
12:17:06	0	0	0	1.581682	14.47578	0	3	100	0	50	1.037813	0.9855586	22.66717	
12:17:08	0	0	0	1.255349	-6.717708	0	3	100	0	50	1.038153	0.9897884	22.68899	
12:17:10	0	0	0	0.9352913	-13.08023	0	3	100	0	50	1.036653	0.9855968	22.68714	
12:17:11	0	0	0	0.661052	-14.45293	0	3	100	0	50	1.038747	1.029096	22.71287	
12:17:13	0	0	0	0.6739088	-6.688487	0	3	100	0	50	1.050079	1.028707	22.70818	
12:17:15	0	0	0	1.260835	19.75992	0	3	100	0	50	1.039832	1.015959	22.72965	
12:17:16	0	0	0	1.085671	-0.03797691	0	3	100	0	50	1.014401	1.052587	22.75524	
12:17:18	0	0	0	0.9516915	-3.767472	0	3	100	0	50	1.044394	1.075813	22.74976	
12:17:20	0	0	0	0.9403609	-1.092728	0	3	100	0	50	1.034665	1.021834	22.74467	
12:17:22	0	0	0	0.7704277	-8.566893	0	3	100	0	50	1.031149	0.9902202	22.73922	
12:17:23	0	0	0	0.7775044	-2.429819	0	3	100	0	50	1.013655	0.9277811	22.71232	
12:17:25	0	0	0	1.332529	22.09527	0	3	100	0	50	1.026039	0.8715385	22.67003	
12:17:27	0	0	0	1.563679	18.49777	0	3	100	0	50	1.023456	0.8566623	22.65449	
12:17:28	0	0	0	1.241396	-5.1595	0	3	100	0	50	1.033234	0.9114856	22.63132	
12:17:30	0	0	0	1.165023	-4.604118	0	3	100	0	50	1.012964	0.8937766	22.62408	
12:17:32	0	0	0	1.306953	5.933234	0	3	100	0	50	1.025441	0.925115	22.63613	
12:17:33	0	0	0	1.133851	-3.265359	0	3	100	0	50	0.9889613	0.9291981	22.61724	
12:17:35	0	0	0	1.035659	-4.396224	0	3	100	0	50	0.9939373	0.8749439	22.61712	
12:17:37	0	0	0	1.113826	2.500181	0	3	100	0	50	1.004958	0.8979962	22.62651	
12:17:38	0	0	0	1.509169	14.2552	0	3	100	0	50	1.030072	0.9445705	22.64376	
12:17:40	0	0	0	1.379393	0.2352158	0	3	100	0	50	1.046929	0.9431536	22.64132	
12:17:42	0	0	0	1.342373	-0.5013977	0	3	100	0	50	1.029012	0.9322777	22.66275	
12:17:43	0	0	0	0.8549106	-21.28133	0	3	100	0	50	1.044555	0.9237363	22.64845	
12:17:45	0	0	0	0.9930062	-2.657536	0	3	100	0	50	1.043043	0.9158469	22.66812	
12:17:47	0	0	0	1.377819	12.00597	0	3	100	0	50	1.032029	0.9064466	22.6804	
12:17:48	0	0	0	1.491163	9.776248	0	3	100	0	50	0.9898897	0.9391415	22.68637	
12:17:50	0	0	0	1.3482	-1.106868	0	3	100	0	50	0.995624	0.907603	22.68572	
12:17:52	0	0	0	1.181278	-6.846661	0	3	100	0	50	1.015494	0.9535683	22.71065	
12:17:54	0	0	0	1.188413	-2.589503	0	3	100	0	50	1.032837	1.004924	22.70594	
12:17:55	0	0	0	1.417009	8.413631	0	3	100	0	50	1.024319	1.037527	22.72425	
12:17:57	0	0	0	1.506003	3.760085	0	3	100	0	50	1.05849	1.049661	22.75032	
12:17:59	0	0	0	1.384685	-4.469264	0	3	100	0	50	1.074819	0.9978951	22.70849	
12:18:00	0	0	0	1.25856	-5.587172	0	3	100	0	50	1.110321	1.017795	22.67577	
12:18:02	0	0	0	1.197448	-6.077548	0	3	100	0	50	1.102676	0.978906	22.65531	
12:18:04	0	0	0	1.261399	1.725356	0	3	100	0	50	1.073237	1.023346	22.64005	
12:18:05	0	0	0	1.219864	-2.028275	0	3	100	0	50	1.04658	1.049384	22.65016	
12:18:07	0	0	0	1.178306	-0.267695	0	3	100	0	50	1.056372	1.049615	22.68693	
12:18:09	0	0	0	1.290116	2.639906	0	3	100	0	50	1.097108	1.077023	22.69628	
12:18:10	0	0	0	1.222904	0.846052	0	3	100	0	50	1.111337	1.112156	22.72044	
12:18:12	0	0	0	1.088579	-6.966889	0	3	100	0	50	1.107574	1.110437	22.71898	
12:18:14	0	0	0	0.8465831	-9.609158	0	3	100	0	50	1.093368	1.075378	22.68851	
12:18:15	0	0	0	0.7138426	-9.305144	0	3	100	0	50	1.14166	1.021005	22.69601	
12:18:17	0	0	0	1.251106	19.07064	0	3	100	0	50	1.109998	1.00742	22.6552	
12:18:19	0	0	0	1.709721	23.82529	0	3	100	0	50	1.097827	1.080954	22.63519	
12:18:20	0	0	0	1.746325	13.80236	0	3	100	0	50	1.05284	1.070639	22.67478	
12:18:22	0	0	0	1.591822	-1.782307	0	3	100	0	50	1.054728	1.065127	22.69305	
12:18:24	0	0	0	1.431599	-8.055387	0	3	100	0	50	1.074316	1.08522	22.71644	
12:18:26	0	0	0	1.36505	-4.134887	0	3	100	0	50	1.077074	1.103833	22.71257	
12:18:27	0	0	0	1.42476	0.5889599	0	3	100	0	50	1.080309	1.093984	22.72757	
12:18:29	0	0	0	1.446461	0.892669	0	3	100	0	50	1.087227	1.09856	22.68569	
12:18:31	0	0	0	1.287904	-5.785281	0	3	100	0	50	1.076236	1.062894	22.69534	
12:18:32	0	0	0	1.104457	-6.420892	0	3	100	0	50	1.057883	1.068794	22.67972	
12:18:34	0	0	0	1.372335	6.772388	0	3	100	0	50	1.053373	1.052707	22.68108	
12:18:36	0	0	0	1.286185	-0.6419955	0	3	100	0	50	1.029624	1.020037	22.67301	
12:18:37	0	0	0	1.355883	3.449838	0	3	100	0	50	1.034711	0.9978333	22.67819	
12:18:39	0	0	0	1.167895	-5.404149	0	3	100	0	50	1.02925	0.9923601	22.67174	
12:18:41	0	0	0	1.297238	2.980566	0	3	100	0	50	1.027797	0.9921554	22.70703	
12:18:42	0	0	0	1.465446	9.86484	0	3	100	0	50	1.02074	1.031241	22.70905	
12:18:44	0	0	0	1.290643	-1.020657	0	3	100	0	50	0.9890172	1.035809	22.72935	
12:18:46	0	0	0	1.446255	5.612707	0	3	100	0	50	1.016167	1.054872	22.75366	
12:18:47	0	0	0	1.375687	0.1735246	0	3	100	0	50	1.042125	1.104656	22.77196	
12:18:49	0	0	0	1.485005	2.810904	0	3	100	0	50	1.017761	1.021009	22.77336	
12:18:51	0	0	0	1.594158	5.661608	0	3	100	0	50	0.9689083	0.9509109	22.76646	
12:18:52	0	0	0	1.590024	0.2817491	0	3	100	0	50	0.9915223	0.9477684	22.72678	
12:18:54	0	0	0	1.234588	-14.22241	0	3	100	0	50	0.9790173	0.8712583	22.69623	
12:18:56	0	0	0	1.224961	-5.876501	0	3	100	0	50	0.9764127	0.8372698	22.6847	
12:18:58	0	0	0	1.455873	7.278749	0	3	100	0	50	0.9986959	0.8725588	22.67192	
12:18:59	0	0	0	1.294145	-3.805731	0	3	100	0	50	1.003028	0.9460768	22.67683	
12:19:01	0	0	0	1.113653	-7.962059	0	3	100	0	50	0.9972438	0.9594278	22.68542	
12:19:03	0	0	0	1.331748	6.558362	0	3	100	0	50	0.9856721	0.9573309	22.70135	
12:19:04	0	0	0	1.621308	12.34945	0	3	100	0	50	0.9941972	0.941276	22.6805	
12:19:06	0	0	0	1.726972	10.35697	0	3	100	0	50	1.039806	0.9102864	22.69875	
12:19:08	0	0	0	1.474721	-6.209269	0	3	100	0	50	1.019068	0.8798921	22.68892	
12:19:09	0	0	0	1.128221	-13.18544	0	3	100	0	50	1.06136	0.9032156	22.68709	
12:19:11	0	0	0	1.293705	0.8692546	0	3	100	0	50	1.05741	0.9183074	22.69436	
12:19:13	0	0	0	1.570618	8.38785	0	3	100	0	50	1.05216	0.9679312	22.69793	
12:19:14	0	0	0	1.282593	-6.573538	0	3	100	0	50	1.051227	0.9964709	22.70495	
12:19:16	0	0	0	1.137529	-5.530113	0	3	100	0	50	1.050848	1.003782	22.69333	
12:19:18	0	0	0	1.386061	7.14552	0	3	100	0	50	1.042305	0.9941961	22.66617	
12:19:19	0	0	0	1.389454	2.555123	0	3	100	0	50	1.057241	0.9759839	22.65771	
12:19:21	0	0	0	1.262482	-3.812063	0	3	100	0	50	1.032819	0.9622429	22.63991	
12:19:23	0	0	0	1.29325	-0.6706756	0	3	100	0	50	1.016593	0.9393433	22.61853	
12:19:24	0	0	0	1.579254	11.9214	0	3	100	0	50	0.9960293	0.9364195	22.63725	
12:19:26	0	0	0	1.648124	7.728472	0	3	100	0	50	0.9934985	0.8546496	22.64586	
12:19:28	0	0	0	1.508712	-2.841666	0	3	100	0	50	1.010549	0.938991	22.61723	
12:19:30	0	0	0	1.252579	-10.17998	0	3	100	0	50	1.04014	0.9581023	22.64079	
12:19:31	0	0	0	1.461322	4.379942	0	3	100	0	50	1.065866	0.9218969	22.65734	
12:19:33	0	0	0	1.138069	-8.554696	0	3	100	0	50	1.033597	0.9364787	22.65147	
12:19:35	0	0	0	1.165897	-2.860587	0	3	100	0	50	1.005014	0.9663896	22.68535	
12:19:36	0	0	0	1.490472	11.09773	0	3	100	0	50	1.020884	1.017718	22.69209	
12:19:38	0	0	0	1.487835	3.458288	0	3	100	0	50	1.069205	1.001546	22.69071	
12:19:40	0	0	0	1.351807	-2.825975	0	3	100	0	50	1.093893	0.9741465	22.66702	
12:19:41	0	0	0	1.242024	-5.287189	0	3	100	0	50	1.071061	0.9794151	22.62598	
12:19:43	0	0	0	1.622628	12.97996	0	3	100	0	50	1.078095	0.9777581	22.601	
12:19:45	0	0	0	1.994231	17.80206	0	3	100	0	50	1.090042	1.017787	22.636	
12:19:46	0	0	0	1.916052	4.435703	0	3	100	0	50	1.106457	0.9894554	22.63116	
12:19:48	0	0	0	1.864648	0.8835887	0	3	100	0	50	1.077906	0.9673102	22.65233	
12:19:50	0	0	0	1.554314	-11.405	0	3	100	0	50	1.075091	1.008027	22.63629	
12:19:51	0	0	0	1.497473	-7.433038	0	3	100	0	50	1.062676	1.083685	22.66275	
12:19:53	0	0	0	1.363591	-7.615206	0	3	100	0	50	1.021545	1.07707	22.66029	
12:19:55	0	0	0	1.658983	8.295156	0	3	100	0	50	1.028746	1.067205	22.65149	
12:19:56	0	0	0	1.859002	9.757616	0	3	100	0	50	1.031619	1.107612	22.73263	
12:19:58	0	0	0	1.723872	-2.35615	0	3	100	0	50	1.009693	1.037416	22.7021	
12:20:00	0	0	0	1.657977	-3.151787	0	3	100	0	50	0.9901694	0.9790976	22.72497	
12:20:02	0	0	0	1.656664	-4.481446	0	3	100	0	50	1.008772	1.006251	22.753	
12:20:03	0	0	0	1.531129	-7.364158	0	3	100	0	50	1.009119	0.9780779	22.76658	
12:20:05	0	0	0	1.87913	8.413405	0	3	100	0	50	1.016199	0.984099	22.74529	
12:20:07	0	0	0	1.95685	4.118665	0	3	100	0	50	1.063826	0.9913937	22.70934	
12:20:08	0	0	0	1.802409	-4.765217	0	3	100	0	50	1.08193	1.035636	22.69706	
12:20:10	0	0	0	1.642922	-5.532078	0	3	100	0	50	1.067838	1.052793	22.6943	
12:20:12	0	0	0	1.453802	-8.438462	0	3	100	0	50	1.057255	1.030835	22.68272	
12:20:13	0	0	0	1.269624	-7.949851	0	3	100	0	50	1.057152	0.9304469	22.66124	
12:20:15	0	0	0	1.441792	4.376125	0	3	100	0	50	1.067099	0.8920916	22.66739	
12:20:17	0	0	0	1.45918	1.887189	0	3	100	0	50	1.0625	0.8928941	22.65325	
12:20:18	0	0	0	1.476277	1.833611	0	3	100	0	50	1.062208	0.9203425	22.64146	
12:20:20	0	0	0	1.297109	-2.907	0	3	100	0	50	1.078571	0.8890349	22.62655	
12:20:22	0	0	0	1.684334	12.63199	0	3	100	0	50	1.071532	0.8890896	22.63934	
12:20:23	0	0	0	1.858656	11.93167	0	3	100	0	50	1.077586	0.9225142	22.61755	
12:20:25	0	0	0	1.681997	-4.711551	0	3	100	0	50	1.057756	0.9303723	22.6095	
12:20:27	0	0	0	1.629918	-2.29388	0	3	100	0	50	1.077436	0.9418572	22.59373	
12:20:28	0	0	0	1.704823	1.504295	0	3	100	0	50	1.074404	0.9771629	22.62104	
12:20:30	0	0	0	1.869265	9.724408	0	3	100	0	50	1.070534	0.9190351	22.63608	
12:20:32	0	0	0	1.916721	4.648023	0	3	100	0	50	1.078786	0.9051021	22.61425	
12:20:34	0	0	0	1.927865	1.119735	0	3	100	0	50	1.049724	0.9106565	22.59387	
12:20:35	0	0	0	2.00439	1.895079	0	3	100	0	50	1.034727	0.9161846	22.58805	
12:20:37	0	0	0	1.737102	-8.494577	0	3	100	0	50	1.025162	0.9721653	22.63017	
12:20:39	0	0	0	1.907458	3.358284	0	3	100	0	50	1.051973	0.9610497	22.62974	
12:20:40	0	0	0	1.674224	-7.966978	0	3	100	0	50	1.059886	0.9213061	22.64969	
12:20:42	0	0	0	1.48917	-9.814191	0	3	100	0	50	1.084475	0.944887	22.63232	
12:20:44	0	0	0	1.10157	-19.34595	0	3	100	0	50	1.10014	0.9799034	22.60376	
12:20:45	0	0	0	1.521422	8.381946	0	3	100	0	50	1.062413	0.9321901	22.625	
12:20:47	0	0	0	1.370473	-2.618278	0	3	100	0	50	1.062498	0.9927426	22.69753	
12:20:49	0	0	0	1.256544	-6.286112	0	3	100	0	50	1.067378	1.033836	22.6994	
12:20:50	0	0	0	1.546528	8.194837	0	3	100	0	50	1.078589	1.054011	22.6914	
12:20:52	0	0	0	1.511493	3.957907	0	3	100	0	50	1.049989	1.060184	22.74933	
12:20:54	0	0	0	1.774495	13.36526	0	3	100	0	50	1.057008	0.9876683	22.72468	
12:20:55	0	0	0	1.8296	6.160708	0	3	100	0	50	1.067721	1.003909	22.72466	
12:20:57	0	0	0	1.731147	-1.617427	0	3	100	0	50	1.075734	1.011144	22.72106	
12:20:59	0	0	0	1.617243	-3.220121	0	3	100	0	50	1.060025	1.065268	22.74043	
12:21:00	0	0	0	1.435506	-9.560639	0	3	100	0	50	1.052602	0.977129	22.75062	
12:21:02	0	0	0	1.55396	-0.04185278	0	3	100	0	50	1.046584	0.9575737	22.72542	
12:21:04	0	0	0	1.653287	5.127465	0	3	100	0	50	1.051347	0.918848	22.72568	
12:21:06	0	0	0	1.820275	7.765854	0	3	100	0	50	1.053199	1.000036	22.72296	
12:21:07	0	0	0	1.687019	-0.129149	0	3	100	0	50	1.024186	1.082624	22.72169	
12:21:09	0	0	0	1.573528	-4.852734	0	3	100	0	50	1.028804	1.04442	22.75858	
12:21:11	0	0	0	1.46558	-3.701638	0	3	100	0	50	1.057804	1.005212	22.74843	
12:21:12	0	0	0	1.289809	-7.501707	0	3	100	0	50	1.054941	0.9701803	22.73079	
12:21:14	0	0	0	1.214406	-7.118701	0	3	100	0	50	1.043287	1.03438	22.73581	
12:21:16	0	0	0	1.395182	3.336111	0	3	100	0	50	1.074137	1.049997	22.7441	
12:21:17	0	0	0	1.483004	2.840329	0	3	100	0	50	1.071808	1.024707	22.71191	
12:21:19	0	0	0	1.408302	-0.6354486	0	3	100	0	50	1.055473	0.9983225	22.68018	
12:21:21	0	0	0	1.722306	9.430708	0	3	100	0	50	1.035922	0.932666	22.66055	
12:21:22	0	0	0	1.560923	-0.5556052	0	3	100	0	50	1.044852	0.9814332	22.67328	
12:21:24	0	0	0	1.511795	-0.4317476	0	3	100	0	50	1.023147	0.9765773	22.69315	
12:21:26	0	0	0	1.437857	-2.850468	0	3	100	0	50	1.003127	1.031999	22.73027	
12:21:27	0	0	0	1.472839	1.209245	0	3	100	0	50	1.04101	1.025615	22.75538	
12:21:29	0	0	0	1.468141	2.293334	0	3	100	0	50	1.062784	1.071498	22.75243	
12:21:31	0	0	0	1.381401	-2.17907	0	3	100	0	50	1.057799	1.086442	22.76171	
12:21:32	0	0	0	0.9558488	-16.83993	0	3	100	0	50	1.021692	1.127905	22.77662	
12:21:34	0	0	0	0.7545651	-14.57957	0	3	100	0	50	1.012511	1.09862	22.77306	
12:21:36	0	0	0	1.164128	8.334135	0	3	100	0	50	1.028607	1.130247	22.80828	
12:21:38	0	0	0	1.295706	9.325844	0	3	100	0	50	1.057671	1.045724	22.79913	
12:21:39	0	0	0	1.396177	7.470968	0	3	100	0	50	1.054671	1.077153	22.7724	
12:21:41	0	0	0	1.594906	11.49634	0	3	100	0	50	1.047063	1.058042	22.7801	
12:21:43	0	0	0	1.1185	-13.8522	0	3	100	0	50	1.043419	1.098248	22.80808	
12:21:44	0	0	0	1.699099	17.89616	0	3	100	0	50	1.054314	1.062469	22.7895	
12:21:46	0	0	0	1.856734	14.55814	0	3	100	0	50	1.105373	1.150962	22.78164	
12:21:48	0	0	0	1.643543	-2.541059	0	3	100	0	50	1.097512	1.139396	22.78456	
12:21:49	0	0	0	1.693004	2.434105	0	3	100	0	50	1.100767	1.146924	22.76167	
12:21:51	0	0	0	1.551171	-4.566177	0	3	100	0	50	1.088138	1.091767	22.77522	
12:21:53	0	0	0	1.362639	-9.701727	0	3	100	0	50	1.102943	1.086187	22.74647	
12:21:54	0	0	0	1.458866	1.886694	0	3	100	0	50	1.096708	1.074502	22.74403	
12:21:56	0	0	0	1.471878	0.05032273	0	3	100	0	50	1.085677	1.099856	22.74856	
12:21:58	0	0	0	1.526103	0.1205669	0	3	100	0	50	1.043783	1.056961	22.71101	
12:21:59	0	0	0	1.705693	4.251008	0	3	100	0	50	1.04242	0.9417072	22.69851	
12:22:01	0	0	0	1.741641	3.376728	0	3	100	0	50	1.021484	0.9198914	22.6768	
12:22:03	0	0	0	1.708543	0.1756013	0	3	100	0	50	1.01931	0.929761	22.6788	
12:22:04	0	0	0	1.520968	-5.586464	0	3	100	0	50	0.9713041	0.9272382	22.66115	
12:22:06	0	0	0	1.497173	-4.744575	0	3	100	0	50	1.005259	0.9588693	22.66623	
12:22:08	0	0	0	1.279246	-10.73542	0	3	100	0	50	1.00319	0.9548905	22.6836	
12:22:10	0	0	0	1.357232	-0.9370271	0	3	100	0	50	1.03349	0.9777586	22.70911	
12:22:11	0	0	0	1.417903	1.653928	0	3	100	0	50	1.0602	0.9490661	22.69353	
12:22:13	0	0	0	1.419334	-0.4249372	0	3	100	0	50	1.07162	0.9549274	22.69127	
12:22:15	0	0	0	1.350877	-0.5379548	0	3	100	0	50	1.042346	0.9609997	22.70341	
12:22:16	0	0	0	1.593773	9.257072	0	3	100	0	50	1.079986	0.9892042	22.70366	
12:22:18	0	0	0	1.697872	5.726014	0	3	100	0	50	1.062319	0.9988347	22.68727	
12:22:20	0	0	0	1.604695	-1.064317	0	3	100	0	50	1.079835	0.9470251	22.68253	
12:22:21	0	0	0	1.59944	2.248136	0	3	100	0	50	1.075893	1.021528	22.67924	
12:22:23	0	0	0	1.652448	0.9237678	0	3	100	0	50	1.035208	0.9595188	22.66974	
12:22:25	0	0	0	1.519748	-4.399737	0	3	100	0	50	1.034575	0.9981021	22.6517	
12:22:26	0	0	0	1.648425	2.125201	0	3	100	0	50	1.05026	1.017335	22.68672	
12:22:28	0	0	0	1.825186	5.998614	0	3	100	0	50	1.059783	0.9707423	22.69435	
12:22:30	0	0	0	1.823839	4.564412	0	3	100	0	50	1.037558	0.9850383	22.6875	
12:22:31	0	0	0	2.007378	8.377493	0	3	100	0	50	1.029092	0.9692014	22.68722	
12:22:33	0	0	0	1.761802	-8.145538	0	3	100	0	50	0.9980364	0.9814646	22.71581	
12:22:35	0	0	0	1.792147	-1.170788	0	3	100	0	50	1.005254	0.9709763	22.69337	
12:22:36	0	0	0	1.685066	-3.935333	0	3	100	0	50	0.9886056	0.9738765	22.69939	
12:22:38	0	0	0	1.593197	-4.614235	0	3	100	0	50	0.9974368	0.957144	22.71564	
12:22:40	0	0	0	1.751602	3.063003	0	3	100	0	50	1.011201	0.9773409	22.68916	
12:22:42	0	0	0	1.756545	1.475588	0	3	100	0	50	1.005298	0.9694049	22.72506	
12:22:43	0	0	0	1.725548	-0.2806336	0	3	100	0	50	1.017146	0.933719	22.6956	
12:22:45	0	0	0	1.676864	-1.588477	0	3	100	0	50	1.0286	0.9396033	22.69314	
12:22:47	0	0	0	1.865472	5.689441	0	3	100	0	50	1.051994	1.0127	22.69818	
12:22:48	0	0	0	1.858781	2.787135	0	3	100	0	50	1.083651	1.039259	22.68645	
12:22:50	0	0	0	1.689263	-4.084019	0	3	100	0	50	1.104791	1.058869	22.67731	
12:22:52	0	0	0	1.707426	-2.971729	0	3	100	0	50	1.072962	0.9867094	22.6316	
12:22:53	0	0	0	1.776161	1.484222	0	3	100	0	50	1.085569	0.949519	22.62658	
12:22:55	0	0	0	1.778706	-1.531842	0	3	100	0	50	1.067196	1.006564	22.6151	
12:22:57	0	0	0	1.146866	-25.01229	0	3	100	0	50	1.086562	0.9941438	22.59678	
12:22:58	0	0	0	1.02492	-16.46933	0	3	100	0	50	1.080906	1.018825	22.63908	
12:23:00	0	0	0	1.140013	-0.9365467	0	3	100	0	50	1.068189	1.040739	22.66828	
12:23:02	0	0	0	1.592789	16.23808	0	3	100	0	50	1.061614	1.031998	22.68576	
12:23:03	0	0	0	1.652155	11.97221	0	3	100	0	50	1.073182	1.048814	22.6942	
12:23:05	0	0	0	1.985685	16.05565	0	3	100	0	50	1.022279	0.9865253	22.65788	
12:23:07	0	0	0	2.031553	8.08996	0	3	100	0	50	1.011562	0.9716892	22.69396	
12:23:08	0	0	0	2.083999	4.597973	0	3	100	0	50	0.9724842	1.021522	22.72846	
12:23:10	0	0	0	1.950851	-5.771109	0	3	100	0	50	0.986797	0.988049	22.74795	
12:23:12	0	0	0	1.863622	-5.790134	0	3	100	0	50	1.007475	0.9406539	22.73553	
12:23:14	0	0	0	1.803518	-5.022433	0	3	100	0	50	1.011832	0.9396506	22.73821	
12:23:15	0	0	0	1.9565	7.531797	0	3	100	0	50	0.9957148	0.9690115	22.77997	
12:23:17	0	0	0	2.127171	6.848906	0	3	100	0	50	1.062095	1.036867	22.83639	
12:23:19	0	0	0	2.010416	-1.714258	0	3	100	0	50	1.076095	1.047622	22.84128	
12:23:20	0	0	0	1.987145	0.2692696	0	3	100	0	50	1.093613	1.004592	22.7892	
12:23:22	0	0	0	2.052839	1.388935	0	3	100	0	50	1.102035	1.07469	22.73888	
12:23:24	0	0	0	1.902253	-3.892641	0	3	100	0	50	1.090151	1.078268	22.74504	
12:23:25	0	0	0	2.055031	1.519855	0	3	100	0	50	1.099145	1.098275	22.76535	
12:23:27	0	0	0	2.0801	1.286053	0	3	100	0	50	1.138852	1.166952	22.78447	
12:23:29	0	0	0	2.259864	5.844654	0	3	100	0	50	1.126773	1.221446	22.74897	
12:23:30	0	0	0	2.031722	-5.650489	0	3	100	0	50	1.107403	1.242464	22.81076	
12:23:32	0	0	0	2.200299	3.457504	0	3	100	0	50	1.12694	1.184567	22.78096	
12:23:34	0	0	0	2.293817	5.240845	0	3	100	0	50	1.11493	1.256741	22.80151	
12:23:35	0	0	0	2.451264	7.589666	0	3	100	0	50	1.090414	1.191185	22.77195	
12:23:37	0	0	0	2.374252	2.21994	0	3	100	0	50	1.096509	1.157223	22.74226	
12:23:39	0	0	0	2.739665	13.3866	0	3	100	0	50	1.111069	1.241982	22.76382	
12:23:40	0	0	0	2.294033	-11.29213	0	3	100	0	50	1.102956	1.197635	22.74833	
12:23:42	0	0	0	2.439436	2.009892	0	3	100	0	50	1.123466	1.11118	22.69747	
12:23:44	0	0	0	2.484832	3.96166	0	3	100	0	50	1.08353	1.072072	22.69164	
12:23:46	0	0	0	2.071179	-12.50635	0	3	100	0	50	1.059408	1.066324	22.68406	
12:23:47	0	0	0	2.170283	-0.8194173	0	3	100	0	50	1.04744	1.05664	22.70451	
12:23:49	0	0	0	2.245527	0.2855288	0	3	100	0	50	1.07935	1.058598	22.66402	
12:23:51	0	0	0	2.120413	-2.820937	0	3	100	0	50	1.048169	1.011903	22.63178	
12:23:52	0	0	0	1.774217	-13.63526	0	3	100	0	50	1.10213	1.005475	22.63578	
12:23:54	0	0	0	2.188266	10.04222	0	3	100	0	50	1.077507	0.98442	22.63806	
12:23:56	0	0	0	2.32014	5.673391	0	3	100	0	50	1.128366	1.006721	22.66255	
12:23:57	0	0	0	2.150285	-7.122041	0	3	100	0	50	1.127691	0.959804	22.63061	
12:23:59	0	0	0	1.968107	-9.273388	0	3	100	0	50	1.113159	0.906377	22.62771	
12:24:01	0	0	0	2.228282	6.400395	0	3	100	0	50	1.110766	0.9405528	22.59153	
12:24:02	0	0	0	2.502411	14.3775	0	3	100	0	50	1.090535	0.9484406	22.59616	
12:24:04	0	0	0	2.298999	-4.887752	0	3	100	0	50	1.045546	0.9668465	22.58713	
12:24:06	0	0	0	1.965735	-13.95046	0	3	100	0	50	1.023043	0.9525955	22.57891	
12:24:07	0	0	0	2.037828	-1.9535	0	3	100	0	50	1.016194	0.9212185	22.59272	
12:24:09	0	0	0	2.005709	-4.856936	0	3	100	0	50	1.035071	0.9293145	22.63869	
12:24:11	0	0	0	2.066305	1.62255	0	3	100	0	50	1.022591	0.9914687	22.63623	
12:24:12	0	0	0	2.377959	11.26393	0	3	100	0	50	1.039539	1.022554	22.64027	
12:24:14	0	0	0	2.408862	5.428133	0	3	100	0	50	1.026088	1.010451	22.66226	
12:24:16	0	0	0	2.199717	-6.137469	0	3	100	0	50	1.040742	0.9783558	22.65841	
12:24:18	0	0	0	2.313886	2.486233	0	3	100	0	50	1.008051	0.8524329	22.66123	
12:24:19	0	0	0	2.157302	-8.864408	0	3	100	0	50	0.9880121	0.9427436	22.69474	
12:24:21	0	0	0	1.85712	-10.84927	0	3	100	0	50	1.0239	0.9537966	22.74525	
12:24:23	0	0	0	2.023553	0.7549055	0	3	100	0	50	1.026596	0.9581207	22.72702	
12:24:24	0	0	0	2.297482	10.25429	0	3	100	0	50	1.008541	0.9863757	22.71938	
