Date	Latitude(deg) 	Longitude(deg)	hamsl(m)	hafl(m)	climbrate(cm/s)	GroundSpeed(m/s)	Airspeed(m/s)	Mav_Link(%)	Rssi_Link(%)	Throttle	Roll(deg)	Pitch(deg)	Yaw(deg)
09:58:29	0	0	0	0.05103186	-1.814934	0	3	57	0	4	1.043881	0.6871481	25.9646	
09:58:31	0	0	0	1.46695	34.42067	0	3	67	0	4	1.014558	0.6444882	26.10734	
09:58:32	0	0	0	0.8345631	-16.94764	0	3	74	0	4	1.035232	0.5966728	26.17685	
09:58:34	0	0	0	0.4192054	-30.24038	0	3	78	0	4	1.006992	0.5605723	26.2468	
09:58:36	47.46362	-122.3077	0.02	-0.1161914	-33.02089	0	3	82	0	4	0.9004012	0.464934	33.05418	
09:58:37	47.46362	-122.3077	0.02	-0.1795125	-13.87266	0	3	84	0	4	0.6532	0.361271	41.18568	
09:58:39	47.46362	-122.3077	0.02	-0.04724528	0.4676992	0	3	86	0	4	0.500226	0.260272	55.17577	
09:58:41	47.46362	-122.3077	0.02	0.03252026	3.281358	0	3	88	0	4	0.3725174	0.2152333	73.65	
09:58:43	47.46362	-122.3077	0.02	0.03723673	0.8777337	0	3	89	0	4	0.2732076	0.0849397	94.37168	
09:58:44	47.46362	-122.3077	0.02	0.01906962	-1.054737	0	3	91	0	4	0.1622938	-0.005971356	116.2012	
09:58:46	47.46362	-122.3077	0.02	0.008605532	-1.418841	0	3	92	0	4	0.04922243	-0.03242676	138.4643	
09:58:48	47.46362	-122.3077	0.02	0.007412256	-1.183764	0	3	92	0	4	-0.03007413	-0.02762759	156.2953	
09:58:49	47.46362	-122.3077	0.02	0.00949914	-0.9138836	0	3	93	0	4	-0.08183365	-0.01211458	170.6097	
09:58:51	47.46362	-122.3077	0.02	0.01080075	-0.8276855	0	3	94	0	4	-0.1162483	0.00559405	-177.0053	
09:58:53	47.46362	-122.3077	0.02	0.01236176	-0.681946	0	3	94	0	4	-0.1390448	0.01395146	-168.0431	
09:58:54	47.46362	-122.3077	0.02	0.01290061	-0.655928	0	3	95	0	4	-0.1528479	0.01846097	-161.547	
09:58:56	47.46362	-122.3077	0.02	0.01392955	-0.5467471	0	3	95	0	4	-0.1574608	0.01812309	-156.8411	
09:58:58	47.46362	-122.3077	0.02	0.014711	-0.5875457	0	3	96	0	4	-0.159683	0.01441568	-153.3781	
09:58:59	47.46362	-122.3077	0.02	0.01459415	-0.5154056	0	3	96	0	4	-0.1602135	0.008823183	-151.2082	
09:59:01	47.46362	-122.3077	0.02	0.0147415	-0.4821795	0	3	96	0	5	-0.1469608	-0.004083399	-150.6044	
09:59:03	47.46362	-122.3077	0.02	0.01535007	-0.4271602	0	3	97	0	4	-0.1425442	-0.007839642	-150.1576	
09:59:04	47.46362	-122.3077	0.02	0.01639193	-0.2942816	0	3	97	0	4	-0.1362766	-0.01475454	-150.3382	
09:59:06	47.46362	-122.3077	0.02	0.01780322	-0.1160258	0	3	97	0	4	-0.1250943	-0.02070843	-151.7564	
09:59:08	47.46362	-122.3077	0.02	0.01847454	-0.1551201	0	3	97	0	4	-0.117135	-0.02290362	-152.801	
09:59:10	47.46362	-122.3077	0.02	0.01825667	-0.1882587	0	3	97	0	4	-0.1089408	-0.02549721	-154.1199	
09:59:11	47.46362	-122.3077	0.02	0.01813553	-0.1862491	0	3	98	0	4	-0.09633261	-0.02721371	-156.2722	
09:59:13	47.46362	-122.3077	0.02	0.01536393	-0.8204167	0	3	98	0	4	-0.06194612	-0.02800349	-157.8555	
09:59:15	47.46362	-122.3077	0.02	0.01414852	-0.3110511	0	3	98	0	4	-0.0499531	-0.02478878	-159.3628	
09:59:16	47.46362	-122.3077	0.02	0.01571709	-0.274478	0	3	98	0	4	-0.05785048	-0.02185047	-161.5314	
09:59:18	47.46362	-122.3077	0.02	0.01759518	-0.1924219	0	3	98	0	4	-0.06334363	-0.01246652	-163.1377	
09:59:20	47.46362	-122.3077	0.02	0.01691527	-0.32431	0	3	98	0	4	-0.05715885	-0.01974385	-164.4696	
09:59:21	47.46362	-122.3077	0.02	0.01424141	-0.7980527	0	3	98	0	4	-0.05565482	-0.02141644	-166.2853	
09:59:23	47.46362	-122.3077	0.02	0.01526584	-0.3115649	0	3	98	0	4	-0.05276388	-0.01443977	-167.6037	
09:59:25	47.46362	-122.3077	0.02	0.01715087	-0.1128753	0	3	99	0	4	-0.0542651	-0.01059302	-168.6644	
09:59:26	47.46362	-122.3077	0.02	0.02204826	0.6519211	0	3	99	0	4	-0.03240599	-0.01286265	-169.9911	
09:59:28	47.46362	-122.3077	0.02	0.02134921	-0.06752263	0	3	99	0	4	-0.02287099	-0.01099809	-170.9592	
09:59:30	47.46362	-122.3077	0.02	0.0182701	-0.2796271	0	3	99	0	4	-0.02572108	-0.00291773	-171.6741	
09:59:31	47.46362	-122.3077	0.02	0.01808745	-0.1448707	0	3	99	0	4	-0.02391475	0.01153881	-172.5904	
09:59:33	47.46362	-122.3077	0.02	0.01874921	-0.00507736	0	3	99	0	4	-0.02169486	0.004476652	-173.2485	
09:59:35	47.46362	-122.3077	0.02	0.01749802	-0.3513575	0	3	99	0	4	-0.02267209	0.007050462	-173.733	
09:59:37	47.46362	-122.3077	0.02	0.01815719	-0.03533674	0	3	99	0	4	-0.01905592	0.001114285	-174.2984	
09:59:38	47.46362	-122.3077	0.02	0.02053322	0.132206	0	3	99	0	4	-0.02312052	0.002520842	-174.7026	
09:59:40	47.46362	-122.3077	0.02	0.01875721	-0.4450709	0	3	99	0	4	-0.0352365	-0.002823543	-174.9974	
09:59:42	47.46362	-122.3077	0.02	0.01360982	-0.5288366	0	3	99	0	4	-0.030168	-0.00418888	-175.3015	
09:59:43	47.46362	-122.3077	0.02	0.01746773	0.02804168	0	3	99	0	4	-0.02279146	-0.006280899	-175.5257	
09:59:45	47.46362	-122.3077	0.02	0.02051371	0.3485219	0	3	99	0	4	-0.02599749	0.004254912	-175.6918	
09:59:47	47.46362	-122.3077	0.02	0.02273258	0.2867511	0	3	99	0	4	-0.01610786	0.001116246	-175.8385	
09:59:48	47.46362	-122.3077	0.02	0.02072749	-0.4283812	0	3	99	0	4	-0.01018368	-0.003291452	-175.9495	
09:59:50	47.46362	-122.3077	0.02	0.02234773	0.6207644	0	3	99	0	4	-0.01314551	0.001686767	-176.0352	
09:59:52	47.46362	-122.3077	0.02	0.02340083	0.1609963	0	3	99	0	4	0.0004547162	-0.002920031	-176.0924	
09:59:53	47.46362	-122.3077	0.02	0.02232348	0.1661722	0	3	99	0	4	0.003755954	-0.007298098	-176.1349	
09:59:55	47.46362	-122.3077	0.02	0.02160424	0.1601413	0	3	99	0	4	0.003731393	-0.009807736	-176.1658	
09:59:57	47.46362	-122.3077	0.02	0.02128869	0.1379372	0	3	99	0	4	0.002112128	-0.007614813	-176.1703	
09:59:58	47.46362	-122.3077	0.02	0.02167622	0.1898242	0	3	99	0	4	-0.1399542	0.05252126	-176.218	
10:00:00	47.46362	-122.3077	0.02	0.02138788	0.0735357	0	3	99	0	4	-0.18416	0.08063561	-176.2052	
10:00:02	47.46362	-122.3077	0.02	0.02084199	0.09189551	0	3	99	0	4	-0.1027137	0.05298616	-176.1639	
10:00:04	47.46362	-122.3077	0.02	0.02059317	0.08420718	0	3	99	0	4	-0.09229749	0.06640179	-176.1616	
10:00:05	47.46362	-122.3077	0.02	0.02413786	0.5242519	0	3	99	0	4	-0.07532941	0.04340495	-176.1284	
10:00:07	47.46362	-122.3077	0.02	0.02353657	0.1875612	0	3	99	0	4	-0.009276218	0.01846815	-176.1094	
10:00:09	47.46362	-122.3077	0.02	0.02134642	0.05117892	0	3	99	0	4	0.01001409	-0.0108719	-176.0876	
10:00:10	47.46362	-122.3077	0.02	0.02044067	-0.04079755	0	3	99	0	4	0.02379813	-0.0207768	-176.0872	
10:00:12	47.46362	-122.3077	0.02	0.01317606	-2.483774	0	3	99	0	5	0.009927441	-0.03109956	-176.0784	
10:00:14	47.46362	-122.3077	0.02	-0.003137374	-1.891539	0	3	99	0	4	0.009394349	-0.03419088	-176.062	
10:00:15	47.46362	-122.3077	0.02	0.01074301	-0.02679446	0	3	99	0	4	0.0187547	-0.02771925	-176.0418	
10:00:17	47.46362	-122.3077	0.02	0.01878258	0.5001528	0	3	99	0	4	0.02862646	-0.02919368	-176.046	
10:00:19	47.46362	-122.3077	0.02	0.02381629	0.668834	0	3	99	0	4	0.01687425	-0.01890018	-176.0449	
10:00:20	47.46362	-122.3077	0.02	0.02398621	0.6701211	0	3	99	0	4	-0.00520425	-0.00296537	-176.0516	
10:00:22	47.46362	-122.3077	0.02	0.02984282	1.304889	0	3	99	0	4	0.03244013	-0.01862721	-176.021	
10:00:24	47.46362	-122.3077	0.02	0.02860934	0.610364	0	3	99	0	4	0.04168199	-0.02400034	-176.0016	
10:00:25	47.46362	-122.3077	0.02	0.02480261	0.1710609	0	3	99	0	4	0.04865066	-0.03320957	-175.9937	
10:00:27	47.46362	-122.3077	0.02	0.0209703	0.001301484	0	3	99	0	4	0.04145065	-0.02696537	-175.9789	
10:00:29	47.46362	-122.3077	0.02	0.02076814	0.1138881	0	3	99	0	4	0.04179686	-0.03830501	-175.9706	
10:00:30	47.46362	-122.3077	0.02	0.02065819	0.1484571	0	3	99	0	4	0.03982231	-0.02840411	-175.9527	
10:00:32	47.46362	-122.3077	0.02	0.02062216	0.01690668	0	3	99	0	5	0.03493243	-0.02370897	-175.9404	
10:00:34	47.46362	-122.3077	0.02	0.01991559	-0.09691045	0	3	99	0	4	0.02981276	-0.02299524	-175.9277	
10:00:36	47.46362	-122.3077	0.02	0.01918859	-0.03906912	0	3	99	0	4	0.0245123	-0.0195831	-175.9129	
10:00:37	47.46362	-122.3077	0.02	0.02089905	0.1462144	0	3	99	0	4	0.02389118	-0.02208623	-175.9014	
10:00:39	47.46362	-122.3077	0.02	0.0239419	0.4447555	0	3	99	0	4	0.01597924	-0.01438866	-175.8903	
10:00:41	47.46362	-122.3077	0.02	0.02230451	0.05630389	0	3	99	0	4	0.01709932	-0.008314093	-175.8825	
10:00:42	47.46362	-122.3077	0.02	0.02058362	0.04764998	0	3	99	0	4	0.009462668	0.002350797	-175.875	
10:00:44	47.46362	-122.3077	0.02	0.01753704	-0.2731479	0	3	99	0	4	0.01718315	0.006664008	-175.8711	
10:00:46	47.46362	-122.3077	0.02	0.01702111	-0.2103402	0	3	99	0	4	0.01359956	0.005626896	-175.8679	
10:00:47	47.46362	-122.3077	0.02	0.01807869	-0.1624358	0	3	99	0	4	0.01855726	0.001484279	-175.866	
10:00:49	47.46362	-122.3077	0.02	0.01884494	-0.1202412	0	3	99	0	4	0.01600307	0.009878945	-175.8655	
10:00:51	47.46362	-122.3077	0.02	0.01764802	-0.3258259	0	3	99	0	4	0.01226369	0.009318798	-175.865	
10:00:52	47.46362	-122.3077	0.02	0.01825104	0.07108857	0	3	99	0	4	-0.0005927699	0.01086478	-175.863	
10:00:54	47.46362	-122.3077	0.02	0.0226924	0.55411	0	3	99	0	4	-0.001163746	0.006907477	-175.8554	
10:00:56	47.46362	-122.3077	0.02	0.02356464	0.3328271	0	3	99	0	4	-0.01464782	0.009292056	-175.8429	
10:00:57	47.46362	-122.3077	0.02	0.02011182	-1.114863	0	3	99	0	33	-0.02853444	0.08200685	-175.8365	
10:00:59	47.46362	-122.3077	0.02	-0.02419391	-5.944908	0	3	99	0	4	0.02451744	0.05520356	-175.8376	
10:01:01	47.46362	-122.3077	0.02	-0.02081643	-2.797661	0	3	99	0	4	0.007995741	-0.04502561	-175.8316	
10:01:03	47.46362	-122.3077	0.02	0.00404798	-0.4167309	0	3	99	0	4	0.002993617	-0.05186134	-175.8221	
10:01:04	47.46362	-122.3077	0.02	0.02059806	0.7448226	0	3	99	0	4	0.003578783	-0.04135028	-175.8167	
10:01:06	47.46362	-122.3077	0.02	0.02681118	0.9300172	0	3	99	0	4	0.003785112	-0.03602622	-175.8137	
10:01:08	47.46362	-122.3077	0.02	0.02843994	0.8185731	0	3	99	0	4	0.002703888	-0.020018	-175.8129	
10:01:09	47.46362	-122.3077	0.02	0.02630985	0.6135284	0	3	99	0	4	0.001172717	-0.02024658	-175.8136	
10:01:11	47.46362	-122.3077	0.02	0.02662168	0.7207465	0	3	99	0	4	0.0008873464	-0.0127766	-175.8154	
10:01:13	47.46362	-122.3077	0.02	0.02734178	0.6167599	0	3	99	0	4	3.17099E-05	-0.01243658	-175.8164	
10:01:14	47.46362	-122.3077	0.02	0.02473299	0.421147	0	3	99	0	4	-0.003468916	-0.004560171	-175.8179	
10:01:16	47.46362	-122.3077	0.02	0.02216942	-0.03382077	0	3	99	0	4	-0.0009132222	-0.0009587172	-175.8206	
10:01:18	47.46362	-122.3077	0.02	0.02080996	0.09348923	0	3	99	0	4	-0.0006724089	0.001713967	-175.8231	
10:01:19	47.46362	-122.3077	0.02	0.02234191	0.3757052	0	3	99	0	4	0.0008170268	0.0007737192	-175.8256	
10:01:21	47.46362	-122.3077	0.02	0.0243693	0.4743647	0	3	99	0	4	0.001066349	0.0008092299	-175.8291	
10:01:23	47.46362	-122.3077	0.02	0.02389456	0.4486079	0	3	99	0	4	0.0009854778	0.001159791	-175.8316	
10:01:24	47.46362	-122.3077	0.02	0.02385549	0.3756013	0	3	99	0	4	0.002201986	0.003429273	-175.8335	
10:01:26	47.46362	-122.3077	0.02	0.02231684	0.08846344	0	3	99	0	4	0.001058353	0.0004928706	-175.8355	
10:01:28	47.46362	-122.3077	0.02	0.02214431	0.1750766	0	3	99	0	4	-0.001174286	0.0002432029	-175.837	
10:01:30	47.46362	-122.3077	0.02	0.02051534	0.03838295	0	3	99	0	4	0.0001673134	0.000725539	-175.8383	
10:01:31	47.46362	-122.3077	0.02	0.02251182	0.3787274	0	3	99	0	4	3.968721E-05	-0.003634816	-175.8404	
10:01:33	47.46362	-122.3077	0.02	0.02338502	0.3227611	0	3	99	0	5	0.0009629542	-0.004596773	-175.8423	
10:01:35	47.46362	-122.3077	0.02	0.02035467	-0.01162435	0	3	99	0	4	-0.0051341	0.001045637	-175.8426	
10:01:36	47.46362	-122.3077	0.02	0.01895175	-0.09559735	0	3	99	0	4	0.001386966	0.004373127	-175.846	
10:01:38	47.46362	-122.3077	0.02	0.01668541	-0.4588533	0	3	99	0	4	0.002514001	0.002399008	-175.8484	
10:01:40	47.46362	-122.3077	0.02	0.01265837	-0.5504119	0	3	99	0	4	-0.005437377	-0.001318712	-175.8506	
10:01:42	47.46362	-122.3077	0.02	0.02041345	0.6536154	0	3	99	0	4	-0.01771222	-0.0003975817	-175.8582	
10:01:43	47.46362	-122.3077	0.02	0.02617552	0.7352077	0	3	99	0	4	-0.01211531	0.002956188	-175.8646	
10:01:45	47.46362	-122.3077	0.02	0.02133921	-1.053114	0.5	3	99	0	100	0.25773	0.8773835	-179.2432	
10:01:47	47.46354	-122.3077	0.037	0.03974337	3.910334	10.99	9.942082	99	0	100	0.4692078	5.205361	171.1008	
10:01:48	47.46333	-122.3077	2.081	2.352496	242.1678	16.47	16.47216	99	0	100	8.411148	10.87671	176.3663	
10:01:50	47.46304	-122.3077	8.047	7.611509	379.5941	20.29	20.29042	99	0	100	7.881766	11.81308	-174.2103	
10:01:52	47.4627	-122.3077	15.684	14.83543	428.0715	22.77	22.47657	99	0	100	-1.078961	11.28235	-169.8493	
10:01:53	47.46234	-122.3078	23.32	22.46142	428.9781	24.78	24.42998	99	0	100	-8.475016	10.0213	-171.679	
10:01:55	47.46199	-122.3078	29.718	29.65816	418.2221	26.14	26.1453	99	0	100	-8.062795	9.366954	-175.8598	
10:01:57	47.46153	-122.3079	37.203	36.12842	377.5487	27.37	27.24106	99	0	100	-5.781993	8.328876	-179.0501	
10:01:58	47.46114	-122.3078	43.022	42.59054	225.1308	27.82	27.82424	99	0	65	18.48874	4.120203	-178.9215	
10:02:00	47.46072	-122.3079	45.196	45.45414	373.3285	27.64	27.26763	99	0	105	41.21819	8.199644	-145.7772	
10:02:02	47.46045	-122.3083	54.186	55.06183	787.4373	26.38	26.50173	99	0	96	1.73886	17.36291	-122.9523	
10:02:03	47.4602	-122.3089	68.027	66.33361	558.7258	25.9	25.76615	99	0	89	-12.90527	12.858	-128.9028	
10:02:05	47.45999	-122.3092	75.412	75.54646	441.4309	25.75	25.61223	99	0	81	-4.166673	9.560224	-134.4713	
10:02:07	47.45973	-122.3096	82.457	82.47348	404.8201	25.57	25.46103	99	0	81	-0.5008711	8.836596	-137.1259	
10:02:09	47.45945	-122.31	89.623	89.44681	395.0341	25.52	25.38302	99	0	79	0.9499154	8.274028	-137.2161	
10:02:10	47.45914	-122.3105	97.345	96.11175	374.868	25.49	25.35776	99	0	78	0.3172674	7.620081	-136.6621	
10:02:12	47.45891	-122.3109	102.602	102.0133	226.9729	25.41	25.33965	99	0	50	0.02534736	3.263879	-135.9848	
10:02:14	47.45867	-122.3112	102.381	101.7525	-274.7258	24.77	23.7057	99	0	35	0.3477871	-9.006657	-134.8215	
10:02:15	47.4584	-122.3117	95.733	96.33511	-289.2429	25.3	24.2347	99	0	41	-1.060102	-8.486682	-134.075	
10:02:17	47.45812	-122.3122	91.415	92.12031	-89.58296	25.97	24.90013	99	0	49	-1.894666	-3.008049	-134.3409	
10:02:19	47.45791	-122.3125	91.073	91.25858	36.02995	25.85	24.77977	99	0	53	-1.607194	0.2136231	-134.5929	
10:02:20	47.4576	-122.313	92.699	92.43248	71.99961	25.39	24.32454	99	0	53	-1.078922	0.7227612	-134.3202	
10:02:22	47.45736	-122.3133	94.004	93.94702	67.23434	25.13	24.06478	99	0	52	-1.2279	0.1615148	-133.8058	
10:02:24	47.45706	-122.3138	96.039	95.5893	66.68146	24.92	23.86849	99	0	50	-1.209584	-0.5951808	-133.4037	
10:02:25	47.4568	-122.3143	96.868	96.84102	48.82581	24.88	23.80626	99	0	49	-1.211983	-1.562668	-133.0551	
10:02:27	47.45657	-122.3146	97.337	97.48928	42.67035	24.9	23.83566	99	0	48	-1.454601	-1.771301	-132.755	
10:02:29	47.45631	-122.315	97.602	97.79038	33.63088	24.91	23.84244	99	0	48	-1.479285	-1.691293	-132.5896	
10:02:31	47.45604	-122.3155	98.15	98.14075	34.19444	24.91	23.84131	99	0	48	-1.387732	-1.555842	-132.5488	
10:02:32	47.45579	-122.3159	98.652	98.74094	36.41776	24.89	23.83397	99	0	48	-1.326587	-1.700009	-132.4191	
10:02:34	47.45554	-122.3163	98.806	98.98611	21.34272	24.85	23.79213	99	0	48	-1.270137	-1.868073	-132.2884	
10:02:36	47.45528	-122.3167	98.858	98.9726	14.33576	24.85	23.778	99	0	48	-1.343623	-1.756583	-132.2969	
10:02:37	47.45501	-122.3171	98.771	98.97042	14.48629	24.84	23.77745	99	0	48	-1.266366	-1.568541	-132.3273	
10:02:39	47.45476	-122.3175	98.458	98.76165	9.687169	24.81	23.74184	99	0	49	-1.254896	-1.163814	-132.351	
10:02:41	47.4545	-122.318	98.432	98.58449	10.05204	24.75	23.68424	99	0	50	-1.426927	-0.6969056	-132.3771	
10:02:42	47.45426	-122.3184	97.336	97.00971	-379.4969	24.33	23.3931	99	0	28	40.75924	-11.26399	-123.2711	
10:02:44	47.45412	-122.3188	89.112	88.37918	-677.7068	24.43	22.70731	99	0	21	43.01414	-18.87506	-89.72094	
10:02:46	47.45417	-122.3194	73.49	75.05134	-653.9985	26.1	25.05565	99	0	34	43.0261	-16.17538	-49.86565	
10:02:47	47.4545	-122.3197	61.205	63.3626	-372.9155	28.55	28.62242	99	0	51	45.07463	-8.496575	-8.557406	
10:02:49	47.45491	-122.3197	56.384	57.03011	-152.0738	29.14	30.06085	99	0	50	39.51961	-3.435864	29.29885	
10:02:51	47.45529	-122.3193	55.586	55.35146	3.985568	27.33	28.85535	99	0	56	9.623824	-0.1570451	49.04435	
10:02:53	47.45554	-122.3189	57.794	57.72347	207.6237	25.79	26.96362	99	0	66	-5.598598	5.773749	50.82355	
10:02:54	47.45585	-122.3185	62.805	61.85446	164.3163	24.8	26.0073	99	0	65	-19.32221	5.514182	42.86263	
10:02:56	47.45613	-122.3182	65.324	64.79419	57.96069	24.68	25.48573	99	0	60	-22.25605	2.888652	28.87597	
10:02:58	47.45649	-122.318	65.958	65.70348	-18.00191	24.82	25.54375	99	0	55	-17.56671	1.011634	15.25623	
10:02:59	47.4569	-122.3179	65.175	65.29054	-53.7786	25.01	25.63623	99	0	54	-9.972904	0.1091464	5.911677	
10:03:01	47.45725	-122.3179	64.336	64.32681	-51.90935	25.15	25.78191	99	0	54	-2.594704	0.2362574	1.617209	
10:03:03	47.45761	-122.318	63.872	63.71979	-35.55219	25.21	25.85685	99	0	54	-0.06123345	0.5051574	0.9671198	
10:03:04	47.45799	-122.318	63.625	63.43017	-37.05244	25.17	25.82198	99	0	53	0.09770947	0.225012	1.519503	
10:03:06	47.45842	-122.318	63.16	63.08893	-34.78892	25.08	25.74167	99	0	52	-1.144112	0.1100256	1.525414	
10:03:08	47.45879	-122.318	62.484	62.48603	-41.95274	25.02	25.68162	99	0	53	-1.658787	0.00442542	1.013847	
10:03:10	47.45914	-122.318	62.004	61.93021	-35.5064	24.96	25.62132	99	0	53	-1.576852	0.2241499	0.3797009	
10:03:11	47.45958	-122.318	61.681	61.58697	-22.68332	24.89	25.55149	99	0	53	-1.499002	0.5144203	-0.1367215	
10:03:13	47.45988	-122.318	61.588	61.47031	-18.7605	24.8	25.45173	99	0	53	-1.402976	0.4596272	-0.5599076	
10:03:15	47.46025	-122.318	61.451	61.33609	-22.73087	24.73	25.38153	99	0	53	-0.6302071	0.240046	-0.729496	
10:03:16	47.4607	-122.318	61.174	61.09868	-25.53803	24.66	25.32136	99	0	53	-0.9105974	0.1778706	-0.7378761	
10:03:18	47.46105	-122.318	60.938	60.87932	-16.95197	24.64	25.2914	99	0	53	-0.9272006	0.3565923	-0.5789123	
10:03:20	47.46144	-122.318	60.874	60.75051	-17.45257	24.59	25.24185	99	0	53	-1.402195	0.2839247	-0.5699832	
10:03:21	47.46177	-122.318	60.972	60.77497	-9.122874	24.58	25.23162	99	0	52	-1.574443	0.1570545	-0.7799416	
10:03:23	47.46217	-122.318	61.188	61.03097	0.9496613	24.53	25.19143	99	0	51	-1.522846	0.08448597	-1.007897	
10:03:25	47.46251	-122.318	61.255	61.13858	-15.79041	24.47	25.12133	99	0	51	-1.575909	-0.5736303	-1.187524	
10:03:26	47.46293	-122.318	60.961	60.9697	-11.82086	24.48	25.13132	99	0	51	-1.52124	-0.5623357	-1.297475	
10:03:28	47.46329	-122.318	61.003	60.85928	-6.249747	24.51	25.16136	99	0	51	-1.396491	-0.5147932	-1.454602	
10:03:30	47.46368	-122.318	61.185	61.07194	-2.813296	24.5	25.15132	99	0	50	-1.107579	-0.8035106	-1.284982	
10:03:32	47.46408	-122.318	61.09	61.06907	-8.771875	24.51	25.16138	99	0	49	-1.403177	-1.095674	-1.188196	
10:03:33	47.46443	-122.318	60.825	60.91151	-9.139088	24.53	25.18132	99	0	49	-1.470132	-1.101212	-1.236491	
10:03:35	47.46481	-122.318	60.642	60.68144	-8.120889	24.56	25.21138	99	0	50	-1.637604	-1.046608	-1.333128	
10:03:37	47.46518	-122.318	60.762	60.70888	1.193166	24.55	25.20153	99	0	49	-1.095825	-0.9648381	-1.357727	
10:03:38	47.46556	-122.318	60.826	60.8089	-1.147057	24.52	25.17158	99	0	49	-0.9282773	-1.166593	-1.241151	
10:03:40	47.4659	-122.318	60.594	60.66454	-14.24917	24.54	25.19131	99	0	49	-0.8593243	-1.51124	-0.8148696	
10:03:42	47.4663	-122.318	60.353	60.4445	-2.100162	24.59	25.23137	99	0	49	-1.339104	-1.178091	-0.6957616	
10:03:43	47.46663	-122.318	60.502	60.45488	4.585725	24.58	25.23132	99	0	49	-1.491499	-1.111566	-0.799432	
10:03:45	47.46701	-122.318	60.256	60.37533	-8.017518	24.56	25.21136	99	0	49	-1.294339	-1.3555	-0.8860588	
10:03:47	47.46741	-122.318	59.823	59.99593	-4.396608	24.57	25.22132	99	0	50	-0.984966	-0.9614495	-0.6908225	
10:03:49	47.46779	-122.318	59.745	59.78724	3.06765	24.56	25.21137	99	0	50	-1.36813	-0.5910079	-0.6076364	
10:03:50	47.46814	-122.318	59.997	59.8776	5.07312	24.5	25.15132	99	0	50	-1.463357	-0.5533037	-0.6776676	
10:03:52	47.46855	-122.318	60.675	60.76369	169.291	24.86	25.35911	99	0	97	39.11013	4.403981	10.84447	
10:03:54	47.46887	-122.3177	67.707	66.6125	613.1775	25.19	25.41317	99	0	120	52.83053	14.33727	64.02493	
10:03:55	47.46891	-122.3172	80.845	79.1573	849.1677	22.95	23.12483	99	0	107	36.90904	19.16805	113.7801	
10:03:57	47.46876	-122.3168	96.01	94.72604	668.7608	21.67	21.69732	99	0	77	-8.461289	13.6224	127.3978	
10:03:59	47.46859	-122.3165	104.602	104.329	286.9612	22.15	22.39413	100	0	65	-23.51166	4.04075	119.1781	
10:04:00	47.46846	-122.3159	107.456	107.796	94.67075	22.97	22.64245	100	0	41	-21.40415	-0.3183201	102.4119	
10:04:02	47.46842	-122.3155	104.27	104.2417	-405.324	22.93	22.31417	100	0	31	-9.312963	-11.53631	92.52358	
10:04:04	47.46844	-122.3149	94.526	96.31898	-361.7008	24.43	23.45023	100	0	43	-2.907042	-8.102721	86.27041	
10:04:05	47.46848	-122.3143	89.044	90.21009	-96.55016	25.54	24.77909	100	0	57	4.365292	-0.1238563	85.66817	
10:04:07	47.46851	-122.3138	89.364	89.33697	68.80355	25.39	23.9284	100	0	63	5.867934	4.541241	89.16265	
10:04:09	47.46852	-122.3132	92.198	91.47165	99.43825	24.91	23.49279	100	0	61	2.87978	4.695985	91.57758	
10:04:11	47.46851	-122.3127	93.766	93.47605	47.72716	24.67	23.20545	100	0	59	0.2945408	2.859277	92.22021	
10:04:12	47.4685	-122.3121	94.46	94.46455	32.17792	24.61	23.15106	100	0	59	-1.095723	2.262823	91.84648	
10:04:14	47.46849	-122.3115	94.806	94.91433	34.43438	24.66	23.18406	100	0	60	-1.578267	2.482449	91.04201	
10:04:16	47.46848	-122.311	95.495	95.47146	48.07653	24.71	23.23517	100	0	61	-1.458769	2.963737	90.27686	
10:04:17	47.46848	-122.3104	96.393	96.25731	43.25587	24.72	23.24406	100	0	61	-1.382427	2.893231	89.92963	
10:04:19	47.46848	-122.3099	96.957	97.02578	34.21495	24.7	23.22444	100	0	60	-1.319514	2.658759	89.76248	
10:04:21	47.46847	-122.3093	97.279	97.35073	20.21882	24.71	23.2348	100	0	60	-1.871441	2.598417	89.54722	
10:04:22	47.46846	-122.3087	96.968	97.48038	12.85441	24.72	23.24163	100	0	61	-1.971501	2.811485	89.11372	
10:04:24	47.46846	-122.3082	96.081	96.66545	1.85741	24.76	23.27713	100	0	65	-1.916923	3.87495	88.72324	
10:04:26	47.46846	-122.3077	93.969	94.41435	-86.77538	24.78	23.32386	100	0	79	34.73689	4.793709	94.63724	
10:04:27	47.46832	-122.3071	95.881	95.05486	88.29407	26.64	25.14787	100	0	92	49.14657	7.814911	137.0549	
10:04:29	47.46798	-122.3069	99.905	97.7471	184.119	27.59	27.76302	100	0	75	35.68127	8.918725	174.9517	
10:04:31	47.46755	-122.3069	105.829	104.0303	54.71882	26.83	27.64899	100	0	51	5.539612	1.373856	-174.8288	
10:04:33	47.46713	-122.307	102.112	103.4501	-116.4398	26.35	27.19493	100	0	50	-2.433812	-2.910612	-174.0201	
10:04:34	47.46678	-122.3071	98.487	99.75594	-71.95061	26.46	27.29111	100	0	58	-2.232249	-0.0820654	-174.4449	
10:04:36	47.46636	-122.3072	97.473	97.91014	24.38918	26.3	27.11811	100	0	64	-1.512262	3.340843	-174.1801	
10:04:38	47.466	-122.3073	98.774	98.6108	60.09816	25.9	26.71951	100	0	63	-1.376573	4.099497	-173.5605	
10:04:39	47.46563	-122.3074	100.465	100.1683	42.00215	25.47	26.34818	100	0	59	-1.616895	2.776824	-172.8337	
10:04:41	47.4652	-122.3075	100.951	100.8469	4.834021	25.15	25.97733	100	0	57	-1.727768	1.558296	-172.2658	
10:04:43	47.46487	-122.3075	100.782	100.8466	-5.646221	25.01	25.83037	100	0	57	-2.406109	1.229591	-171.9379	
10:04:44	47.46447	-122.3076	100.561	100.6359	-27.87658	24.86	25.66061	100	0	59	-19.18827	0.95828	-176.6095	
10:04:46	47.46408	-122.3076	99.449	99.72446	-65.45074	25.16	25.38116	100	0	68	-38.14622	0.8216847	163.3889	
10:04:48	47.46372	-122.3073	99.176	99.38942	130.1532	25.32	25.1097	100	0	61	-1.880994	5.355946	142.6856	
10:04:49	47.46343	-122.307	99.92	99.45492	-126.4615	25.21	24.33899	100	0	77	46.24815	-0.1299642	164.221	
10:04:51	47.46304	-122.307	98.996	99.1007	59.43508	26.65	26.34936	100	0	79	48.31579	2.536376	-149.3385	
10:04:53	47.46277	-122.3074	100.523	100.509	118.3951	27.28	27.87136	100	0	75	48.06835	2.340228	-107.1828	
10:04:54	47.46273	-122.3081	102.906	102.4849	85.50156	27.53	28.53537	100	0	68	46.71864	0.5944444	-69.54543	
10:04:56	47.46296	-122.3086	103.953	103.878	32.76468	27.67	28.48301	100	0	62	45.29683	-1.246847	-34.14356	
10:04:58	47.46328	-122.3088	103.187	103.5181	-36.45633	27.88	28.09032	100	0	61	44.77931	-2.565261	0.2180536	
10:05:00	47.46372	-122.3087	100.98	101.8028	-22.06781	28.29	28.08917	100	0	61	42.0764	-1.63014	34.28005	
10:05:01	47.46404	-122.3082	98.915	99.81568	-36.97903	28.38	28.06702	100	0	68	44.9301	-0.6493875	67.94354	
10:05:03	47.46408	-122.3075	97.879	98.41195	21.95905	28.25	27.88425	100	0	72	45.17832	1.723984	104.9581	
10:05:05	47.4639	-122.307	98.427	98.42934	27.01381	27.76	27.34273	100	0	74	45.76141	2.548154	141.3967	
10:05:06	47.46351	-122.3068	100.079	99.3722	29.41172	27.22	26.98021	100	0	72	45.31227	2.140123	177.748	
10:05:08	47.46312	-122.3069	101.697	100.9193	16.25817	26.94	27.01673	100	0	67	44.97507	0.4203565	-145.7924	
10:05:10	47.46284	-122.3073	102.552	102.1504	3.889015	26.96	27.20798	100	0	63	44.55808	-1.498678	-108.7687	
10:05:11	47.46279	-122.3079	101.929	102.1587	-11.77358	27.28	27.7379	100	0	63	44.95767	-2.59612	-71.29645	
10:05:13	47.46304	-122.3085	100.352	101.182	-11.77634	27.87	28.25554	100	0	64	45.23979	-2.046702	-34.07909	
10:05:15	47.46344	-122.3087	99.333	99.98665	8.982724	28.33	28.45536	100	0	66	44.29523	-0.4839387	2.773256	
10:05:17	47.46384	-122.3085	99.474	99.62294	23.01375	28.39	28.23938	100	0	67	45.02942	0.4224458	37.99575	
10:05:18	47.46408	-122.308	99.735	99.82068	11.91257	28.19	27.88503	100	0	67	45.27223	0.6025668	72.23193	
10:05:20	47.46413	-122.3075	99.164	99.40977	-23.21619	28	27.6113	100	0	68	44.883	0.562074	106.9037	
10:05:22	47.46389	-122.3068	97.327	97.92776	-45.44062	27.91	27.88542	100	0	74	45.71698	1.401672	143.6216	
10:05:23	47.46353	-122.3066	97.313	97.11998	-10.02175	27.84	27.99815	100	0	77	45.70014	3.182326	-179.3648	
10:05:25	47.46313	-122.3068	99.351	98.30243	28.21231	27.68	27.8954	100	0	75	45.64595	3.30176	-143.4408	
10:05:27	47.46284	-122.3073	102.389	100.8511	42.3575	27.55	27.76592	100	0	69	45.59761	1.719584	-108.8356	
10:05:28	47.4628	-122.3078	103.971	103.0961	-2.76842	27.44	27.52278	100	0	62	44.64615	-1.246856	-75.52162	
10:05:30	47.46299	-122.3084	103.553	103.5299	-38.35559	27.6	27.55655	100	0	60	44.46066	-3.201528	-41.38144	
10:05:32	47.46331	-122.3086	101.533	102.0796	-54.15692	27.97	27.91068	100	0	61	44.47079	-3.184854	-6.037907	
10:05:33	47.46377	-122.3086	99.262	100.1706	-19.60535	28.48	28.57544	100	0	65	45.04766	-1.528376	30.38088	
10:05:35	47.46408	-122.3081	98.311	98.90422	14.84346	28.51	28.5137	100	0	69	45.05193	0.291593	66.79478	
10:05:37	47.46415	-122.3075	98.552	98.66519	33.29001	28.01	27.93228	100	0	70	45.50498	1.092817	102.8452	
10:05:39	47.46397	-122.307	99.105	99.02711	21.5205	27.43	27.32917	100	0	69	44.73124	1.059923	139.1734	
10:05:40	47.46361	-122.3067	99.807	99.51266	10.09366	26.98	27.03394	100	0	69	45.08423	0.4254515	176.6994	
10:05:42	47.46318	-122.3068	100.355	100.1449	9.893419	26.87	27.01129	100	0	67	44.91957	-0.5920479	-145.1135	
10:05:44	47.46295	-122.3072	99.881	100.2241	21.0666	27.23	27.13568	100	0	65	43.67627	-0.9243521	-105.0212	
10:05:45	47.46291	-122.3078	98.459	99.49715	19.48092	27.91	27.96343	100	0	69	45.97012	-1.085749	-65.55291	
10:05:47	47.46313	-122.3083	97.314	98.31427	40.94836	28.64	28.75595	100	0	73	45.78566	0.7323285	-26.68415	
10:05:49	47.46361	-122.3085	97.62	97.87878	51.09734	29.17	29.14423	100	0	74	45.9796	2.195213	9.440513	
10:05:50	47.46399	-122.3083	98.946	98.73503	62.27652	29.18	29.07693	100	0	73	45.46715	2.658796	43.99323	
10:05:52	47.46423	-122.3078	100.397	100.0365	27.22636	28.74	28.5109	100	0	70	44.985	1.73519	76.86608	
10:05:54	47.46426	-122.3071	100.852	100.6486	-32.04819	28.12	27.88622	100	0	68	44.72024	0.4372449	109.9347	
10:05:55	47.46407	-122.3066	100.091	100.0216	-55.21919	27.76	27.59875	100	0	69	44.81793	-0.06133068	145.3096	
10:05:57	47.46367	-122.3063	99.21	99.26067	-22.86915	27.6	27.76424	100	0	72	45.44877	0.3457649	-176.4749	
10:05:59	47.46326	-122.3065	99.935	99.51138	27.54107	27.51	27.81989	100	0	71	44.91323	1.166662	-138.0441	
10:06:01	47.46301	-122.307	101.656	100.9822	45.48966	27.51	27.7752	100	0	66	43.00047	0.2729599	-101.2723	
10:06:02	47.463	-122.3076	102.948	102.6783	42.04423	27.25	27.6443	100	0	55	34.4672	-0.9952344	-72.04073	
10:06:04	47.4632	-122.3082	102.817	102.7662	-76.9923	26.97	27.36639	100	0	60	42.66349	-3.473915	-44.83395	
10:06:06	47.4635	-122.3085	101.241	101.4258	-48.44675	27.59	27.59901	100	0	63	44.57939	-2.309814	-8.356483	
10:06:07	47.46393	-122.3084	99.998	100.4038	-9.658396	28.14	27.85925	100	0	66	45.25013	-1.007315	28.0746	
10:06:09	47.46426	-122.308	99.156	99.58238	10.95429	28.26	27.89802	100	0	67	45.13474	0.1740777	64.46259	
10:06:11	47.46435	-122.3073	98.554	98.95331	-1.503472	27.91	27.86041	100	0	70	45.50904	0.7922897	100.9289	
10:06:12	47.46418	-122.3068	98.626	98.56537	-11.89782	27.5	27.42472	100	0	71	44.82059	1.419593	137.5188	
10:06:14	47.46379	-122.3065	99.03	98.69106	-3.656938	27.23	27.22262	100	0	72	45.85918	1.166489	175.6188	
10:06:16	47.46339	-122.3066	100.082	99.49692	20.69035	27.14	27.34348	100	0	70	45.32669	1.148694	-145.7593	
10:06:18	47.46313	-122.3071	101.318	100.6895	23.83145	27.16	27.35111	100	0	65	42.75646	0.228687	-108.8816	
10:06:19	47.46308	-122.3077	102.062	101.73	-2.483737	27.12	27.42235	100	0	61	42.75281	-1.111912	-75.99949	
10:06:21	47.46326	-122.3082	101.489	101.5502	-38.77432	27.48	27.56002	100	0	63	44.85454	-2.019155	-40.59008	
10:06:23	47.46362	-122.3085	100.55	100.8593	-8.750031	28.03	27.89655	100	0	64	44.25018	-1.016994	-3.911642	
10:06:24	47.46405	-122.3084	99.652	100.1164	-16.42188	28.34	28.11119	100	0	66	45.71961	-0.5700569	31.10919	
10:06:26	47.46437	-122.3079	98.566	99.17629	-10.9023	28.45	28.25388	100	0	68	45.09493	0.6463053	66.55267	
10:06:28	47.46442	-122.3074	97.808	98.229	-18.81388	28.29	28.15782	100	0	71	45.16833	1.739668	101.6981	
10:06:29	47.46423	-122.3068	97.724	97.5406	-18.37006	27.93	27.82767	100	0	74	44.92212	2.748574	137.198	
10:06:31	47.4639	-122.3065	98.768	98.0972	2.077467	27.6	27.51598	100	0	75	45.79158	2.914035	173.4198	
10:06:33	47.46347	-122.3065	100.626	99.68018	10.83273	27.35	27.59488	100	0	71	45.64472	1.454557	-150.2453	
10:06:34	47.46317	-122.307	101.908	101.3031	28.44527	27.34	27.51836	100	0	63	41.87344	0.2058317	-114.2031	
10:06:36	47.46308	-122.3075	102.447	102.2505	-9.363433	27.17	27.37209	100	0	59	40.13766	-1.870977	-83.11871	
10:06:38	47.46318	-122.3081	101.51	101.6879	-33.25301	27.43	27.63178	100	0	63	44.10728	-2.444296	-48.56395	
10:06:40	47.46352	-122.3085	100.392	100.8583	8.207722	28.02	27.9602	100	0	65	44.84652	-1.450923	-11.50761	
10:06:41	47.46396	-122.3085	100.011	100.4686	29.32193	28.28	28.23541	100	0	66	45.30869	-0.6319662	24.54086	
10:06:43	47.46429	-122.3081	99.781	100.2462	13.61566	28.18	28.15449	100	0	66	45.01565	-0.3850874	59.73479	
10:06:45	47.46441	-122.3075	99.005	99.5658	-9.466787	27.91	27.87659	100	0	67	44.89337	0.1364087	95.63945	
10:06:46	47.46427	-122.3069	98.036	98.45621	-23.5954	27.64	27.61904	100	0	71	45.31788	0.6459052	132.445	
10:06:48	47.46393	-122.3065	97.831	97.90012	9.232478	27.46	27.32782	100	0	74	45.35173	1.715248	171.4098	
10:06:50	47.46355	-122.3066	98.794	98.50218	42.56732	27.36	27.14323	100	0	73	45.49351	1.72107	-149.8612	
10:06:51	47.46322	-122.307	100.7	100.2463	86.54816	27.27	27.34699	100	0	65	40.44794	1.064255	-113.4321	
10:06:53	47.46313	-122.3076	102.546	101.9862	13.83271	26.86	27.13682	100	0	60	40.91762	-1.277483	-83.79644	
10:06:55	47.46323	-122.3081	102.085	102.0971	-41.0234	27.15	27.34801	100	0	63	44.79726	-2.814639	-48.53846	
10:06:57	47.46359	-122.3085	100.075	100.9151	-22.1287	28	28.14724	100	0	65	45.15415	-1.774706	-10.63204	
10:06:58	47.46402	-122.3085	98.503	99.3919	-4.266239	28.59	28.26763	100	0	68	45.23302	-0.1115713	25.62248	
10:07:00	47.46431	-122.3081	97.626	98.19178	11.72763	28.81	28.52243	100	0	72	45.48704	1.392468	61.65718	
10:07:02	47.46444	-122.3074	97.912	97.99747	37.44128	28.45	28.33072	100	0	73	45.13274	2.401242	97.48481	
10:07:03	47.4643	-122.3069	98.903	98.60908	16.17103	27.86	27.86544	100	0	73	45.17159	2.252218	132.9663	
10:07:05	47.46394	-122.3065	99.953	99.40923	6.910999	27.41	27.44663	100	0	71	45.03752	1.230716	170.2496	
10:07:07	47.46356	-122.3066	100.647	100.2975	12.43134	27.25	27.29806	100	0	69	45.06585	0.08993444	-151.5406	
10:07:08	47.46322	-122.307	101.311	101.1271	45.33194	27.2	27.3616	100	0	62	39.51762	-0.003887891	-114.6338	
10:07:10	47.46312	-122.3076	101.982	101.7485	-12.5977	26.96	27.20006	100	0	60	40.22812	-1.828196	-84.41496	
10:07:12	47.46324	-122.3081	101.144	101.3576	-38.51633	27.36	27.22505	100	0	64	44.97903	-2.295972	-48.5843	
10:07:13	47.46355	-122.3085	99.757	100.2748	0.5380558	28.1	28.23891	100	0	67	45.36195	-0.8012796	-10.12554	
10:07:15	47.46398	-122.3085	99.141	99.60754	17.7773	28.54	28.33724	100	0	68	45.15585	0.264758	26.04336	
10:07:17	47.46436	-122.308	99.192	99.35059	27.44944	28.51	28.60163	100	0	69	45.04633	1.181645	62.3587	
10:07:19	47.46444	-122.3074	99.521	99.45025	-4.984158	28.08	28.04992	100	0	70	45.32241	1.157209	97.02866	
10:07:20	47.46427	-122.3068	99.463	99.27264	-32.78973	27.57	27.33587	100	0	71	45.36582	0.9600894	132.7162	
10:07:22	47.46396	-122.3065	99.695	99.28084	-23.1413	27.28	27.2695	100	0	71	45.12483	1.131042	170.1238	
10:07:24	47.46353	-122.3066	100.459	99.79777	-10.30703	27.12	27.0965	100	0	70	45.0729	0.5657433	-152.2916	
10:07:25	47.46322	-122.307	101.345	100.85	27.36719	27.07	27.35744	100	0	62	38.8312	0.08964361	-116.5286	
10:07:27	47.46312	-122.3075	101.656	101.4995	-25.48015	26.93	27.0447	100	0	60	39.89716	-1.895059	-86.48228	
10:07:29	47.46322	-122.3081	100.393	100.7478	-26.79388	27.45	27.32381	100	0	65	44.72523	-1.932411	-50.24046	
10:07:30	47.46355	-122.3085	99.555	100.0708	22.67019	28.12	28.14172	100	0	68	45.92687	-0.7100206	-12.36409	
10:07:32	47.46392	-122.3085	99.849	100.0924	54.7604	28.35	28.4166	100	0	66	44.62596	0.5249249	24.03934	
10:07:34	47.46429	-122.3081	100.359	100.4922	11.93765	28.15	28.12144	100	0	66	45.04825	-0.2196319	58.11143	
10:07:35	47.46445	-122.3075	99.719	100.1409	-12.27103	27.91	27.87057	100	0	67	45.63692	-0.4665864	93.8225	
10:07:37	47.46435	-122.307	98.623	98.95992	-35.81242	27.64	27.48574	100	0	69	43.96949	0.2073411	130.9461	
10:07:39	47.46398	-122.3066	97.398	97.76441	-14.37663	27.61	27.64383	100	0	74	45.15166	1.120931	170.7421	
10:07:41	47.4636	-122.3066	97.854	97.75687	51.72591	27.62	27.525	100	0	74	44.58719	2.565629	-149.2327	
10:07:42	47.46327	-122.307	100.449	99.76914	96.04391	27.25	27.45034	100	0	64	36.55135	2.616724	-116.4647	
10:07:44	47.46314	-122.3076	103.104	101.9051	-21.30638	26.71	26.9534	100	0	63	43.41789	-0.9796257	-88.8839	
10:07:46	47.46322	-122.3081	103.351	102.8006	-29.22676	27	27.04371	100	0	62	44.68012	-2.17955	-53.68998	
10:07:47	47.46352	-122.3086	102.798	102.7612	-33.5292	27.41	27.1935	100	0	61	44.68882	-2.654411	-17.99092	
10:07:49	47.46394	-122.3086	101.269	101.7818	-44.27214	27.86	27.81031	100	0	62	44.86707	-2.429478	17.67093	
10:07:51	47.46431	-122.3083	98.939	99.89966	-39.06082	28.27	28.2096	100	0	65	44.94564	-1.157877	54.04501	
10:07:52	47.46446	-122.3077	97.453	98.17084	-11.48903	28.28	28.27176	100	0	71	45.77617	0.6206254	91.35626	
10:07:54	47.46435	-122.3071	97.649	97.642	19.20305	27.75	27.69089	100	0	73	45.04749	2.157934	128.6362	
10:07:56	47.464	-122.3067	99.708	98.82406	46.43889	27	26.96094	100	0	71	45.40437	1.823528	166.4236	
10:07:58	47.46366	-122.3067	101.756	100.9762	45.46976	26.51	26.46189	100	0	64	43.48115	-0.01475577	-155.9488	
10:07:59	47.46328	-122.3071	103.065	102.6747	8.165686	26.12	26.48469	100	0	57	40.38309	-2.542691	-121.153	
10:08:01	47.46316	-122.3076	102.34	102.4322	-64.60548	26.28	26.46266	100	0	59	43.7594	-4.150418	-85.53046	
10:08:03	47.46327	-122.3082	99.902	100.7606	-40.69305	27.16	26.98391	100	0	63	44.59441	-2.984683	-46.14817	
10:08:04	47.46361	-122.3085	98.268	99.12844	20.65213	27.99	27.92402	100	0	67	45.01403	-0.6729173	-6.722589	
10:08:06	47.46405	-122.3084	98.399	98.71478	56.58038	28.31	28.46608	100	0	70	45.6928	0.6967124	30.68449	
10:08:08	47.46434	-122.308	99.523	99.4539	53.88047	28.01	27.85075	100	0	68	45.48916	0.7847339	66.72936	
10:08:09	47.46443	-122.3074	100.392	100.3211	16.53765	27.39	27.16297	100	0	65	44.55233	-0.2931901	102.3811	
10:08:11	47.46425	-122.3068	100.076	100.2434	-11.59205	26.83	26.73143	100	0	65	44.40541	-1.350022	140.7607	
10:08:13	47.46387	-122.3066	99.335	99.6801	-9.942605	26.58	26.70894	100	0	67	44.91632	-1.761528	-177.9514	
10:08:15	47.46352	-122.3067	99.045	99.38975	38.93816	26.62	26.5636	100	0	64	40.1878	-1.163283	-136.7022	
10:08:16	47.46328	-122.3071	99.251	99.86761	94.31554	26.5	26.80931	100	0	58	31.59091	-0.2714258	-104.799	
10:08:18	47.4632	-122.3077	99.996	99.956	-26.51811	26.3	26.6358	100	0	64	42.41144	-1.951153	-75.4762	
10:08:20	47.46338	-122.3083	99.562	99.69924	15.34396	27.15	27.43222	100	0	67	45.18795	-0.4648083	-36.22136	
10:08:21	47.46371	-122.3085	99.891	99.99782	30.76231	27.7	27.71535	100	0	67	45.39173	0.1478171	1.003928	
10:08:23	47.46418	-122.3084	100.187	100.2534	6.363312	27.97	28.03313	100	0	66	45.55519	0.04883837	36.74278	
10:08:25	47.46444	-122.3079	99.861	99.96329	-30.70393	27.94	27.73712	100	0	67	45.10846	0.1466047	72.23929	
10:08:26	47.46447	-122.3073	99.007	99.12102	-52.12467	27.73	27.41287	100	0	69	45.0228	0.5946884	108.2235	
10:08:28	47.46424	-122.3068	98.546	98.36086	-48.85944	27.4	27.21508	100	0	72	45.40906	1.193884	145.2515	
10:08:30	47.46391	-122.3066	98.634	98.29411	-16.71913	27.31	27.00293	100	0	73	45.34501	1.346177	-175.9367	
10:08:31	47.46349	-122.3068	99.749	99.25792	61.95676	27.25	27.34618	100	0	66	39.89995	1.743722	-137.8636	
10:08:33	47.46322	-122.3072	101.948	101.0695	23.98533	26.62	27.1601	100	0	60	37.10811	0.07086421	-109.7582	
10:08:35	47.46316	-122.3077	102.681	101.9233	-51.96379	26.56	27.02961	100	0	62	43.21904	-1.974844	-77.32119	
10:08:37	47.46331	-122.3083	102.052	101.9795	-33.79768	27.11	27.26941	100	0	62	44.51271	-2.56143	-40.57161	
10:08:38	47.46366	-122.3086	100.8	101.198	-17.25245	27.76	27.83985	100	0	63	44.7788	-1.944741	-3.322293	
10:08:40	47.46408	-122.3085	99.518	100.1165	-6.751634	28.21	28.16654	100	0	65	45.10607	-1.088162	33.34034	
10:08:42	47.46439	-122.3081	98.79	99.24533	9.583788	28.18	28.1981	100	0	68	45.52549	0.02605647	70.1724	
10:08:43	47.46443	-122.3074	98.949	99.01818	12.3259	27.69	27.58287	100	0	69	45.07297	0.8121961	107.088	
10:08:45	47.46419	-122.3069	99.761	99.25249	3.344209	26.96	26.81629	100	0	69	44.90852	0.706352	144.6532	
10:08:47	47.46387	-122.3067	100.605	100.1221	-7.909874	26.55	26.48081	100	0	67	45.1819	-0.6250598	-176.5137	
10:08:48	47.46347	-122.3068	100.832	100.7334	18.73003	26.49	26.41175	100	0	61	40.43302	-1.218758	-137.1788	
10:08:50	47.46321	-122.3073	100.369	100.6804	-5.343582	26.5	26.70325	100	0	60	40.09982	-2.023444	-102.9886	
10:08:52	47.46319	-122.3078	99.747	100.2404	119.6241	26.91	27.10443	100	0	52	12.252	1.342525	-71.92076	
10:08:53	47.46329	-122.3085	101.965	101.1205	-129.7517	25.75	26.51399	100	0	63	-44.96461	-3.075003	-84.94933	
10:08:55	47.46324	-122.309	99.775	100.1252	-49.23279	26.78	26.45465	100	0	69	-48.21763	-2.034254	-128.4104	
10:08:57	47.46286	-122.3094	95.941	98.04223	24.76165	27.98	27.43553	100	0	73	-48.01672	0.4357965	-172.3747	
10:08:59	47.46249	-122.3093	94.359	95.83159	75.01793	28.24	28.23962	100	0	73	-39.80672	4.76676	147.3597	
10:09:00	47.46215	-122.3089	97.092	96.55311	77.54362	26.85	27.12927	100	0	65	-8.765713	6.057502	130.7357	
10:09:02	47.46193	-122.3084	99.578	98.40265	-13.42675	25.83	25.88538	100	0	62	3.772273	3.498501	132.5608	
10:09:04	47.46165	-122.308	101.222	100.1478	-25.32597	25.14	25.26443	100	0	57	0.1720538	1.978301	135.7072	
10:09:05	47.4614	-122.3076	101.888	101.025	-56.54939	24.7	24.76168	100	0	54	-2.783684	0.4667622	136.146	
10:09:07	47.46114	-122.3072	101.755	101.213	-63.63465	24.41	24.5065	100	0	53	-2.632881	-0.0883784	135.0932	
10:09:09	47.4609	-122.3068	101.321	100.908	-59.6283	24.24	24.29898	100	0	53	-1.555991	-0.02561235	134.317	
10:09:10	47.46066	-122.3064	101.231	100.7592	-38.66333	24.1	24.15119	100	0	53	-0.8842784	0.4101253	133.9875	
10:09:12	47.46041	-122.306	101.389	100.9276	-37.63402	23.91	23.98601	100	0	52	-0.6008372	0.21027	133.8421	
10:09:14	47.46018	-122.3056	101.406	100.9997	-43.44961	23.79	23.84164	100	0	52	-0.5333356	-0.1306315	133.6669	
10:09:16	47.45995	-122.3052	101.255	100.9104	-42.92876	23.71	23.77332	100	0	52	-0.5128659	-0.2545615	133.5291	
10:09:17	47.45969	-122.3047	101.188	100.8853	-36.94788	23.68	23.73548	100	0	51	-0.5465541	-0.2934557	133.2065	
10:09:19	47.45947	-122.3043	101.014	100.7868	-31.3588	23.66	23.71073	100	0	51	-0.3772632	-0.2260485	132.9784	
10:09:21	47.45927	-122.304	100.861	100.6348	-31.79814	23.66	23.71073	100	0	51	-0.3423457	-0.2522327	132.8253	
10:09:22	47.45899	-122.3035	100.62	100.4521	-28.90044	23.66	23.7172	100	0	51	-0.533567	-0.1245868	132.5999	
10:09:24	47.45878	-122.3031	100.582	100.3557	-21.3822	23.67	23.72188	100	0	51	-3.884799	0.03177779	132.0795	
10:09:26	47.45855	-122.3027	100.439	100.1859	-55.35691	23.75	23.79173	100	0	54	-23.73234	-0.5870462	123.6899	
10:09:27	47.4584	-122.3022	99.305	99.4234	-56.9757	24.4	23.87733	100	0	61	-36.24742	-0.2721395	99.18063	
10:09:29	47.4584	-122.3017	99.222	99.61807	92.4437	24.69	24.33424	100	0	54	13.28928	2.254164	84.44302	
10:09:31	47.4584	-122.3011	99.594	99.26337	-109.7299	24.96	24.41765	100	0	71	46.71672	-1.355906	111.3604	
10:09:33	47.45821	-122.3007	98.774	98.98421	48.81759	26.2	25.54837	100	0	73	47.73623	1.517803	155.8255	
10:09:34	47.45781	-122.3005	99.758	99.89897	86.16341	26.73	26.55639	100	0	70	47.3044	1.647054	-163.3809	
10:09:36	47.45744	-122.3008	101.171	101.0304	46.7037	26.78	27.13535	100	0	66	46.40006	0.1344103	-125.6834	
10:09:38	47.45729	-122.3014	101.967	101.8456	22.61531	26.83	27.25733	100	0	62	44.45931	-0.9132925	-89.07577	
10:09:39	47.4574	-122.302	101.482	101.8879	-5.290655	26.85	27.53587	100	0	57	39.40585	-1.37913	-56.0345	
10:09:41	47.45769	-122.3024	99.705	100.3104	-95.90655	26.95	27.46721	100	0	63	44.11077	-2.327588	-25.09204	
10:09:43	47.45805	-122.3025	97.467	98.11674	-39.74998	27.53	27.43252	100	0	70	45.41962	0.2055386	13.00375	
10:09:44	47.45847	-122.3022	97.315	97.32425	46.08318	27.86	27.52425	100	0	74	46.12642	2.383127	51.33538	
10:09:46	47.45862	-122.3016	99.524	98.85662	95.24928	27.57	27.25734	100	0	71	45.39998	2.843249	88.61924	
10:09:48	47.45853	-122.301	102.797	101.6264	60.22194	26.92	26.48418	100	0	64	44.94551	0.3861757	123.4694	
10:09:49	47.45827	-122.3006	103.794	103.4171	-5.750905	26.61	26.30965	100	0	59	44.65911	-3.183721	158.4215	
10:09:51	47.45786	-122.3005	101.94	102.6787	-57.9435	26.73	26.85542	100	0	58	44.31525	-5.003833	-163.5187	
10:09:53	47.4575	-122.3008	98.882	100.397	-25.44939	27.2	27.36539	100	0	63	44.47274	-3.302925	-123.2166	
10:09:55	47.45735	-122.3014	97.22	98.28704	30.74894	27.62	27.91509	100	0	66	42.05928	-0.2456125	-83.69025	
10:09:56	47.45746	-122.3019	97.333	97.85929	59.97691	27.55	27.74246	100	0	65	39.07758	1.460208	-51.9579	
10:09:58	47.45778	-122.3024	98.324	98.08212	10.88528	27.41	27.72106	100	0	71	44.78424	1.511221	-19.43516	
10:10:00	47.4582	-122.3025	99.278	98.87423	24.57257	27.52	27.52721	100	0	70	45.39642	1.693257	16.18389	
10:10:01	47.45854	-122.3022	100.326	99.79084	7.78555	27.47	27.31907	100	0	68	45.19511	1.101792	51.20472	
10:10:03	47.45873	-122.3016	100.932	100.5094	-18.1134	27.38	27.07919	100	0	66	44.89569	0.07413138	85.54619	
10:10:05	47.45866	-122.301	100.607	100.5353	-35.97183	27.45	27.13026	100	0	66	45.21387	-0.7830291	121.039	
10:10:06	47.45841	-122.3006	99.965	100.0476	-19.72094	27.57	27.61567	100	0	66	44.3136	-0.1411288	157.717	
10:10:08	47.45799	-122.3005	99.582	99.56445	-23.37343	27.64	27.5938	100	0	68	44.9723	-0.04915147	-166.4072	
10:10:10	47.45761	-122.3008	99.589	99.56467	12.26245	27.7	27.61273	100	0	68	44.85068	0.4033245	-129.9134	
10:10:12	47.45742	-122.3012	100.256	100.1079	37.58405	27.62	27.64273	100	0	64	42.2181	0.4214211	-95.22544	
10:10:13	47.45748	-122.302	100.974	100.8397	-8.159282	27.31	27.53204	100	0	64	44.44242	-0.93751	-63.58761	
10:10:15	47.45773	-122.3024	100.411	100.5009	-25.88187	27.45	27.73381	100	0	65	44.89228	-0.6961278	-28.05905	
10:10:17	47.45808	-122.3025	99.623	99.77909	-35.11201	27.56	27.57671	100	0	67	44.85532	-0.2662059	7.679094	
10:10:18	47.45847	-122.3024	98.94	99.03104	-13.85423	27.75	27.4412	100	0	69	44.57734	0.8390785	43.441	
10:10:20	47.45873	-122.3018	98.509	98.62961	-4.638206	27.98	28.08998	100	0	71	45.76593	1.406778	79.52637	
10:10:22	47.4587	-122.3012	99.078	98.80518	5.906609	28.01	28.10604	100	0	72	45.91148	1.804466	115.0206	
10:10:23	47.45844	-122.3007	100.225	99.6418	11.19001	27.9	27.92055	100	0	70	45.60784	1.648698	149.7258	
10:10:25	47.45798	-122.3005	101.518	100.7042	-7.225412	27.64	27.78399	100	0	66	44.89767	0.7933288	-176.5455	
10:10:27	47.45764	-122.3007	101.92	101.3853	-35.90887	27.48	27.28269	100	0	64	44.22617	-0.6650119	-143.1575	
10:10:29	47.45737	-122.3012	101.461	101.3585	-28.90766	27.52	27.30595	100	0	64	44.72934	-1.389125	-107.8384	
10:10:30	47.45735	-122.3018	100.596	100.9686	-13.85302	27.65	27.45281	100	0	64	44.70226	-1.287117	-71.56527	
10:10:32	47.45753	-122.3023	99.642	100.0494	-10.50676	27.77	27.64371	100	0	66	44.67084	-0.8113374	-35.29534	
10:10:34	47.45795	-122.3025	98.761	99.22675	6.145679	27.86	28.05909	100	0	69	45.5372	0.07375457	1.232493	
10:10:35	47.45834	-122.3024	98.938	98.99078	22.65328	27.78	27.99137	100	0	69	44.79786	0.9422137	37.4992	
10:10:37	47.45862	-122.3019	100.209	99.83414	41.56853	27.52	27.8053	100	0	68	45.54288	0.6722077	73.64216	
10:10:39	47.45865	-122.3014	101.336	101.0346	24.87435	27.25	27.30707	100	0	64	44.72256	-0.6010664	109.0706	
10:10:40	47.45842	-122.3008	101.488	101.5959	6.07875	27.1	27.28901	100	0	62	44.01247	-1.906961	145.6582	
10:10:42	47.45808	-122.3006	100.005	100.7647	-15.05235	27.29	27.09953	100	0	63	44.08072	-2.486903	-175.9047	
10:10:44	47.45772	-122.3007	97.985	98.70125	-3.909105	27.48	27.28339	100	0	64	35.52287	-1.209201	-138.9777	
10:10:46	47.45737	-122.3012	98.231	98.72044	138.2259	26.96	27.60398	100	0	56	1.454224	2.843167	-120.0698	
10:10:47	47.4572	-122.3016	99.749	99.52439	1.126362	26.16	26.43355	100	0	55	-8.82562	0.6911777	-120.6272	
10:10:49	47.45692	-122.3022	100.665	100.122	-13.83576	25.53	25.8524	100	0	53	-5.716184	0.06014384	-123.9088	
10:10:51	47.45668	-122.3026	100.986	100.5937	-20.86608	25.18	25.53372	100	0	51	-2.679101	-0.6072245	-125.5657	
10:10:52	47.45647	-122.303	101.091	100.7902	-23.92044	24.97	25.27587	100	0	50	-1.512996	-0.9347565	-126.261	
10:10:54	47.45623	-122.3035	101.467	101.0208	-15.37999	24.81	25.08378	100	0	50	-1.510954	-1.131713	-126.9186	
10:10:56	47.456	-122.3039	101.878	101.4968	-14.8763	24.69	24.96169	100	0	48	-1.462104	-1.700438	-127.7124	
10:10:57	47.45574	-122.3044	101.627	101.6571	-25.00187	24.6	24.88196	100	0	47	-1.537683	-2.274176	-128.4521	
10:10:59	47.45551	-122.3048	100.5	100.756	-39.35559	24.6	24.86683	100	0	48	-1.386299	-1.93282	-129.4119	
10:11:01	47.4553	-122.3052	99.928	99.99361	-23.07453	24.57	24.83564	100	0	50	-1.31272	-0.9367957	-130.3282	
10:11:03	47.45507	-122.3056	100.196	99.9431	-4.49728	24.49	24.75445	100	0	50	-1.076474	-0.4733202	-131.0226	
10:11:04	47.45479	-122.3061	101.011	100.6141	0.7750207	24.32	24.60204	100	0	49	-0.9929398	-0.8990258	-131.6307	
10:11:06	47.4546	-122.3064	101.134	100.9409	-18.24216	24.28	24.54595	100	0	48	-0.7909525	-1.746951	-132.0252	
10:11:08	47.45432	-122.3069	100.358	100.5167	-34.54908	24.32	24.58344	100	0	48	-1.009755	-1.925851	-132.4083	
10:11:09	47.45409	-122.3073	99.932	99.96575	-20.03672	24.37	24.63402	100	0	50	10.75523	-1.289486	-129.8355	
10:11:11	47.45388	-122.3078	99.393	99.48251	-30.61095	24.49	24.62133	100	0	53	21.46127	-1.023706	-117.2087	
10:11:13	47.45377	-122.3082	99.142	99.18977	4.306383	24.61	24.68596	100	0	53	17.50152	0.2809986	-102.1084	
10:11:14	47.45371	-122.3088	99.781	99.56049	11.73675	24.5	24.64808	100	0	51	8.289876	0.4647761	-91.54833	
10:11:16	47.45372	-122.3094	100.134	99.91545	-20.12707	24.4	24.54561	100	0	50	0.3002822	-0.5545395	-87.88262	
10:11:18	47.45375	-122.31	99.797	99.7635	-21.86502	24.44	24.57467	100	0	51	-2.904321	-0.6968138	-88.06124	
10:11:19	47.45376	-122.3104	99.771	99.66702	-4.4881	24.49	24.63008	100	0	51	-2.89066	-0.4233127	-89.22113	
10:11:21	47.45377	-122.3111	99.996	99.8944	6.414289	24.49	24.63038	100	0	50	-1.563723	-0.4048294	-89.93722	
10:11:23	47.45377	-122.3115	100.135	100.0709	3.870692	24.48	24.61984	100	0	50	-0.9669042	-0.5966911	-89.88322	
10:11:25	47.45378	-122.3122	100.971	100.5336	12.62476	24.48	24.62062	100	0	49	-0.6783828	-0.8705867	-89.55818	
10:11:26	47.45379	-122.3127	100.893	100.934	-9.719236	24.51	24.64225	100	0	48	-0.7124141	-1.908608	-89.17151	
10:11:28	47.4538	-122.3132	100.45	100.5503	-15.45019	24.57	24.71295	100	0	48	-1.246482	-1.801726	-89.11048	
10:11:30	47.4538	-122.3138	101.211	100.6508	10.81134	24.63	24.77159	100	0	48	-1.467929	-1.531012	-89.27833	
10:11:31	47.45381	-122.3143	101.458	101.3594	11.57328	24.61	24.75037	100	0	46	-1.00804	-2.221162	-89.32779	
10:11:33	47.45382	-122.3149	101.354	101.4019	-9.449068	24.6	24.74101	100	0	45	-0.7668872	-2.828648	-89.15409	
10:11:35	47.45382	-122.3154	101.57	101.3753	-3.856693	24.65	24.79206	100	0	45	-1.178742	-2.923516	-88.98766	
10:11:36	47.45383	-122.316	101.545	101.5463	-0.2580635	24.68	24.82143	100	0	44	-1.217051	-3.206372	-89.09029	
10:11:38	47.45384	-122.3166	101.012	101.2161	-11.67032	24.7	24.84114	100	0	44	-1.012059	-3.320611	-89.06413	
10:11:40	47.45385	-122.3171	100.848	100.867	-6.332338	24.73	24.87142	100	0	45	-1.400528	-3.074521	-89.1067	
10:11:42	47.45385	-122.3176	100.646	100.737	-5.967487	24.73	24.8706	100	0	36	8.562469	-3.317776	-88.66941	
10:11:43	47.45389	-122.3182	97.476	97.3985	-508.9535	24.26	23.96655	100	0	21	43.83295	-16.40047	-70.14609	
10:11:45	47.45407	-122.3187	85.918	86.64425	-732.2526	24.87	24.35303	100	0	18	43.19667	-20.13923	-36.67086	
10:11:47	47.45444	-122.3189	69.989	73.12112	-664.4235	26.77	26.16173	100	0	33	42.62763	-15.69136	0.8634294	
10:11:48	47.45483	-122.3188	58.382	61.29604	-314.8713	28.77	28.27498	100	0	38	22.31071	-5.936473	32.78176	
10:11:50	47.4552	-122.3184	52.868	53.77727	-330.925	27.76	28.01823	100	0	41	-20.35295	-3.714977	36.87353	
10:11:52	47.45557	-122.3181	48.615	48.91242	-20.17703	27.52	27.19406	100	0	80	-25.55668	4.715114	17.02909	
10:11:53	47.45599	-122.318	54.355	53.34545	449.5755	26.88	26.52091	100	0	82	-7.590392	13.58553	0.9816729	
10:11:55	47.45641	-122.3181	64.223	61.82159	295.2211	25.91	25.61894	100	0	68	4.50659	8.335851	1.414252	
10:11:57	47.45677	-122.318	67.749	67.06678	82.53028	25.46	25.09306	100	0	53	0.1076523	1.393788	3.889652	
10:11:58	47.45718	-122.318	66.672	67.16504	-69.2106	25.26	24.88761	100	0	51	-5.007051	-1.888433	3.659934	
10:12:00	47.45752	-122.3179	64.9	65.28753	-67.0891	25.39	25.01398	100	0	54	-7.780147	-0.9342183	0.6763062	
10:12:02	47.45793	-122.3179	64.297	64.265	-12.56246	25.33	25.0033	100	0	55	-6.822402	0.6353186	-3.160062	
10:12:04	47.45833	-122.3179	64.933	64.48659	-17.1455	24.97	24.65397	100	0	52	-4.732855	0.1732722	-5.585306	
10:12:05	47.45868	-122.3179	64.888	64.61847	-45.36722	24.71	24.35347	100	0	50	-2.640122	-1.014642	-6.432597	
10:12:07	47.45909	-122.3179	64.021	64.02633	-59.85718	24.6	24.24964	100	0	49	-1.824844	-1.420222	-6.127987	
10:12:09	47.45947	-122.3179	63.013	63.12361	-52.4207	24.58	24.23562	100	0	50	-2.190955	-1.057961	-5.77761	
10:12:10	47.45982	-122.3179	62.378	62.38535	-41.48492	24.53	24.18612	100	0	51	-2.540936	-0.6288127	-5.74904	
10:12:12	47.46016	-122.318	62.023	61.89814	-32.21583	24.46	24.10717	100	0	51	-1.55985	-0.3657359	-5.550593	
10:12:14	47.46059	-122.318	61.677	61.6081	-27.74561	24.37	24.0233	100	0	51	-1.739234	-0.2506563	-4.830697	
10:12:15	47.46092	-122.318	61.37	61.3255	-24.64336	24.33	23.98257	100	0	51	-1.932859	-0.2443007	-4.488121	
10:12:17	47.46131	-122.318	61.048	61.16515	-25.8478	24.3	23.97257	100	0	51	-1.614272	-0.4113032	-4.595646	
10:12:19	47.46165	-122.318	61.023	60.85016	-16.4474	24.26	23.90502	100	0	51	-2.141912	-0.07614766	-4.279382	
10:12:21	47.46208	-122.318	61.363	61.0954	-10.93797	24.2	23.8478	100	0	50	-1.095959	-0.4089676	-3.847856	
10:12:22	47.46243	-122.318	61.302	61.19991	-14.1464	24.21	23.84353	100	0	50	-0.5954	-0.7619706	-2.997591	
10:12:24	47.46276	-122.318	60.986	60.98982	-25.21244	24.24	23.8805	100	0	50	-1.03389	-1.075986	-2.173475	
10:12:26	47.46316	-122.318	60.672	60.62595	-12.92677	24.32	23.95959	100	0	50	-1.271152	-0.6746321	-1.582877	
10:12:27	47.4635	-122.318	60.865	60.71511	-2.349933	24.34	23.97936	100	0	50	-1.563324	-0.6868916	-1.286561	
10:12:29	47.46387	-122.318	60.894	60.82887	-11.15784	24.35	23.98976	100	0	49	-1.603887	-1.209146	-1.129056	
10:12:31	47.46426	-122.318	60.695	60.7328	-7.859354	24.4	24.04037	100	0	49	-1.714625	-1.164978	-1.048718	
10:12:32	47.46465	-122.318	60.478	60.54818	-9.351249	24.43	24.06127	100	0	49	-1.60182	-1.145686	-1.074049	
10:12:34	47.46501	-122.318	60.532	60.49643	-5.265218	24.44	24.08188	100	0	49	-1.608954	-1.108458	-1.04897	
10:12:36	47.4654	-122.318	60.59	60.53098	1.275948	24.45	24.09273	100	0	49	-1.540899	-1.089043	-1.072723	
10:12:37	47.46572	-122.318	60.567	60.55754	-2.251832	24.46	24.10291	100	0	49	-1.303895	-1.303363	-0.9798889	
10:12:39	47.46613	-122.318	60.362	60.42619	-7.39807	24.49	24.1222	100	0	49	-0.9328508	-1.390682	-0.7661154	
10:12:41	47.46653	-122.318	60.304	60.2675	-5.515363	24.51	24.1506	100	0	49	-1.246855	-1.322934	-0.4996879	
10:12:43	47.46685	-122.318	60.146	60.23645	3.463342	24.54	24.18025	100	0	49	-1.648321	-1.141714	-0.5051867	
10:12:44	47.46724	-122.318	59.914	60.04523	1.213681	24.52	24.16112	100	0	49	-1.566107	-0.9562612	-0.6660838	
10:12:46	47.46758	-122.318	59.758	59.83125	-2.343141	24.51	24.15237	100	0	50	-1.330332	-0.8634349	-0.8235062	
10:12:48	47.46798	-122.318	59.701	59.748	2.896567	24.49	24.14171	100	0	50	-1.003191	-0.6415532	-0.6098742	
10:12:49	47.46837	-122.318	60.01	59.94833	41.96492	24.47	24.12086	100	0	72	17.63303	0.6811403	0.7152257	
10:12:51	47.46869	-122.318	62.332	63.25505	484.7194	25.59	24.56775	100	0	117	49.63065	11.37146	41.75542	
10:12:53	47.4689	-122.3175	75.116	74.29949	806.1398	23.5	23.22792	100	0	115	48.55433	17.40271	98.36884	
10:12:54	47.46879	-122.317	90.969	90.21103	884.7069	21.27	21.87616	100	0	84	4.29487	17.45468	128.0229	
10:12:56	47.46861	-122.3166	103.059	102.118	363.7644	21.45	21.52312	100	0	64	-22.38844	4.895373	126.8955	
10:12:58	47.46845	-122.3162	106.862	107.0016	187.1738	22.15	21.86028	100	0	54	-26.04933	1.681054	109.9372	
10:13:00	47.4684	-122.3157	106.031	106.7235	-269.4391	22.44	21.92246	100	0	29	-14.79574	-9.242581	96.33685	
10:13:01	47.46839	-122.3152	98.071	98.66834	-460.8681	23.31	22.30986	100	0	38	-6.236828	-11.14834	88.92308	
10:13:03	47.46842	-122.3146	89.654	91.10898	-180.3793	25.28	23.92213	100	0	54	-0.9815349	-2.162639	85.24155	
10:13:05	47.46846	-122.314	88.61	88.76973	39.82889	25.43	24.26124	100	0	63	3.94947	3.991487	86.20981	
10:13:06	47.46849	-122.3135	90.985	90.39487	101.173	25.05	23.89272	100	0	63	3.163193	5.255454	88.44308	
10:13:08	47.46849	-122.3129	93.192	92.71703	62.45526	24.77	23.66731	100	0	60	1.331053	3.498495	89.67844	
10:13:10	47.46849	-122.3124	93.99	93.86926	28.47523	24.71	23.60591	100	0	59	-0.09590813	2.451054	90.01996	
10:13:11	47.46849	-122.3118	94.469	94.46686	39.38359	24.75	23.64138	100	0	60	-0.6499801	2.762684	89.86139	
10:13:13	47.46849	-122.3113	95.074	95.13166	43.12745	24.79	23.69073	100	0	61	-1.028538	2.957399	89.51892	
10:13:15	47.46848	-122.3107	95.966	95.89378	46.59924	24.83	23.72681	100	0	61	-1.072666	3.090882	89.17746	
10:13:16	47.46848	-122.3102	96.752	96.73967	39.73772	24.82	23.71419	100	0	60	-0.8795928	2.854349	88.96391	
10:13:18	47.46848	-122.3096	97.079	97.18221	22.06164	24.81	23.70369	100	0	61	-0.9255444	2.686084	88.8401	
10:13:20	47.46848	-122.3091	97.406	97.41381	20.52496	24.86	23.75466	100	0	61	-0.9411801	2.847906	88.82487	
10:13:22	47.46847	-122.3084	96.459	97.08873	5.191956	24.86	23.7557	100	0	64	-0.7926456	3.412403	88.89414	
10:13:23	47.46847	-122.3079	93.306	96.29279	7.135748	24.88	23.7762	100	0	68	3.543359	4.70081	88.93502	
10:13:25	47.46843	-122.3074	95.747	94.19825	-60.96931	25.57	24.51392	100	0	93	47.21637	5.455786	112.9853	
10:13:27	47.46817	-122.3069	97.421	97.14133	157.399	26.84	26.74843	100	0	84	47.19841	8.041113	156.4399	
10:13:28	47.46778	-122.3068	105.227	102.5041	184.5959	26.7	27.45494	100	0	57	22.31249	5.350784	-178.3146	
10:13:30	47.46741	-122.3069	106.705	106.4228	-59.90066	25.92	26.80783	100	0	44	2.913582	-3.809713	-171.1445	
10:13:32	47.46697	-122.307	100.852	102.994	-136.7294	25.94	26.72239	100	0	49	-2.579319	-3.91288	-169.7379	
10:13:33	47.46661	-122.3071	97.671	98.9379	-47.09547	26.08	26.93197	100	0	58	-3.483721	0.5035675	-170.6922	
10:13:35	47.46626	-122.3072	97.561	97.85069	44.29582	25.86	26.67888	100	0	62	-2.296238	3.586019	-171.4313	
10:13:37	47.46584	-122.3073	99.433	98.98515	57.40762	25.4	26.21086	100	0	61	-1.59356	3.555407	-171.4868	
10:13:38	47.46545	-122.3074	100.541	100.2512	19.08638	25.05	25.93021	100	0	57	-1.348941	1.866981	-171.3503	
10:13:40	47.46512	-122.3075	100.561	100.5317	-4.218627	24.91	25.724	100	0	56	-1.661743	1.108471	-171.3255	
10:13:42	47.46473	-122.3076	100.164	100.2734	-11.57991	24.81	25.62103	100	0	57	-5.389696	1.138347	-171.8285	
10:13:43	47.46435	-122.3076	99.657	99.75085	-41.64356	24.84	25.53553	100	0	62	-27.14018	0.9939225	178.6094	
10:13:45	47.464	-122.3075	98.432	98.70044	-29.82855	25.35	25.22252	100	0	70	-38.11971	1.763524	152.3528	
10:13:47	47.46367	-122.3072	98.732	99.16016	111.8203	25.31	24.97079	100	0	61	17.12403	4.409532	140.3534	
10:13:49	47.46334	-122.3069	99.188	98.98251	-68.89057	25.52	24.94138	100	0	78	47.3126	1.017141	170.5026	
10:13:50	47.46295	-122.307	98.966	99.10137	73.11591	26.84	26.66715	100	0	79	48.65189	2.656015	-144.4668	
10:13:52	47.46268	-122.3074	101.106	100.7892	115.8713	27.38	28.25775	100	0	74	48.17621	2.448713	-103.386	
10:13:54	47.46269	-122.3081	103.815	103.0425	62.80841	27.44	28.38275	100	0	66	46.26173	0.6461653	-67.08121	
10:13:55	47.46292	-122.3085	104.682	104.3523	-8.910137	27.52	27.92904	100	0	61	44.99448	-1.876915	-33.10759	
10:13:57	47.46333	-122.3087	103.108	103.7481	-35.22849	27.84	27.8262	100	0	58	41.75887	-2.706563	1.11147	
10:13:59	47.4637	-122.3086	101.596	102.228	-38.58863	27.88	27.7848	100	0	58	39.74588	-2.094385	31.03186	
10:14:00	47.46404	-122.3082	99.517	100.2756	-58.76907	27.97	27.6183	100	0	65	44.45124	-1.161412	63.89281	
10:14:02	47.46412	-122.3076	97.937	98.60639	-9.562798	28.07	27.38977	100	0	71	45.26929	0.9285643	100.2502	
10:14:04	47.46392	-122.307	97.261	97.74139	-6.606156	27.85	27.49375	100	0	74	45.61127	2.344059	136.3243	
10:14:06	47.46357	-122.3067	97.525	97.36474	5.214578	27.78	27.75282	100	0	76	45.77349	3.593085	173.2547	
10:14:07	47.46322	-122.3068	98.896	98.30134	13.01333	27.68	27.64799	100	0	75	45.66214	3.345618	-151.6313	
10:14:09	47.46284	-122.3073	101.693	100.3151	30.42319	27.65	28.02897	100	0	70	45.06145	2.295557	-116.933	
10:14:11	47.46276	-122.3078	103.282	102.346	-0.5028642	27.57	28.00259	100	0	64	45.02251	-0.2941814	-83.63175	
10:14:12	47.46289	-122.3084	103.601	103.2362	-26.67411	27.65	27.84424	100	0	61	44.22867	-2.27849	-50.24281	
10:14:14	47.4632	-122.3087	102.482	102.7273	-33.63791	27.87	27.81306	100	0	60	44.3143	-2.797514	-15.85035	
10:14:16	47.46367	-122.3088	100.704	101.432	-18.37111	28.21	28.00829	100	0	62	44.55704	-2.145171	19.24231	
10:14:17	47.46404	-122.3084	99.183	100.1438	-3.021455	28.35	28.34635	100	0	65	45.05486	-0.9448724	54.96848	
10:14:19	47.46415	-122.3079	98.44	99.02715	1.576265	28.14	28.05391	100	0	68	45.13374	0.2850755	90.48515	
10:14:21	47.46405	-122.3072	98.149	98.42157	7.419238	27.74	27.77059	100	0	70	44.76564	1.412527	126.5137	
10:14:23	47.46372	-122.3068	98.406	98.28372	8.298034	27.34	27.32631	100	0	72	45.07879	1.956169	162.8459	
10:14:24	47.46333	-122.3068	99.308	98.89021	17.61399	27.15	27.1946	100	0	71	45.443	1.620139	-160.5546	
10:14:26	47.46298	-122.3072	100.79	100.0833	27.53255	27.15	27.19676	100	0	68	45.32711	0.5146855	-124.1654	
10:14:28	47.46284	-122.3077	101.692	101.3414	29.37642	27.29	27.5394	100	0	65	45.15891	-0.7129167	-88.05699	
10:14:29	47.46294	-122.3083	101.787	101.8486	4.583214	27.52	27.83323	100	0	63	45.11532	-1.79338	-52.40371	
10:14:31	47.46328	-122.3087	101.014	101.4378	-5.640071	27.87	28.01459	100	0	63	44.46701	-1.618818	-16.64942	
