Date	Latitude(deg) 	Longitude(deg)	hamsl(m)	hafl(m)	climbrate(cm/s)	GroundSpeed(m/s)	Airspeed(m/s)	Mav_Link(%)	Rssi_Link(%)	Throttle	Roll(deg)	Pitch(deg)	Yaw(deg)
09:46:47	0	0	0	-0.4141747	-32.91203	0	3	29	0	5	1.188812	0.7999662	25.79076	
09:46:48	0	0	0	0.2315759	9.900722	0	3	38	0	5	1.174573	0.8572169	25.88105	
09:46:50	0	0	0	0.5211881	-81.89775	0	3	46	0	5	1.133355	1.080353	25.29357	
09:46:52	47.43814	-122.3112	0.02	-0.5289406	-63.78788	0	3	52	0	5	0.7501454	1.050144	20.08862	
09:46:53	47.43814	-122.3112	0.02	-0.3314483	-13.68681	0	3	57	0	6	0.4611271	0.7739469	15.24382	
09:46:55	47.43814	-122.3112	0.02	-0.00456197	11.30063	0	3	62	0	5	0.2753295	0.5387223	11.04705	
09:46:57	47.43814	-122.3112	0.02	0.08082634	14.45091	0	3	66	0	5	0.1184853	0.2621963	9.165639	
09:46:59	47.43814	-122.3112	0.02	0.1301956	14.68785	0	3	69	0	5	-0.01978029	-0.0157409	7.19977	
09:47:00	47.43814	-122.3112	0.02	0.1459028	12.7684	0	3	72	0	5	-0.121249	-0.2302586	5.043968	
09:47:02	47.43814	-122.3112	0.02	0.1358631	10.05889	0	3	75	0	5	-0.120339	-0.3000868	2.860844	
09:47:04	47.43814	-122.3112	0.02	0.1263493	8.903709	0	3	77	0	6	-0.1188522	-0.3509739	1.133943	
09:47:05	47.43814	-122.3112	0.02	0.09929689	6.597368	0	3	79	0	5	-0.1115967	-0.3474144	-0.6415091	
09:47:07	47.43814	-122.3112	0.02	0.08524979	5.646786	0	3	81	0	5	-0.1079996	-0.3262194	-2.076289	
09:47:09	47.43814	-122.3112	0.02	0.0756482	5.246986	0	3	83	0	5	-0.09963737	-0.2980264	-3.218314	
09:47:10	47.43814	-122.3112	0.02	0.07438317	5.188375	0	3	84	0	5	-0.08782015	-0.2754687	-4.635779	
09:47:12	47.43814	-122.3112	0.02	0.07187968	5.005726	0	3	85	0	5	-0.08732659	-0.243884	-5.449879	
09:47:14	47.43814	-122.3112	0.02	0.06912132	4.643612	0	3	87	0	4	-0.09016576	-0.2164279	-5.988283	
09:47:15	47.43814	-122.3112	0.02	0.0629701	4.032222	0	3	88	0	5	-0.08899096	-0.20851	-5.891664	
09:47:17	47.43814	-122.3112	0.02	0.05844757	3.548111	0	3	89	0	5	-0.08410254	-0.1917213	-5.560094	
09:47:19	47.43814	-122.3112	0.02	0.05215766	2.90059	0	3	90	0	4	-0.08054421	-0.166769	-5.22287	
09:47:20	47.43814	-122.3112	0.02	0.04755228	2.506868	0	3	90	0	5	-0.07812551	-0.1452409	-4.976173	
09:47:22	47.43814	-122.3112	0.02	0.04535183	2.226833	0	3	91	0	5	-0.07224841	-0.1300169	-4.545014	
09:47:24	47.43814	-122.3112	0.02	0.04350525	2.200061	0	3	92	0	5	-0.06621813	-0.1161171	-4.158113	
09:47:26	47.43814	-122.3112	0.02	0.04000842	1.738601	0	3	92	0	5	-0.06255371	-0.1027306	-3.883203	
09:47:27	47.43814	-122.3112	0.02	0.03625306	1.560128	0	3	93	0	5	-0.05578297	-0.1012337	-3.480994	
09:47:29	47.43814	-122.3112	0.02	0.03620389	1.49191	0	3	93	0	5	-0.05076395	-0.07851259	-3.13807	
09:47:31	47.43814	-122.3112	0.02	0.0341389	1.149375	0	3	94	0	5	-0.04617603	-0.06789444	-2.881618	
09:47:32	47.43814	-122.3112	0.02	0.03167586	1.071517	0	3	94	0	5	-0.03960284	-0.05583436	-2.558238	
09:47:34	47.43814	-122.3112	0.02	0.03086568	1.182975	0	3	95	0	5	-0.03424522	-0.0476392	-2.278462	
09:47:36	47.43814	-122.3112	0.02	0.03198457	1.116461	0	3	95	0	5	-0.0327298	-0.04302382	-2.071146	
09:47:37	47.43814	-122.3112	0.02	0.03167185	1.091719	0	3	95	0	5	-0.0296749	-0.03646147	-1.839675	
09:47:39	47.43814	-122.3112	0.02	0.03137813	1.268036	0	3	96	0	5	-0.02414106	-0.09509823	-1.862325	
09:47:41	47.43815	-122.3112	0.02	0.03058301	-0.4273526	1.68	3	96	0	85	-0.2692029	1.756458	-8.568589	
09:47:42	47.43826	-122.3112	0.042	0.00163548	-6.773269	11.13	10.46306	96	0	60	-0.3847422	4.369524	-21.49522	
09:47:44	47.43842	-122.3113	0.036	-0.05355855	-10.75744	14.68	14.68479	97	0	54	-0.9109266	1.440155	-25.98785	
09:47:46	47.43867	-122.3115	0.049	-0.003972175	9.102272	17.6	17.60338	97	0	49	-6.628243	2.083329	-28.27624	
09:47:48	47.43891	-122.3117	0.396	0.4132099	19.94498	18.68	18.62408	97	0	42	-16.40833	2.315168	-39.43515	
09:47:49	47.4391	-122.312	0.506	0.5555633	5.961584	19.28	19.10497	97	0	44	-12.74525	1.732775	-51.76616	
09:47:51	47.43928	-122.3123	0.603	0.6128814	7.204676	19.93	19.57128	97	0	41	-9.386241	1.481474	-60.55021	
09:47:53	47.43941	-122.3127	0.518	0.5369307	-10.26939	20.29	19.92198	97	0	42	-7.544781	0.8848999	-66.55235	
09:47:54	47.43953	-122.3131	0.199	0.2714131	-11.34812	20.77	20.35571	98	0	41	-6.60072	0.6560798	-71.50163	
09:47:56	47.43962	-122.3136	0.029	0.0846912	5.357775	21.04	20.6752	98	0	39	-1.798175	0.586825	-73.95927	
09:47:58	47.43971	-122.314	0.032	0.1026295	10.83413	21.08	20.72583	98	0	38	-1.809753	-0.01787743	-73.58406	
09:47:59	47.4398	-122.3145	0.032	0.1524459	13.8953	20.92	20.5643	98	0	36	-2.049071	-0.06685358	-73.44061	
09:48:01	47.43988	-122.3149	0.031	0.1106247	-5.145254	20.74	20.38094	98	0	37	-2.188916	-0.3575423	-73.53348	
09:48:03	47.43997	-122.3154	0.032	0.0157266	-6.342982	20.88	20.46381	98	0	40	-2.320154	-0.7381161	-74.02386	
09:48:04	47.44006	-122.3159	0.03	-0.09319581	-39.95657	21.09	20.71277	98	0	44	-5.081849	-0.07499099	-74.32893	
09:48:06	47.44013	-122.3164	0.058	0.04084181	62.92819	21.78	21.25349	98	0	42	-3.848013	-0.5936761	-78.74214	
09:48:08	47.44019	-122.3169	-0.019	2.514789	340.6677	19.96	19.9748	98	0	4	-6.707597	-1.905928	-82.4754	
09:48:09	47.44021	-122.3172	0.018	3.970764	486.6796	17.26	16.75629	99	0	4	-7.546526	3.421674	-83.30403	
09:48:11	47.44024	-122.3176	0.05	-0.3787739	-303.6046	13.94	13.68316	99	0	4	-1.565021	-0.8198799	-81.62632	
09:48:13	47.44027	-122.3179	0.024	-2.323173	-236.1988	12.14	11.85579	99	0	5	-1.748602	1.534722	-76.09964	
09:48:15	47.4403	-122.3181	0.026	-1.464062	-75.1244	10.97	10.73923	99	0	5	-0.6283876	0.5938637	-71.25028	
09:48:16	47.44035	-122.3184	0.019	-0.4102988	-4.716259	9.84	9.550299	99	0	4	-0.5307826	0.1358493	-66.8335	
09:48:18	47.4404	-122.3186	-0.007	0.2019011	77.7053	8.73	8.531905	99	0	4	-4.518534	1.758266	-62.64563	
09:48:20	47.44045	-122.3187	0.04	0.865698	-27.05917	7.01	7.027743	99	0	4	0.8886777	0.7366318	-61.86892	
09:48:21	47.44049	-122.3188	0.02	-0.2877594	-78.96242	5.39	5.360724	99	0	4	0.03633455	1.493744	-61.8986	
09:48:23	47.44053	-122.3189	0.05	-0.5795254	-76.84457	3.86	3.91074	99	0	4	-4.262807	-3.601825	-60.56925	
09:48:25	47.44054	-122.319	0.01	-0.5222543	-80.49295	2.46	3	99	0	4	-10.13521	12.04287	-50.84913	
09:48:26	47.44056	-122.319	0.021	-0.3715733	-29.64929	0.82	3	99	0	4	-5.032489	-0.5492021	-47.16941	
09:48:28	47.44056	-122.319	0.02	-0.222723	-16.20065	0	3	99	0	4	-0.59983	4.187766	-47.077	
09:48:30	47.44056	-122.319	0.02	-0.1158464	-9.159935	0	3	99	0	4	-0.3418233	2.146051	-47.30686	
09:48:31	47.44056	-122.319	0.02	-0.05995353	-5.938025	0	3	99	0	6	-0.08729538	1.169744	-48.06131	
09:48:33	47.44056	-122.319	0.02	-0.03600067	-4.742489	0	3	99	0	4	0.1336379	0.4056081	-49.10123	
09:48:35	47.44056	-122.319	0.02	-0.02734016	-4.405169	0	3	99	0	4	0.2970156	-0.1398141	-50.1932	
09:48:37	47.44056	-122.319	0.02	-0.02309857	-4.111446	0	3	99	0	4	0.4119927	-0.5208418	-51.32856	
09:48:38	47.44056	-122.319	0.02	-0.01996601	-3.825052	0	3	99	0	4	0.4929135	-0.8022788	-52.49128	
09:48:40	47.44056	-122.319	0.02	-0.01703434	-3.53706	0	3	99	0	4	0.5497827	-0.9953572	-53.46126	
09:48:42	47.44071	-122.3181	0.018	0.3312468	73.90451	0	3	99	0	4	-0.4062098	-3.342583	-50.46216	
09:48:43	47.44071	-122.3181	0.02	0.4291953	24.78208	0	3	99	0	4	-0.7592147	-3.026616	-38.88438	
09:48:45	47.44071	-122.3181	0.02	0.1040339	-8.532141	0	3	99	0	4	-0.7115233	-2.250386	-29.79664	
09:48:47	47.44071	-122.3181	0.02	-0.08698665	-16.42698	0	3	99	0	4	-0.5485336	-1.801396	-22.02356	
09:48:48	47.44071	-122.3181	0.02	-0.1193379	-13.0465	0	3	99	0	4	-0.3447701	-1.425076	-14.54784	
09:48:50	47.44071	-122.3181	0.02	-0.08843799	-8.756575	0	3	99	0	4	-0.1429015	-1.170123	-8.894644	
09:48:52	47.44071	-122.3181	0.02	-0.05859076	-6.585031	0	3	99	0	4	0.04635533	-1.009117	-4.371381	
09:48:53	47.44071	-122.3181	0.02	-0.04270712	-5.591399	0	3	99	0	4	0.2064894	-0.8214955	-0.289067	
09:48:55	47.44071	-122.3181	0.02	-0.03466957	-5.163282	0	3	99	0	4	0.3397283	-0.7009519	2.882728	
09:48:57	47.44071	-122.3181	0.02	-0.02857812	-4.575497	0	3	99	0	4	0.4422546	-0.6173034	5.303907	
09:48:59	47.44071	-122.3181	0.02	-0.0233128	-3.902106	0	3	99	0	4	0.5093341	-0.5023419	7.123755	
09:49:00	47.44071	-122.3181	0.02	-0.01777711	-3.634546	0	3	99	0	4	0.5559204	-0.4356075	8.330311	
09:49:02	47.44071	-122.3181	0.02	-0.01332052	-3.127803	0	3	99	0	4	0.5922849	-0.3790635	9.24563	
09:49:04	47.44071	-122.3181	0.02	-0.01160319	-3.038835	0	3	99	0	4	0.5908765	-0.2713086	9.545044	
09:49:05	47.44071	-122.3181	0.02	-0.008331072	-2.641134	0	3	99	0	4	0.5854689	-0.2112384	9.681301	
09:49:07	47.44071	-122.3181	0.02	-0.00471794	-2.374756	0	3	99	0	4	0.5783918	-0.1680608	9.778015	
09:49:09	47.44071	-122.3181	0.02	-0.0008926358	-1.801174	0	3	99	0	4	0.5437777	-0.1231045	9.374	
09:49:10	47.44071	-122.3181	0.02	0.002120434	-1.670196	0	3	99	0	4	0.5117301	-0.087413	8.959224	
09:49:12	47.44071	-122.3181	0.02	0.002908519	-1.750346	0	3	99	0	4	0.4903466	-0.06346273	8.660789	
09:49:14	47.44071	-122.3181	0.02	0.002543892	-1.72921	0	3	99	0	4	0.4471919	-0.03494029	8.011271	
09:49:15	47.44071	-122.3181	0.02	0.004107379	-1.485984	0	3	99	0	4	0.4084361	-0.01733401	7.370803	
09:49:17	47.44071	-122.3181	0.02	0.006407873	-1.098057	0	3	99	0	4	0.382584	-0.01528323	6.884328	
09:49:19	47.44071	-122.3181	0.02	0.01034586	-0.9266292	0	3	99	0	4	0.3407836	0.003404192	6.154019	
09:49:21	47.44071	-122.3181	0.02	0.01277602	-0.6749184	0	3	99	0	4	0.3047754	0.009002656	5.525318	
09:49:22	47.44071	-122.3181	0.02	0.01184794	-0.8199611	0	3	99	0	4	0.280964	0.02087538	5.044357	
09:49:24	47.44071	-122.3181	0.02	0.01296699	-0.6229898	0	3	99	0	4	0.2482653	0.01739256	4.430239	
09:49:26	47.44071	-122.3181	0.02	0.01417764	-0.5016592	0	3	99	0	4	0.218052	0.01474842	3.894565	
09:49:27	47.44071	-122.3181	0.02	0.0158816	-0.3323399	0	3	99	0	4	0.1999077	0.01325632	3.481968	
09:49:29	47.44071	-122.3181	0.02	0.01558126	-0.5632743	0	3	99	0	4	0.1746679	0.01200291	3.003483	
09:49:31	47.44071	-122.3181	0.02	0.01423981	-0.5768257	0	3	99	0	4	0.1536831	0.01645609	2.589244	
09:49:32	47.44071	-122.3181	0.02	0.01626869	-0.1408514	0	3	99	0	4	0.1389152	0.006206199	2.278337	
09:49:34	47.44071	-122.3181	0.02	0.01922672	-0.1684413	0	3	99	0	4	0.117177	0.01902714	1.91004	
09:49:36	47.44071	-122.3181	0.02	0.01787667	-0.3096106	0	3	99	0	4	0.1022317	0.0312847	1.627883	
09:49:38	47.44071	-122.3181	0.02	0.01598084	-0.4769679	0	3	99	0	4	0.09159887	0.01381091	1.414822	
09:49:39	47.44071	-122.3181	0.02	0.01569623	-0.388207	0	3	99	0	4	0.07679523	0.01728447	1.189451	
09:49:41	47.44071	-122.3181	0.02	0.01628702	-0.3926231	0	3	99	0	4	0.06782866	0.01607377	1.008836	
09:49:43	47.44071	-122.3181	0.02	0.01865798	-0.02762599	0	3	99	0	4	0.06065113	0.01091027	0.8727796	
09:49:44	47.44071	-122.3181	0.02	0.01905907	-0.1791731	0	3	99	0	4	0.05110603	0.01939729	0.7421232	
09:49:46	47.44071	-122.3181	0.02	0.01864588	-0.1267934	0	3	99	0	4	0.0441895	0.01647971	0.6400962	
09:49:48	47.44071	-122.3181	0.02	0.01807963	-0.2789755	0	3	99	0	4	0.03866547	0.01467224	0.5622861	
09:49:50	47.44071	-122.3181	0.02	0.01669845	-0.2850746	0	3	99	0	4	0.03455697	0.02071712	0.4990307	
09:49:51	47.44071	-122.3181	0.02	0.01751894	-0.1715104	0	3	99	0	4	0.02827184	0.01806658	0.4485277	
09:49:53	47.44071	-122.3181	0.02	0.01757269	-0.2780847	0	3	99	0	4	0.02448652	0.01371138	0.4081558	
09:49:55	47.44071	-122.3181	0.02	0.01858362	-0.05394147	0	3	99	0	4	0.02058121	0.00897234	0.3818481	
09:49:56	47.44071	-122.3181	0.02	0.01969241	-0.07922109	0	3	99	0	4	0.01680068	0.004089842	0.3602582	
09:49:58	47.44071	-122.3181	0.02	0.01613626	-0.4667013	0.57	3	99	0	100	-0.06061402	-0.009588365	-2.907762	
09:50:00	47.44076	-122.3181	0.03	-0.004731032	-3.456851	8.71	7.814666	99	0	78	-0.3008108	4.659739	-13.89744	
09:50:01	47.44093	-122.3181	0.027	0.1133455	33.64547	14.15	14.40119	99	0	52	-0.08379345	0.3338165	-21.73663	
09:50:03	47.44115	-122.3183	0.029	0.2050545	10.68787	16.69	16.61331	99	0	41	-1.325913	-0.08797859	-23.09221	
09:50:05	47.44141	-122.3184	0.03	0.00177298	-6.534336	18.12	18.00973	99	0	45	-1.617805	-0.1395393	-24.2912	
09:50:06	47.44164	-122.3186	0.185	0.526877	97.32641	19.23	19.23248	99	0	26	-10.98739	3.162474	-26.23669	
09:50:08	47.44192	-122.3188	0.032	0.2916513	-58.33628	19.22	18.84588	99	0	37	-1.901969	-0.5809245	-34.84226	
09:50:10	47.44215	-122.319	0.546	-0.2152343	-53.71384	20.1	19.57497	99	0	56	-11.68264	1.410531	-39.54264	
09:50:11	47.4424	-122.3194	1.573	1.037378	69.36141	21.44	20.46366	99	0	45	-10.25295	2.770702	-48.70024	
09:50:13	47.4426	-122.3197	2.487	2.468842	42.89644	21.59	20.36914	99	0	47	-7.827979	1.081797	-55.0274	
09:50:15	47.44277	-122.3201	2.853	2.902861	8.714533	21.69	20.39535	99	0	40	-6.387335	-0.09314219	-59.96647	
09:50:17	47.44292	-122.3205	2.193	2.520407	-23.10708	21.72	20.23986	99	0	47	-5.627322	-0.8017175	-64.04668	
09:50:18	47.44307	-122.321	2.363	2.331719	14.58727	21.91	20.09878	99	0	45	-5.851552	0.05708603	-68.16574	
09:50:20	47.44318	-122.3214	3.764	3.393124	65.05782	22.15	20.4937	99	0	46	-5.438391	0.2965397	-72.00643	
09:50:22	47.44329	-122.322	5.521	5.210747	104.0015	22.32	20.53048	99	0	41	-5.319369	0.3771213	-75.36999	
09:50:23	47.44337	-122.3225	6.854	6.982698	81.39819	22.04	20.24189	99	0	40	-4.777079	-0.6341793	-78.36232	
09:50:25	47.44343	-122.3229	6.591	7.098921	3.814869	21.68	19.77197	99	0	33	-4.549674	-1.819243	-81.04871	
09:50:27	47.44348	-122.3233	5.617	5.959425	-38.88971	21.44	19.46687	99	0	34	-4.993605	-1.772194	-84.02969	
09:50:28	47.44351	-122.3239	8.525	7.470332	140.2567	22.16	19.87181	99	0	56	-5.730536	1.221907	-87.57449	
09:50:30	47.44352	-122.3244	11.533	11.16505	159.1594	21.85	19.95198	99	0	30	-4.591727	0.184608	-90.38941	
09:50:32	47.44352	-122.3248	12.215	12.7082	86.5353	21.53	19.44077	99	0	32	-4.834223	-1.292831	-93.02672	
09:50:33	47.44351	-122.3253	11.536	12.19366	-27.85996	20.85	18.87195	99	0	27	-4.241333	-2.784131	-95.59297	
09:50:35	47.44348	-122.3257	10.106	10.38532	-52.54472	20.69	18.54061	99	0	36	-5.201134	-1.724884	-98.56857	
09:50:37	47.44343	-122.3263	9.38	9.73943	2.921156	21.46	19.19842	99	0	32	-5.23377	0.6324087	-101.9465	
09:50:38	47.44336	-122.3267	10.312	9.951119	-12.38623	20.92	18.73375	99	0	50	-5.237774	0.1988494	-106.3287	
09:50:40	47.44327	-122.3272	10.618	10.48703	42.05806	21.7	19.42898	99	0	44	-5.70487	1.137942	-110.5496	
09:50:42	47.44315	-122.3277	11.165	11.1267	12.87641	21.59	19.34464	99	0	44	-5.019014	0.3015763	-113.9485	
09:50:43	47.44303	-122.3281	11.738	11.33957	6.418127	21.71	19.54453	99	0	50	-4.970595	0.08436949	-117.2158	
09:50:45	47.44289	-122.3285	13.101	12.69186	83.96467	22.33	20.18871	99	0	49	-5.231149	1.051192	-120.4587	
09:50:47	47.44286	-122.3286	13.539	14.04716	101.2641	22.41	20.26929	99	0	26	-4.599558	1.406733	-122.9946	
09:50:49	47.44286	-122.3286	13.539	14.25983	89.05779	22.41	20.26929	99	0	15	-4.474459	1.122158	-124.7257	
09:50:50	47.44286	-122.3286	13.539	14.25983	89.05779	22.41	20.26929	99	0	12	-4.341944	0.8361943	-126.5253	
09:50:52	47.44286	-122.3286	13.539	14.25983	89.05779	22.41	20.26929	99	0	9	-0.008994975	-0.007794654	-0.02032242	
09:50:54	47.4407	-122.3181	0.02	3.984454	-585.3837	0	17.92703	99	0	4	5.056937	-4.459926	-61.87423	
