Date	Latitude(deg) 	Longitude(deg)	hamsl(m)	hafl(m)	climbrate(cm/s)	GroundSpeed(m/s)	Airspeed(m/s)	Mav_Link(%)	Rssi_Link(%)	Throttle	Roll(deg)	Pitch(deg)	Yaw(deg)
13:04:57	0	0	0	0.579007	-4.18448	0	0	39	0	4	1.156581	0.8799788	25.9661	
13:04:59	47.4407	-122.3181	0.02	1.392516	9.404811	0	0	49	0	4	1.127863	1.112044	25.70919	
13:05:01	47.4407	-122.3181	0.02	-0.002069243	-44.71796	0	0	57	0	4	0.7349347	0.9270577	19.77946	
13:05:03	47.4407	-122.3181	0.02	-0.2767293	-27.54303	0	0	63	0	4	0.4627835	0.7274029	15.19356	
13:05:04	47.4407	-122.3181	0.02	-0.1422786	-6.664719	0	0	68	0	4	0.267074	0.5115108	11.20643	
13:05:06	47.4407	-122.3181	0.02	-0.011204	1.965523	0	0	72	0	4	0.1281774	0.3104949	7.707336	
13:05:08	47.4407	-122.3181	0.02	0.0321206	2.41803	0	0	75	0	4	0.03996238	0.1367459	5.595922	
13:05:09	47.4407	-122.3181	0.02	0.03553306	1.040377	0	0	78	0	4	-0.017775	0.03577979	3.195377	
13:05:11	47.4407	-122.3181	0.02	0.02672936	0.2379128	0	0	80	0	4	-0.05487424	-0.05810124	1.074922	
13:05:13	47.4407	-122.3181	0.02	0.02124553	-0.09314165	0	0	82	0	4	-0.07950193	-0.1244382	-0.4959606	
13:05:14	47.4407	-122.3181	0.02	0.02070264	0.1656391	0	0	84	0	4	-0.09466235	-0.1647917	-1.691364	
13:05:16	47.4407	-122.3181	0.02	0.02066069	0.049931	0	0	86	0	4	-0.1032502	-0.1993187	-2.605239	
13:05:18	47.4407	-122.3181	0.02	0.02071468	0.152365	0.22	0	87	0	24	-0.107373	-0.4444047	-4.104329	
13:05:19	47.44073	-122.3181	0.021	-0.01509456	-9.265735	4.96	0	88	0	79	-0.09805296	0.8658869	-5.581739	
13:05:21	47.44089	-122.3181	0.043	-0.0639477	3.757845	14.93	0	89	0	99	0.9690667	3.678324	-7.048795	
13:05:23	47.44113	-122.3181	1.943	1.887446	196.8867	20.17	0	90	0	99	2.667179	5.954128	-2.699399	
13:05:25	47.44146	-122.3181	6.296	5.979722	247.2352	23.71	0	91	0	99	1.101184	5.463665	0.6938846	
13:05:26	47.44186	-122.318	10.959	10.43714	218.3536	26.41	0	92	0	99	0.00283295	3.85581	3.075892	
13:05:28	47.44229	-122.318	14.526	14.09791	189.25	28.3	0	92	0	99	-0.2266647	2.753238	4.700587	
13:05:30	47.44274	-122.3179	17.438	17.11527	168.3286	29.75	0	93	0	99	-0.9148825	2.166264	4.621521	
13:05:31	47.44316	-122.3178	19.442	19.45145	125.8457	30.76	0	94	0	99	-1.02646	1.291396	4.958514	
13:05:33	47.44366	-122.3177	21.085	21.03605	93.71906	31.55	0	94	0	99	-0.4774214	0.9557968	5.936252	
13:05:35	47.44413	-122.3176	22.243	22.23366	76.63625	32.03	0	94	0	99	-0.4726619	0.8303516	6.544374	
13:05:36	47.44463	-122.3175	23.291	23.25224	54.86036	32.33	0	95	0	99	-0.3961906	0.5255558	7.300466	
13:05:38	47.44509	-122.3174	24.019	24.0054	46.28651	32.55	0	95	0	99	-0.4663221	0.4234424	8.170764	
13:05:40	47.44556	-122.3173	24.378	24.49807	28.69036	32.67	0	96	0	99	-0.2788916	0.2738599	9.062403	
13:05:42	47.44606	-122.3172	24.362	24.54227	5.294232	32.76	0	96	0	100	-0.1834363	0.2217227	10.01957	
13:05:43	47.44645	-122.317	24.235	24.27999	-11.19401	32.82	0	96	0	99	-0.2614265	0.2457257	11.40259	
13:05:45	47.44645	-122.317	24.235	24.18717	-14.61301	32.82	0	96	0	99	-0.1846862	0.308285	13.14011	
13:05:47	47.44753	-122.3167	24.104	23.84518	-63.83629	31.37	0	97	0	56	0.1942006	-0.5027529	14.44851	
13:05:48	47.448	-122.3165	22.968	22.93952	-105.7339	27.98	0	97	0	34	0.03566259	-1.681537	15.12004	
13:05:50	47.44835	-122.3164	21.156	21.18545	-130.2642	25.85	0	97	0	34	-0.1107494	-2.186627	15.593	
13:05:52	47.44873	-122.3162	18.98	19.11483	-123.2699	24.36	0	97	0	34	-0.3215917	-1.933868	15.99039	
13:05:53	47.44908	-122.316	16.957	17.09971	-116.1504	23.42	0	97	0	26	-0.5611932	-1.659989	16.21761	
13:05:55	47.44942	-122.3159	14.846	15.04373	-125.1547	22.32	0	98	0	27	-0.4480209	-1.708313	16.27304	
13:05:57	47.44975	-122.3158	12.5	12.80168	-138.7899	21.52	0	98	0	26	-0.3175861	-1.873331	16.62604	
13:05:58	47.45004	-122.3156	10.468	10.56823	-125.3773	21.02	0	98	0	27	-0.3843991	-1.44953	16.96467	
13:06:00	47.45036	-122.3155	9.042	8.914992	-101.5482	20.52	0	98	0	27	-0.2492212	-1.226252	17.40728	
13:06:02	47.45062	-122.3153	7.504	7.621127	-81.13628	20.19	0	98	0	27	-0.4800449	-0.9603752	17.86716	
13:06:04	47.45093	-122.3152	5.621	5.8987	-89.18703	19.85	0	98	0	27	-0.4359014	-0.7290268	18.21715	
13:06:05	47.45118	-122.3151	4.123	4.160898	-76.95818	19.75	0	98	0	59	-1.071197	0.09492195	18.42573	
13:06:07	47.45146	-122.3149	3.669	3.897029	61.90202	21.68	0	98	0	59	-1.171904	3.284953	18.36179	
13:06:09	47.45146	-122.3149	3.669	4.216519	82.87483	21.68	0	98	0	56	-2.00306	4.585389	18.54422	
13:06:10	47.45216	-122.3145	8.508	6.714348	25.33461	22.86	0	99	0	65	-0.314674	1.264626	17.86573	
13:06:12	47.45253	-122.3144	7.937	8.471421	82.10123	24.64	0	99	0	65	0.5378568	1.085546	19.03102	
13:06:14	47.45286	-122.3142	7.437	8.425716	51.14228	25.59	0	99	0	65	0.2887775	1.066673	20.11635	
13:06:15	47.45323	-122.314	6.987	7.505392	-11.4085	26.21	0	99	0	65	-0.05040117	0.8579216	21.04563	
13:06:17	47.45358	-122.3138	6.932	6.787773	-26.70133	26.61	0	99	0	65	0.01245952	0.6667536	21.79903	
13:06:19	47.45398	-122.3135	6.609	6.669274	-13.10983	26.9	0	99	0	66	-0.1399543	0.5567592	22.46482	
13:06:21	47.45432	-122.3133	6.386	6.326079	-20.06597	27.05	0	99	0	66	-0.3917375	0.365856	22.95373	
13:06:22	47.45474	-122.313	6.556	6.406479	2.560158	27.17	0	99	0	66	-0.3510256	0.4797334	23.34895	
13:06:24	47.45509	-122.3127	6.154	6.278875	-9.87634	27.2	0	99	0	65	-0.2944981	0.3667327	23.68605	
13:06:26	47.45547	-122.3124	5.864	5.901893	-24.03145	27.28	0	99	0	66	-5.687286	0.2220592	24.43496	
13:06:27	47.45578	-122.3122	5.548	5.547441	1.424006	27.19	0	99	0	65	-18.9658	1.058446	17.01297	
13:06:29	47.45625	-122.312	5.799	5.52596	-26.03036	27.02	0	99	0	65	-24.01768	0.2606867	4.684681	
13:06:31	47.45657	-122.312	5.988	5.863221	15.71514	27.01	0	99	0	65	-23.26414	0.5635527	-9.523751	
13:06:32	47.45707	-122.3122	7.047	6.344299	37.34345	27.03	0	99	0	66	-13.75676	0.8283169	-23.14494	
13:06:34	47.45741	-122.3124	7.898	7.786369	26.53007	26.99	0	99	0	64	4.323243	0.1530864	-17.64778	
13:06:36	47.45786	-122.3125	6.525	7.351757	-26.30179	27.52	0	99	0	66	2.551645	-0.09157032	-11.12363	
13:06:37	47.4583	-122.3125	4.18	5.201263	-79.52826	28.14	0	99	0	71	0.8636092	-0.1904331	-6.564957	
13:06:39	47.45868	-122.3125	2.595	2.87705	-76.66257	28.9	0	99	0	73	0.1515368	0.2441486	-3.753973	
13:06:41	47.45914	-122.3124	1.739	1.681431	-44.86591	29.34	0	99	0	73	-0.4148261	0.3637461	-1.871363	
13:06:43	47.45954	-122.3124	1.544	1.334802	-30.09695	29.39	0	99	0	73	-0.7194624	0.05423059	-0.9900403	
13:06:44	47.46001	-122.3123	1.626	1.480093	9.373867	29.35	0	99	0	73	-0.9278747	0.177077	-0.6073687	
13:06:46	47.46048	-122.3123	2.825	2.410154	42.96753	29.19	0	99	0	73	-1.088337	0.1211061	-0.8897859	
13:06:48	47.4609	-122.3123	4.43	4.086761	81.48881	29.01	0	99	0	73	-1.101272	0.1963519	-1.654237	
13:06:49	47.46125	-122.3123	5.803	6.012906	102.8893	28.87	0	99	0	73	-0.8987924	0.1838959	-2.834332	
13:06:51	47.46176	-122.3124	8.135	8.073993	121.0265	28.72	0	99	0	73	-1.213547	0.1683795	-4.352303	
13:06:53	47.46192	-122.3124	9.034	9.149012	88.18339	28.68	0	99	0	64	-0.02086209	-0.1025577	-6.332621	
13:06:54	47.46265	-122.3126	12.765	11.55917	127.8622	28.05	0	99	0	62	-3.624954	0.02103201	-7.702665	
13:06:56	47.4631	-122.3127	14.83	14.69581	143.7004	27.38	0	99	0	39	0.08228304	-0.3539138	-9.484091	
13:06:58	47.46351	-122.3128	16.231	16.25329	85.99598	25.38	0	99	0	38	1.817131	-1.341606	-7.324779	
13:06:59	47.46383	-122.3129	16.982	17.13531	65.57066	24.31	0	99	0	38	0.8167502	-1.3202	-6.678209	
13:07:01	47.46384	-122.3129	17.004	17.49779	48.89719	24.28	0	99	0	37	-0.5044206	-1.716915	-7.092701	
13:07:03	47.46384	-122.3129	17.004	17.35714	23.98193	24.28	0	99	0	38	-1.447397	-2.150386	-8.242557	
13:07:05	47.46384	-122.3129	17.004	17.19825	12.49995	24.28	0	99	0	38	-2.109306	-2.569758	-9.855123	
13:07:06	47.46384	-122.3129	17.004	17.12765	10.01126	24.28	0	99	0	38	-2.568698	-2.918607	-11.55659	
13:07:08	47.46384	-122.3129	17.004	17.11	9.961955	24.28	0	99	0	38	-2.88489	-3.161367	-13.10998	
13:07:10	47.46384	-122.3129	17.004	17.10593	9.612379	24.28	0	99	0	38	-3.042397	-3.404052	-14.71426	
13:07:11	47.46384	-122.3129	17.004	17.09992	8.82811	24.28	0	99	0	38	-3.120611	-3.605959	-16.16628	
13:07:13	47.46384	-122.3129	17.004	17.09112	7.87834	24.28	0	99	0	38	-3.188906	-3.73323	-17.33322	
13:07:15	47.46384	-122.3129	17.004	17.08152	6.897101	24.28	0	99	0	38	-3.168693	-3.846167	-18.36895	
13:07:16	47.46384	-122.3129	17.004	17.0735	6.182665	24.28	0	99	0	38	-3.103402	-3.940017	-19.23687	
13:07:18	47.46384	-122.3129	17.004	17.06666	5.509863	24.28	0	99	0	38	-3.07252	-3.992897	-19.86595	
13:07:20	47.46384	-122.3129	17.004	17.06068	4.976531	24.28	0	99	0	38	-2.995815	-4.036522	-20.33917	
13:07:22	47.46384	-122.3129	17.004	17.05547	4.444664	24.28	0	99	0	38	-2.882824	-4.074533	-20.65485	
13:07:23	47.46384	-122.3129	17.004	17.05109	4.108631	24.28	0	99	0	38	-2.813332	-4.094847	-20.84434	
13:07:25	47.46384	-122.3129	17.004	17.0468	3.623889	24.28	0	99	0	38	-2.713436	-4.113316	-20.90519	
13:07:27	47.46384	-122.3129	17.004	17.04303	3.268926	24.28	0	99	0	38	-2.596066	-4.130762	-20.84576	
13:07:28	47.46384	-122.3129	17.004	17.03966	2.945582	24.28	0	99	0	38	-2.517202	-4.141768	-20.75611	
13:07:30	47.46384	-122.3129	17.004	17.03658	2.700829	24.28	0	99	0	38	-2.421269	-4.153742	-20.58213	
13:07:32	47.46384	-122.3129	17.004	17.03379	2.381414	24.28	0	99	0	38	-2.308522	-4.168068	-20.33164	
13:07:33	47.46384	-122.3129	17.004	17.03139	2.116278	24.28	0	99	0	38	-2.229828	-4.178956	-20.09867	
13:07:35	47.46384	-122.3129	17.004	17.02907	1.918647	24.28	0	99	0	38	-2.13947	-4.191763	-19.82164	
13:07:37	47.46384	-122.3129	17.004	17.02687	1.632936	24.28	0	99	0	38	-2.042003	-4.206273	-19.50237	
13:07:38	47.46384	-122.3129	17.004	17.02492	1.538233	24.28	0	99	0	38	-1.971291	-4.218181	-19.22484	
13:07:40	47.46384	-122.3129	17.004	17.02315	1.386284	24.28	0	99	0	38	-1.895557	-4.231261	-18.93792	
13:07:42	47.46384	-122.3129	17.004	17.02143	1.144498	24.28	0	99	0	38	-1.812713	-4.245718	-18.62076	
13:07:44	47.46384	-122.3129	17.004	17.01987	1.019332	24.28	0	99	0	38	-1.752178	-4.257512	-18.3589	
13:07:45	47.46384	-122.3129	17.004	17.01839	0.8263323	24.28	0	99	0	38	-1.690629	-4.269549	-18.10493	
13:07:47	47.46384	-122.3129	17.004	17.01705	0.6819644	24.28	0	99	0	38	-1.624378	-4.282382	-17.84136	
13:07:49	47.46384	-122.3129	17.004	17.01589	0.6405553	24.28	0	99	0	38	-1.575444	-4.292635	-17.62105	
13:07:50	47.46384	-122.3129	17.004	17.01481	0.6258009	24.28	0	99	0	38	-1.527648	-4.302501	-17.4162	
13:07:52	47.46384	-122.3129	17.004	17.01374	0.410449	24.28	0	99	0	38	-1.477377	-4.312587	-17.21562	
13:07:54	47.46384	-122.3129	17.004	17.01278	0.307456	24.28	0	99	0	38	-1.440453	-4.320435	-17.04832	
13:07:55	47.46384	-122.3129	17.004	17.01192	0.3123331	24.28	0	99	0	38	-1.404848	-4.327811	-16.89938	
13:07:57	47.46384	-122.3129	17.004	17.01112	0.1989087	24.28	0	99	0	38	-1.368465	-4.334982	-16.75964	
13:07:59	47.46384	-122.3129	17.004	17.01041	0.1483883	24.28	0	99	0	37	-1.341434	-4.340564	-16.64156	
13:08:01	47.46384	-122.3129	17.004	17.00974	0.01371121	24.28	0	99	0	38	-1.31651	-4.34551	-16.54203	
13:08:02	47.46384	-122.3129	17.004	17.00914	-0.02324036	24.28	0	99	0	38	-1.291304	-4.350165	-16.45431	
13:08:04	47.46384	-122.3129	17.004	17.00861	-0.1188877	24.28	0	99	0	38	-1.272736	-4.353725	-16.37884	
13:08:06	47.46384	-122.3129	17.004	17.00813	-0.1073468	24.28	0	99	0	38	-1.256456	-4.356699	-16.3192	
13:08:07	47.46384	-122.3129	17.004	17.00769	-0.1608347	24.28	0	99	0	38	-1.239983	-4.359371	-16.27155	
13:08:09	47.46384	-122.3129	17.004	17.00731	-0.06950223	24.28	0	99	0	38	-1.22812	-4.361359	-16.22979	
13:08:11	47.46384	-122.3129	17.004	17.00696	-0.3171935	24.28	0	99	0	38	-1.218152	-4.362947	-16.19826	
13:08:12	47.46384	-122.3129	17.004	17.00663	-0.2438989	24.28	0	99	0	38	-1.207955	-4.36425	-16.17927	
13:08:14	47.46384	-122.3129	17.004	17.00635	-0.1933583	24.28	0	99	0	38	-1.200893	-4.365166	-16.16089	
13:08:16	47.46384	-122.3129	17.004	17.0061	-0.3004441	24.28	0	99	0	38	-1.19508	-4.365828	-16.14924	
13:08:17	47.46384	-122.3129	17.004	17.00588	-0.3218661	24.28	0	99	0	38	-1.189637	-4.366208	-16.14777	
13:08:19	47.46384	-122.3129	17.004	17.00568	-0.3613746	24.28	0	99	0	38	-1.186049	-4.366428	-16.14399	
13:08:21	47.46384	-122.3129	17.004	17.00551	-0.3078856	24.28	0	99	0	37	-1.183227	-4.366509	-16.1449	
13:08:23	47.46384	-122.3129	17.004	17.00534	-0.3934914	24.28	0	99	0	38	-1.180809	-4.366371	-16.15398	
13:08:24	47.46384	-122.3129	17.004	17.00519	-0.3984272	24.28	0	99	0	38	-1.17943	-4.366196	-16.15867	
13:08:26	47.46384	-122.3129	17.004	17.00508	-0.3598621	24.28	0	99	0	38	-1.178477	-4.365976	-16.16597	
13:08:28	47.46384	-122.3129	17.004	17.00497	-0.3606024	24.28	0	99	0	38	-1.177901	-4.365565	-16.17973	
13:08:29	47.46384	-122.3129	17.004	17.00486	-0.4078679	24.28	0	99	0	38	-1.177807	-4.365196	-16.18906	
13:08:31	47.46384	-122.3129	17.004	17.00478	-0.3806976	24.28	0	99	0	38	-1.177938	-4.364842	-16.19816	
13:08:33	47.46384	-122.3129	17.004	17.00469	-0.4762606	24.28	0	99	0	38	-1.178352	-4.364331	-16.21318	
13:08:34	47.46384	-122.3129	17.004	17.00462	-0.3778464	24.28	0	99	0	38	-1.178902	-4.363904	-16.22443	
13:08:36	47.46384	-122.3129	17.004	17.00456	-0.386797	24.28	0	99	0	38	-1.179532	-4.363521	-16.23392	
13:08:38	47.46384	-122.3129	17.004	17.00449	-0.3940567	24.28	0	99	0	38	-1.180395	-4.363015	-16.24794	
13:08:39	47.46384	-122.3129	17.004	17.00444	-0.4254983	24.28	0	99	0	38	-1.18125	-4.362597	-16.25834	
13:08:41	47.46384	-122.3129	17.004	17.00439	-0.4701334	24.28	0	99	0	38	-1.182036	-4.362248	-16.26675	
13:08:43	47.46384	-122.3129	17.004	17.00435	-0.4437464	24.28	0	99	0	38	-1.183019	-4.361798	-16.27851	
13:08:45	47.46384	-122.3129	17.004	17.00432	-0.4658845	24.28	0	99	0	37	-1.183901	-4.361435	-16.28737	
13:08:46	47.46384	-122.3129	17.004	17.00428	-0.5427573	24.28	0	99	0	38	-1.184688	-4.361129	-16.29469	
13:08:48	47.46384	-122.3129	17.004	17.00425	-0.4648851	24.28	0	99	0	38	-1.185612	-4.360765	-16.30314	
13:08:50	47.46384	-122.3129	17.004	17.00423	-0.4824116	24.28	0	99	0	38	-1.186374	-4.360481	-16.30991	
13:08:51	47.46384	-122.3129	17.004	17.0042	-0.4864461	24.28	0	99	0	38	-1.187031	-4.360242	-16.31534	
13:08:53	47.46384	-122.3129	17.004	17.00418	-0.5076354	24.28	0	99	0	38	-1.187749	-4.359973	-16.32168	
13:08:55	47.46384	-122.3129	17.004	17.00416	-0.486706	24.28	0	99	0	38	-1.188348	-4.359759	-16.32653	
13:08:56	47.46384	-122.3129	17.004	17.00414	-0.5259678	24.28	0	99	0	38	-1.188847	-4.359588	-16.33033	
13:08:58	47.46384	-122.3129	17.004	17.00413	-0.498092	24.28	0	99	0	38	-1.189384	-4.359399	-16.33452	
13:09:00	47.46384	-122.3129	17.004	17.00411	-0.5099232	24.28	0	99	0	38	-1.189823	-4.359248	-16.33771	
13:09:02	47.46384	-122.3129	17.004	17.0041	-0.4635109	24.28	0	99	0	38	-1.19017	-4.359128	-16.34022	
13:09:03	47.46384	-122.3129	17.004	17.00409	-0.5019436	24.28	0	99	0	38	-1.190522	-4.359004	-16.34264	
13:09:05	47.46384	-122.3129	17.004	17.00408	-0.5592744	24.28	0	99	0	38	-1.190805	-4.358912	-16.34456	
13:09:07	47.46384	-122.3129	17.004	17.00407	-0.5602857	24.28	0	68	0	38	-1.191035	-4.358835	-16.34607	
13:09:08	47.46384	-122.3129	17.004	17.00406	-0.4523736	24.28	0	70	0	38	-1.191244	-4.358756	-16.34727	
13:09:10	47.46384	-122.3129	17.004	17.00406	-0.4490794	24.28	0	71	0	24	-1.191405	-4.358702	-16.34824	
13:09:12	47.46407	-122.3129	25.936	25.9632	925.4564	15.98	0	73	0	56	55.42699	31.71377	26.17562	
13:09:13	47.46418	-122.3126	37.401	36.89286	507.5823	15.97	0	74	0	80	43.22861	22.92158	86.64503	
13:09:15	47.46411	-122.3122	41.122	41.65991	185.1726	19.4	0	76	0	80	6.849585	10.91556	102.8311	
13:09:17	47.46394	-122.3118	42.098	42.66644	124.9278	22.41	0	77	0	80	7.116922	9.576205	112.6407	
13:09:18	47.46377	-122.3114	43.414	43.07325	-72.67976	24.34	0	78	0	80	-38.36926	4.485446	104.0306	
13:09:20	47.46367	-122.3108	42.066	42.65327	59.07404	26.56	0	79	0	80	-0.8996392	4.48227	81.36543	
13:09:22	47.46365	-122.3103	42.528	42.68529	16.93364	27.42	0	81	0	59	2.027261	3.544434	88.46381	
13:09:24	47.4636	-122.3096	42.851	42.26675	-105.1943	26.34	0	82	0	42	2.096456	0.6525003	90.35313	
13:09:25	47.46356	-122.3091	41.56	41.07082	-134.186	25.04	0	83	0	42	1.806326	-0.5144244	94.8222	
13:09:27	47.46349	-122.3086	39.927	39.57734	-126.619	24.21	0	84	0	42	0.5758442	-0.7118286	97.87636	
13:09:29	47.46341	-122.308	38.393	38.06843	-120.1341	23.49	0	85	0	6	0.1955016	-0.6076633	99.87276	
13:09:30	47.46341	-122.308	38.393	37.51764	-82.02802	23.49	0	86	0	4	-0.2919777	-1.427806	101.2573	
13:09:32	47.46363	-122.3078	0.02	9.847836	-1168.884	0	0	87	0	5	2.042157	0.8162536	116.4748	
13:09:34	47.46363	-122.3078	0.02	-8.825167	-1140.291	0	0	87	0	4	2.657885	-0.3299336	132.7055	
13:09:35	47.46363	-122.3078	0.02	-7.106671	-426.582	0	0	88	0	4	2.928041	-1.096842	145.668	
13:09:37	47.46363	-122.3078	0.02	-2.455149	-30.19875	0	0	89	0	4	2.935968	-1.534051	156.8512	
13:09:39	47.46363	-122.3078	0.02	-0.08138223	55.03293	0	0	90	0	4	2.808554	-1.791602	167.0639	
13:09:41	47.46363	-122.3078	0.02	0.3075309	23.14204	0	0	90	0	5	2.741745	-1.834229	174.6303	
13:09:42	47.46363	-122.3078	0.02	0.06885763	-10.59661	0	0	91	0	4	2.727853	-2.333666	-179.6671	
13:09:44	47.46363	-122.3078	0.02	-0.1266369	-21.39817	0	0	91	0	4	2.568096	-2.064028	-174.82	
13:09:46	47.46363	-122.3078	0.02	-0.1754844	-19.2893	0	0	92	0	4	2.510709	-1.866503	-171.3177	
13:09:47	47.46363	-122.3078	0.02	-0.1491015	-14.52162	0	0	93	0	5	2.458434	-1.645631	-168.9069	
13:09:49	47.46363	-122.3078	0.02	-0.1165404	-11.96094	0	0	93	0	4	2.324139	-1.364686	-167.4369	
13:09:51	47.46363	-122.3078	0.02	-0.09661973	-10.53707	0	0	93	0	5	2.249004	-1.14982	-166.3575	
13:09:52	47.46363	-122.3078	0.02	-0.08254885	-9.367065	0	0	94	0	4	2.16905	-0.9570057	-165.8212	
13:09:54	47.46363	-122.3078	0.02	-0.07170128	-8.268735	0	0	94	0	4	2.003303	-0.7288582	-166.0679	
13:09:56	47.46363	-122.3078	0.02	-0.05813082	-6.598736	0	0	95	0	4	1.887642	-0.5992082	-166.2057	
13:09:57	47.46363	-122.3078	0.02	-0.04170769	-5.061478	0	0	95	0	4	1.777974	-0.4639004	-166.4806	
13:09:59	47.46363	-122.3078	0.02	-0.0331592	-4.505054	0	0	95	0	4	1.599069	-0.3245062	-167.3886	
13:10:01	47.46363	-122.3078	0.02	-0.02666679	-4.009152	0	0	96	0	4	1.469273	-0.2531287	-168.0083	
13:10:03	47.46363	-122.3078	0.02	-0.01991006	-3.34499	0	0	96	0	5	1.361602	-0.1685818	-168.5441	
13:10:04	47.46363	-122.3078	0.02	-0.01459192	-2.855687	0	0	96	0	3	1.197708	-0.1027053	-169.575	
13:10:06	47.46363	-122.3078	0.02	-0.01118379	-2.656548	0	0	96	0	4	1.08015	-0.06110263	-170.2622	
13:10:08	47.46363	-122.3078	0.02	-0.008653038	-2.093235	0	0	97	0	4	0.9923417	-0.03285551	-170.7525	
13:10:09	47.46363	-122.3078	0.02	-0.00143192	-1.543528	0	0	97	0	4	0.8562018	-0.002849603	-171.645	
13:10:11	47.46363	-122.3078	0.02	0.0009348282	-1.448412	0	0	97	0	4	0.7617154	0.01172849	-172.2034	
13:10:13	47.46363	-122.3078	0.02	0.001425092	-1.641969	0	0	97	0	5	0.6954567	0.0237833	-172.5979	
13:10:14	47.46363	-122.3078	0.02	0.003363075	-1.116809	0	0	97	0	5	0.5922415	0.02999404	-173.2571	
13:10:16	47.46363	-122.3078	0.02	0.005138679	-0.9742346	0	0	97	0	4	0.5227559	0.03461527	-173.6739	
13:10:18	47.46363	-122.3078	0.02	0.007864919	-0.8069441	0	0	98	0	4	0.4740296	0.03607869	-173.953	
13:10:19	47.46363	-122.3078	0.02	0.00947168	-0.5875166	0	0	98	0	4	0.4013028	0.0330898	-174.3743	
13:10:21	47.46363	-122.3078	0.02	0.010468	-0.4893168	0	0	98	0	4	0.3496913	0.02974744	-174.6607	
13:10:23	47.46363	-122.3078	0.02	0.01235791	-0.3847622	0	0	98	0	5	0.3141346	0.02763154	-174.8398	
13:10:25	47.46363	-122.3078	0.02	0.01507954	-0.1823503	0	0	98	0	4	0.2636859	0.02737982	-175.1047	
13:10:26	47.46363	-122.3078	0.02	0.01413339	-0.1420546	0	0	98	0	4	0.2294216	0.02816666	-175.2738	
13:10:28	47.46363	-122.3078	0.02	0.0129997	-0.5066721	0	0	98	0	4	0.2069128	0.02368588	-175.375	
13:10:30	47.46363	-122.3078	0.02	0.01448932	-0.02259256	0	0	98	0	4	0.1726919	0.01093702	-175.5243	
13:10:31	47.46363	-122.3078	0.02	0.01796798	0.3447686	0	0	98	0	4	0.1477857	-0.0009741231	-175.6175	
13:10:33	47.46363	-122.3078	0.02	0.01950929	0.2627203	0	0	99	0	4	0.1301584	0.008545316	-175.6742	
13:10:35	47.46363	-122.3078	0.02	0.01952298	0.3349038	0	0	99	0	4	0.10958	0.003414491	-175.7518	
13:10:36	47.46363	-122.3078	0.02	0.01844212	0.1956311	0	0	99	0	4	0.09428447	0.009286342	-175.8005	
13:10:38	47.46363	-122.3078	0.02	0.02039322	0.2919613	0	0	99	0	4	0.08009507	0.001376973	-175.828	
13:10:40	47.46363	-122.3078	0.02	0.02261245	0.7531904	0	0	99	0	4	0.06722117	0.0002712224	-175.8622	
13:10:42	47.46363	-122.3078	0.02	0.0239146	0.7050802	0	0	99	0	4	0.05758102	-0.002615497	-175.8838	
13:10:43	47.46363	-122.3078	0.02	0.02162401	0.4618774	0	0	99	0	4	0.05047854	0.01036318	-175.895	
13:10:45	47.46363	-122.3078	0.02	0.02111913	0.5141628	0	0	99	0	4	0.04226371	0.009754357	-175.9111	
13:10:47	47.46363	-122.3078	0.02	0.02200597	0.5211009	0	0	99	0	5	0.03490152	0.01253764	-175.9196	
13:10:48	47.46363	-122.3078	0.02	0.02069284	0.4249982	0	0	99	0	5	0.02760471	0.0157168	-175.9228	
13:10:50	47.46363	-122.3078	0.02	0.02189859	0.5515555	0	0	99	0	4	0.02327468	0.01157334	-175.9264	
13:10:52	47.46363	-122.3078	0.02	0.0220191	0.5547625	0	0	99	0	4	0.02081006	0.009161131	-175.9276	
13:10:53	47.46363	-122.3078	0.02	0.03122813	1.140132	1.47	0	99	0	99	-0.3088556	1.058079	-177.1237	
13:10:55	47.46351	-122.3077	0.028	0.0334539	4.994388	12.49	0	99	0	99	-0.7766374	2.838477	-179.5985	
13:10:57	47.46328	-122.3077	0.464	0.6356889	147.275	19.01	0	99	0	99	2.241447	5.918708	178.5247	
13:10:58	47.46296	-122.3077	3.803	3.450761	203.8406	22.93	0	99	0	99	-0.5584254	6.014657	-178.5025	
13:11:00	47.46262	-122.3077	7.244	7.087184	182.2359	25.79	0	99	0	99	-0.6657998	4.305173	-178.0538	
13:11:02	47.46218	-122.3077	10.324	10.11429	140.816	28.2	0	99	0	99	-0.189964	3.059819	-176.9916	
13:11:04	47.46172	-122.3077	12.221	12.15662	91.96732	29.94	0	99	0	99	-0.3885172	1.919035	-176.4943	
13:11:05	47.46125	-122.3077	13.625	13.40803	58.76383	31.1	0	99	0	99	-0.2776865	1.389228	-176.2659	
13:11:07	47.46081	-122.3077	14.233	14.27892	35.3944	31.83	0	99	0	99	-0.3489095	0.9175968	-176.1947	
13:11:09	47.46035	-122.3077	14.32	14.50712	22.46245	32.37	0	99	0	99	-0.08891664	0.7903926	-176.2273	
13:11:10	47.45981	-122.3078	14.6	14.36677	-14.16376	32.8	0	99	0	99	-0.2343007	0.240298	-176.4528	
13:11:12	47.4593	-122.3078	15.298	14.994	20.19605	33.04	0	99	0	99	-0.2359729	0.2429761	-176.6263	
13:11:14	47.4588	-122.3079	15.734	15.69927	31.25593	33.1	0	99	0	99	0.4805236	0.1589454	-176.0608	
13:11:15	47.45827	-122.3079	16.135	16.15657	28.36355	33.14	0	99	0	99	0.2684987	0.1993026	-175.201	
13:11:17	47.45778	-122.308	16.919	16.70183	33.82144	33.15	0	99	0	99	0.2844099	0.1539979	-174.8154	
13:11:19	47.45731	-122.3081	17.777	17.66059	63.21106	33.19	0	99	0	99	0.006492782	0.3370511	-174.2314	
13:11:21	47.4568	-122.3082	18.909	18.85511	70.36503	33.18	0	99	0	99	-0.2053431	0.2384242	-173.6759	
13:11:22	47.45627	-122.3083	20.057	20.00167	69.36637	33.17	0	99	0	99	-0.4063972	0.1084851	-173.3024	
13:11:24	47.45593	-122.3084	20.587	20.85702	61.33772	33.18	0	99	0	99	-1.002047	0.1112105	-174.197	
13:11:26	47.45525	-122.3086	22.008	20.98528	53.40006	33.16	0	99	0	73	-2.455801	0.2236588	-177.6675	
13:11:27	47.45487	-122.3087	22.661	22.34618	29.04318	31.53	0	99	0	79	0.3704295	-0.7824136	-171.8536	
13:11:29	47.45436	-122.3089	22.758	23.03518	51.65761	30.96	0	99	0	84	0.2442311	-0.1799633	-167.7697	
13:11:31	47.45388	-122.3091	23.15	23.34559	50.04971	31.18	0	99	0	89	-0.4862144	0.07321554	-165.2663	
13:11:32	47.45343	-122.3093	23.778	23.8373	48.35114	31.42	0	99	0	79	-0.02108919	0.1711454	-162.6731	
13:11:34	47.45298	-122.3095	24.504	24.32181	5.15591	29.57	0	99	0	45	0.3525202	-0.6864869	-160.573	
13:11:36	47.4526	-122.3097	24.204	24.27548	-28.97206	27.34	0	99	0	21	0.2625404	-1.501056	-158.9909	
13:11:37	47.45222	-122.3099	22.742	22.97688	-98.48355	24.5	0	99	0	21	0.4341549	-2.887167	-158.0865	
13:11:39	47.45188	-122.3101	20.61	20.97007	-106.8609	22.89	0	99	0	21	-0.02722955	-2.817173	-157.4942	
13:11:41	47.45181	-122.3101	20.269	19.60532	-85.6013	22.63	0	99	0	21	-0.2285285	-3.561009	-157.001	
13:11:43	47.45181	-122.3101	20.269	19.79367	-20.25773	22.63	0	99	0	21	-0.4294765	-4.772567	-156.4572	
13:11:44	47.45181	-122.3101	20.269	20.21697	14.72813	22.63	0	99	0	21	-0.5709581	-5.641593	-156.0707	
13:11:46	47.45181	-122.3101	20.269	20.42287	21.07548	22.63	0	99	0	21	-0.6421635	-6.11852	-155.7535	
13:11:48	47.45181	-122.3101	20.269	20.44422	19.89516	22.63	0	99	0	21	-0.762774	-6.522117	-154.919	
13:11:49	47.45181	-122.3101	20.269	20.44422	19.85947	22.63	0	99	0	21	-0.9054776	-6.921808	-153.9437	
13:11:51	47.45181	-122.3101	20.269	20.4384	15.3949	22.63	0	99	0	21	-0.8839637	-7.251153	-154.2315	
13:11:53	47.45181	-122.3101	20.269	20.39993	11.32985	22.63	0	99	0	21	-0.8386161	-7.416255	-154.6046	
13:11:54	47.45181	-122.3101	20.269	20.37072	9.23084	22.63	0	99	0	21	-0.8168635	-7.52945	-154.8881	
13:11:56	47.45181	-122.3101	20.269	20.35488	8.225105	22.63	0	99	0	21	-0.7872984	-7.595572	-155.3484	
13:11:58	47.45181	-122.3101	20.269	20.34579	7.533105	22.63	0	99	0	21	-0.7779701	-7.638062	-155.7254	
13:11:59	47.45181	-122.3101	20.269	20.33848	6.833968	22.63	0	99	0	22	-0.7833487	-7.665767	-156.0033	
13:12:01	47.45181	-122.3101	20.269	20.33143	6.140544	22.63	0	99	0	21	-0.7886099	-7.654479	-156.3552	
13:12:03	47.45181	-122.3101	20.269	20.32499	5.504202	22.63	0	99	0	21	-0.802233	-7.639205	-156.6508	
13:12:05	47.46363	-122.311	0.02	10.7671	-411.7023	0	0	99	0	5	1.055197	-3.592983	-160.2188	
13:12:06	47.46363	-122.311	0.02	-3.534877	-677.1708	0	0	99	0	4	1.087061	-2.326719	-165.3958	
13:12:08	47.46363	-122.311	0.02	-4.837764	-460.6016	0	0	99	0	4	0.8622273	-1.405032	-167.4491	
13:12:10	47.46363	-122.311	0.02	-4.432957	-331.8845	0	0	99	0	4	0.6028652	-0.6346797	-169.2324	
13:12:11	47.46363	-122.311	0.02	-1.879817	-46.306	0	0	99	0	4	0.44992	-0.2589753	-172.3494	
13:12:13	47.46363	-122.311	0.02	-0.1564245	42.44548	0	0	99	0	4	0.3135361	0.02567716	-174.615	
13:12:15	47.46363	-122.311	0.02	0.3141499	35.25121	0	0	99	0	4	0.2135952	0.2143728	-176.2337	
13:12:16	47.46363	-122.311	0.02	0.2317229	13.15975	0	0	99	0	4	0.1193882	0.356913	-177.5295	
13:12:18	47.46363	-122.311	0.02	0.08879893	1.720832	0	0	99	0	4	0.04785583	0.4524025	-178.4743	
13:12:20	47.46363	-122.311	0.02	0.02137486	-0.4686456	0	0	99	0	4	0.002175831	0.5211412	-179.138	
13:12:21	47.46363	-122.311	0.02	0.01234427	0.8886261	0	0	99	0	4	-0.0317429	0.5480573	-179.4957	
13:12:23	47.46363	-122.311	0.02	0.02005787	1.339347	0	0	99	0	5	-0.05750576	0.5574383	-179.7156	
13:12:25	47.46363	-122.311	0.02	0.02509085	1.859474	0	0	99	0	4	-0.07231961	0.5720851	-179.8457	
13:12:27	47.46363	-122.311	0.02	0.02775762	1.99143	0	0	99	0	4	-0.07905993	0.5462549	-179.7371	
13:12:28	47.46363	-122.311	0.02	0.02904108	2.350203	0	0	99	0	4	-0.08146331	0.5139753	-179.5801	
13:12:30	47.46363	-122.311	0.02	0.03053713	2.368638	0	0	99	0	4	-0.08517277	0.4918774	-179.4661	
13:12:32	47.46363	-122.311	0.02	0.02789829	1.810251	0	0	99	0	4	-0.08240238	0.4575206	-179.172	
13:12:33	47.46363	-122.311	0.02	0.02699523	1.994907	0	0	99	0	4	-0.0776438	0.4376731	-178.8969	
13:12:35	47.46363	-122.311	0.02	0.02786118	2.029388	0	0	99	0	4	-0.07694872	0.4093727	-178.6912	
13:12:37	47.46363	-122.311	0.02	0.02743145	1.813238	0	0	99	0	4	-0.07039022	0.3750629	-178.3844	
13:12:38	47.46363	-122.311	0.02	0.02690563	1.871511	0	0	99	0	4	-0.06509618	0.3311922	-178.0933	
13:12:40	47.46363	-122.311	0.02	0.02620537	1.950858	0	0	99	0	4	-0.06128364	0.302352	-177.8748	
13:12:42	47.46363	-122.311	0.02	0.02663742	2.028316	0	0	99	0	4	-0.05518347	0.2714674	-177.6056	
13:12:43	47.46363	-122.311	0.02	0.02499863	1.597104	0	0	99	0	4	-0.05292002	0.2341159	-177.3541	
13:12:45	47.46363	-122.311	0.02	0.0226169	1.275707	0	0	99	0	4	-0.0484368	0.2141799	-177.1742	
13:12:47	47.46363	-122.311	0.02	0.02323189	1.604979	0	0	99	0	4	-0.04416082	0.1828099	-176.9647	
13:12:49	47.46363	-122.311	0.02	0.02385691	1.729272	0	0	99	0	4	-0.03944552	0.1718816	-176.774	
13:12:50	47.46363	-122.311	0.02	0.02296851	1.494097	0	0	99	0	4	-0.03666462	0.1587916	-176.634	
13:12:52	47.46363	-122.311	0.02	0.02044095	1.097886	0	0	99	0	4	-0.03513106	0.1362232	-176.4916	
13:12:54	47.46363	-122.311	0.02	0.01936676	1.207283	0	0	99	0	5	-0.03010515	0.1149888	-176.3592	
13:12:55	47.46363	-122.311	0.02	0.01994052	1.218919	0	0	99	0	4	-0.0274705	0.1057466	-176.2631	
13:12:57	47.46363	-122.311	0.02	0.02052204	2.326671	0.04	0	99	0	99	0.2431561	-0.001240951	-176.6886	
13:12:59	47.4636	-122.311	0.023	0.02792691	2.845028	6.72	0	99	0	99	-0.07620943	1.901514	-174.0595	
13:13:00	47.46341	-122.311	0.063	0.1662735	60.70935	16.39	0	99	0	99	2.427616	4.964957	-172.2496	
13:13:02	47.46313	-122.3111	2.091	1.988603	173.3973	21.43	0	99	0	99	2.713164	6.070113	-166.3223	
13:13:04	47.4628	-122.3112	5.262	5.16697	173.7041	24.61	0	99	0	79	1.24812	4.64425	-163.201	
13:13:06	47.46241	-122.3113	7.757	7.488054	87.47942	25.6	0	99	0	76	0.1405556	2.377127	-161.7686	
13:13:07	47.46204	-122.3115	8.792	8.848418	59.97694	26.62	0	99	0	77	-0.3208385	1.588732	-161.7333	
13:13:09	47.46161	-122.3117	9.374	9.423306	33.21166	27.57	0	99	0	76	-0.7127161	1.224523	-162.418	
13:13:11	47.46121	-122.3118	10.144	9.937575	21.70071	28.04	0	99	0	59	-0.2395907	0.7858666	-163.3447	
13:13:12	47.4608	-122.312	9.963	9.94998	-31.42977	27.11	0	99	0	53	-0.3873977	-0.394923	-164.1761	
13:13:14	47.46043	-122.3122	9.187	9.257006	-46.30534	26.37	0	99	0	50	-0.7153087	-0.6302299	-165.5155	
13:13:16	47.46003	-122.3123	8.465	8.497991	-49.77102	25.57	0	99	0	45	-0.5447177	-0.7234929	-167.1353	
13:13:17	47.45963	-122.3125	7.843	7.792515	-43.5566	24.86	0	99	0	45	-0.7838571	-0.7325111	-168.8887	
13:13:19	47.45927	-122.3126	7.129	7.272416	-28.95253	24.44	0	99	0	45	-0.6224776	-0.6668367	-170.5931	
13:13:21	47.45893	-122.3127	6.665	6.703347	-26.05579	24.13	0	99	0	41	-0.7312977	-0.5586897	-172.1917	
13:13:23	47.45855	-122.3128	5.848	6.07123	-54.21914	22.23	0	99	0	24	-10.42146	-2.26973	173.3683	
13:13:24	47.45839	-122.3128	5.162	4.88338	-87.56124	21.51	0	99	0	65	-1.800384	-1.692265	176.5223	
13:13:26	47.45834	-122.3128	5.025	4.818671	53.60869	21.54	0	99	0	67	-3.96329	1.340673	-179.8029	
13:13:28	47.45758	-122.3128	10.137	8.574644	129.207	23.14	0	99	0	65	5.311049	1.860944	-160.527	
13:13:29	47.45723	-122.313	13.252	12.8513	183.8621	23.69	0	99	0	70	0.3459627	1.144719	-148.3278	
13:13:31	47.45693	-122.3132	15.249	15.82498	189.2508	24.08	0	99	0	72	0.152001	1.596831	-138.9118	
13:13:33	47.45656	-122.3135	18.122	18.31107	158.496	25.22	0	99	0	37	4.791774	0.2793923	-131.3922	
13:13:34	47.45625	-122.3138	19.958	20.09338	83.8842	22.17	0	99	0	35	-9.145237	-2.728197	-141.4897	
13:13:36	47.45595	-122.3141	19.954	20.4152	18.82217	19.93	0	99	0	44	-7.400993	-2.954593	-160.5645	
13:13:38	47.45564	-122.3142	18.427	19.52306	-8.356969	19.4	0	99	0	37	-5.674576	-1.684604	-178.2795	
13:13:39	47.45539	-122.3141	16.812	17.53026	-79.66547	18.71	0	99	0	46	-3.468704	-1.411163	165.6734	
13:13:41	47.45512	-122.314	14.212	14.79003	-106.8077	18.89	0	99	0	51	-2.697172	-0.4282404	149.3778	
13:13:43	47.45483	-122.3138	11.265	12.15978	-107.6295	19.75	0	99	0	64	2.405619	0.9817107	142.4004	
13:13:45	47.4546	-122.3136	9.527	9.928691	-63.50092	21.39	0	99	0	68	4.157153	2.596039	138.5452	
13:13:46	47.4543	-122.3133	8.934	8.793717	-42.72504	23.35	0	99	0	69	9.209951	3.042203	144.2317	
13:13:48	47.45398	-122.313	9.402	8.776661	-28.67273	24.79	0	99	0	69	4.950804	2.422313	145.357	
13:13:50	47.45367	-122.3127	9.611	9.200279	-8.750001	25.71	0	99	0	68	2.787023	1.756381	144.5782	
13:13:51	47.45334	-122.3124	9.57	9.459602	-2.347368	26.45	0	99	0	68	1.447534	1.294371	142.8447	
13:13:53	47.45312	-122.3122	9.524	9.462693	-7.000779	26.8	0	99	0	68	0.9230194	0.8216535	141.0498	
13:13:55	47.45303	-122.3122	9.517	9.450788	-4.024347	26.92	0	99	0	68	0.9156588	0.7670708	139.2975	
13:13:56	47.4523	-122.3114	9.671	9.492701	-13.46122	27.55	0	99	0	68	-0.4626187	0.2914786	137.1856	
13:13:58	47.45196	-122.3111	9.638	9.579064	9.668196	27.81	0	99	0	69	-0.2951117	0.3425355	134.9437	
13:14:00	47.45162	-122.3107	9.927	9.849278	23.89118	27.95	0	99	0	68	-0.2578255	0.3886366	133.4214	
13:14:01	47.45128	-122.3102	10.763	10.51478	30.72457	27.99	0	99	0	68	-0.1605584	0.08540852	132.3269	
13:14:03	47.45097	-122.3098	11.567	11.46111	51.99197	27.95	0	99	0	65	0.04343608	0.1727408	132.0868	
13:14:05	47.45067	-122.3094	12.247	12.20599	43.38672	27.69	0	99	0	65	-0.2745537	-0.1013687	131.7469	
13:14:07	47.45034	-122.309	12.874	12.87604	48.74308	27.53	0	99	0	65	-0.1288903	0.06084831	131.8246	
13:14:08	47.45008	-122.3086	13.494	13.55606	48.10659	27.41	0	99	0	65	-0.3397101	0.1311172	132.1929	
13:14:10	47.44977	-122.3081	14.282	14.26653	44.2709	27.26	0	99	0	50	1.203903	0.007357741	137.1478	
13:14:12	47.44946	-122.3077	14.919	14.7568	1.150465	24.18	0	99	0	52	8.235378	-1.37184	151.6909	
13:14:13	47.44917	-122.3075	14.822	14.79415	-12.59561	22.41	0	99	0	54	5.907715	-1.477628	166.489	
13:14:15	47.44888	-122.3074	14.589	14.58669	-15.76719	21.08	0	99	0	55	6.950644	-1.65314	-175.8143	
13:14:17	47.44852	-122.3074	14.19	14.1877	-22.72434	20.07	0	99	0	58	4.590859	-1.196489	-160.0195	
13:14:18	47.44822	-122.3075	13.717	13.83021	-17.13556	19.61	0	99	0	58	3.09677	-0.7426039	-146.0944	
13:14:20	47.44801	-122.3077	13.242	13.28156	-20.66693	19.55	0	99	0	47	1.365287	-0.2361238	-133.136	
13:14:22	47.44801	-122.3077	13.242	13.07627	-18.52374	19.55	0	99	0	51	4.691216	-1.688136	-120.0111	
13:14:24	47.44758	-122.3083	9.891	11.29085	-89.26744	19.08	0	99	0	62	0.7160082	-1.215807	-111.7012	
13:14:25	47.44743	-122.3087	8.752	8.92736	-67.48183	19.51	0	99	0	66	-2.143042	1.52818	-108.6071	
13:14:27	47.44731	-122.3091	8.634	8.182249	-68.8433	19.29	0	99	0	59	-1.125344	1.087515	-102.4852	
13:14:29	47.44723	-122.3095	8.262	7.816667	-67.71459	19.03	0	99	0	59	-0.9344796	0.2889488	-94.29247	
13:14:30	47.44719	-122.3099	7.531	7.349411	-46.73746	19.02	0	99	0	59	-0.6108879	0.3551787	-84.34306	
13:14:32	47.4472	-122.3103	6.529	6.572167	-51.92985	19.04	0	99	0	59	-0.2863312	0.239791	-72.91692	
13:14:34	47.44727	-122.3108	5.429	5.538766	-58.21965	19.13	0	99	0	60	-0.295865	0.2657287	-61.2732	
13:14:35	47.44738	-122.3112	4.425	4.509646	-55.5267	19.24	0	99	0	61	0.04138193	0.3613002	-49.32184	
13:14:37	47.44757	-122.3115	3.238	3.435419	-48.37039	19.63	0	99	0	70	-0.2221632	0.7603922	-37.1555	
13:14:39	47.44776	-122.3118	2.493	2.626123	-22.20126	20.27	0	99	0	80	-0.1952723	1.547272	-24.19614	
13:14:40	47.44807	-122.3121	2.023	2.146687	-15.36435	20.92	0	99	0	80	0.04489291	1.71166	-10.88792	
13:14:42	47.44834	-122.3122	1.469	1.603993	-28.1548	21.27	0	99	0	84	-0.410816	1.474713	2.209974	
13:14:44	47.44871	-122.3122	0.953	0.972694	-37.39686	22.17	0	99	0	94	-3.604047	1.234337	10.00385	
13:14:46	47.44904	-122.3122	0.646	0.7521319	28.10475	25.55	0	99	0	99	-14.03583	2.280743	5.264589	
13:14:47	47.44946	-122.3122	1.571	1.480278	46.70872	28.24	0	99	0	99	-8.539315	1.857573	0.08387332	
13:14:49	47.44981	-122.3122	2.362	2.376789	49.26813	29.48	0	99	0	98	-5.275927	1.551227	-1.303915	
13:14:51	47.4504	-122.3122	4.024	3.515146	52.18004	30.41	0	99	0	96	-2.841188	1.013902	-0.674078	
13:14:52	47.45081	-122.3122	4.642	4.658635	29.77273	30.47	0	99	0	83	-1.678896	0.2605929	1.30485	
13:14:54	47.45129	-122.3122	4.437	4.625168	-12.92512	29.84	0	99	0	88	-1.130883	-0.198758	3.602228	
13:14:56	47.45174	-122.3122	4.119	4.291511	-5.467377	29.96	0	99	0	88	-0.9696587	0.2124081	6.087876	
13:14:57	47.45218	-122.3121	4.39	4.21971	-6.47406	30.02	0	99	0	88	-1.380125	0.1953607	8.628776	
13:14:59	47.4526	-122.312	4.539	4.474045	14.42602	30.09	0	99	0	88	-0.4527401	0.2741612	11.05974	
13:15:01	47.453	-122.3118	4.743	4.720307	11.36819	30.17	0	99	0	88	-0.9264516	0.1391637	13.44636	
13:15:03	47.4535	-122.3117	4.776	4.844705	12.69275	30.28	0	99	0	87	-0.7770485	0.2028204	15.55348	
13:15:04	47.45384	-122.3115	4.778	4.804594	6.85153	30.35	0	99	0	80	-0.5730941	0.310485	17.36273	
13:15:06	47.45392	-122.3115	4.756	4.89245	26.32387	30.32	0	99	0	77	0.2794922	1.202776	18.87888	
13:15:08	47.45482	-122.311	4.019	4.467049	-109.4342	29.55	0	100	0	73	-1.375088	-1.098736	20.93283	
13:15:09	47.45523	-122.3107	1.591	2.324315	-74.21941	30.07	0	100	0	97	-1.712561	-0.379259	21.40289	
13:15:11	47.45562	-122.3105	0.807	1.111971	-8.311487	31.62	0	99	0	99	-1.458377	0.5659381	21.71998	
13:15:13	47.45611	-122.3102	0.587	0.575007	-35.41352	32.07	0	100	0	92	-0.852275	0.05385405	22.08071	
13:15:14	47.45654	-122.3099	0.416	0.2407179	-23.45646	32.02	0	100	0	90	-1.245057	0.116219	22.29376	
13:15:16	47.45686	-122.3097	0.613	0.4252402	1.854127	32.03	0	99	0	90	-1.371884	0.02208643	22.17985	
13:15:18	47.45686	-122.3097	0.613	0.6765722	16.3501	32.03	0	100	0	90	-1.866102	0.009074332	21.77176	
13:15:19	47.45686	-122.3097	0.613	0.7498947	15.36638	32.03	0	100	0	90	-2.192465	-0.01200987	21.1855	
13:15:21	47.45686	-122.3097	0.613	0.7320458	11.05912	32.03	0	100	0	90	-2.407587	-0.03595278	20.5535	
13:15:23	47.45686	-122.3097	0.613	0.7003382	8.1999	32.03	0	100	0	90	-2.552993	-0.05168586	19.97729	
13:15:25	47.45686	-122.3097	0.613	0.6801723	7.007256	32.03	0	100	0	90	-2.621812	-0.06246283	19.44525	
13:15:26	47.45686	-122.3097	0.613	0.6705806	6.402071	32.03	0	100	0	91	-2.618382	-0.06797768	18.97879	
13:15:28	47.45686	-122.3097	0.613	0.6652676	5.966908	32.03	0	100	0	90	-2.616133	-0.06645524	18.64555	
13:15:30	47.45686	-122.3097	0.613	0.66074	5.576079	32.03	0	100	0	91	-2.580789	-0.06166695	18.39704	
13:15:31	47.45686	-122.3097	0.613	0.6564046	5.180293	32.03	0	100	0	90	-2.490464	-0.05370456	18.24677	
13:15:33	47.45686	-122.3097	0.613	0.6524583	4.550705	32.03	0	100	0	90	-2.428795	-0.04473127	18.1869	
13:15:35	47.45686	-122.3097	0.613	0.6486449	4.552531	32.03	0	100	0	90	-2.357655	-0.03604526	18.191	
13:15:36	47.45686	-122.3097	0.613	0.6453536	4.11753	32.03	0	100	0	90	-2.246798	-0.02670583	18.29851	
13:15:38	47.45686	-122.3097	0.613	0.6425509	3.708115	32.03	0	100	0	90	-2.170304	-0.01953082	18.43171	
13:15:40	47.45686	-122.3097	0.613	0.6398566	3.455523	32.03	0	100	0	90	-2.098661	-0.01414991	18.59579	
13:15:41	47.45686	-122.3097	0.613	0.6373762	3.269877	32.03	0	100	0	90	-1.993987	-0.009826507	18.84127	
13:15:43	47.45686	-122.3097	0.613	0.6351669	3.052739	32.03	0	100	0	90	-1.920884	-0.007777397	19.06665	
13:15:45	47.45686	-122.3097	0.613	0.6331751	2.727427	32.03	0	100	0	91	-1.855753	-0.007032054	19.30582	
13:15:47	47.45686	-122.3097	0.613	0.6313233	2.794293	32.03	0	100	0	90	-1.771195	-0.008115438	19.58344	
13:15:48	47.45686	-122.3097	0.613	0.6296772	2.459482	32.03	0	100	0	91	-1.713864	-0.009849133	19.83511	
13:15:50	47.45686	-122.3097	0.613	0.6281025	2.444051	32.03	0	100	0	90	-1.660633	-0.01276247	20.07035	
13:15:52	47.45686	-122.3097	0.613	0.6266723	2.273485	32.03	0	100	0	90	-1.598588	-0.01659731	20.32848	
13:15:53	47.45686	-122.3097	0.613	0.6253506	2.210448	32.03	0	100	0	90	-1.55594	-0.02040556	20.54666	
13:15:55	47.45686	-122.3097	0.613	0.6241083	1.824795	32.03	0	100	0	90	-1.516782	-0.02455117	20.74705	
13:15:57	47.45686	-122.3097	0.613	0.622956	1.823019	32.03	0	100	0	91	-1.470978	-0.02934228	20.95131	
13:15:58	47.45686	-122.3097	0.613	0.6219307	1.702834	32.03	0	100	0	90	-1.439742	-0.03341728	21.12463	
13:16:00	47.45686	-122.3097	0.613	0.6210114	1.66735	32.03	0	100	0	90	-1.412407	-0.03741818	21.27318	
13:16:02	47.45686	-122.3097	0.613	0.6202095	1.718441	32.03	0	100	0	91	-1.37936	-0.0417546	21.41752	
13:16:04	47.45686	-122.3097	0.613	0.6195034	1.467324	32.03	0	100	0	91	-1.356797	-0.04524691	21.53956	
13:16:05	47.45686	-122.3097	0.613	0.6188435	1.491703	32.03	0	100	0	90	-1.337691	-0.04839434	21.64099	
13:16:07	47.45686	-122.3097	0.613	0.618259	1.550115	32.03	0	100	0	90	-1.315119	-0.05159736	21.73085	
13:16:09	47.45686	-122.3097	0.613	0.6177313	1.332862	32.03	0	100	0	91	-1.299511	-0.05408955	21.80889	
13:16:10	47.45686	-122.3097	0.613	0.6172458	1.30674	32.03	0	100	0	90	-1.286389	-0.0562408	21.87148	
13:16:12	47.45686	-122.3097	0.613	0.6167919	1.276756	32.03	0	100	0	91	-1.271345	-0.05824986	21.92019	
13:16:14	47.45686	-122.3097	0.613	0.6163753	1.227126	32.03	0	100	0	91	-1.26092	-0.05977104	21.9632	
13:16:15	47.45686	-122.3097	0.613	0.6160223	1.200776	32.03	0	100	0	91	-1.252022	-0.06097425	21.9971	
13:16:17	47.45686	-122.3097	0.613	0.6157112	1.180613	32.03	0	100	0	90	-1.242201	-0.06201928	22.01653	
13:16:19	47.45686	-122.3097	0.613	0.615432	1.173078	32.03	0	100	0	90	-1.235503	-0.06272267	22.03666	
13:16:20	47.45686	-122.3097	0.613	0.6151774	1.156726	32.03	0	100	0	90	-1.229871	-0.06324729	22.05011	
13:16:22	47.45686	-122.3097	0.613	0.6149499	1.040004	32.03	0	100	0	90	-1.223452	-0.06356174	22.05245	
13:16:24	47.45686	-122.3097	0.613	0.6147414	1.076103	32.03	0	100	0	91	-1.219049	-0.06372631	22.05742	
13:16:26	47.45686	-122.3097	0.613	0.6145586	1.076326	32.03	0	100	0	90	-1.215536	-0.06378189	22.0602	
13:16:27	47.45686	-122.3097	0.613	0.6143982	0.9906045	32.03	0	100	0	90	-1.211406	-0.06364229	22.05267	
13:16:29	47.45686	-122.3097	0.613	0.6142498	0.9875761	32.03	0	100	0	90	-1.208565	-0.06347725	22.04856	
13:16:31	47.45686	-122.3097	0.613	0.6141185	1.026972	32.03	0	100	0	90	-1.206283	-0.06324574	22.04486	
13:16:32	47.45686	-122.3097	0.613	0.6139995	0.9625517	32.03	0	100	0	90	-1.203726	-0.06289155	22.03267	
13:16:34	47.45686	-122.3097	0.613	0.6138923	0.9557721	32.03	0	100	0	91	-1.201997	-0.06255827	22.02542	
13:16:36	47.45686	-122.3097	0.613	0.6137983	1.016834	32.03	0	100	0	90	-1.200631	-0.06223467	22.01878	
13:16:37	47.45686	-122.3097	0.613	0.613712	0.92299	32.03	0	100	0	90	-1.199037	-0.06177109	22.00634	
13:16:39	47.45686	-122.3097	0.613	0.6136341	0.9161243	32.03	0	100	0	91	-1.197951	-0.06135791	21.999	
13:16:41	47.45686	-122.3097	0.613	0.6135655	0.9007181	32.03	0	100	0	91	-1.197156	-0.06101959	21.99247	
13:16:43	47.45686	-122.3097	0.613	0.6135069	0.9148846	32.03	0	100	0	90	-1.19619	-0.06055628	21.98186	
13:16:44	47.45686	-122.3097	0.613	0.6134544	0.8680234	32.03	0	100	0	90	-1.195528	-0.06018545	21.97398	
13:16:46	47.45686	-122.3097	0.613	0.613407	0.8297583	32.03	0	100	0	90	-1.195066	-0.05986536	21.969	
13:16:48	47.45686	-122.3097	0.613	0.6133648	0.8854293	32.03	0	100	0	90	-1.194492	-0.05947227	21.95988	
13:16:49	47.45686	-122.3097	0.613	0.6133259	0.9042577	32.03	0	100	0	90	-1.194096	-0.05914587	21.95363	
13:16:51	47.45686	-122.3097	0.613	0.6132936	0.9905976	32.03	0	100	0	91	-1.193818	-0.05887939	21.94917	
13:16:53	47.45686	-122.3097	0.613	0.6132621	0.9163632	32.03	0	51	0	90	-1.193486	-0.05856002	21.94263	
13:16:54	47.45686	-122.3097	0.613	0.6164438	10.6563	32.03	0	53	0	91	6.778244	1.096467	19.54757	
13:16:56	47.45724	-122.3095	4.098	3.848497	214.1169	29.91	0	55	0	87	17.57782	5.267748	25.77509	
13:16:58	47.45762	-122.3091	7.641	6.812299	37.73262	26.43	0	57	0	27	12.2615	0.174998	32.24588	
13:17:00	47.45796	-122.3088	7.793	7.632573	-27.30433	23.12	0	58	0	27	12.99553	-1.14358	42.17465	
13:17:01	47.45819	-122.3085	6.896	6.903912	-71.59871	21.77	0	60	0	27	7.47807	-1.889558	49.96764	
13:17:03	47.45839	-122.3081	5.7	5.65619	-83.28892	20.84	0	62	0	27	4.381979	-1.792292	55.29279	
13:17:05	47.45857	-122.3077	4.7	4.582851	-80.18736	20.18	0	64	0	27	2.535383	-1.572956	58.48438	
13:17:06	47.45876	-122.3073	3.633	3.663237	-65.90161	19.61	0	65	0	27	1.508096	-1.19595	60.42889	
13:17:08	47.45876	-122.3073	3.633	3.14497	-60.54538	19.61	0	67	0	27	0.1045128	-1.3851	61.4776	
13:17:10	47.45899	-122.3068	1.666	2.655212	-59.29002	19.11	0	69	0	27	-0.8515467	-1.37542	61.81339	
13:17:11	47.45917	-122.3064	0.223	0.1259647	-99.3423	18.77	0	70	0	27	1.033288	-0.2720626	62.86005	
13:17:13	47.45917	-122.3064	0.223	-0.3935914	-50.17608	18.77	0	72	0	4	1.767753	-0.319889	64.47728	
13:17:15	47.45917	-122.3064	0.223	-0.008026485	59.74141	18.77	0	73	0	5	2.600469	-0.2323929	66.80933	
13:17:16	47.46364	-122.3077	0.02	0.3041533	23.22118	0	0	75	0	5	3.720338	1.366497	84.88906	
13:17:18	47.46364	-122.3077	0.02	0.1049948	-2.538345	0	0	76	0	4	2.752502	0.1373793	102.5209	
13:17:20	47.46364	-122.3077	0.02	0.01887993	-7.651731	0	0	77	0	5	1.705713	-0.08733904	106.878	
13:17:22	47.46364	-122.3077	0.02	-0.04948369	-10.13114	0	0	79	0	4	0.7856794	-0.02452241	119.7694	
13:17:23	47.46364	-122.3077	0.02	-0.07893005	-8.539402	0	0	80	0	5	0.2816415	-0.08282214	138.1647	
13:17:25	47.46364	-122.3077	0.02	-0.06184012	-5.634573	0	0	81	0	5	-0.04624489	0.03405464	153.0663	
13:17:27	47.46364	-122.3077	0.02	-0.04298645	-4.233184	0	0	82	0	4	-0.2657053	0.1777346	166.4904	
13:17:28	47.46364	-122.3077	0.02	-0.03141722	-3.339412	0	0	83	0	5	-0.4112043	0.3087111	177.6196	
13:17:30	47.46364	-122.3077	0.02	-0.02701282	-3.308789	0	0	84	0	4	-0.5087128	0.3912297	-174.2857	
13:17:32	47.46364	-122.3077	0.02	-0.02479403	-3.160494	0	0	85	0	4	-0.5682052	0.4265108	-168.0142	
13:17:33	47.46364	-122.3077	0.02	-0.02280475	-2.685042	0	0	86	0	4	-0.6047308	0.4357319	-163.1656	
13:17:35	47.46364	-122.3077	0.02	-0.01797275	-2.122904	0	0	87	0	4	-0.640415	0.4224211	-159.6012	
13:17:37	47.46364	-122.3077	0.02	-0.01488989	-2.126665	0	0	88	0	4	-0.6495746	0.3915794	-157.5163	
13:17:38	47.46364	-122.3077	0.02	-0.01026402	-1.485232	0	0	88	0	4	-0.6448441	0.3582432	-156.2098	
13:17:40	47.46364	-122.3077	0.02	-0.00696045	-1.285862	0	0	89	0	4	-0.6435162	0.3434788	-155.277	
13:17:42	47.46364	-122.3077	0.02	-0.00584603	-1.072267	0	0	90	0	5	-0.6241041	0.2883597	-155.3523	
13:17:44	47.46364	-122.3077	0.02	-0.003507691	-0.9537241	0	0	91	0	4	-0.593934	0.241005	-156.0399	
13:17:45	47.46364	-122.3077	0.02	-0.00118033	-0.5630729	0	0	91	0	4	-0.5686982	0.2162238	-156.5006	
13:17:47	47.46364	-122.3077	0.02	0.001898671	-0.2604797	0	0	92	0	4	-0.5321763	0.1817914	-157.6756	
13:17:49	47.46364	-122.3077	0.02	0.005135777	-0.1497285	0	0	92	0	3	-0.4884642	0.1438574	-159.0509	
13:17:50	47.46364	-122.3077	0.02	0.007180319	0.01118174	0	0	93	0	4	-0.4574337	0.1077233	-160.1721	
13:17:52	47.46364	-122.3077	0.02	0.008549748	0.4400339	0	0	93	0	4	-0.4136837	0.09823097	-161.5952	
13:17:54	47.46364	-122.3077	0.02	0.007882152	0.3984783	0	0	94	0	4	-0.3715446	0.07127593	-163.2236	
13:17:55	47.46364	-122.3077	0.02	0.007226112	-0.1214524	0	0	94	0	4	-0.3425217	0.07223265	-164.3676	
13:17:57	47.46364	-122.3077	0.02	0.00922616	0.5614814	0	0	94	0	4	-0.3056168	0.05944635	-165.7477	
13:17:59	47.46364	-122.3077	0.02	0.0130607	0.6892718	0	0	95	0	4	-0.2706926	0.05344258	-167.1814	
13:18:01	47.46364	-122.3077	0.02	0.01386426	0.7233034	0	0	95	0	4	-0.2435137	0.03773298	-168.2738	
13:18:02	47.46364	-122.3077	0.02	0.01416815	0.9377751	0	0	95	0	4	-0.215706	0.03486321	-169.3729	
13:18:04	47.46364	-122.3077	0.02	0.01613524	0.6467218	0	0	96	0	4	-0.1891023	0.0270039	-170.4876	
13:18:06	47.46364	-122.3077	0.02	0.01417505	0.7339328	0	0	96	0	5	-0.1658448	0.03024085	-171.2885	
13:18:07	47.46364	-122.3077	0.02	0.01318628	0.7787198	0	0	96	0	5	-0.1485739	0.03090119	-172.0719	
13:18:09	47.46364	-122.3077	0.02	0.01572371	1.016783	0	0	96	0	4	-0.1270206	0.02727712	-172.8384	
13:18:11	47.46364	-122.3077	0.02	0.01448866	0.8418854	0	0	97	0	4	-0.1119501	0.03972415	-173.4158	
13:18:12	47.46364	-122.3077	0.02	0.01517257	0.8442097	0	0	97	0	6	-0.09818923	0.03283226	-173.9179	
13:18:14	47.46364	-122.3077	0.02	0.01618583	1.11716	0	0	97	0	4	-0.08178829	0.02082841	-174.4122	
13:18:16	47.46364	-122.3077	0.02	0.01959622	1.518367	0	0	97	0	4	-0.07219584	0.00846728	-174.7686	
13:18:17	47.46364	-122.3077	0.02	0.02143246	1.68716	0	0	97	0	4	-0.06118923	0.008985297	-175.0734	
13:18:19	47.46364	-122.3077	0.02	0.02129841	1.343945	0	0	98	0	5	-0.05309756	0.01917075	-175.3492	
13:18:21	47.46364	-122.3077	0.02	0.01870203	1.113744	0	0	98	0	5	-0.04727995	0.02306334	-175.5542	
13:18:23	47.46364	-122.3077	0.02	0.0189339	1.466975	0	0	98	0	5	-0.04093128	0.02216433	-175.7141	
13:18:24	47.46364	-122.3077	0.02	0.02067671	1.470824	0	0	98	0	4	-0.03381936	0.01170803	-175.8476	
13:18:26	47.46364	-122.3077	0.02	0.02101981	1.548514	0	0	98	0	5	-0.0295596	0.007453247	-175.9469	
13:18:28	47.46364	-122.3077	0.02	0.01972503	1.200173	0	0	98	0	4	-0.02444871	0.01471762	-176.0175	
13:18:29	47.46364	-122.3077	0.02	0.01845223	1.158816	0	0	98	0	4	-0.0191578	0.003763069	-176.0615	
13:18:31	47.46364	-122.3077	0.02	0.01857118	1.428314	0	0	98	0	4	-0.01812058	0.006334574	-176.0953	
13:18:33	47.46364	-122.3077	0.02	0.01950174	1.366845	0	0	98	0	4	-0.01397745	0.006058137	-176.1148	
13:18:34	47.46364	-122.3077	0.02	0.01925533	1.149262	0	0	98	0	5	-0.01263997	-0.003717202	-176.1105	
13:18:36	47.46364	-122.3077	0.02	0.02090494	1.403885	0	0	99	0	4	-0.011312	-0.009011283	-176.106	
13:18:38	47.46364	-122.3077	0.02	0.01864435	1.245487	0	0	99	0	4	-0.009540401	-0.0004655547	-176.1026	
13:18:40	47.46364	-122.3077	0.02	0.02033035	1.417752	0	0	99	0	4	-0.006816806	0.001072125	-176.0752	
13:18:41	47.46364	-122.3077	0.02	0.02141283	1.503788	0	0	99	0	4	-0.007199836	-0.0005973604	-176.0566	
13:18:43	47.46364	-122.3077	0.02	0.02006432	1.329704	0	0	99	0	4	-0.004175422	-0.006379499	-176.0388	
13:18:45	47.46364	-122.3077	0.02	0.01993167	1.483591	0	0	99	0	5	-0.004200593	0.00710053	-176.0074	
13:18:46	47.46364	-122.3077	0.02	0.02035975	1.402487	0	0	99	0	4	-0.004209032	0.007803979	-175.985	
13:18:48	47.46364	-122.3077	0.02	0.02112496	1.530833	0	0	99	0	4	-0.004793898	0.008687937	-175.9698	
13:18:50	47.46363	-122.3077	0.02	0.02950507	2.995234	1.95	0	99	0	99	-0.1716532	1.107021	-177.7412	
13:18:51	47.46353	-122.3077	0.027	0.03943452	8.062327	12.33	0	99	0	99	-0.04774623	2.403276	176.887	
13:18:53	47.46329	-122.3077	0.466	0.6600963	120.5948	19.03	0	99	0	99	2.152792	4.947906	-177.8567	
13:18:55	47.46303	-122.3077	2.844	3.201069	190.8168	22.46	0	99	0	99	0.7810246	5.512446	-174.1082	
13:18:56	47.46259	-122.3077	6.911	6.170106	154.2278	26.03	0	99	0	99	-0.2159033	4.107862	-171.345	
13:18:58	47.46219	-122.3078	9.504	9.261774	146.6544	28.1	0	99	0	99	-0.1399723	3.056856	-169.3772	
13:19:00	47.46176	-122.3078	11.458	11.4435	94.22467	29.6	0	99	0	72	0.05873984	1.734013	-168.053	
13:19:02	47.46132	-122.3079	12.505	12.36495	27.81557	28.79	0	99	0	72	0.2947575	0.52147	-167.3184	
13:19:03	47.46087	-122.3081	12.359	12.51913	-1.492782	28.6	0	99	0	72	-0.6365933	0.08468179	-167.4745	
13:19:05	47.46077	-122.3081	12.283	12.32496	3.390632	28.6	0	99	0	72	-0.2198879	0.4661018	-168.1541	
13:19:07	47.46077	-122.3081	12.283	12.3567	12.60218	28.6	0	99	0	72	-0.00196465	0.7540124	-168.8771	
13:19:08	47.46077	-122.3081	12.283	12.4082	15.75809	28.6	0	99	0	72	0.1453502	0.9527987	-169.5362	
13:19:10	47.46077	-122.3081	12.283	12.42033	14.73885	28.6	0	99	0	71	0.2026233	1.057649	-170.2618	
13:19:12	47.46077	-122.3081	12.283	12.40794	12.94077	28.6	0	99	0	72	0.2426527	1.128776	-170.8217	
13:19:13	47.46077	-122.3081	12.283	12.3911	11.08131	28.6	0	99	0	72	0.2720361	1.177937	-171.2589	
13:19:15	47.46077	-122.3081	12.283	12.37669	9.802577	28.6	0	99	0	72	0.2231708	1.144714	-171.6541	
13:19:17	47.46077	-122.3081	12.283	12.36588	8.965631	28.6	0	99	0	72	0.1869703	1.116343	-171.9087	
13:19:18	47.46077	-122.3081	12.283	12.35766	8.207807	28.6	0	99	0	72	0.1635499	1.096426	-172.0697	
13:19:20	47.46077	-122.3081	12.283	12.35064	7.349873	28.6	0	69	0	71	0.08065365	1.013306	-172.1392	
13:19:22	47.46077	-122.3081	12.283	12.34446	6.954221	28.6	0	71	0	72	0.0198632	0.9510629	-172.1318	
13:19:24	47.46064	-122.3081	11.86	11.62567	-224.1054	28.63	0	72	0	72	-4.455327	-4.394213	-173.6699	
13:19:25	47.46018	-122.3082	8.544	9.409506	227.6173	29.26	0	74	0	78	-2.990676	5.2934	-175.7244	
13:19:27	47.45979	-122.3083	16.966	16.03341	205.1782	25.74	0	75	0	77	-2.218747	5.051454	-176.4748	
13:19:29	47.45941	-122.3084	17.642	16.42827	-104.9569	27.63	0	76	0	77	-0.1989641	0.7582005	-173.9743	
13:19:30	47.45895	-122.3085	27.844	25.56203	151.0576	24.46	0	78	0	77	-0.3918904	4.970849	-171.7128	
13:19:32	47.45861	-122.3086	19.148	19.85884	-536.5748	26.49	0	79	0	77	-0.5081338	-7.075637	-170.6129	
13:19:34	47.45821	-122.3087	13.405	15.47173	7.636987	30.14	0	80	0	77	0.2034036	0.02549597	-168.5867	
13:19:35	47.45821	-122.3087	13.405	13.67508	-39.93009	30.14	0	81	0	77	-0.5542216	-0.5847887	-167.1021	
13:19:37	47.45726	-122.309	11.737	12.36558	-19.34565	30.3	0	82	0	77	1.241701	0.0430228	-169.764	
13:19:39	47.45684	-122.3091	12.89	12.23189	-31.9884	29.77	0	83	0	77	43.6311	1.107893	-164.541	
13:19:41	47.45644	-122.3094	15.611	14.18567	-53.56112	29.1	0	84	0	77	-18.90059	-0.2800766	-159.0578	
13:19:42	47.45601	-122.3097	16.001	16.0547	284.2974	29.34	0	85	0	77	0.1048537	6.462906	-171.0517	
13:19:44	47.4556	-122.3098	27.104	25.69337	-102.3062	25.87	0	86	0	77	-0.6177844	-1.435824	-173.1466	
13:19:46	47.45524	-122.31	12.568	15.28901	-191.3352	29.17	0	87	0	77	0.3246286	-2.32937	-169.2022	
13:19:47	47.45481	-122.3102	12.445	14.83175	317.2062	29.81	0	88	0	77	43.28209	4.261632	-157.5143	
13:19:49	47.45444	-122.3106	16.777	16.50926	10.41827	29.01	0	89	0	77	-29.18695	0.7506501	-142.3025	
13:19:51	47.4541	-122.3109	19.07	19.58018	584.0322	27.68	0	89	0	77	-50.47276	15.67997	172.4865	
13:19:52	47.45374	-122.3107	32.762	31.20607	738.4346	22.66	0	90	0	77	-52.99643	21.66571	122.8348	
13:19:54	47.45364	-122.3104	46.462	46.05711	591.2676	19.02	0	91	0	77	-38.1263	15.97816	77.16068	
13:19:56	47.45368	-122.3101	52.069	51.68499	-103.8617	20.25	0	91	0	77	9.193645	-3.26348	67.89293	
13:19:57	47.45382	-122.3095	51.619	50.66177	-364.0814	24.88	0	92	0	77	40.34543	-11.0578	64.5777	
13:19:59	47.45388	-122.3091	54.358	56.78418	1279.767	22.85	0	92	0	92	-16.03017	34.27529	68.23377	
13:20:01	47.4541	-122.3085	64.481	65.35226	-169.5997	21.54	0	93	0	99	-5.583816	-0.7871767	55.43213	
13:20:03	47.45424	-122.3079	49.107	57.22768	-597.4023	28.32	0	93	0	99	-4.356935	4.002118	53.4503	
13:20:04	47.45441	-122.3071	36.337	40.87793	-1113.978	32.41	0	94	0	99	1.203918	-2.495126	51.1315	
13:20:06	47.45455	-122.3064	18.404	19.79803	-1072.079	35.81	0	94	0	99	-0.5571296	-0.2255645	53.05947	
13:20:08	47.45469	-122.3057	11.592	10.17342	-489.8613	36.34	0	94	0	99	-5.805917	6.131303	53.26766	
13:20:09	47.45484	-122.305	11.08	8.554184	-227.7359	34.97	0	95	0	99	-20.24254	6.955105	52.29041	
13:20:11	47.4551	-122.3041	13.928	11.04522	26.74618	33.39	0	95	0	99	-45.86183	7.36118	35.28082	
13:20:13	47.45546	-122.3037	18.438	15.80372	-46.369	32.33	0	95	0	99	-2.971684	-0.4176165	21.6086	
13:20:14	47.45586	-122.3033	19.765	18.7406	68.31954	31.76	0	96	0	73	0.210134	-0.2547662	26.81632	
13:20:16	47.45622	-122.3029	21.057	20.54039	46.16564	29.5	0	96	0	64	0.1082659	-0.8274521	30.37527	
13:20:18	47.45658	-122.3025	22.978	22.16655	50.31864	27.8	0	96	0	69	-0.01748724	-0.719916	33.97694	
13:20:19	47.45689	-122.3021	24.86	24.19081	71.30286	27.15	0	96	0	50	0.04689822	-0.5209792	37.31096	
13:20:21	47.45716	-122.3018	26.518	26.03266	47.62453	25.47	0	97	0	50	-0.002568446	-1.309116	40.45136	
13:20:23	47.45745	-122.3014	27.995	27.67311	67.49373	24.34	0	97	0	45	-0.2752682	-0.6013367	43.22657	
13:20:25	47.45771	-122.301	29.444	29.0548	34.42983	23.25	0	97	0	45	-0.4486006	-1.061586	45.39349	
13:20:26	47.45801	-122.3006	31.041	30.44191	51.06544	22.41	0	97	0	45	2.103183	-0.737688	47.16562	
13:20:28	47.45821	-122.3002	31.797	31.32005	-12.73938	22.11	0	97	0	44	29.35323	-2.572814	67.69936	
13:20:30	47.45832	-122.2998	34.002	33.37609	120.3544	21.16	0	98	0	42	-1.5021	0.4656447	79.02166	
13:20:31	47.45842	-122.2993	36.691	35.89754	62.69024	19.92	0	98	0	31	-1.225655	-1.080401	79.0849	
13:20:33	47.45853	-122.2989	37.502	37.23675	29.42246	19.18	0	98	0	31	-1.096109	-1.765021	78.5385	
13:20:35	47.45862	-122.2985	37.943	37.8408	18.02293	18.78	0	98	0	31	33.18024	-0.8288258	85.42165	
13:20:36	47.45864	-122.2982	38.012	37.94408	13.35205	18.33	0	98	0	31	46.43553	-1.989483	135.2251	
13:20:38	47.45863	-122.2982	38.167	38.11165	28.86415	18.21	0	98	0	31	48.77337	-3.253386	-167.3288	
13:20:40	47.4582	-122.298	35.405	37.72611	11.23755	17.77	0	98	0	31	32.37733	6.87857	-114.2248	
13:20:42	47.458	-122.2984	38.793	36.51749	-259.1129	15.59	0	98	0	31	-13.88898	1.547123	-146.6246	
13:20:43	47.45787	-122.2985	36.422	35.23399	-109.0353	17.39	0	98	0	50	-9.483493	1.023178	175.8994	
13:20:45	47.45748	-122.2985	30.979	33.33005	89.29513	21.65	0	98	0	54	-7.057881	3.4166	154.6576	
13:20:47	47.45716	-122.2984	30.266	31.64884	74.62951	22.9	0	99	0	80	-4.476738	3.67738	145.3253	
13:20:48	47.45678	-122.2982	32.148	31.9909	107.7743	25.26	0	99	0	80	-0.345335	2.400121	141.2234	
13:20:50	47.45645	-122.298	33.262	32.63018	157.5685	26.5	0	99	0	72	0.04124946	3.326423	145.1446	
13:20:52	47.45607	-122.2978	37.678	36.55156	185.0417	26.35	0	99	0	73	8.39771	2.134331	147.2943	
13:20:53	47.45571	-122.2976	41.776	41.2805	264.3815	26.77	0	99	0	84	45.59287	2.48922	177.505	
13:20:55	47.4553	-122.2979	46.748	46.5416	342.9037	27.18	0	99	0	84	45.90513	3.173694	-140.2094	
13:20:57	47.45511	-122.2983	49.864	50.79794	285.1541	27.71	0	99	0	84	45.77217	2.35047	-100.0577	
13:20:58	47.45516	-122.299	52.231	53.28224	214.7896	28.46	0	99	0	84	2.698002	1.753535	-74.74878	
13:21:00	47.45533	-122.2996	53.631	53.84014	81.81022	29.17	0	99	0	84	-0.2225016	0.5166777	-70.91624	
13:21:02	47.45547	-122.3002	55.421	54.82765	9.369753	29.35	0	99	0	83	-40.79842	0.1358353	-77.63123	
13:21:04	47.45552	-122.3008	58.889	57.48943	139.8228	28.96	0	99	0	84	-35.77763	1.057732	-102.2822	
13:21:05	47.45541	-122.3015	65.139	63.20554	230.202	28.17	0	99	0	84	1.06167	0.4543432	-107.4782	
13:21:07	47.45535	-122.3021	69.062	68.34153	177.0344	28.5	0	99	0	84	46.40297	-0.4642989	-84.0647	
13:21:09	47.45553	-122.3027	69.441	71.55858	216.8683	29.52	0	99	0	84	46.67046	1.038623	-41.15072	
13:21:10	47.45596	-122.3029	65.669	69.22345	36.27983	30.98	0	99	0	84	2.40721	0.7857477	-14.1657	
13:21:12	47.45641	-122.3031	61.121	62.85384	-205.0061	31.79	0	99	0	84	0.8322227	-0.6311316	-10.63408	
13:21:14	47.45692	-122.3032	58.512	58.33351	-196.6844	31.91	0	99	0	84	0.3189286	-0.3312529	-8.188549	
13:21:15	47.45734	-122.3032	58.216	57.12321	-110.8775	31.6	0	99	0	84	-0.2275453	-0.2640659	-6.047981	
13:21:17	47.45786	-122.3032	59.093	57.96753	-4.089833	31.03	0	99	0	84	-0.1011989	-0.001980383	-4.571774	
13:21:19	47.45828	-122.3032	60.656	59.88811	50.69708	30.41	0	99	0	79	0.06293807	-0.07078296	-3.0056	
13:21:20	47.45883	-122.3032	64.051	62.71842	112.8395	29.08	0	99	0	78	-5.242046	0.2506756	-4.282044	
13:21:22	47.45916	-122.3032	66.617	66.27741	158.2522	28.73	0	99	0	83	0.3181769	0.301706	-3.381721	
13:21:24	47.45962	-122.3032	70.692	69.77315	153.4649	27.33	0	99	0	81	-1.0071	0.2916628	-1.589526	
13:21:26	47.46008	-122.3032	75.138	74.02969	209.3258	27.49	0	99	0	81	0.4832515	0.6539276	-0.6816674	
13:21:27	47.46042	-122.3032	78.702	78.22598	217.1464	27.61	0	99	0	81	-1.958031	0.6968521	-5.719373	
13:21:29	47.46094	-122.3032	84.094	82.605	209.1494	27.4	0	99	0	81	0.9107016	0.3720795	-4.351846	
13:21:31	47.4613	-122.3032	87.757	87.11623	231.2939	27.09	0	99	0	88	-7.991656	0.8321976	-7.600306	
13:21:32	47.46171	-122.3033	92.498	91.54457	222.9634	27.5	0	99	0	78	2.406626	0.9698382	-5.384189	
13:21:34	47.46214	-122.3033	97.249	96.25056	207.3804	27.15	0	99	0	65	1.401089	0.2210464	-4.199363	
13:21:36	47.46254	-122.3033	100.761	100.1886	193.3193	26.12	0	99	0	68	-7.369167	-0.5482393	-8.877404	
13:21:37	47.46292	-122.3033	103.898	103.8259	224.1029	25.85	0	99	0	71	-2.301537	0.2901679	-8.22224	
13:21:39	47.46333	-122.3033	107.263	106.9666	186.5273	26.25	0	99	0	71	-23.76468	0.3808246	-18.7888	
13:21:41	47.4637	-122.3035	111.029	110.6442	197.1708	26.37	0	99	0	71	-32.25314	-0.2681781	-35.31477	
13:21:43	47.46403	-122.3039	115.441	114.7025	240.1847	26.37	0	99	0	71	-33.36324	-0.8839096	-58.8998	
13:21:44	47.46406	-122.3039	115.972	116.0892	-77.4579	26.37	0	99	0	71	-33.18478	-11.65036	-77.53586	
13:21:46	47.46431	-122.3047	113.351	114.6816	-239.1284	28.11	0	99	0	63	-24.58073	-16.83233	-97.61168	
13:21:48	47.46418	-122.3056	118.194	116.5823	324.7213	25.11	0	99	0	43	-27.22251	-5.292267	-136.5866	
13:21:49	47.46392	-122.3059	122.304	121.5729	1.637927	23.42	0	99	0	43	-7.471537	-12.97165	-163.7484	
13:21:51	47.46364	-122.3061	122.847	124.9584	341.3353	22.12	0	99	0	4	-2.081236	0.192922	176.7901	
13:21:53	47.46328	-122.3063	124.211	125.1367	-18.94957	19.07	0	99	0	4	7.93239	-3.568578	171.992	
13:21:54	47.46301	-122.3063	122.297	122.4571	-213.0961	17.52	0	99	0	4	-0.1868127	-6.220866	168.2639	
13:21:56	47.46275	-122.3064	118.76	119.0519	-146.8059	18.58	0	99	0	75	-2.596861	-2.161819	164.5686	
13:21:58	47.46247	-122.3064	119.74	119.8752	158.1201	21.16	0	99	0	77	-33.38209	5.757873	155.7504	
13:21:59	47.46212	-122.3062	121.721	121.5625	63.33705	23.45	0	99	0	77	-48.49742	2.955655	115.8956	
13:22:01	47.46201	-122.3057	121.395	122.7363	171.4082	24.77	0	99	0	77	-49.05803	5.464409	68.388	
