Date	Latitude(deg) 	Longitude(deg)	hamsl(m)	hafl(m)	climbrate(cm/s)	GroundSpeed(m/s)	Airspeed(m/s)	Mav_Link(%)	Rssi_Link(%)	Throttle	Roll(deg)	Pitch(deg)	Yaw(deg)
15:04:35	0	0	0	-1.464842	-66.03223	0	3	68	0	5	0.1703957	0.115971	58.4814	
15:04:36	0	0	0	-0.5916382	-3.498262	0	3	76	0	4	0.1700494	0.1251029	58.42361	
15:04:38	0	0	0	-0.1474419	9.21309	0	3	81	0	5	0.1724127	0.1161407	58.37225	
15:04:40	0	0	0	-0.3059669	-7.317272	0	3	84	0	4	0.1763647	0.1226464	58.31975	
15:04:41	0	0	0	-0.3183939	-6.656595	0	3	87	0	4	0.1761742	0.1194013	58.24496	
15:04:43	0	0	0	-0.4402238	-10.49731	0	3	89	0	5	0.1585844	0.04539614	58.20996	
15:04:45	0	0	0	0.04832967	9.056417	0	3	90	0	4	0.1939477	0.08110055	58.14617	
15:04:46	0	0	0	-0.1943838	-9.264393	0	3	91	0	4	0.1700871	0.06420846	58.10135	
15:04:48	0	0	0	-0.2125357	-9.33511	0	3	92	0	5	0.1970356	0.02762241	58.05002	
15:04:50	0	0	0	-0.4545919	-16.19428	0	3	93	0	4	0.1939671	0.03279165	58.03473	
15:04:52	0	0	0	-0.5614767	-13.30049	0	3	94	0	4	0.1668843	0.03685523	58.02752	
15:04:53	0	0	0	-0.4623568	-4.051327	0	3	94	0	23	0.1675234	0.08615196	57.99982	
15:04:55	0	0	0	-0.3941966	-3.631201	0	3	95	0	82	0.1777186	0.05148257	57.95679	
15:04:57	0	0	0	-0.1297519	8.513743	0	3	95	0	5	0.1729469	0.01885694	57.88879	
15:04:58	0	0	0	0.07259715	7.230788	0	3	96	0	4	0.1637414	0.008218558	57.84324	
15:05:00	0	0	0	-0.2045366	-9.317254	0	3	96	0	5	0.1158825	0.03360792	57.81718	
15:05:02	0	0	0	-0.4854864	-15.64717	0	3	96	0	4	0.1480988	0.03913226	57.85746	
15:05:03	0	0	0	-0.3699834	-2.317037	0	3	97	0	4	0.1597805	0.00867388	57.83831	
15:05:05	0	0	0	-0.1052507	7.756655	0	3	97	0	5	0.1265569	-0.02444994	57.85276	
15:05:07	47.43816	-122.3112	0.02	0.01357676	7.045728	0	3	97	0	4	0.1690183	-0.0006986855	56.81806	
15:05:08	47.43816	-122.3112	0.02	0.09549138	10.54701	0	3	97	0	5	0.06519386	-0.02956563	40.25033	
15:05:10	47.43816	-122.3112	0.02	0.1141736	9.025317	0	3	98	0	4	-0.009146276	-0.06381816	27.68437	
15:05:12	47.43816	-122.3112	0.02	0.09827962	6.673951	0	3	98	0	4	-0.04418541	-0.1151721	13.99777	
15:05:14	47.43816	-122.3112	0.02	0.08086552	5.282934	0	3	98	0	4	-0.0741739	-0.1519082	3.465932	
15:05:15	47.43816	-122.3112	0.02	0.0706668	4.697971	0	3	98	0	4	-0.08493274	-0.1777863	-5.476808	
15:05:17	47.43816	-122.3112	0.02	0.06605887	4.391186	0	3	98	0	5	-0.09985514	-0.2016625	-13.32125	
15:05:19	47.43816	-122.3112	0.02	0.06251153	4.038904	0	3	98	0	4	-0.1075695	-0.2063135	-19.05091	
15:05:20	47.43816	-122.3112	0.02	0.05875189	3.651418	0	3	98	0	4	-0.1164982	-0.2019983	-23.43081	
15:05:22	47.43816	-122.3112	0.02	0.05478593	3.251529	0	3	98	0	4	-0.1232403	-0.1982962	-26.84724	
15:05:24	47.43817	-122.3112	0.02	0.05263402	3.307752	0.37	3	99	0	4	-0.2046475	-0.2321315	-32.04145	
15:05:25	47.43818	-122.3112	0.02	0.06059377	4.626089	0.73	3	99	0	4	-0.4757493	0.1689939	-26.7119	
15:05:27	47.43819	-122.3112	0.02	0.06819979	5.009979	1.03	3	99	0	4	-0.4742794	0.5792893	-14.37648	
15:05:29	47.43821	-122.3112	0.02	0.07138974	5.225591	1.3	3	99	0	4	-0.3567086	0.9911759	-10.81015	
15:05:30	47.43823	-122.3112	0.02	0.06589077	4.064464	1.55	3	99	0	4	-0.35272	1.174737	-8.887383	
15:05:32	47.43825	-122.3112	0.02	0.0588882	3.800774	1.75	3	99	0	5	-0.2358764	1.304447	-6.141201	
15:05:34	47.43828	-122.3112	0.02	0.05740612	3.310993	1.97	3	99	0	4	-0.1377103	1.440725	-8.551402	
15:05:35	47.43831	-122.3112	0.02	0.04847189	2.891437	2.16	3	99	0	4	-0.2283479	1.403701	-13.73316	
15:05:37	47.43835	-122.3112	0.02	0.03773005	0.9567119	2.41	3	99	0	4	-0.2588547	1.08014	-18.99792	
15:05:39	47.43839	-122.3112	0.02	0.03601639	1.8717	2.65	3	99	0	4	-0.3369002	1.044297	-24.79621	
15:05:41	47.43843	-122.3112	0.02	0.03722453	1.928795	2.91	3.026791	99	0	4	-0.4434882	0.8395087	-30.7109	
15:05:42	47.43847	-122.3112	0.021	0.0392716	1.852352	3.14	3.24375	99	0	4	-1.04291	0.7818874	-26.68846	
15:05:44	47.43852	-122.3113	0.021	0.04523642	2.538945	3.26	3.153909	99	0	4	-1.004898	1.211211	-2.820438	
15:05:46	47.43856	-122.3112	0.02	0.04618219	2.350875	3.29	3.025975	99	0	4	-0.427157	1.56176	24.26017	
15:05:47	47.43861	-122.3112	0.021	0.03733897	1.424402	3.42	3.10383	99	0	4	0.6192318	1.593971	29.26745	
15:05:49	47.43866	-122.3112	0.021	0.03444365	1.229615	3.5	3.311923	99	0	4	0.587746	1.364019	4.585314	
15:05:51	47.43871	-122.3112	0.021	0.02372382	-0.2148759	3.6	3.61859	99	0	4	-0.4590313	0.9507018	-17.7459	
15:05:52	47.43876	-122.3112	0.021	0.0262738	0.9099517	3.75	3.801478	99	0	4	-0.7811685	0.930443	-18.02706	
15:05:54	47.43882	-122.3112	0.02	0.03403942	1.657167	3.88	3.873409	99	0	4	-0.8001332	1.095449	-10.12254	
15:05:56	47.43887	-122.3112	0.021	0.03626761	1.582324	3.97	3.948131	99	0	4	-0.6564543	1.206915	-2.532503	
15:05:57	47.43894	-122.3112	0.021	0.03062231	0.9947205	4.05	3.916296	99	0	4	-0.3415856	1.251842	-0.5631365	
15:05:59	47.43899	-122.3112	0.021	0.02107414	-0.4461139	3.49	3.381942	99	0	4	-0.3977602	1.876372	-4.129873	
15:06:01	47.43905	-122.3112	0.021	0.01966101	0.3285671	3.62	3.53614	99	0	4	-0.6076556	1.00841	0.4800476	
15:06:02	47.43911	-122.3112	0.021	0.02312852	0.6485747	3.67	3.619688	99	0	4	-0.3684677	0.9680313	0.3440121	
15:06:04	47.43916	-122.3112	0.021	0.02409124	0.3896711	3.65	3.624146	99	0	5	-0.3770535	0.9319966	-2.043461	
15:06:06	47.43922	-122.3112	0.021	0.02262414	0.2688349	3.63	3.629488	99	0	4	-0.4078834	0.9445899	-5.058958	
15:06:08	47.43927	-122.3112	0.021	0.02416617	0.5795265	3.6	3.592896	99	0	5	-0.7137264	0.9564189	-5.171879	
15:06:09	47.43933	-122.3112	0.021	0.0242754	0.2609993	3.58	3.58359	99	0	20	-0.7542376	0.9371176	-2.634472	
15:06:11	47.43939	-122.3112	0.021	0.03119842	1.78255	4.77	4.712497	99	0	4	-0.7182729	1.490902	-2.851109	
15:06:13	47.43946	-122.3112	0.02	0.03868692	1.817775	4.86	4.769588	99	0	4	-0.4755576	1.461414	19.44681	
15:06:14	47.43953	-122.3112	0.021	0.02587168	-0.9146624	4.9	4.885968	99	0	4	0.5941558	1.147599	8.075275	
15:06:16	47.43961	-122.3112	0.021	0.006593748	-2.050786	4.88	4.800931	99	0	4	-0.4401478	0.772176	-1.714291	
15:06:18	47.43968	-122.3112	0.021	0.01134024	-0.04475945	4.86	4.793432	99	0	4	-0.4919363	0.9823165	-0.1265403	
15:06:19	47.43975	-122.3112	0.021	0.01890949	0.08220915	4.75	4.698157	99	0	4	-0.4725581	1.038395	1.500081	
15:06:21	47.43982	-122.3112	0.021	0.02394129	0.05934522	4.74	4.70353	99	0	4	-0.3196874	0.8556789	-1.279491	
15:06:23	47.4399	-122.3112	0.021	0.02445675	0.4201191	4.7	4.758434	99	0	4	-0.3447074	0.9957309	-6.138298	
15:06:24	47.43996	-122.3112	0.02	0.02295693	0.3872777	4.69	4.741596	99	0	4	-0.3831807	1.055364	-11.0023	
15:06:26	47.44003	-122.3112	0.02	0.01732044	-0.7676647	4.66	4.703405	99	0	4	-0.4079192	0.907373	-15.5765	
15:06:28	47.44011	-122.3112	0.021	0.0138316	-1.318198	4.65	4.683914	99	0	4	-0.5402113	0.5962616	-20.15266	
15:06:29	47.44016	-122.3113	0.021	0.01473618	-0.7167852	4.63	4.660035	99	0	4	-0.445067	0.4491119	-24.94602	
15:06:31	47.44024	-122.3113	0.021	0.01611998	-0.4992162	4.61	4.634181	99	0	4	-0.5914307	0.4232984	-29.95155	
15:06:33	47.44029	-122.3114	0.021	0.02129627	1.015271	4.54	4.554786	99	0	4	-1.506768	0.716101	-22.00215	
15:06:35	47.44036	-122.3114	0.021	0.03865291	3.089727	4.46	4.361566	99	0	4	-1.115007	1.191026	4.681907	
15:06:36	47.44043	-122.3114	0.02	0.04061466	1.459072	4.45	4.347319	99	0	4	-0.1635618	1.173275	6.016716	
15:06:38	47.4405	-122.3114	0.021	0.02619921	-0.4445786	4.43	4.370842	99	0	4	-0.3257317	1.029169	0.3442067	
15:06:40	47.44056	-122.3114	0.021	0.01690559	-1.014603	4.42	4.378108	99	0	4	-0.4501571	0.9476925	0.6518177	
15:06:41	47.44063	-122.3114	0.021	0.01406899	-0.6952268	4.39	4.366676	99	0	4	-0.3801265	0.9422804	0.4983369	
15:06:43	47.4407	-122.3113	0.021	0.01596902	0.195248	4.34	4.31298	99	0	4	-0.7601351	1.15673	8.869667	
15:06:45	47.44075	-122.3113	0.021	0.0242312	1.028531	4.31	4.323064	99	0	4	-0.5343314	1.252686	18.28793	
15:06:46	47.44081	-122.3113	0.021	0.02479672	0.1820355	4.28	4.286414	99	0	4	0.1397515	1.173289	16.56184	
15:06:48	47.44089	-122.3113	0.021	0.01771652	-0.5925031	4.25	4.262387	99	0	4	-0.07113808	1.106807	9.665226	
15:06:50	47.44095	-122.3113	0.021	0.01799287	-0.4409496	4.25	4.248846	99	0	4	-0.2433724	0.9618664	5.952026	
15:06:51	47.44101	-122.3112	0.021	0.02034461	-0.3788781	4.23	4.228542	99	0	4	-0.3354413	0.9815137	2.72795	
15:06:53	47.44107	-122.3112	0.021	0.01994644	-0.4124814	4.2	4.205324	99	0	4	-0.5950526	0.8069155	1.673436	
15:06:55	47.44114	-122.3112	0.021	0.02008301	-0.06362855	4.17	4.160627	99	0	4	-0.2007189	0.8954005	5.050794	
15:06:57	47.4412	-122.3112	0.021	0.0143939	-0.6036008	4.15	4.151031	99	0	4	-0.5194544	0.7660877	-3.520001	
15:06:58	47.44126	-122.3112	0.021	0.01752966	0.5331043	4.09	4.086857	99	0	4	-0.7008318	0.7680163	5.335116	
15:07:00	47.44132	-122.3112	0.021	0.02108849	-0.1099611	4.06	4.04665	99	0	5	0.1248784	0.606339	-0.8080068	
15:07:02	47.44138	-122.3112	0.021	0.01920199	-0.02560536	4.06	4.048186	99	0	4	-0.6545448	0.4043595	-0.5651738	
15:07:03	47.44144	-122.3112	0.021	0.02553909	0.6835166	4.06	4.030367	99	0	5	-0.0822041	0.4155681	4.969475	
15:07:05	47.44151	-122.3112	0.021	0.02504868	-0.08788323	4.03	4.023571	99	0	5	-0.09239442	0.1928922	-3.379439	
15:07:07	47.44157	-122.3112	0.021	0.0213759	-0.6911041	3.98	3.943917	99	0	4	0.5562274	0.2989076	-17.43194	
15:07:08	47.44162	-122.3113	0.021	0.01616974	-0.6281937	3.94	3.893619	99	0	4	-0.8591989	0.1005697	-23.19271	
15:07:10	47.44168	-122.3113	0.021	0.02607401	0.8949594	3.9	3.836823	99	0	4	-0.8962952	0.4099075	-8.235397	
15:07:12	47.44174	-122.3113	0.021	0.03287542	0.7253968	3.89	3.701517	99	0	4	0.1853103	0.2806785	-1.141993	
15:07:13	47.44181	-122.3113	0.021	0.02106226	-1.093912	3.87	3.727764	99	0	5	-0.3894657	0.2225907	-12.02362	
15:07:15	47.44186	-122.3113	0.021	0.017183	-0.6265233	3.84	3.774265	99	0	5	-0.5782278	-0.03770588	-4.530021	
15:07:17	47.44192	-122.3113	0.021	0.01790026	-0.55704	3.82	3.7912	99	0	4	-0.006048067	-0.03640463	-6.429886	
15:07:19	47.44198	-122.3113	0.021	0.01784232	-0.3129046	3.8	3.781475	99	0	4	-0.5811728	0.211749	-7.208965	
15:07:20	47.44203	-122.3113	0.021	0.02269978	0.306066	3.79	3.758945	99	0	5	-0.1366448	0.3267093	-2.693598	
15:07:22	47.44209	-122.3113	0.021	0.02058728	-0.5772036	3.76	3.741754	99	0	4	-0.4165867	0.3376661	-9.825199	
15:07:24	47.44215	-122.3113	0.021	0.02216702	0.3701304	3.72	3.710672	99	0	4	-0.4393168	0.3634079	-3.013339	
15:07:25	47.4422	-122.3113	0.021	0.02213655	-0.2720255	3.71	3.692001	99	0	5	0.04967195	0.2527034	-8.393487	
15:07:27	47.44226	-122.3114	0.021	0.01828867	-0.3118761	3.71	3.705657	99	0	28	-0.5573026	0.3074122	-6.975207	
15:07:29	47.44234	-122.3114	0.021	0.03281766	2.865632	6.58	6.173434	99	0	50	1.125952	0.02183542	-7.249249	
15:07:30	47.44246	-122.3114	0.023	0.04345521	4.582576	11.05	10.55838	99	0	61	-0.190706	-0.3225132	2.129702	
15:07:32	47.44266	-122.3114	0.025	0.08471218	7.583066	15.51	14.72844	99	0	68	4.421958	-1.011135	-5.087494	
15:07:34	47.44293	-122.3114	0.026	0.06654616	4.814893	19.25	19.08465	99	0	68	7.419851	-1.33898	-3.83062	
15:07:36	47.44322	-122.3114	0.026	0.04583872	2.401484	21.36	21.32817	99	0	68	8.631686	-1.621103	-2.909685	
15:07:37	47.44359	-122.3114	0.026	0.01242786	-7.671013	23.42	23.20365	99	0	77	6.821892	-1.346905	-2.663388	
15:07:39	47.44397	-122.3115	0.029	0.03111081	3.61575	25.37	25.17389	99	0	83	6.842957	-1.205404	-2.995101	
15:07:41	47.44436	-122.3115	0.027	0.1723213	43.95564	27.1	27.15234	99	0	85	6.324916	-0.1271008	-1.853226	
15:07:42	47.44479	-122.3114	2.064	1.974774	71.29422	27.96	27.8605	99	0	83	7.350813	1.24338	2.751679	
15:07:44	47.44519	-122.3114	3.598	3.345546	3.578591	28.29	28.22638	99	0	85	1.672236	0.6612887	2.762036	
15:07:46	47.44563	-122.3113	5.309	4.810751	26.38827	28.22	28.11471	99	0	85	1.095618	1.168345	0.609547	
15:07:47	47.44608	-122.3113	5.801	5.6023	28.6869	28.45	28.33388	99	0	85	3.343185	1.055209	-1.295995	
15:07:49	47.44654	-122.3113	6.154	6.15537	41.37382	28.54	28.44296	99	0	85	1.930353	0.9748259	-3.222672	
15:07:51	47.44696	-122.3113	6.439	6.463213	9.121465	28.52	28.41882	99	0	85	1.960617	0.3051111	-5.287434	
15:07:52	47.44741	-122.3113	6.087	6.185619	-12.54491	28.77	28.70871	99	0	85	1.697068	0.01631991	-7.330511	
15:07:54	47.44783	-122.3113	5.857	5.897804	-18.89825	28.99	28.9183	99	0	85	11.93924	0.4012074	-7.522928	
15:07:56	47.44824	-122.3114	5.819	5.725605	-9.155199	29.19	29.03143	99	0	85	3.078878	0.2429474	-5.625295	
15:07:58	47.44872	-122.3114	5.866	5.755447	-7.844469	29.31	29.13401	99	0	85	7.679125	0.2572468	-4.381861	
15:07:59	47.44903	-122.3114	5.886	5.868322	2.318545	29.3	29.07689	99	0	85	6.327222	0.3159691	-3.420871	
15:08:01	47.44958	-122.3114	5.821	5.916416	7.177322	29.32	29.0881	99	0	85	3.864671	0.2994646	-3.098914	
15:08:03	47.45004	-122.3114	5.753	5.797452	-4.445071	29.26	29.0319	99	0	85	0.703664	0.09516321	-4.18252	
15:08:04	47.45047	-122.3114	5.745	5.743236	1.372336	29.24	29.06817	99	0	85	0.4179727	0.1680586	-6.720944	
15:08:06	47.45092	-122.3114	5.831	5.79753	7.149442	29.28	29.15253	99	0	85	1.062418	0.3067423	-8.49682	
15:08:08	47.45137	-122.3115	6.027	6.010732	15.21937	29.46	29.31619	99	0	85	1.204646	0.3044392	-9.356681	
15:08:09	47.45179	-122.3116	6.382	6.243217	11.63338	29.75	29.60598	99	0	85	1.779107	0.2135193	-9.286102	
15:08:11	47.45225	-122.3116	7.214	6.955476	32.11891	30.1	29.98344	99	0	85	1.726484	0.1854671	-8.890828	
15:08:13	47.45272	-122.3117	8.265	8.006834	50.31804	30.37	30.23469	99	0	85	1.807034	0.2025719	-8.139997	
15:08:14	47.45316	-122.3118	9.151	9.11279	57.3493	30.54	30.38508	99	0	85	3.717354	-0.04361507	-7.318615	
15:08:16	47.45367	-122.3118	9.113	9.381899	84.67081	30.97	30.72834	99	0	85	15.87847	0.7689466	-0.2615755	
15:08:18	47.45389	-122.3118	9.323	9.48488	11.29234	30.89	30.47285	99	0	83	15.09633	0.4484864	5.90562	
15:08:20	47.45452	-122.3116	8.593	8.673929	-133.6254	30.43	29.89302	99	0	85	13.38733	-2.248035	10.68123	
15:08:21	47.455	-122.3114	7.353	7.440813	-72.4211	29.71	29.24632	99	0	85	10.23333	-0.7308034	11.57073	
15:08:23	47.45547	-122.3113	7.254	7.053111	-8.0137	28.97	28.67596	99	0	85	2.872278	0.04013831	11.34363	
15:08:25	47.45588	-122.3111	7.576	7.368514	5.379916	28.55	28.2977	99	0	85	0.8541994	0.1461611	6.374496	
15:08:26	47.45633	-122.3111	6.891	6.995714	-107.358	28.63	28.40459	99	0	85	0.2041177	-2.259027	2.031013	
15:08:28	47.45676	-122.311	6.279	6.472959	-0.08816244	28.68	28.60193	99	0	83	0.653861	0.03408455	-0.8731813	
15:08:30	47.45722	-122.311	6.429	6.315359	1.248157	28.74	28.63949	99	0	85	1.271471	0.1427853	-2.978899	
15:08:31	47.45762	-122.311	6.811	6.727858	36.09936	29.47	29.3485	99	0	88	8.25169	0.113986	4.659123	
15:08:33	47.45802	-122.311	7.426	7.47428	44.77686	28.76	27.76443	99	0	86	10.81565	-0.4342517	20.40237	
15:08:35	47.45847	-122.3108	8.365	8.369133	67.70245	26.76	25.98004	99	0	94	8.799727	0.4517908	36.20987	
15:08:37	47.45882	-122.3104	8.671	8.782527	14.2025	27.39	27.05597	99	0	92	1.126313	0.280486	40.7002	
15:08:38	47.45903	-122.3101	8.749	8.813782	7.462349	28.02	27.92518	99	0	92	-0.1490017	0.2325905	44.72651	
15:08:40	47.45941	-122.3096	9.606	9.110558	-0.1591004	28.68	28.66027	99	0	92	-18.8267	-0.03196405	43.09632	
15:08:42	47.45976	-122.3092	11.587	10.92673	34.73165	29.23	29.1348	99	0	92	-2.410864	-0.6912131	41.6162	
15:08:43	47.46008	-122.3087	12.632	12.45406	85.30579	30.16	29.94181	99	0	92	27.60926	1.296704	54.7449	
15:08:45	47.46027	-122.3081	13.105	13.5868	51.70676	30.87	31.4126	99	0	92	25.82855	3.133294	66.27934	
15:08:47	47.46036	-122.3074	12.483	13.13074	-6.7755	30.36	30.90217	99	0	92	28.29034	5.034878	74.7337	
15:08:48	47.46035	-122.3067	10.859	11.53892	-27.65202	29.32	29.74675	99	0	92	36.83784	8.196099	88.75517	
15:08:50	47.46021	-122.3061	9.925	10.06885	-70.76977	28.07	28.5161	99	0	92	39.52612	10.47719	103.3009	
15:08:52	47.45996	-122.3056	9.791	9.468341	-68.01243	26.74	27.08458	99	0	92	40.18655	12.1826	118.347	
15:08:53	47.45971	-122.3053	9.588	9.024983	-64.25992	25.89	26.16567	99	0	92	39.89929	13.97146	132.7598	
15:08:55	47.45934	-122.305	9.675	9.080931	-55.1558	24.76	25.10241	99	0	92	40.95451	14.43657	147.4252	
15:08:57	47.45896	-122.305	9.682	9.156416	-43.13144	24.16	24.32328	99	0	92	42.74844	14.54411	164.469	
15:08:59	47.4586	-122.3051	9.631	9.094015	-69.42849	23.93	24.04799	99	0	92	43.33347	12.83193	-178.6986	
15:09:00	47.45827	-122.3053	9.059	8.664142	-71.11946	23.93	23.95658	99	0	92	44.25893	11.38939	-160.0343	
15:09:02	47.45803	-122.3057	8.243	7.862339	-118.4962	24.19	24.09964	99	0	92	12.89397	2.218705	-151.7365	
15:09:04	47.45777	-122.3061	6.433	6.891092	39.27081	24.66	24.32266	99	0	92	0.6439833	0.9622564	-161.4087	
15:09:05	47.45746	-122.3065	6.372	6.706738	-5.137819	24.23	24.07359	99	0	92	12.15639	1.263834	-168.7395	
15:09:07	47.45713	-122.3067	6.314	6.564525	35.05471	23.97	23.59613	99	0	92	9.177154	1.480839	-170.6263	
15:09:09	47.45681	-122.3069	6.063	6.111544	-21.97874	23.98	23.47578	99	0	92	15.37463	1.164956	-173.1747	
15:09:10	47.45655	-122.3071	6.082	6.066967	17.21581	23.98	23.48421	99	0	92	12.25932	0.8887821	-173.6033	
15:09:12	47.45609	-122.3073	6.686	6.46559	9.025378	23.81	23.60427	99	0	92	15.84766	1.118051	-175.7453	
15:09:14	47.45577	-122.3075	6.66	6.83116	69.84814	23.88	23.42789	99	0	92	7.563246	0.7766554	-174.4219	
15:09:15	47.45542	-122.3076	7.161	7.340505	15.10389	23.71	24.49063	99	0	92	16.91537	1.725076	179.0611	
15:09:17	47.45507	-122.3076	7.369	7.386723	-31.44296	23.72	24.63008	99	0	92	18.98113	1.42913	173.4432	
15:09:19	47.4547	-122.3077	7.062	7.137302	31.57723	23.86	24.10231	99	0	92	4.079321	0.1760093	171.9556	
15:09:21	47.45433	-122.3077	7.969	8.001054	114.8144	23.59	24.50191	99	0	92	-0.6500371	1.427589	159.6655	
15:09:22	47.45402	-122.3075	9.114	9.182034	91.01403	23.35	24.83561	99	0	92	-0.6176054	1.136209	146.8954	
15:09:24	47.45368	-122.3073	10.144	10.16053	55.0061	23.26	25.41389	99	0	92	-0.4107944	0.5863625	134.1727	
15:09:26	47.45343	-122.307	10.694	10.5498	16.68866	23.31	25.98738	99	0	92	-0.03284861	0.2683603	121.8637	
15:09:27	47.45321	-122.3066	10.938	10.78381	8.248481	23.51	26.14085	99	0	92	-0.3979649	-0.1214715	111.683	
15:09:29	47.45303	-122.3061	11.129	11.13083	19.04111	23.95	26.82914	99	0	92	2.314719	0.5843254	103.4174	
15:09:31	47.45291	-122.3055	11.524	11.40759	10.42363	24.41	27.55135	99	0	98	3.209113	0.7196677	97.22083	
15:09:32	47.45283	-122.305	11.836	11.78589	25.4015	25.25	27.52591	99	0	98	3.102753	0.966788	90.90395	
15:09:34	47.45279	-122.3045	12.184	12.13496	11.64531	25.86	28.16867	99	0	92	3.330416	0.740586	84.96359	
15:09:36	47.45279	-122.3038	12.226	12.27766	-3.357329	26.13	27.55636	99	0	91	3.141726	0.3422723	79.54496	
15:09:37	47.45283	-122.3032	12.045	12.09161	-9.183324	26.41	27.75011	99	0	91	2.686107	0.2852956	74.38194	
15:09:39	47.4529	-122.3027	11.915	12.00986	2.55223	26.78	27.70187	99	0	91	-0.7498434	0.1784336	68.73568	
15:09:41	47.45302	-122.3021	11.617	11.80896	-6.307053	27.15	28.01026	99	0	91	1.897794	0.3967597	62.85755	
15:09:43	47.45316	-122.3016	11.331	11.35716	-19.56974	27.5	28.13884	99	0	91	2.508688	0.4067333	58.6616	
15:09:44	47.45334	-122.301	11.171	11.1429	-12.91117	27.86	28.20375	99	0	91	2.058913	0.3345002	54.80543	
15:09:46	47.45358	-122.3004	10.819	10.96621	-1.684913	28.24	28.79424	99	0	91	1.817813	0.3522392	51.1014	
15:09:48	47.4538	-122.2999	10.646	10.7637	-6.328469	28.49	28.85357	99	0	89	1.902872	0.3110577	47.64053	
15:09:49	47.45407	-122.2994	10.398	10.47453	-9.368667	28.68	28.8446	99	0	91	1.780763	0.2920166	44.46698	
15:09:51	47.45436	-122.2989	9.933	10.02051	-15.41023	29.01	29.34715	99	0	91	1.488884	0.2251559	41.3721	
15:09:53	47.4547	-122.2984	9.587	9.681081	-15.2346	29.22	29.54268	99	0	91	1.427565	0.2443824	38.332	
15:09:54	47.45501	-122.298	9.754	9.519477	-5.421408	29.35	29.52151	99	0	89	1.182683	0.2595172	35.48602	
15:09:56	47.45536	-122.2975	10.283	10.02468	16.11516	29.49	29.55261	99	0	89	1.409697	0.12372	33.278	
15:09:58	47.45574	-122.2971	9.366	9.411841	-151.0983	29.97	29.93474	100	0	89	43.26911	-0.6627799	39.76443	
15:10:00	47.45599	-122.2965	9.986	9.104424	73.89611	29.56	28.37067	100	0	89	44.80697	5.529463	66.83116	
15:10:01	47.45605	-122.2961	14.967	13.57713	188.2381	28.47	26.94313	99	0	91	41.9665	6.038589	86.92203	
15:10:03	47.45597	-122.2954	21.142	20.88181	487.0349	28.45	25.95121	100	0	91	40.02995	2.335114	131.1157	
15:10:05	47.45564	-122.2949	28.491	28.7175	397.8647	29.27	27.43991	100	0	91	3.782053	0.1561248	141.5436	
15:10:06	47.45525	-122.2945	30.048	33.54121	331.5433	30.19	29.1669	100	0	89	2.402344	0.23698	143.6843	
15:10:08	47.4549	-122.2941	24.872	29.11683	-66.45244	30.61	29.93717	100	0	89	1.718729	0.1054025	145.2682	
15:10:10	47.45448	-122.2937	18.455	20.59396	-363.1259	30.95	30.46806	100	0	91	1.251809	0.0792217	146.8157	
15:10:11	47.45412	-122.2934	19.42	16.12079	-307.1141	31.23	30.91558	100	0	89	0.9571291	0.1414257	148.1344	
15:10:13	47.45368	-122.293	21.294	18.67388	-36.99998	31.39	31.13028	100	0	91	0.8170365	0.1110554	149.4135	
15:10:15	47.45325	-122.2927	21.045	21.13621	74.29573	31.59	31.33652	100	0	89	0.6431643	0.2046713	150.6824	
15:10:16	47.45283	-122.2923	20.711	21.27868	22.54802	31.61	31.35969	100	0	89	0.301002	0.01761853	151.7124	
15:10:18	47.45239	-122.292	20.338	20.65644	-17.53051	31.63	31.39272	100	0	89	0.004418178	-0.3818505	152.8427	
15:10:20	47.452	-122.2917	15.021	15.23018	-384.3601	32.57	32.35472	100	0	91	0.5374197	-7.07548	154.2901	
15:10:22	47.45154	-122.2914	8.565	9.907247	-1.541545	31.38	31.53836	100	0	91	-12.8505	-1.145679	134.5868	
15:10:23	47.45118	-122.2909	8.583	8.440158	-100.4483	27.89	27.86009	100	0	89	-7.710756	-0.7832855	121.887	
15:10:25	47.45099	-122.2905	7.937	7.439744	-91.59566	26.67	26.90119	100	0	91	-5.04148	-0.4531078	109.3216	
15:10:27	47.45082	-122.29	6.727	6.865777	-73.47431	25.87	26.67695	100	0	91	-5.420672	-0.371665	98.80358	
15:10:28	47.45072	-122.2893	5.344	5.323214	-82.10893	25.76	26.96356	100	0	89	-5.081591	-0.1114174	88.95031	
15:10:30	47.4507	-122.2888	4.927	4.607672	-73.04831	25.66	27.17236	100	0	91	1.248164	0.435469	78.54983	
15:10:32	47.45073	-122.2881	3.937	3.886346	-48.14304	25.9	26.86407	100	0	89	22.5755	3.541586	81.32592	
15:10:33	47.45071	-122.2876	3.525	3.431874	-5.964571	25.73	25.70535	100	0	89	30.98755	6.318261	91.26434	
15:10:35	47.45063	-122.287	5.136	4.595574	39.83231	24.99	23.72416	100	0	91	34.87985	8.080427	103.8635	
15:10:37	47.45047	-122.2866	5.984	5.711831	30.17455	24.64	23.10127	100	0	91	38.67742	8.419427	117.2027	
15:10:38	47.45024	-122.2862	5.741	5.42681	-31.91609	24.49	22.61205	100	0	91	39.65769	7.636394	132.3699	
15:10:40	47.44988	-122.2858	6.575	6.248261	62.35278	23.96	21.98673	100	0	89	39.91626	9.074986	148.993	
15:10:42	47.44957	-122.2857	7.874	7.391535	38.87877	23.57	21.74039	100	0	89	39.4125	8.583989	162.538	
15:10:44	47.4492	-122.2857	7.284	8.239583	27.25304	23.43	21.92735	100	0	89	41.37061	8.5995	178.0591	
15:10:45	47.44886	-122.2859	6.933	6.652996	-60.05851	23.45	22.46551	100	0	91	39.20838	8.154485	-166.309	
15:10:47	47.44853	-122.2861	7.725	7.15201	6.4183	23.57	22.97124	100	0	89	33.29993	7.446415	-155.982	
15:10:49	47.44827	-122.2865	7.542	7.709979	24.67613	23.55	23.23788	100	0	89	33.778	7.312432	-145.3882	
15:10:50	47.4481	-122.2869	6.965	7.343162	111.3588	22.46	21.212	100	0	89	47.42223	-2.88017	-73.00806	
15:10:52	47.44833	-122.2873	6.998	8.737306	207.7158	22.12	23.86851	100	0	91	35.39166	-0.1742051	-4.526941	
15:10:54	47.44864	-122.2873	7.407	8.335688	14.02211	23.39	25.76224	100	0	91	4.158925	1.819755	16.7732	
15:10:55	47.44901	-122.2871	6.241	6.610813	-73.21959	25.2	27.39647	100	0	89	1.782517	1.049288	25.45975	
15:10:57	47.44938	-122.2869	6.059	5.908917	-67.73986	26.13	27.73041	100	0	89	-0.1066298	1.197776	31.61602	
15:10:59	47.44971	-122.2866	5.184	5.033052	-71.26675	27.04	28.57292	100	0	89	0.07351944	0.7009088	36.53192	
15:11:01	47.45007	-122.2862	4.359	4.233364	-57.96205	27.71	28.50248	100	0	91	-0.6664426	0.6931131	40.77626	
15:11:02	47.45038	-122.2858	4.737	4.180801	-23.8285	28.31	28.83155	100	0	91	-1.355907	0.5815768	43.71754	
15:11:04	47.45069	-122.2854	5.281	4.934739	21.97853	28.97	29.50155	100	0	91	-1.809703	0.5896057	45.24184	
15:11:06	47.45103	-122.2849	6.06	5.868669	40.17167	29.7	29.90902	100	0	89	-2.059355	0.3659286	45.66143	
15:11:07	47.45135	-122.2844	6.845	6.753388	53.91494	30.36	30.33409	100	0	89	-1.944166	0.3273318	45.15815	
15:11:09	47.45166	-122.284	7.693	7.681541	58.04489	30.88	30.83199	100	0	89	-1.962853	0.2567336	44.14302	
15:11:11	47.452	-122.2835	8.436	8.203496	-69.55367	31.36	31.19662	100	0	89	-1.69599	-2.305726	42.8576	
15:11:12	47.45237	-122.2829	7.385	7.581681	-50.17092	32.08	31.89036	100	0	91	-1.612839	-2.127937	41.32723	
15:11:14	47.4527	-122.2825	6.89	6.879392	-61.85081	32.32	32.21984	100	0	91	-4.303446	-2.263099	39.44439	
15:11:16	47.45304	-122.282	5.909	6.085174	-6.729166	32.54	32.41957	100	0	91	-0.98073	-1.347928	36.86	
15:11:17	47.45349	-122.2815	5.337	5.479877	33.93611	32.48	32.38991	100	0	91	-0.2521584	-0.3288216	36.10043	
15:11:19	47.45388	-122.281	5.627	5.678092	31.76369	32.29	32.12141	100	0	91	-0.02161291	0.04961272	35.54961	
15:11:21	47.45426	-122.2806	5.551	5.565231	-19.57076	32.24	32.04181	100	0	89	0.1165428	-0.6742682	35.37867	
15:11:23	47.45461	-122.2802	6.876	6.01148	6.655884	32.2	32.01508	100	0	89	-20.23257	-0.5672367	33.11224	
15:11:24	47.45506	-122.2798	8.835	8.341916	104.6138	32.12	32.26591	100	0	91	-29.46581	0.3865957	21.11508	
15:11:26	47.45557	-122.2796	9.313	9.493301	29.69908	31.5	32.10788	100	0	89	-31.45762	0.02295362	9.943055	
15:11:28	47.45596	-122.2795	8.295	8.783142	-43.2388	30.48	31.57707	100	0	91	-31.15699	0.5416771	1.38178	
15:11:29	47.45646	-122.2796	6.088	6.937368	-59.58998	28.93	30.09707	100	0	91	-32.65741	2.104908	-8.570634	
15:11:31	47.45672	-122.2798	4.803	4.689376	-131.1183	28.15	29.47539	100	0	91	-34.06561	2.195458	-18.34885	
15:11:33	47.45706	-122.28	4.754	3.758009	-75.61716	27.42	28.85734	100	0	89	-32.2116	2.463044	-28.43307	
15:11:34	47.4575	-122.2805	4.66	4.185046	-48.21511	26.43	27.826	100	0	91	-31.89548	1.943561	-36.39944	
15:11:36	47.45779	-122.2809	5.045	5.14893	98.00385	25.91	26.59895	100	0	91	3.323449	-0.9407066	-32.93014	
15:11:38	47.45809	-122.2813	6.871	6.887117	67.34985	25.26	25.68326	100	0	91	-8.056738	0.3759883	-22.99753	
15:11:40	47.4584	-122.2815	7.88	8.083474	94.26027	25.32	25.25551	100	0	89	0.9673931	-0.3635762	-14.56485	
15:11:41	47.4588	-122.2818	9.48	9.535815	99.74522	25.33	25.85007	100	0	89	0.01594518	-0.2035971	-5.316085	
15:11:43	47.4592	-122.2819	12.506	11.34375	115.5084	25.52	26.46144	100	0	89	-1.004674	0.01100874	2.549083	
15:11:45	47.45961	-122.2819	17.173	15.6173	214.2428	25.94	26.93921	100	0	89	-3.917749	-0.1281488	0.6760006	
15:11:46	47.46	-122.2819	22.758	21.55296	348.6149	27.99	28.67828	100	0	91	-7.415686	0.7735701	-1.941922	
15:11:48	47.46043	-122.2819	29.666	28.71227	409.5165	29.43	29.7658	100	0	89	-4.481098	0.6305004	-5.146036	
15:11:50	47.46087	-122.282	36.711	36.23585	441.4857	30.16	29.70847	100	0	91	-3.037594	0.3566834	-6.319596	
15:11:51	47.46132	-122.2821	44.005	43.60867	455.2826	30.62	30.2847	100	0	91	-1.291126	0.2771048	-6.851326	
15:11:53	47.4618	-122.2822	49.991	49.06322	-256.0636	30.7	30.62441	100	0	89	-0.8963559	-13.50298	-5.773237	
15:11:55	47.46207	-122.2822	44.655	43.5059	-292.9518	32.01	31.76427	100	0	91	0.518719	-13.45192	-4.754928	
15:11:56	47.46274	-122.2823	33.475	35.97647	-309.3309	35.24	35.172	100	0	89	-0.6269592	-12.37642	-3.62399	
15:11:58	47.46339	-122.2824	18.575	27.22263	-405.6693	35.85	35.99136	100	0	64	-0.496647	-12.28909	-2.310694	
15:12:00	47.46385	-122.2824	21.618	16.11409	-503.8957	34.21	34.05843	100	0	55	0.2958858	-12.25188	0.6702526	
15:12:02	47.46439	-122.2824	15.531	17.81194	375.808	32.68	32.78923	100	0	55	0.09304353	-0.6605479	0.1260221	
15:12:03	47.46485	-122.2824	14.769	17.42723	81.11945	29.71	29.2423	100	0	53	0.5614367	-0.941054	1.585267	
15:12:05	47.46529	-122.2824	13.529	14.15841	-197.13	26.76	26.44896	100	0	55	5.201828	-3.653134	10.99392	
15:12:07	47.46565	-122.2823	11.151	10.62208	-182.9464	25.16	24.70704	100	0	53	3.598877	-1.759189	20.36584	
15:12:08	47.46601	-122.2821	10.037	9.285516	-128.8534	23.8	23.9221	100	0	55	2.57158	-0.9891081	27.54474	
15:12:10	47.46633	-122.2819	9.492	8.795387	-86.19093	23.11	23.43008	100	0	53	0.9546207	-0.7724756	33.55604	
15:12:12	47.46662	-122.2816	9.139	8.689197	-49.6375	22.8	23.33585	100	0	55	0.3194675	-0.6034021	38.30249	
15:12:13	47.46691	-122.2813	9.198	8.847245	-18.48088	22.77	23.23953	100	0	53	-0.5838454	-0.3096299	41.58624	
15:12:15	47.4671	-122.281	9.374	9.129588	-5.949137	22.83	23.09086	100	0	55	-1.567064	-0.2681496	43.16043	
15:12:17	47.46742	-122.2806	10.029	9.75319	28.59189	23.23	23.32383	100	0	53	-2.285698	0.1593159	42.97173	
15:12:18	47.46767	-122.2802	10.942	10.73113	43.22417	23.58	23.57452	100	0	53	-2.422467	0.2130091	42.08071	
15:12:20	47.46796	-122.2799	12.327	11.94419	59.48315	23.99	23.9281	100	0	53	-2.216487	0.190601	40.52124	
15:12:22	47.46822	-122.2795	13.671	13.47979	81.89265	24.36	24.31586	100	0	55	-1.812858	0.4354747	39.22137	
15:12:24	47.46851	-122.2791	12.708	14.2418	45.49643	24.62	24.58649	100	0	53	-1.207317	0.4380251	38.11382	
15:12:25	47.46882	-122.2788	9.948	11.36465	-110.2277	24.7	24.64735	100	0	53	-0.5675554	0.1521928	37.3144	
15:12:27	47.4691	-122.2784	7.402	7.816286	-182.8113	24.76	24.70261	100	0	55	-0.2604087	0.2566647	36.77834	
15:12:29	47.4694	-122.2781	4.7	4.690053	-204.3434	24.85	24.76643	100	0	55	-0.03305733	0.156797	36.53376	
15:12:30	47.46969	-122.2778	2.334	2.664321	109.6607	24.68	24.58892	100	0	53	-0.4348778	8.78957	36.31612	
15:12:32	47.46997	-122.2774	4.941	4.31722	37.68857	22.91	22.90061	100	0	53	-0.9983245	6.957408	35.37715	
15:12:34	47.47026	-122.2771	5.317	4.805189	-52.21757	22.71	22.61691	100	0	55	-16.23227	3.950094	31.4173	
15:12:35	47.47054	-122.2769	4.125	3.822877	-116.7798	22.94	22.79889	100	0	53	-18.5056	2.638263	21.5383	
15:12:37	47.47087	-122.2767	3.356	2.585271	-134.4041	22.45	22.43965	100	0	53	-7.759872	1.058326	16.45298	
15:12:39	47.47119	-122.2766	3.595	2.56822	-59.94193	22.03	21.90195	100	0	98	5.688418	-0.2904972	24.71043	
15:12:40	47.47156	-122.2764	5.204	4.629329	151.5363	25.31	25.10712	100	0	98	3.412106	2.610369	34.30239	
15:12:42	47.47186	-122.2761	7.885	7.686318	165.7343	26.61	26.40893	100	0	98	1.169487	2.178459	41.16562	
15:12:44	47.47218	-122.2757	10.691	10.49999	156.8082	27.94	27.65302	100	0	98	-0.5280821	1.696088	45.22079	
15:12:46	47.4725	-122.2752	13.118	12.97255	153.993	29.16	28.99083	100	0	100	-1.516423	1.14271	47.16483	
15:12:47	47.47254	-122.2751	13.523	14.67146	140.3025	29.36	29.29272	100	0	5	-3.383717	2.36015	47.98342	
15:12:49	47.47254	-122.2751	13.523	14.48655	66.79167	29.36	29.23468	100	0	4	-4.977027	3.482839	47.17682	
15:12:51	47.47254	-122.2751	13.523	14.0078	25.72118	29.36	29.19402	100	0	4	-6.169382	4.245402	45.46564	
15:12:52	47.46364	-122.3077	0.02	14.91972	586.7749	0	3	100	0	4	-4.121305	7.137214	47.70544	
15:12:54	47.46364	-122.3077	0.02	2.208327	-268.1121	0	3	100	0	4	-1.475818	6.508324	60.39462	
15:12:56	47.46364	-122.3077	0.02	-2.335698	-326.7052	0	3	100	0	4	0.09452707	4.711591	71.88753	
15:12:57	47.46364	-122.3077	0.02	-2.333618	-181.8248	0	3	100	0	4	1.404662	3.578644	91.60724	
15:12:59	47.46364	-122.3077	0.02	-1.340555	-84.06234	0	3	100	0	4	1.978861	2.577671	111.0814	
15:13:01	47.46364	-122.3077	0.02	-0.7113333	-51.20211	0	3	100	0	4	2.049154	1.605678	130.4988	
15:13:02	47.46364	-122.3077	0.02	-0.5068426	-48.04017	0	3	100	0	4	1.785707	0.8911512	148.5396	
15:13:04	47.46364	-122.3077	0.02	-0.4725282	-48.48442	0	3	100	0	4	1.405929	0.5642279	162.6085	
15:13:06	47.46364	-122.3077	0.02	-0.4545283	-45.85923	0	3	100	0	5	1.033	0.4162434	174.2116	
15:13:08	47.46364	-122.3077	0.02	-0.4199694	-41.61336	0	3	100	0	4	0.6825425	0.3866795	-175.7837	
15:13:09	47.46364	-122.3077	0.02	-0.3751694	-36.74214	0	3	100	0	4	0.4197274	0.3894058	-168.2802	
15:13:11	47.46364	-122.3077	0.02	-0.3289805	-32.32251	0	3	100	0	4	0.2094162	0.4151247	-162.7398	
15:13:13	47.46364	-122.3077	0.02	-0.288081	-28.60483	0	3	100	0	4	0.01966803	0.4483737	-158.5624	
15:13:14	47.46364	-122.3077	0.02	-0.2540809	-25.59365	0	3	100	0	4	-0.1047105	0.4813374	-155.4906	
15:13:16	47.46364	-122.3077	0.02	-0.2249039	-22.92937	0	3	100	0	4	-0.2097949	0.5004919	-153.6609	
15:13:18	47.46364	-122.3077	0.02	-0.1990912	-20.44201	0	3	100	0	4	-0.2822335	0.4938688	-153.0129	
15:13:19	47.46364	-122.3077	0.02	-0.1746293	-18.05655	0	3	100	0	4	-0.3398302	0.4853591	-152.5052	
15:13:21	47.46364	-122.3077	0.02	-0.1537169	-16.41224	0	3	100	0	4	-0.3767557	0.4561819	-152.6749	
15:13:23	47.46364	-122.3077	0.02	-0.1358654	-14.50343	0	3	100	0	4	-0.3976911	0.4117497	-153.8574	
15:13:24	47.46364	-122.3077	0.02	-0.11754	-12.90045	0	3	100	0	5	-0.4112149	0.3901689	-154.698	
15:13:26	47.46364	-122.3077	0.02	-0.1031292	-11.51285	0	3	100	0	4	-0.4069657	0.3601163	-155.8929	
15:13:28	47.46364	-122.3077	0.02	-0.08988779	-10.26919	0	3	100	0	4	-0.393801	0.3060868	-157.8043	
15:13:30	47.46364	-122.3077	0.02	-0.07760353	-9.134871	0	3	100	0	4	-0.3785717	0.2778877	-159.2003	
15:13:31	47.46364	-122.3077	0.02	-0.06659479	-8.030477	0	3	100	0	4	-0.3573185	0.2455484	-160.7125	
15:13:33	47.46364	-122.3077	0.02	-0.05695445	-7.210424	0	3	100	0	4	-0.3271095	0.2101533	-162.5779	
15:13:35	47.46364	-122.3077	0.02	-0.04912605	-6.556148	0	3	100	0	4	-0.3056768	0.1930729	-163.9679	
15:13:36	47.46364	-122.3077	0.02	-0.04261818	-5.891719	0	3	100	0	4	-0.2805805	0.1823258	-165.3979	
15:13:38	47.46364	-122.3077	0.02	-0.03568418	-5.189621	0	3	100	0	4	-0.2500583	0.1631235	-167.0134	
15:13:40	47.46364	-122.3077	0.02	-0.02934307	-4.690904	0	3	100	0	5	-0.2341229	0.1390302	-168.215	
15:13:41	47.46364	-122.3077	0.02	-0.02919382	-5.069342	0	3	100	0	4	-0.2088241	0.1361513	-169.3614	
15:13:43	47.46364	-122.3077	0.02	-0.02772842	-4.636977	0	3	100	0	5	-0.1819096	0.1257511	-170.5453	
15:13:45	47.46364	-122.3077	0.02	-0.02407976	-3.977167	0	3	100	0	4	-0.1568476	0.1114055	-171.4303	
15:13:46	47.46364	-122.3077	0.02	-0.01410228	-2.794146	0	3	100	0	4	-0.139451	0.09274279	-172.2552	
15:13:48	47.46364	-122.3077	0.02	-0.004985938	-2.097949	0	3	100	0	4	-0.1197882	0.0804115	-173.0533	
15:13:50	47.46364	-122.3077	0.02	-0.002036146	-2.166687	0	3	100	0	4	-0.1058582	0.07628994	-173.6403	
15:13:52	47.46364	-122.3077	0.02	-0.001385371	-2.073723	0	3	100	0	4	-0.09185575	0.07017224	-174.1691	
15:13:53	47.46364	-122.3077	0.02	0.0006872467	-1.718349	0	3	100	0	4	-0.07786644	0.06329688	-174.6568	
15:13:55	47.46364	-122.3077	0.02	0.003532595	-1.427468	0	3	100	0	4	-0.0683751	0.04815239	-175.0167	
15:13:57	47.46364	-122.3077	0.02	0.007102513	-1.113891	0	3	100	0	4	-0.05865749	0.04496104	-175.3188	
15:13:58	47.46364	-122.3077	0.02	0.00538915	-1.759274	0	3	100	0	4	-0.05311341	0.0522364	-175.5831	
15:14:00	47.46364	-122.3077	0.02	0.004243056	-1.469823	0	3	100	0	5	-0.04591418	0.0468023	-175.7804	
15:14:02	47.46364	-122.3077	0.02	0.002194751	-2.041523	0	3	100	0	4	-0.03303204	0.04434223	-175.9299	
15:14:03	47.46364	-122.3077	0.02	0.004416512	-1.202004	0	3	100	0	5	-0.0272511	0.03999472	-176.048	
15:14:05	47.46364	-122.3077	0.02	0.01022008	-0.7734538	0	3	100	0	4	-0.02396996	0.03494037	-176.1343	
15:14:07	47.46364	-122.3077	0.02	0.01257682	-0.7939916	0	3	100	0	4	-0.02346961	0.0297269	-176.1907	
15:14:08	47.46364	-122.3077	0.02	0.01269826	-0.8537678	0	3	100	0	4	-0.02110496	0.02453259	-176.2143	
15:14:10	47.46364	-122.3077	0.02	0.01149777	-0.8094632	0	3	100	0	4	-0.0129031	0.02018804	-176.2342	
15:14:12	47.46364	-122.3077	0.02	0.01330124	-0.5068274	0	3	100	0	4	-0.01054584	0.006187443	-176.2365	
15:14:14	47.46364	-122.3077	0.02	0.01642822	-0.133284	0	3	100	0	4	-0.008986967	0.0007237721	-176.2142	
15:14:15	47.46364	-122.3077	0.02	0.01633787	-0.7081612	0	3	100	0	4	-0.008288777	0.00499006	-176.2011	
15:14:17	47.46364	-122.3077	0.02	0.01446661	-0.4391063	0	3	100	0	4	-0.00675281	-0.002499026	-176.179	
15:14:19	47.46364	-122.3077	0.02	0.01698759	-0.1885777	0	3	100	0	4	-0.004396405	-0.007487952	-176.1392	
15:14:20	47.46364	-122.3077	0.02	0.01933082	-0.03468197	0	3	100	0	5	-0.00887215	-0.007438142	-176.1091	
15:14:22	47.46364	-122.3077	0.02	0.01674303	-0.6060957	0	3	100	0	5	-0.006045241	-0.0001026508	-176.0819	
15:14:24	47.46364	-122.3077	0.02	0.01111013	-1.117167	0	3	100	0	5	0.001751993	0.005656968	-176.0411	
15:14:25	47.46364	-122.3077	0.02	0.009123057	-1.067937	0	3	100	0	11	0.001024141	0.01338658	-176.012	
15:14:27	47.46364	-122.3077	0.02	0.002404424	-2.522463	0	3	100	0	8	-0.004977493	0.08831934	-175.9901	
15:14:29	47.46364	-122.3077	0.02	-0.008315988	-3.328283	0	3	100	0	8	-0.002930637	0.07935063	-175.9563	
15:14:30	47.46364	-122.3077	0.02	-0.01281842	-3.233649	0	3	100	0	8	-0.001575402	0.0668831	-175.929	
15:14:32	47.46364	-122.3077	0.02	-0.0130056	-3.229681	0	3	100	0	8	-0.0005411655	0.03907257	-175.9042	
15:14:34	47.46364	-122.3077	0.02	-0.008852463	-2.749716	0	3	100	0	8	0.0006536435	0.04133843	-175.8737	
15:14:36	47.46364	-122.3077	0.02	-0.005101096	-2.154448	0	3	100	0	8	0.00182537	0.01578029	-175.8493	
15:14:37	47.46364	-122.3077	0.02	-0.000705168	-1.920285	0	3	100	0	8	0.001692884	0.02476129	-175.8295	
15:14:39	47.46364	-122.3077	0.02	-0.00147804	-2.185588	0	3	100	0	8	0.001583164	0.01120474	-175.805	
15:14:41	47.46364	-122.3077	0.02	-0.001080728	-1.854701	0	3	100	0	8	0.002260156	0.0002870217	-175.7859	
15:14:42	47.46364	-122.3077	0.02	0.001120155	-1.596817	0	3	100	0	8	0.001728381	-0.008444978	-175.7694	
15:14:44	47.46364	-122.3077	0.02	0.004512065	-1.448852	0	3	100	0	8	5.527043E-05	-0.01040134	-175.7509	
15:14:46	47.46364	-122.3077	0.02	0.007183032	-1.292232	0	3	100	0	8	0.0005960832	-0.01444504	-175.7363	
15:14:47	47.46364	-122.3077	0.02	0.006148051	-1.513759	0	3	100	0	8	0.0008268718	-0.008326333	-175.7251	
15:14:49	47.46364	-122.3077	0.02	0.004618691	-1.392241	0	3	100	0	8	0.0005553918	-0.009666482	-175.7145	
15:14:51	47.46364	-122.3077	0.02	0.005739509	-1.482503	0	3	100	0	8	-0.0006130115	-0.009881672	-175.7059	
15:14:52	47.46364	-122.3077	0.02	0.005126024	-1.426847	0	3	100	0	8	-0.001323548	-0.002013215	-175.6998	
15:14:54	47.46364	-122.3077	0.02	0.007268813	-0.9651656	0	3	100	0	8	0.00292669	-0.007591755	-175.6947	
15:14:56	47.46364	-122.3077	0.02	0.01439298	-0.3399766	0	3	100	0	8	-0.004154909	-0.008919559	-175.6902	
15:14:58	47.46364	-122.3077	0.02	0.01536221	-0.6105173	0	3	100	0	7	-0.003218038	-0.0078459	-175.6872	
15:14:59	47.46364	-122.3077	0.02	0.01579508	-0.3813086	0	3	100	0	8	-0.001514057	-0.002673471	-175.6861	
15:15:01	47.46364	-122.3077	0.02	0.01784206	-0.2007468	0	3	100	0	8	-0.0007168392	-0.007312616	-175.6857	
15:15:03	47.46364	-122.3077	0.02	0.01684529	-0.4060345	0	3	100	0	8	-0.0006125525	-0.005449924	-175.6851	
15:15:04	47.46364	-122.3077	0.02	0.01596738	-0.4885331	0	3	100	0	4	0.00714557	-0.00178698	-175.6863	
15:15:06	47.46364	-122.3077	0.02	-0.008181663	-5.659491	0	3	100	0	4	0.03172693	0.2278996	-175.6911	
15:15:08	47.46364	-122.3077	0.02	-0.01079279	-1.168153	0	3	100	0	4	0.02515814	-0.1161335	-175.6949	
15:15:09	47.46364	-122.3077	0.02	0.02852644	2.920408	0	3	100	0	4	0.01437684	-0.1180716	-175.6924	
15:15:11	47.46364	-122.3077	0.02	0.05164241	3.778918	0	3	100	0	4	0.01023531	-0.09469726	-175.6921	
15:15:13	47.46364	-122.3077	0.02	0.05967545	4.083691	0	3	100	0	4	0.006517491	-0.08381411	-175.6936	
15:15:14	47.46364	-122.3077	0.02	0.05642583	3.286561	0	3	100	0	5	0.003702719	-0.06492127	-175.6967	
15:15:16	47.46364	-122.3077	0.02	0.05923232	4.215521	0.21	3	100	0	20	0.3379464	0.2556108	-178.4749	
15:15:18	47.46362	-122.3077	0.02	0.07183385	6.241528	2.2	3	100	0	58	0.5006436	1.553424	171.155	
15:15:20	47.46354	-122.3077	0.024	0.1056421	11.05823	8.54	7.588907	100	0	67	3.145489	2.187388	-169.7633	
15:15:21	47.46344	-122.3078	0.035	0.1704912	30.84187	10.07	8.733554	100	0	98	-2.804305	-0.2681469	-161.9755	
15:15:23	47.46322	-122.3078	0.05	-0.009648994	-6.135135	17.17	15.03356	100	0	98	5.829076	4.255538	-169.2049	
15:15:25	47.46291	-122.308	0.304	-0.667252	-194.5717	22.97	20.84605	100	0	98	7.822731	-1.222401	-162.771	
15:15:26	47.46254	-122.3081	0.027	0.08049196	300.9073	26.66	24.95372	100	0	98	1.32858	5.752514	-163.9726	
15:15:28	47.46212	-122.3084	2.426	3.375615	320.8688	28.44	27.56391	100	0	98	-0.04422938	5.187325	-162.2086	
15:15:30	47.46168	-122.3086	3.45	4.323229	175.2023	29.75	29.20378	100	0	98	-0.1183292	2.65275	-163.9015	
15:15:31	47.46134	-122.3087	4.088	4.070428	-49.42373	30.41	30.15496	100	0	98	1.714013	-0.2758054	-166.2629	
15:15:33	47.46079	-122.309	3.275	3.338153	-38.98125	31.29	31.05042	100	0	98	0.9054495	-0.1993423	-168.6269	
15:15:35	47.46037	-122.3091	2.887	2.834924	-31.15008	31.67	31.53094	100	0	98	1.197493	-0.08160789	-170.5511	
15:15:36	47.4599	-122.3092	2.706	2.544144	-16.36028	31.98	31.85647	100	0	98	1.225596	0.1410737	-171.776	
15:15:38	47.4594	-122.3094	3.424	3.023164	10.43191	32.33	32.15916	100	0	100	1.6776	0.04265083	-172.4818	
15:15:40	47.45892	-122.3095	4.293	4.03302	47.38608	32.62	32.45068	100	0	83	1.752651	0.2463646	-172.79	
15:15:42	47.45849	-122.3096	4.748	4.533553	-39.3339	30.25	29.86256	100	0	22	3.04679	-1.961388	-171.719	
15:15:43	47.45813	-122.3097	4.152	3.833459	-64.86853	26.75	26.12047	100	0	20	2.22828	-2.723233	-169.8473	
15:15:45	47.45802	-122.3097	3.815	3.540772	-54.76141	25.92	26.12047	100	0	7	1.837005	-3.02263	-168.7579	
15:15:47	47.4579	-122.3098	3.366	2.898617	-79.89353	25.18	24.53666	100	0	5	0.8825959	-6.627975	-166.9237	
15:15:48	47.46365	-122.311	0.02	0.5190436	-97.23093	0	3	100	0	4	2.067437	-2.565118	-169.8674	
15:15:50	47.46365	-122.311	0.02	-0.6574383	-79.26836	0	3	100	0	4	1.522851	-1.827158	-172.1451	
15:15:52	47.46365	-122.311	0.02	-0.4500236	-23.58138	0	3	100	0	5	0.9556078	-1.22388	-173.8398	
15:15:53	47.46365	-122.311	0.02	-0.09095122	4.038176	0	3	100	0	5	0.5763786	-0.8273813	-175.075	
15:15:55	47.46365	-122.311	0.02	0.06355909	8.311512	0	3	100	0	4	0.2871538	-0.5893409	-175.8031	
15:15:57	47.46365	-122.311	0.02	0.08392932	5.777433	0	3	70	0	4	0.04165185	-0.3865995	-176.4341	
15:15:58	47.46365	-122.311	0.02	0.06585355	3.498888	0	3	71	0	4	-0.1341469	-0.2217995	-176.8148	
15:16:00	47.46365	-122.311	0.02	0.05196698	2.674969	0	3	73	0	4	-0.2544057	-0.1110029	-177.0363	
15:16:02	47.46365	-122.311	0.02	0.04508137	2.139077	0	3	74	0	4	-0.3370393	-0.01438386	-177.0713	
15:16:04	47.46365	-122.311	0.02	0.03886224	1.437002	0	3	76	0	4	-0.4016981	0.07155839	-177.0738	
15:16:05	47.46365	-122.311	0.02	0.03341852	1.033014	0	3	77	0	4	-0.4404854	0.1291432	-177.0478	
15:16:07	47.46365	-122.311	0.02	0.0318791	1.204031	0	3	78	0	4	-0.4372755	0.1640091	-176.8842	
15:16:09	47.46365	-122.311	0.02	0.03348776	1.55045	0	3	80	0	5	-0.4398115	0.1895555	-176.7604	
15:16:10	47.46365	-122.311	0.02	0.03057749	0.7111536	0	3	81	0	4	-0.4443783	0.2075156	-176.6718	
15:16:12	47.46365	-122.311	0.02	0.02854298	0.9973738	0	3	82	0	4	-0.4132091	0.2093324	-176.4812	
15:16:14	47.46365	-122.311	0.02	0.03454012	2.279416	0.04	3	83	0	38	-0.1293218	0.1258066	-176.8825	
15:16:15	47.46363	-122.311	0.022	0.04604581	1.72844	5.67	5.941661	84	0	98	-0.4516654	1.733917	177.0317	
15:16:17	47.46345	-122.311	0.031	0.1137699	13.01353	15.7	15.02862	85	0	98	0.4682782	2.442159	179.0203	
15:16:19	47.46319	-122.311	0.986	1.159306	137.2039	21	21.39066	86	0	98	6.857036	5.371656	-175.8082	
15:16:20	47.46281	-122.311	3.964	3.628644	153.4285	24.88	24.89576	87	0	98	2.234234	4.635586	-173.0004	
15:16:22	47.46244	-122.3111	6.301	6.159692	121.2904	27.07	27.42521	88	0	98	0.4240701	3.314619	-173.9937	
15:16:24	47.46198	-122.3111	7.969	7.819374	73.01979	28.68	28.71374	88	0	98	-0.190096	2.194977	-176.4883	
15:16:26	47.46157	-122.3112	8.732	8.697902	37.70006	29.6	29.67072	89	0	98	-0.02765429	1.689413	-179.063	
15:16:27	47.4611	-122.3112	9.384	9.25697	10.75804	30.4	30.34211	90	0	98	0.1623573	0.9765043	178.3502	
15:16:29	47.46062	-122.3112	9.501	9.512642	3.974866	31.09	30.99112	90	0	100	1.124281	0.737069	176.597	
15:16:31	47.46019	-122.3111	9.355	9.422374	-13.9428	31.58	31.54779	91	0	98	1.275997	0.4737369	175.3819	
15:16:32	47.45967	-122.3111	9.475	9.227364	-10.33884	32.15	32.05349	92	0	100	1.345303	0.4104317	174.5853	
15:16:34	47.45918	-122.3111	9.806	9.605342	8.472027	32.59	32.49551	92	0	98	1.705756	0.267554	174.392	
15:16:36	47.45867	-122.311	10.015	10.00276	14.01301	32.9	32.74045	93	0	98	1.518742	0.06129072	174.7366	
15:16:37	47.45819	-122.311	10.277	10.26757	17.00308	33.1	32.93533	93	0	98	1.582621	0.06518583	175.4372	
15:16:39	47.45819	-122.311	10.277	10.53743	33.68657	33.1	32.93359	93	0	100	0.62488	0.5479131	176.2836	
15:16:41	47.45716	-122.3109	11.342	10.94261	4.61286	33.37	33.13958	94	0	100	1.388496	-0.02824561	177.1958	
15:16:42	47.45665	-122.3109	10.714	11.07925	15.86131	33.62	33.38299	94	0	98	1.121542	-0.205268	179.7797	
15:16:44	47.45615	-122.3109	10.793	10.9433	20.86611	33.67	33.43905	95	0	98	0.6682563	-0.07499576	-178.947	
15:16:46	47.45562	-122.311	11.064	11.15533	20.06502	33.7	33.4748	95	0	98	0.1353246	-0.03257173	-178.7472	
15:16:48	47.4551	-122.311	11.358	11.36946	20.37558	33.59	33.37563	95	0	100	0.1980542	-0.05891483	-179.0372	
15:16:49	47.45459	-122.311	12.085	11.88959	44.98222	33.56	33.34607	96	0	100	-0.04633695	0.1888108	-179.5236	
15:16:51	47.45409	-122.3111	13.121	12.93343	64.69418	33.45	33.2396	96	0	100	0.1688628	0.2837293	179.7549	
15:16:53	47.45358	-122.3111	14.359	14.20303	75.23103	33.33	33.15068	96	0	98	0.1907312	0.1927947	178.9622	
15:16:54	47.45317	-122.3111	15.352	15.52741	85.08672	33.28	33.06784	96	0	98	2.675227	0.1259891	-178.5628	
15:16:56	47.45317	-122.3111	15.352	15.85274	55.32769	33.28	33.06784	97	0	98	14.26107	-1.530375	-169.6147	
15:16:58	47.4521	-122.3112	18.237	15.79231	20.4428	32.74	32.84492	97	0	98	6.430985	1.174288	-173.7933	
15:16:59	47.45161	-122.311	17.489	17.58641	-275.2141	32.87	32.63779	97	0	98	-5.707605	0.1815167	151.2234	
15:17:01	47.45116	-122.3106	10.145	14.73985	570.3077	33.5	31.87318	97	0	98	16.17346	18.50756	136.4649	
15:17:03	47.45079	-122.3102	11.412	11.3513	-62.53787	31.12	28.8534	97	0	100	20.69525	13.95797	136.5225	
15:17:04	47.45044	-122.3099	13.69	10.41617	-281.4633	29.34	27.32184	97	0	98	2.199357	8.883106	135.7653	
15:17:06	47.45005	-122.3096	11.697	9.144168	-236.3338	29.04	26.98001	98	0	98	1.392564	2.047037	137.072	
15:17:08	47.44964	-122.3093	11.892	11.03191	90.68494	28.29	26.2098	98	0	98	1.642063	4.29985	142.7725	
15:17:10	47.4492	-122.3091	14.508	14.0751	138.0657	27.58	25.14803	98	0	98	0.5946263	3.625814	150.587	
15:17:11	47.4488	-122.309	16.291	16.49679	131.5176	28.57	26.02335	98	0	100	-6.730346	2.190656	150.2352	
15:17:13	47.44842	-122.3089	16.288	16.86437	70.346	30.59	29.58207	98	0	98	-4.320264	0.3085302	150.5535	
15:17:15	47.44791	-122.3087	16.374	17.12467	103.3711	31.99	31.34306	98	0	98	-2.525475	0.2547801	153.3644	
15:17:16	47.44791	-122.3087	16.374	17.29335	92.82291	31.99	31.45749	98	0	100	-2.090723	-0.03322865	154.5253	
15:17:18	47.44729	-122.3085	17.898	17.4022	86.82256	32.56	31.89181	98	0	98	-0.5777835	0.4441634	159.1886	
15:17:20	47.44646	-122.3083	22.202	21.63491	194.2069	32.46	30.47317	98	0	100	0.382505	0.2867325	169.7002	
15:17:21	47.44594	-122.3082	24.556	24.92441	207.903	32.53	29.62956	99	0	98	0.7054966	0.2108032	178.0809	
15:17:23	47.44548	-122.3082	26.427	27.04649	184.0523	32.56	28.94055	99	0	98	0.6602855	0.2267256	-173.5306	
15:17:25	47.44496	-122.3083	28.582	28.89705	168.6308	32.54	28.65069	99	0	100	0.8004729	0.2408058	-166.8876	
15:17:26	47.44445	-122.3084	31.228	31.22365	180.7186	32.52	28.56425	99	0	98	0.8409846	0.2226389	-161.0324	
15:17:28	47.44398	-122.3085	33.951	33.89594	193.6199	32.45	28.80309	99	0	98	0.6791571	0.2361779	-156.1143	
15:17:30	47.44349	-122.3087	37.241	36.94382	211.2634	32.3	29.69543	99	0	98	0.8697534	0.2986962	-151.985	
15:17:31	47.44305	-122.3089	40.205	40.3108	217.326	32.26	29.73816	99	0	100	0.5896261	0.2028899	-148.4701	
15:17:33	47.44294	-122.309	41.03	42.08653	170.8107	32.27	30.10202	99	0	98	0.8438694	0.3693743	-143.7836	
15:17:35	47.4421	-122.3095	47.927	44.88042	198.4875	32.03	30.18182	99	0	98	1.499645	0.2194139	-140.5371	
15:17:37	47.44172	-122.3098	50.931	50.87948	295.7653	32.03	30.48039	99	0	98	0.6951895	0.2071162	-139.1848	
15:17:38	47.44129	-122.3101	54.257	54.70314	189.8348	29.69	29.35014	99	0	28	2.256716	-1.423769	-137.767	
15:17:40	47.44094	-122.3104	55.392	55.90128	71.37029	25.56	25.05629	99	0	10	1.897866	-2.958484	-136.5166	
15:17:42	47.44064	-122.3108	54.872	55.32316	-34.88391	22.51	22.17284	99	0	10	1.39853	-4.413678	-135.9312	
15:17:43	47.44035	-122.3111	53.156	53.70562	-87.18658	20.56	20.46725	99	0	22	0.980922	-4.621893	-136.087	
15:17:45	47.44013	-122.3113	51.463	51.78278	-74.22743	19.94	19.72792	99	0	14	0.1048998	-3.084476	-136.6474	
15:17:47	47.4399	-122.3116	50.426	50.48774	-71.85217	18.88	18.85801	99	0	13	0.408618	-2.519045	-136.9539	
15:17:48	47.43966	-122.3119	48.885	49.12033	-91.02472	17.93	17.87261	99	0	13	0.5409248	-2.789915	-137.2652	
15:17:50	47.43948	-122.3121	47.444	47.62907	-92.25636	17.38	17.24961	99	0	13	0.3909764	-2.497805	-137.1768	
15:17:52	47.4393	-122.3124	46.013	46.02943	-89.22515	16.91	16.73327	99	0	13	0.3378378	-1.995818	-136.7853	
15:17:54	47.4391	-122.3127	44.371	44.52854	-87.21794	16.42	16.25238	99	0	13	0.4984344	-1.572979	-136.4077	
15:17:55	47.43892	-122.3129	42.837	43.00217	-92.81758	16.05	15.92313	99	0	14	0.4614934	-1.417058	-135.7574	
15:17:57	47.43875	-122.3132	41.332	41.48269	-85.74201	15.77	15.66181	99	0	17	0.5186056	-0.9478369	-134.9497	
15:17:59	47.43859	-122.3134	40.048	40.20126	-39.78474	16.15	16.0485	99	0	31	-0.3001854	1.010917	-134.5828	
15:18:00	47.43841	-122.3137	40.181	40.15867	52.35034	16.98	16.78459	99	0	43	-0.3948279	3.814028	-134.6031	
15:18:02	47.43824	-122.314	41.677	41.4473	78.54826	17.48	17.38685	99	0	43	0.1359982	4.097041	-134.2755	
15:18:04	47.43824	-122.314	41.677	42.04037	45.0947	17.48	17.38685	99	0	43	0.8351845	2.526193	-134.1724	
15:18:05	47.4379	-122.3145	44.556	43.06888	66.12638	18.41	18.347	99	0	41	0.6130195	2.463056	-133.643	
15:18:07	47.4377	-122.3149	46.137	45.9988	114.7478	18.78	18.72019	99	0	43	-0.1182202	1.987014	-134.808	
15:18:09	47.4375	-122.3152	47.346	47.52202	86.6742	19.21	19.08187	99	0	41	0.1159102	1.457931	-134.6472	
15:18:10	47.43732	-122.3155	48.179	48.29914	58.51304	19.6	19.51916	99	0	43	0.4230959	1.345523	-134.0155	
15:18:12	47.43711	-122.3159	48.73	48.91108	42.96032	20.06	19.90476	99	0	43	0.5573398	1.238817	-132.7847	
15:18:14	47.43694	-122.3162	49.075	49.20097	23.9666	20.36	20.24945	99	0	41	0.5801553	1.077721	-131.3668	
15:18:15	47.43674	-122.3166	49.495	49.42458	12.5165	20.67	20.54167	99	0	43	0.6661144	0.8635452	-129.7301	
15:18:17	47.43654	-122.317	49.864	49.71985	15.50691	20.96	20.77781	99	0	41	0.6720066	0.8677131	-128.055	
15:18:19	47.43635	-122.3174	50.402	50.19317	12.75742	21.13	20.95366	99	0	43	0.5240881	0.5349044	-126.5257	
15:18:21	47.4362	-122.3177	51.179	50.98016	37.98104	21.32	21.16395	99	0	43	0.5879099	0.5818146	-124.773	
15:18:22	47.43599	-122.3182	52.411	52.18433	61.80164	21.51	21.34107	99	0	43	0.5540409	0.5802528	-123.0878	
15:18:24	47.43581	-122.3186	53.668	53.50985	77.06124	21.62	21.46057	99	0	41	0.5632847	0.617129	-121.4455	
15:18:26	47.43567	-122.319	54.668	54.6746	66.53329	21.64	21.48146	99	0	43	0.5469955	0.2352498	-119.7306	
15:18:27	47.4355	-122.3194	55.715	55.70947	70.63577	21.78	21.62205	99	0	41	0.4235661	0.3712279	-118.3907	
15:18:29	47.43534	-122.3199	56.85	56.7429	64.92535	21.8	21.62268	99	0	43	0.7583427	0.3402722	-116.8341	
15:18:31	47.43521	-122.3202	57.66	57.80572	68.09628	21.87	21.72133	99	0	43	0.481366	0.4051756	-115.4624	
15:18:32	47.43505	-122.3208	58.879	58.83192	64.02094	21.9	21.74715	99	0	41	0.3016649	0.2600454	-114.151	
15:18:34	47.43493	-122.3212	59.846	59.80827	61.41116	21.89	21.75024	99	0	43	0.5214059	0.2315166	-112.7643	
15:18:36	47.43479	-122.3216	60.837	60.80067	60.19691	21.92	21.79881	99	0	41	0.5692263	0.2193605	-111.4074	
15:18:37	47.43467	-122.3221	61.77	61.75467	59.58302	21.96	21.82515	99	0	43	0.4932449	0.2389805	-110.2162	
15:18:39	47.43455	-122.3226	59.178	61.18668	-3.683166	22	21.86665	99	0	43	0.6232697	0.3678442	-109.0417	
15:18:41	47.43446	-122.323	56.453	57.49483	-146.5731	21.98	21.84535	99	0	43	0.4977423	0.3131742	-107.7935	
15:18:43	47.43434	-122.3235	51.819	54.81149	-166.3055	21.99	21.84621	99	0	41	1.078993	0.51328	-106.5647	
15:18:44	47.43425	-122.324	47.621	48.25436	-318.6761	22.03	21.90043	99	0	43	0.2374821	0.2382606	-105.8095	
15:18:46	47.43417	-122.3244	43.528	42.97421	-328.8679	22.04	21.90981	99	0	43	0.3061738	0.2148644	-105.3754	
15:18:48	47.43407	-122.3249	40.514	39.08043	-278.8627	22.03	21.90151	99	0	43	0.4608541	0.1242365	-104.5695	
15:18:49	47.434	-122.3254	39.406	38.10945	-141.6052	22.08	21.94206	99	0	43	0.3908533	0.1683867	-103.6144	
15:18:51	47.43391	-122.3259	37.913	37.74202	-68.28325	22.13	21.97715	99	0	44	0.3013076	0.1938713	-102.7123	
15:18:53	47.43385	-122.3264	36.91	37.0399	-50.49503	22.11	21.97374	99	0	43	0.2760817	0.2614465	-101.6462	
15:18:54	47.43378	-122.3269	35.835	36.06878	-52.80415	22.11	21.96213	99	0	43	0.4857329	0.274447	-100.7018	
15:18:56	47.43372	-122.3273	35.407	35.2097	-46.97369	22.1	21.95722	99	0	43	0.6321889	0.252067	-99.58603	
15:18:58	47.43367	-122.3278	35.027	34.89022	-29.88636	22.09	21.95035	99	0	41	0.3949073	0.12861	-98.42752	
15:18:59	47.43362	-122.3283	34.134	34.3818	-29.47612	22.02	21.87631	99	0	43	0.4838661	0.08759409	-97.35323	
15:19:01	47.43358	-122.3288	32.962	33.3599	-41.80423	22.07	21.92062	99	0	43	0.4765591	0.257646	-96.1737	
15:19:03	47.43355	-122.3293	32.135	32.24594	-52.12666	22.07	21.91642	99	0	43	0.5074022	0.3430803	-94.67636	
15:19:05	47.43352	-122.3298	31.13	31.18614	-59.02246	22.05	21.91052	99	0	43	0.5361115	0.2583495	-93.63148	
15:19:06	47.43351	-122.3302	30.478	30.35558	-52.57712	22.06	21.9199	99	0	43	0.2872574	0.2014252	-92.65799	
15:19:08	47.43349	-122.3308	30.672	30.22404	-20.98316	22.07	21.94262	99	0	43	0.514084	0.1791086	-91.29708	
15:19:10	47.43349	-122.331	30.563	25.08011	-1183.232	22.04	21.87519	99	0	43	-11.598	-35.83689	-88.61587	
15:19:11	47.43347	-122.3319	8.231	11.34577	45.52493	27.46	25.45875	99	0	43	-1.010224	-3.358205	-103.4829	
15:19:13	47.43341	-122.3324	16.593	14.91203	227.2739	20.84	18.0244	99	0	41	-10.47687	2.412513	-119.3368	
15:19:15	47.43332	-122.3328	20.794	19.7261	167.9763	19	15.99532	99	0	43	4.999259	1.061067	-114.2997	
15:19:16	47.43324	-122.3332	23.349	23.16238	150.7512	18.97	15.20477	99	0	43	2.275686	0.2161928	-108.3633	
15:19:18	47.43319	-122.3336	24.532	25.02765	118.3712	19.25	16.26562	99	0	43	1.934008	0.3972558	-104.9579	
15:19:20	47.43313	-122.3341	21.672	22.65585	-478.415	20.85	17.68943	99	0	43	1.24454	-15.61414	-101.6851	
15:19:21	47.43309	-122.3346	13.594	14.94792	-364.2743	24.17	21.53507	99	0	43	1.577225	-10.88062	-97.7155	
15:19:23	47.43305	-122.3351	7.753	8.53025	-199.6543	24.22	23.05728	99	0	43	-8.673653	-5.526927	-117.4364	
15:19:25	47.43292	-122.3356	6.955	7.049362	-16.36699	22.11	21.14622	99	0	43	-5.845652	0.2527329	-125.795	
15:19:27	47.43279	-122.336	7.066	6.673471	-57.05024	20.86	20.31938	99	0	41	-3.328186	-0.9200042	-132.679	
15:19:28	47.43258	-122.3364	5.986	6.142973	-52.26586	20.09	19.94697	99	0	50	-2.033793	-1.005267	-138.6572	
15:19:30	47.43239	-122.3367	5.452	5.43583	-13.14821	20.4	20.79408	99	0	52	-0.8405614	0.2268584	-144.2844	
15:19:32	47.43214	-122.337	5.678	5.551541	8.159787	20.51	20.89518	99	0	52	0.1109545	0.4786057	-148.7453	
15:19:33	47.4319	-122.3373	5.74	5.814047	23.1333	20.79	21.294	99	0	53	0.6692566	0.6530097	-152.7389	
15:19:35	47.43164	-122.3375	5.894	6.038363	20.37141	21.03	21.57113	99	0	55	1.257367	0.5855641	-156.4732	
15:19:37	47.43132	-122.3377	7.242	6.6091	42.2587	21.38	21.71184	99	0	55	1.362666	0.574753	-159.6648	
15:19:38	47.431	-122.3379	9.009	8.472844	94.90582	21.63	21.87206	99	0	55	1.559996	0.6228633	-162.7459	
15:19:40	47.43069	-122.3381	10.405	10.22649	107.9721	21.88	22.22011	99	0	55	1.556602	0.4379743	-165.6247	
15:19:42	47.43056	-122.3382	11.004	11.59091	101.9928	21.98	22.25688	99	0	55	1.832403	0.5290563	-168.6778	
15:19:43	47.43005	-122.3384	13.19	13.10329	107.5361	22.31	22.53234	99	0	55	0.9958971	0.4070263	-171.8563	
15:19:45	47.42971	-122.3385	14.549	14.61041	101.8297	22.51	22.60075	99	0	53	1.515525	0.3558258	-174.4267	
15:19:47	47.4294	-122.3385	15.513	15.76436	94.35845	22.7	22.86037	99	0	55	7.11335	0.1724966	-168.5223	
15:19:49	47.42905	-122.3386	17.039	16.99617	96.22063	23.3	23.28065	99	0	53	5.831111	0.676725	-165.7506	
15:19:50	47.4287	-122.3388	19.218	18.92731	117.154	23.83	23.77809	99	0	55	3.827528	0.7180714	-162.5518	
15:19:52	47.42836	-122.339	21.568	21.26692	132.3947	24.24	23.8666	99	0	55	2.416591	0.464904	-160.8188	
15:19:54	47.42803	-122.3391	23.977	23.93252	157.3301	24.49	24.18013	99	0	53	1.769509	0.584107	-159.6367	
15:19:55	47.42768	-122.3394	23.833	24.90797	85.30779	24.57	24.34083	99	0	53	1.163006	0.3022414	-158.4786	
15:19:57	47.42732	-122.3396	23.32	24.02121	-0.705092	24.63	24.45774	99	0	53	0.7102283	0.2744801	-157.4879	
15:19:59	47.42696	-122.3398	22.933	23.01347	-41.65604	24.79	24.61433	99	0	55	0.5136763	0.152547	-156.2408	
15:20:00	47.42661	-122.3401	21.814	22.30925	-48.84943	24.84	24.70867	99	0	53	0.6625406	0.1953918	-155.0711	
15:20:02	47.42635	-122.3403	20.563	20.63811	-88.31448	24.83	24.68026	99	0	53	0.7272269	0.1218106	-153.3167	
15:20:04	47.42596	-122.3406	18.677	18.84129	-107.9838	24.81	24.64912	99	0	53	0.345368	0.1086306	-152.5368	
15:20:05	47.42578	-122.3408	17.838	17.47297	-101.6387	24.81	24.66486	99	0	53	1.486155	0.07735571	-150.1685	
15:20:07	47.4253	-122.3412	15.356	16.09327	-96.35731	24.84	24.67385	99	0	53	0.5321148	0.1257212	-148.9486	
15:20:09	47.42502	-122.3414	14.152	14.04858	-119.5199	24.56	24.5124	99	0	53	-4.942142	-0.1171124	-154.6419	
15:20:11	47.42466	-122.3417	12.492	12.47383	-114.6353	23.75	23.76116	99	0	53	-5.818923	-0.4195526	-163.7921	
15:20:12	47.42437	-122.3419	11.064	10.89752	-107.9799	23.25	23.34786	99	0	53	-2.997298	-0.3705929	-170.096	
15:20:14	47.42399	-122.342	9.282	9.391131	-96.31548	22.95	23.13311	99	0	53	-1.49414	-0.1589624	-174.9466	
15:20:16	47.42371	-122.3421	7.788	7.712875	-100.437	22.92	23.18486	99	0	53	-0.3763745	-0.1112576	-178.4665	
15:20:17	47.42329	-122.3421	5.649	5.937911	-89.18164	23.34	23.36191	99	0	83	-0.3042603	0.3852732	178.1908	
15:20:19	47.42295	-122.3421	5.028	4.940688	-13.21018	25.24	25.53816	99	0	98	0.5412575	1.861198	175.3369	
15:20:21	47.42252	-122.3421	6.559	5.822076	72.07895	27.49	27.62621	99	0	100	1.448997	2.365935	173.162	
15:20:22	47.42212	-122.3421	8.671	8.253672	95.53945	29.01	29.05083	99	0	100	2.290686	1.717624	172.739	
15:20:24	47.42166	-122.3421	10.658	10.30383	90.26074	30.37	30.61707	99	0	95	2.798673	1.167701	173.5322	
15:20:26	47.42119	-122.342	12.017	11.87311	46.61406	30.11	30.23676	99	0	77	2.742186	0.1664035	175.1709	
15:20:27	47.42075	-122.342	15.829	14.28802	111.9983	29.81	29.74274	99	0	77	1.980207	0.02520177	176.7423	
15:20:29	47.4203	-122.342	19.789	18.46493	210.7846	29.61	29.44616	99	0	77	2.939449	0.04115763	-177.7224	
15:20:31	47.41986	-122.342	21.548	21.43418	222.6277	29.42	29.40447	99	0	77	0.5531816	0.3274993	-174.8267	
15:20:33	47.41938	-122.3421	17.91	20.95795	28.80505	29.28	28.4167	99	0	77	1.425863	-0.08571593	-173.9647	
15:20:34	47.41899	-122.3421	14.768	16.29715	-167.4341	29.25	28.65541	99	0	77	1.202332	0.1019569	-173.049	
15:20:36	47.41853	-122.3422	12.525	11.67264	-246.5973	29.36	28.97863	99	0	77	-0.9019638	0.04965463	-174.0415	
15:20:38	47.4185	-122.3422	12.606	10.85219	-151.2615	29.37	29.11007	99	0	5	-3.179251	-0.3818851	-173.7722	
15:20:39	47.4185	-122.3422	12.606	11.58291	-57.89594	29.37	29.16237	99	0	4	-4.737252	-0.5776223	-172.3903	
15:20:41	47.4185	-122.3422	12.606	12.14943	-25.25852	29.37	29.18318	99	0	4	-5.830763	-0.6531042	-170.5708	
15:20:43	47.4185	-122.3422	12.606	12.43859	76.0763	29.37	29.18318	99	0	4	-6.34403	-0.6283826	-167.5502	
15:20:44	47.4407	-122.3181	0.02	0.5880307	-428.0529	0	3	99	0	5	-4.539222	0.3066291	-158.0949	
15:20:46	47.4407	-122.3181	0.02	-2.85773	-288.3459	0	3	99	0	4	-2.775084	0.9959672	-148.0045	
15:20:48	47.4407	-122.3181	0.02	-1.899397	-92.6324	0	3	99	0	4	-1.490335	1.000252	-142.0556	
15:20:49	47.4407	-122.3181	0.02	-1.899397	-92.6324	0	3	99	0	5	-0.3188642	0.7748712	-141.2475	
15:20:51	47.4407	-122.3181	0.02	-0.816905	-0.8318903	0	3	99	0	5	1.300017	0.5673167	-134.5661	
15:20:53	47.4407	-122.3181	0.02	-0.04051134	37.45142	0	3	99	0	4	2.143274	0.1756479	-122.9411	
15:20:55	47.4407	-122.3181	0.02	0.329014	35.55436	0	3	99	0	4	2.139627	-0.1862494	-105.8957	
