Date	Latitude(deg) 	Longitude(deg)	hamsl(m)	hafl(m)	climbrate(cm/s)	GroundSpeed(m/s)	Airspeed(m/s)	Mav_Link(%)	Rssi_Link(%)	Throttle	Roll(deg)	Pitch(deg)	Yaw(deg)
23:49:27	0	0	0	-0.8794929	-45.03277	0	0	30	0	41	0.6516014	-0.4765018	71.02012	
23:49:28	0	0	0	0.142331	8.559971	0	0	38	0	41	0.7016595	-0.4866744	71.38017	
23:49:30	0	0	0	0.410552	7.029036	0	0	45	0	41	0.6623989	-0.4275221	71.61785	
23:49:32	0	0	0	0.6789386	6.406799	0	0	51	0	41	0.6589012	-0.4227058	71.85166	
23:49:34	0	0	0	0.3153147	-15.27942	0	0	56	0	41	0.6333	-0.3754063	71.98492	
23:49:35	0	0	0	0.07792369	-19.33795	0	0	61	0	41	0.6428379	-0.3438777	72.01198	
23:49:37	0	0	0	0.08343749	-9.540571	0	0	64	0	41	0.6858958	-0.328595	72.0444	
23:49:39	0	0	0	0.3085977	0.04988785	0	0	68	0	41	0.7220955	-0.2544428	72.01931	
23:49:40	0	0	0	0.421701	-0.1119567	0	0	71	0	42	0.6958082	-0.3053018	71.95581	
23:49:42	0	0	0	0.2116277	-10.44979	0	0	73	0	41	0.6972044	-0.3004131	71.937	
23:49:44	0	0	0	-0.1418876	-17.40606	0	0	76	0	41	0.6927063	-0.267718	71.86721	
23:49:45	0	0	0	0.2608972	6.501742	0	0	78	0	41	0.7747641	-0.4064546	71.70441	
23:49:47	0	0	0	0.3516011	3.062522	0	0	80	0	41	0.7655203	-0.4365681	71.52964	
23:49:49	0	0	0	0.1869417	-4.841943	0	0	82	0	41	0.7243014	-0.4329641	71.39999	
23:49:50	0	0	0	0.27613	0.1931934	0	0	83	0	41	0.7119817	-0.4623314	71.24303	
23:49:52	0	0	0	0.1940505	-5.349181	0	0	84	0	41	0.6920837	-0.5041801	71.1187	
23:49:54	0	0	0	0.3048065	2.939976	0	0	86	0	41	0.7059054	-0.487994	70.98911	
23:49:56	0	0	0	0.1377127	-4.84669	0	0	87	0	42	0.6498022	-0.5446629	70.80981	
23:49:57	0	0	0	0.1997307	-0.9126769	0	0	88	0	41	0.6211218	-0.5697573	70.70467	
23:49:59	0	0	0	0.3863308	3.377999	0	0	89	0	41	0.610505	-0.5218102	70.60625	
23:50:01	0	0	0	0.1718239	-7.063513	0	0	90	0	41	0.5989164	-0.5730512	70.51022	
23:50:02	0	0	0	0.1545462	-4.130176	0	0	90	0	42	0.6237332	-0.5420115	70.44826	
23:50:04	0	0	0	0.2866203	0.765052	0	0	91	0	41	0.5888289	-0.4751242	70.44927	
23:50:06	0	0	0	0.3850961	3.879057	0	0	92	0	41	0.5889277	-0.5168644	70.40956	
23:50:07	0	0	0	0.232123	-3.601898	0	0	92	0	41	0.6149997	-0.5384951	70.39291	
23:50:09	0	0	0	0.3329949	0.7421096	0	0	93	0	41	0.6335589	-0.4889024	70.39498	
23:50:11	0	0	0	0.5300521	7.149255	0	0	93	0	42	0.6513063	-0.4416409	70.40007	
23:50:12	0	0	0	-0.05896525	-17.62703	0	0	94	0	42	0.7041423	-0.4097974	70.4394	
23:50:14	0	0	0	0.307313	6.202067	0	0	94	0	42	0.698444	-0.4140078	70.48073	
23:50:16	0	0	0	0.2649911	-4.054883	0	0	95	0	41	0.7292019	-0.4934019	70.46867	
23:50:18	0	0	0	-0.05940275	-13.8998	0	0	95	0	41	0.716844	-0.43774	70.4497	
23:50:19	0	0	0	0.08569735	0.5628568	0	0	95	0	41	0.7221619	-0.4418063	70.40495	
23:50:21	0	0	0	-0.1027171	-7.633596	0	0	96	0	41	0.7511549	-0.4515601	70.38956	
23:50:23	0	0	0	-0.166482	-4.180472	0	0	96	0	41	0.7972162	-0.4779807	70.3855	
23:50:24	0	0	0	0.3205302	15.55591	0	0	96	0	41	0.7500311	-0.4274713	70.36581	
23:50:26	0	0	0	0.3520494	6.49641	0	0	97	0	41	0.7351359	-0.3696889	70.38905	
23:50:28	0	0	0	0.1371984	-4.852081	0	0	97	0	41	0.7286133	-0.4199103	70.40654	
23:50:29	0	0	0	0.002406565	-4.35024	0	0	97	0	41	0.6996372	-0.4219802	70.39326	
23:50:31	0	0	0	-0.01263974	-4.717305	0	0	97	0	41	0.7342007	-0.3601788	70.43848	
23:50:33	0	0	0	-0.08216725	-5.662816	0	0	97	0	41	0.7242558	-0.347198	70.48792	
23:50:34	47.45867	-122.314	5.313	2.532597	72.53931	25.87	0	97	0	41	2.038648	0.4042467	78.1935	
23:50:36	47.45867	-122.314	5.313	5.823573	120.9991	25.87	0	98	0	41	0.8813726	-0.3533657	91.37468	
23:50:38	47.45867	-122.314	5.313	5.942873	33.74154	25.87	0	98	0	41	-0.09982336	-0.7328188	109.3723	
23:50:40	47.45867	-122.314	5.313	5.365526	-22.59007	25.87	0	98	0	41	-0.869712	-0.7346753	128.9729	
23:50:41	47.45867	-122.314	5.313	5.060769	-32.67512	25.87	0	98	0	41	-1.793107	-0.2878624	152.1719	
23:50:43	47.45867	-122.314	5.313	5.034437	-24.50184	25.87	0	98	0	41	-2.278134	0.1749959	173.0359	
23:50:45	47.45867	-122.314	5.313	5.103377	-16.20358	25.87	0	98	0	41	-2.51183	0.4920426	-168.6226	
23:50:46	47.45867	-122.314	5.313	5.161929	-11.92029	25.87	0	98	0	41	-2.881684	0.816157	-151.4517	
23:50:48	47.45867	-122.314	5.313	5.195196	-9.845224	25.87	0	98	0	41	-3.152677	0.8964662	-138.7217	
23:50:50	47.45867	-122.314	5.313	5.213346	-8.533033	25.87	0	98	0	41	-3.398025	0.8118407	-129.3028	
23:50:51	47.45867	-122.314	5.313	5.226614	-7.171925	25.87	0	99	0	42	-3.813579	0.6841627	-121.871	
23:50:53	47.45867	-122.314	5.313	5.239486	-5.961417	25.87	0	99	0	41	-4.13892	0.5180727	-116.2329	
23:50:55	47.45867	-122.314	5.313	5.251242	-4.91209	25.87	0	99	0	36	-4.403443	0.3193977	-112.0876	
23:50:57	47.45867	-122.314	5.313	5.260891	-4.075853	25.87	0	99	0	5	-4.747285	0.0463631	-110.0897	
23:50:58	47.46364	-122.311	0.02	0.8099924	-130.0833	0	0	99	0	4	-2.400993	2.244142	-117.8838	
23:51:00	47.46364	-122.311	0.02	-0.8113132	-93.68161	0	0	99	0	4	-2.897486	1.529625	-124.5366	
23:51:02	47.46364	-122.311	0.02	-0.452344	-11.99513	0	0	99	0	4	-3.058501	0.9977151	-132.4413	
23:51:03	47.46364	-122.311	0.02	0.05149211	24.59553	0	0	99	0	4	-3.080088	1.01706	-138.4088	
23:51:05	47.46364	-122.311	0.02	0.2569501	28.21754	0	0	99	0	4	-3.083698	0.7593426	-143.2233	
23:51:07	47.46364	-122.311	0.02	0.2574726	21.72222	0	0	99	0	4	-2.888889	0.5256128	-149.0032	
23:51:08	47.46364	-122.311	0.02	0.2070574	16.27192	0	0	99	0	4	-2.730466	0.4466152	-153.3642	
23:51:10	47.46364	-122.311	0.02	0.167365	13.42918	0	0	99	0	4	-2.60796	0.4305832	-156.6603	
23:51:12	47.46364	-122.311	0.02	0.1471093	12.15363	0	0	99	0	5	-2.334256	0.4013716	-160.5849	
23:51:13	47.46364	-122.311	0.02	0.1305981	10.60643	0	0	99	0	4	-2.126832	0.4016391	-163.5862	
23:51:15	47.46364	-122.311	0.02	0.1240429	10.43973	0	0	99	0	4	-1.986324	0.4080698	-165.8629	
23:51:17	47.46364	-122.311	0.02	0.1196447	9.935989	0	0	99	0	4	-1.734435	0.4119169	-168.3126	
23:51:19	47.46364	-122.311	0.02	0.1135902	9.201539	0	0	99	0	4	-1.555561	0.4373803	-170.2062	
23:51:20	47.46364	-122.311	0.02	0.1049768	8.118546	0	0	99	0	4	-1.429374	0.4708542	-171.6618	
23:51:22	47.46364	-122.311	0.02	0.09551837	7.307854	0	0	99	0	4	-1.230393	0.4645268	-173.0646	
23:51:24	47.46364	-122.311	0.02	0.08880521	6.782894	0	0	99	0	5	-1.088494	0.4669548	-174.1745	
23:51:25	47.46364	-122.311	0.02	0.08103843	5.633821	0	0	99	0	5	-0.9921659	0.454494	-175.045	
23:51:27	47.46364	-122.311	0.02	0.06828742	4.265158	0	0	99	0	5	-0.8411043	0.4607247	-175.7521	
23:51:29	47.46364	-122.311	0.02	0.05799723	3.572376	0	0	99	0	5	-0.7349771	0.4461471	-176.3326	
23:51:30	47.46364	-122.311	0.02	0.05504292	3.748434	0	0	99	0	4	-0.6560596	0.4346599	-176.8094	
23:51:32	47.46364	-122.311	0.02	0.05999061	4.486755	0	0	99	0	4	-0.5514673	0.4018523	-177.0857	
23:51:34	47.46364	-122.311	0.02	0.06287069	4.451568	0	0	99	0	4	-0.4769392	0.3818595	-177.3257	
23:51:36	47.46364	-122.311	0.02	0.05942031	3.774279	0	0	99	0	4	-0.4231488	0.3624988	-177.5274	
23:51:37	47.46364	-122.311	0.02	0.0543602	3.319926	0	0	99	0	4	-0.3502726	0.3395217	-177.5551	
23:51:39	47.46364	-122.311	0.02	0.04866225	2.714981	0	0	99	0	4	-0.3009807	0.3148474	-177.6096	
23:51:41	47.46364	-122.311	0.02	0.04551685	2.328449	0	0	99	0	5	-0.2732421	0.2987587	-177.6601	
23:51:42	47.46364	-122.311	0.02	0.04251565	2.302111	0	0	99	0	5	-0.2191214	0.258395	-177.5516	
23:51:44	47.46364	-122.311	0.02	0.03677011	1.249287	0	0	99	0	5	-0.191643	0.2532809	-177.4921	
23:51:46	47.46364	-122.311	0.02	0.02878799	0.7955636	0	0	99	0	4	-0.160431	0.2265314	-177.4625	
23:51:47	47.46364	-122.311	0.02	0.02872778	1.143158	0	0	99	0	4	-0.131393	0.1935389	-177.3053	
23:51:49	47.46364	-122.311	0.02	0.03262672	1.652911	0	0	99	0	4	-0.110936	0.1688085	-177.2	
23:51:51	47.46364	-122.311	0.02	0.03474499	1.634938	0	0	99	0	5	-0.1023836	0.154525	-177.1351	
23:51:52	47.46364	-122.311	0.02	0.03304336	1.382814	0	0	99	0	4	-0.07649426	0.1336865	-176.9747	
23:51:54	47.46364	-122.311	0.02	0.0313985	0.9625071	0	0	99	0	4	-0.06524826	0.1257048	-176.867	
23:51:56	47.46364	-122.311	0.02	0.0275648	0.5927669	0	0	99	0	5	-0.06010129	0.1174557	-176.7946	
23:51:58	47.46364	-122.311	0.02	0.02254025	0.06269394	0	0	99	0	5	-0.04765818	0.1033551	-176.6583	
23:51:59	47.46364	-122.311	0.02	0.02036151	0.4084646	0	0	99	0	4	-0.03494016	0.0773342	-176.56	
23:52:01	47.46364	-122.311	0.02	0.02663271	1.104289	0	0	99	0	4	-0.03216194	0.06763987	-176.4895	
23:52:03	47.46364	-122.311	0.02	0.02703339	0.4889541	0	0	99	0	5	-0.02627975	0.06561781	-176.3818	
23:52:04	47.46364	-122.311	0.02	0.02109574	-0.1096028	0	0	99	0	4	-0.02312197	0.04764754	-176.3024	
23:52:06	47.46364	-122.311	0.02	0.02202852	0.3942448	0	0	99	0	5	-0.02506806	0.04271759	-176.2448	
23:52:08	47.46364	-122.311	0.02	0.0238527	1.106468	0.52	0	99	0	56	0.2130056	0.4630348	-178.7141	
23:52:09	47.4636	-122.311	0.022	0.06193959	9.75714	5.91	0	99	0	80	0.9101043	1.894286	177.164	
23:52:11	47.46344	-122.311	0.028	0.1485921	20.40137	14.18	0	99	0	94	0.1319335	1.897164	-178.8855	
23:52:13	47.46313	-122.311	0.227	0.3971247	96.19856	21.25	0	99	0	100	1.091077	3.803263	-174.4187	
23:52:15	47.46281	-122.311	2.517	2.414631	156.4612	24.4	0	99	0	94	1.026865	4.290784	-170.4315	
23:52:16	47.46244	-122.3111	4.89	4.57157	102.62	26.42	0	99	0	94	0.1046501	2.976734	-167.8717	
23:52:18	47.46202	-122.3112	6.521	6.352717	76.35225	28.02	0	99	0	92	-0.2049889	2.216084	-166.0395	
23:52:20	47.46159	-122.3113	7.603	7.506152	42.86152	29.19	0	99	0	94	-0.719515	1.443954	-164.704	
23:52:21	47.46112	-122.3115	8.542	8.348598	32.16459	30.32	0	99	0	95	-0.5673668	0.9259246	-163.7438	
23:52:23	47.4607	-122.3117	9.124	9.061279	36.08744	31	0	99	0	95	-0.7382165	0.8252863	-162.9738	
23:52:25	47.46022	-122.3119	9.738	9.651579	27.4921	31.54	0	99	0	95	-0.4500039	0.5446475	-162.5748	
23:52:26	47.45977	-122.3121	10.688	10.2203	22.69662	31.95	0	99	0	95	-0.5289807	0.2742052	-162.3811	
23:52:28	47.45935	-122.3123	11.757	11.46786	54.48119	32.21	0	99	0	92	-0.8555779	0.2153918	-162.2051	
23:52:30	47.45886	-122.3125	12.903	12.72941	61.42704	32.16	0	99	0	89	-0.4319096	0.04404783	-162.1414	
23:52:31	47.4584	-122.3127	13.629	13.66944	59.29238	32.04	0	99	0	89	-0.4734018	-0.1076719	-162.2697	
23:52:33	47.45797	-122.313	14.617	14.59313	64.83868	32.01	0	99	0	89	-0.7781406	-0.02530702	-162.4911	
23:52:35	47.45746	-122.3132	15.889	15.77812	74.75927	31.93	0	99	0	91	-0.1501507	0.0809902	-162.0043	
23:52:37	47.45704	-122.3134	17.3	17.1238	75.96167	31.8	0	99	0	91	-0.4243168	0.01005872	-161.2296	
23:52:38	47.45657	-122.3137	19.088	18.83215	103.928	31.78	0	99	0	89	-0.3436341	0.1917538	-160.517	
23:52:40	47.45616	-122.3139	20.841	20.84218	120.6793	31.78	0	99	0	91	-0.5428829	0.2667873	-159.5161	
23:52:42	47.45567	-122.3142	22.773	22.76234	123.9959	31.74	0	99	0	89	-0.3377587	0.1953963	-158.9251	
23:52:43	47.45521	-122.3145	24.265	24.35784	119.7012	31.68	0	99	0	89	-0.4534893	0.3180149	-158.2576	
23:52:45	47.45478	-122.3148	25.868	25.87239	97.91364	31.62	0	99	0	89	-0.1880316	0.1467572	-158.0509	
23:52:47	47.45442	-122.315	26.495	26.84979	74.99087	31.63	0	99	0	89	-0.7709602	0.1480878	-156.9307	
23:52:48	47.45395	-122.3154	27.799	27.87089	80.0452	31.62	0	99	0	89	-0.2708994	0.3027575	-155.8026	
23:52:50	47.45345	-122.3157	28.75	28.91609	70.73252	31.58	0	99	0	89	-0.3911369	0.2768932	-154.978	
23:52:52	47.45307	-122.316	29.622	29.54813	52.72122	31.58	0	99	0	89	-0.2944928	0.2232434	-153.9999	
23:52:54	47.45262	-122.3163	30.848	30.77054	65.57289	31.63	0	99	0	89	-0.4507259	0.1487465	-153.3152	
23:52:55	47.45219	-122.3167	31.792	31.74415	32.47453	30.34	0	99	0	59	-0.1799119	-0.4428339	-152.0866	
23:52:57	47.45179	-122.317	31.825	32.04812	-2.673414	28.08	0	99	0	38	-0.05392873	-1.046831	-150.9019	
23:52:59	47.4515	-122.3172	31.264	31.27665	-55.34536	26.3	0	99	0	38	-0.1759285	-1.880602	-150.1128	
23:53:00	47.45112	-122.3176	30.311	30.31682	-59.82722	24.78	0	99	0	38	-0.1950319	-1.675785	-149.5867	
23:53:02	47.45082	-122.3178	29.433	29.82122	-31.05856	24.01	0	99	0	38	-1.082193	-1.266212	-148.7987	
23:53:04	47.45055	-122.3181	28.743	28.9046	-54.24905	23.47	0	99	0	38	-0.1911247	-0.9485342	-148.5046	
23:53:05	47.45035	-122.3183	27.996	27.64917	-62.25224	23.26	0	99	0	38	-0.7058426	-0.9693537	-148.383	
23:53:07	47.44995	-122.3186	26.784	26.68654	-58.74366	22.84	0	99	0	38	-0.5615534	-0.8102826	-148.1655	
23:53:09	47.44963	-122.3189	26.719	26.42988	-23.62489	22.51	0	99	0	38	-0.6383759	-0.6079354	-147.6948	
23:53:10	47.44934	-122.3192	26.827	26.69332	7.853464	22.26	0	99	0	38	-0.3535718	-0.435093	-147.1207	
23:53:12	47.44908	-122.3195	26.795	26.95317	18.39192	22.02	0	99	0	38	-0.5424082	-0.2615053	-146.7794	
23:53:14	47.4488	-122.3197	26.803	26.93003	14.46794	21.89	0	99	0	40	-1.075902	-0.06635882	-146.5655	
23:53:16	47.44853	-122.32	26.982	26.96566	10.69249	21.72	0	99	0	38	-0.3755998	-0.003378742	-146.1133	
23:53:17	47.44823	-122.3203	28.767	27.87854	40.1223	21.52	0	99	0	38	-0.2136486	-0.1137476	-145.3439	
23:53:19	47.44799	-122.3206	30.601	30.11416	104.2553	21.42	0	99	0	38	-0.3349657	-0.04382221	-144.7887	
23:53:21	47.44771	-122.3209	33.861	32.80138	146.6711	21.33	0	99	0	38	-0.3974729	-0.05040609	-144.4319	
23:53:22	47.44744	-122.3212	38.565	37.63445	255.4633	21.3	0	99	0	40	-0.263489	0.1783448	-143.903	
23:53:24	47.4472	-122.3214	41.745	42.13803	268.2661	21.23	0	99	0	38	-0.5595178	0.1416601	-143.7619	
23:53:26	47.44692	-122.3217	39.687	44.4875	181.1416	21.14	0	99	0	38	-0.3398546	0.09765939	-143.3776	
23:53:27	47.44668	-122.322	48.715	43.4061	47.19282	21.09	0	99	0	38	-0.4422988	0.08349665	-143.1005	
23:53:29	47.44641	-122.3223	48.263	48.43835	197.6644	21.06	0	99	0	38	-0.4260806	-0.002257191	-142.8326	
23:53:31	47.44617	-122.3226	47.634	49.17239	97.27756	21.03	0	99	0	38	-0.3145607	0.05199315	-142.5415	
23:53:32	47.44591	-122.3229	47.038	47.78627	-12.25719	20.99	0	99	0	38	-0.3893722	0.1946473	-142.0695	
23:53:34	47.44566	-122.3232	46.556	46.56231	-58.68842	20.95	0	99	0	38	-0.3141353	0.05807197	-141.7929	
23:53:36	47.4454	-122.3235	45.894	45.78118	-55.73872	20.95	0	99	0	38	-0.552838	0.1329637	-141.3122	
23:53:38	47.44518	-122.3238	45.422	45.26536	-48.40083	20.94	0	99	0	38	-0.4368375	0.09684193	-141.1344	
23:53:39	47.44493	-122.3241	44.552	44.64106	-15.52662	21.3	25.51596	99	0	85	30.25041	2.145034	-134.3131	
23:53:41	47.44479	-122.3245	49.108	48.59251	572.3275	22.61	21.7238	99	0	121	54.11072	17.93447	-75.12193	
23:53:43	47.44497	-122.3249	62.991	61.01526	780.3109	20.7	20.50165	99	0	119	53.76644	23.69785	-8.608083	
23:53:44	47.44527	-122.3248	79.774	77.13235	808.9628	19.98	20.60503	99	0	83	14.03719	20.46399	25.04342	
23:53:46	47.44552	-122.3246	90.201	89.71132	537.1241	21.04	22.17416	99	0	77	-7.136743	11.47114	27.1622	
23:53:48	47.44582	-122.3244	97.626	97.70593	342.4226	21.81	22.60663	99	0	72	-5.52419	6.175937	23.37108	
23:53:49	47.44615	-122.3242	102.888	102.8623	247.0664	22.49	22.5187	99	0	58	-1.384522	3.594934	21.65866	
23:53:51	47.44644	-122.324	105.253	105.3408	100.2014	22.99	23.06437	99	0	53	-0.2060048	0.3418956	22.39452	
23:53:53	47.44677	-122.3238	105.991	106.1203	27.06507	23.5	23.43899	99	0	51	-0.8842884	-1.047723	23.07863	
23:53:54	47.44711	-122.3235	105.51	105.9445	-4.484659	23.94	23.85426	99	0	50	-1.2977	-1.379441	23.32056	
23:53:56	47.44745	-122.3233	104.379	104.9046	-30.80154	24.22	24.10479	99	0	50	-1.515871	-1.01547	23.29519	
23:53:58	47.4478	-122.3231	103.647	103.8294	-41.06282	24.37	24.23507	99	0	51	-1.214979	-0.6003293	23.26337	
23:54:00	47.4481	-122.3229	98.941	102.5144	-65.38847	24.42	24.29243	99	0	51	-1.261661	-0.1883309	23.24286	
23:54:01	47.44847	-122.3226	97.428	98.19971	-117.7251	24.47	24.30069	99	0	57	-1.283299	1.890571	23.22811	
23:54:03	47.44878	-122.3224	95.677	95.66967	-104.4086	24.35	24.17111	99	0	60	-1.163738	3.461313	23.08643	
23:54:05	47.44912	-122.3222	96.137	95.37706	-38.95042	24.18	23.94964	99	0	61	-0.9832121	4.210163	23.08909	
23:54:06	47.44947	-122.322	96.947	96.33227	-0.1035441	24.04	23.80971	99	0	60	-1.030276	3.834844	23.17918	
23:54:08	47.44982	-122.3218	97.324	97.08701	1.867014	24	23.77169	99	0	59	-0.9475314	3.184941	23.29642	
23:54:10	47.45019	-122.3215	97.372	97.3166	2.03298	24.03	23.79296	99	0	59	-1.201873	3.10464	23.29128	
23:54:11	47.45049	-122.3213	97.345	97.3776	3.664952	24.06	23.8288	99	0	59	-1.126959	3.215506	23.23176	
23:54:13	47.45084	-122.3211	97.47	97.457	4.965132	24.06	23.83468	99	0	60	-1.173434	3.379858	23.1751	
23:54:15	47.45117	-122.3209	97.291	97.40259	-3.325668	24.06	23.83254	99	0	60	-1.204354	3.423074	23.0774	
23:54:17	47.45153	-122.3207	97.271	97.23558	-2.293103	24.05	23.82234	99	0	61	-1.269956	3.721537	22.99924	
23:54:18	47.45182	-122.3205	100.188	98.57837	55.35423	24.03	23.79362	99	0	59	-1.263906	3.677739	22.82963	
23:54:20	47.45215	-122.3203	101.808	101.9238	77.32412	24.01	23.78175	99	0	55	-1.156672	1.555523	22.85399	
23:54:22	47.4525	-122.3201	101.828	101.9017	15.4212	24.11	23.87444	99	0	55	-1.471197	0.9304962	22.80049	
23:54:23	47.4529	-122.3198	103.105	102.6586	36.06145	24.23	23.9989	99	0	54	-1.551324	0.7638573	22.58074	
23:54:25	47.4532	-122.3197	103.729	103.6014	34.44682	24.27	24.04582	99	0	52	-1.518767	0.1190183	22.3559	
23:54:27	47.45355	-122.3194	104.333	104.2045	19.2008	24.32	24.09874	99	0	51	-1.702377	-0.6342428	22.07764	
23:54:28	47.45387	-122.3193	104.598	104.5808	13.97789	24.4	24.17923	99	0	49	-1.600723	-1.094414	21.73083	
23:54:30	47.45421	-122.3191	104.455	104.5922	1.032117	24.47	24.2504	99	0	49	-4.475453	-1.422294	21.17514	
23:54:32	47.45457	-122.3189	103.854	104.0536	-22.50818	24.54	24.33273	99	0	49	-11.21766	-1.600241	16.88197	
23:54:34	47.45494	-122.3187	103.382	103.4999	-13.13375	24.64	24.44465	99	0	50	-12.17406	-1.286109	9.404141	
23:54:35	47.45535	-122.3186	102.945	103.203	-8.7459	24.64	24.39183	99	0	49	-8.498731	-1.245238	2.86777	
23:54:37	47.45567	-122.3186	102.683	102.7718	-18.08874	24.6	24.37675	99	0	49	-4.064005	-1.406057	-0.7018003	
23:54:39	47.45607	-122.3186	102.215	102.3243	-17.95794	24.57	24.40889	99	0	49	-1.776483	-1.308947	-1.824257	
23:54:40	47.45646	-122.3187	101.964	102.0347	-14.53831	24.54	24.39478	99	0	49	-0.4107849	-1.308652	-1.85665	
23:54:42	47.45685	-122.3187	101.54	101.7845	-15.07934	24.52	24.3385	99	0	48	-0.6823231	-1.35326	-1.320554	
23:54:44	47.45718	-122.3187	100.753	101.0167	-28.56588	24.52	24.31617	99	0	49	-1.316991	-1.195549	-1.117198	
23:54:45	47.45758	-122.3187	99.862	100.1246	-33.58838	24.5	24.29416	99	0	50	-0.9164976	-0.8382855	-1.14857	
23:54:47	47.45793	-122.3187	99.353	99.45718	-28.79986	24.48	24.26318	99	0	51	-0.6768557	-0.4971316	-0.8411285	
23:54:49	47.45829	-122.3187	99.07	99.04353	-15.87034	24.45	24.23088	99	0	51	-1.285818	-0.1116977	-0.7218788	
23:54:50	47.45866	-122.3187	98.468	98.62312	-19.95092	24.41	24.18661	99	0	52	-1.571612	0.03367173	-0.8729677	
23:54:52	47.45907	-122.3187	98.188	98.20921	-20.04533	24.37	24.14725	99	0	52	-1.377854	0.2084146	-1.029615	
23:54:54	47.45941	-122.3187	98.18	98.10963	-5.754904	24.34	24.12298	99	0	53	-1.574842	0.4453797	-1.178046	
23:54:56	47.4598	-122.3187	98.161	98.14449	-1.358816	24.33	24.10549	99	0	53	-0.9918869	0.4801709	-1.119294	
23:54:57	47.46017	-122.3187	98.032	98.03778	1.300732	24.31	24.09136	99	0	53	-0.7405572	0.7230987	-0.7996912	
23:54:59	47.46054	-122.3187	98.277	98.20191	6.31551	24.28	24.05865	99	0	53	-1.35824	0.7411472	-0.6665278	
23:55:01	47.46088	-122.3187	98.473	98.4165	5.389595	24.26	24.04241	99	0	53	-1.525299	0.6129789	-0.8587206	
23:55:02	47.46127	-122.3188	98.595	98.56616	8.528087	24.27	24.04597	99	0	53	-1.272639	0.6845358	-1.01417	
23:55:04	47.46162	-122.3188	98.841	98.83143	18.42239	24.29	24.11295	99	0	72	35.79052	1.6213	4.544663	
23:55:06	47.46197	-122.3186	100.347	100.8848	365.0941	25.37	24.42184	99	0	98	49.15021	10.13458	53.45974	
23:55:07	47.46209	-122.318	108.625	108.4431	619.6648	24.64	24.78789	99	0	100	46.01471	15.63649	106.3577	
23:55:09	47.46191	-122.3175	121.116	118.6145	350.3831	22.95	23.56781	99	0	60	1.484528	8.229579	127.0114	
23:55:11	47.46172	-122.3172	124.319	123.3816	27.03569	22.74	22.72663	99	0	50	-16.41236	-0.4707077	125.2337	
23:55:12	47.46155	-122.3167	122.195	122.7215	-138.388	23.01	22.74263	99	0	48	-20.21673	-3.733903	113.7733	
23:55:14	47.46146	-122.3162	118.577	119.2628	-167.2628	23.57	23.00719	99	0	50	-16.32298	-2.526802	100.1483	
23:55:16	47.46144	-122.3157	114.743	115.4443	-126.8505	24.08	23.46799	99	0	54	-6.275667	0.2291459	91.48817	
23:55:18	47.46145	-122.3151	113.164	113.2269	-69.82456	24.15	23.58342	99	0	57	0.04932034	2.384898	89.49409	
23:55:19	47.46146	-122.3146	112.967	112.6157	-25.48219	24.09	23.65759	99	0	59	1.603973	3.403519	90.64391	
23:55:21	47.46146	-122.314	113.693	113.281	16.76793	24.05	23.70278	99	0	60	0.04838928	3.709615	91.71792	
23:55:23	47.46145	-122.3134	114.321	114.1206	30.87299	24.05	23.74059	99	0	60	-1.418254	3.576756	91.65141	
23:55:24	47.46145	-122.313	114.881	114.7915	35.01563	24.09	23.79008	100	0	60	-1.860549	3.545066	90.98425	
23:55:26	47.46144	-122.3124	115.655	115.5869	40.98439	24.13	23.84674	100	0	60	-1.777112	3.44242	90.34109	
23:55:28	47.46143	-122.3119	116.38	116.3556	41.08474	24.18	23.88936	100	0	60	-1.589523	3.344452	89.80746	
23:55:29	47.46143	-122.3113	117.293	117.1445	41.39502	24.23	23.94136	100	0	59	-1.491078	3.173421	89.44773	
23:55:31	47.46142	-122.3108	118.176	118.0545	42.92517	24.27	23.97342	100	0	59	-1.236507	2.950186	89.2982	
23:55:33	47.46142	-122.3103	118.809	118.8078	38.91481	24.29	24.00478	100	0	58	-1.599254	2.701486	89.10378	
23:55:35	47.46141	-122.3096	119.577	119.4046	31.16618	24.32	24.03226	100	0	58	-1.325573	2.393277	88.8707	
23:55:36	47.46141	-122.3091	120.143	120.105	33.34888	24.35	24.06431	100	0	57	-1.172227	2.142207	88.84981	
23:55:38	47.4614	-122.3086	120.558	120.6027	23.22611	24.37	24.08349	100	0	56	-1.160753	1.773831	88.94763	
23:55:40	47.4614	-122.308	120.809	120.8881	18.3544	24.41	24.12867	100	0	54	-1.436191	1.558737	88.97066	
23:55:41	47.46138	-122.3075	119.284	118.9843	-338.8274	24.46	24.26331	100	0	52	45.14698	-5.973348	104.3952	
23:55:43	47.46117	-122.307	110.392	111.8417	-439.3254	26.15	25.05951	100	0	51	45.58287	-6.042819	142.7801	
23:55:45	47.46078	-122.3068	100.336	102.1499	-457.0244	27.86	26.91957	100	0	66	45.52005	-2.803495	179.6066	
23:55:46	47.46039	-122.307	97.205	97.13958	25.29975	28.58	28.30314	100	0	70	21.56705	9.354513	-149.2262	
23:55:48	47.4601	-122.3073	100.273	98.67395	-51.27716	27.55	27.10255	100	0	69	-17.44342	5.755591	-157.2499	
23:55:50	47.45966	-122.3076	102.631	101.8209	174.378	27.12	25.73509	100	0	65	-16.78115	5.894995	-172.7151	
23:55:51	47.45929	-122.3078	104.61	104.7331	157.3659	26.54	25.75978	100	0	62	-10.2404	3.509493	178.7108	
23:55:53	47.45891	-122.3078	106.285	106.679	126.736	25.93	25.36679	100	0	59	-4.84023	2.563823	175.5899	
23:55:55	47.45852	-122.3079	107.633	107.7344	62.81483	25.4	24.98531	100	0	56	-2.854936	1.385372	175.1123	
23:55:57	47.45808	-122.3079	108.507	108.3772	18.66196	25.01	24.67405	100	0	53	-1.843677	0.2651497	175.9901	
23:55:58	47.45773	-122.3079	108.798	108.6573	-4.628675	24.8	24.49783	100	0	51	-2.078437	-0.6528853	177.106	
23:56:00	47.45734	-122.3079	108.722	108.6551	-16.83497	24.64	24.33528	100	0	49	-2.013111	-1.312177	178.2053	
23:56:02	47.457	-122.3079	108.234	108.2423	-41.13397	24.53	24.21892	100	0	48	-1.922495	-2.093039	179.4053	
23:56:03	47.45661	-122.3079	107.315	107.4087	-48.73514	24.47	24.16468	100	0	47	-1.879552	-2.278139	-179.4388	
23:56:05	47.45626	-122.3079	106.605	106.5198	-54.859	24.4	24.07416	100	0	46	-2.502278	-2.471524	-178.7671	
23:56:07	47.45583	-122.3079	105.248	105.5466	-56.52592	24.35	24.03693	100	0	46	-2.303158	-2.525813	-178.3447	
23:56:08	47.45551	-122.3079	104.274	104.357	-60.48301	24.31	24.00095	100	0	46	-2.287505	-2.375877	-178.1321	
23:56:10	47.45515	-122.3079	103.205	103.2279	-61.1909	24.28	23.97347	100	0	45	-1.761852	-2.303651	-177.7405	
23:56:12	47.4548	-122.3079	101.536	100.795	-341.1589	24.21	24.16728	100	0	41	42.81582	-9.591288	-160.683	
23:56:14	47.45444	-122.3082	93.714	94.43385	-392.891	25.3	25.32255	100	0	40	44.22557	-11.98652	-121.849	
23:56:15	47.4543	-122.3088	84.659	86.81796	-335.316	26.5	26.82121	100	0	44	44.29844	-10.1932	-81.06926	
23:56:17	47.45444	-122.3093	76.876	78.80125	-309.0838	27.37	27.75238	100	0	51	44.65801	-7.680823	-41.79228	
23:56:19	47.45475	-122.3096	71.901	73.22858	-16.25682	27.92	28.09863	100	0	57	27.50974	0.4252062	-5.132489	
23:56:20	47.45519	-122.3097	72.942	72.73017	32.72654	26.63	26.83654	100	0	55	-3.845868	2.460936	4.973728	
23:56:22	47.45556	-122.3096	74.275	73.51036	-38.69247	25.67	25.55974	100	0	56	-22.47994	1.000086	-2.885822	
23:56:24	47.45599	-122.3098	74.607	73.97681	-30.22459	25.34	25.21083	100	0	56	-25.53233	0.6564206	-19.52098	
23:56:25	47.45628	-122.31	74.566	74.26671	-40.2908	25.16	24.49063	100	0	52	-18.45422	-0.3008577	-34.65871	
23:56:27	47.4566	-122.3104	74.575	74.19878	-34.77082	24.96	24.56492	100	0	50	-10.38424	-0.7703918	-44.09811	
23:56:29	47.45686	-122.3108	74.64	74.31248	-22.1007	24.79	24.57599	100	0	49	-3.29982	-1.087339	-48.15651	
23:56:30	47.45707	-122.3112	74.621	74.38558	-26.7874	24.67	24.4186	100	0	48	-0.8917689	-1.602062	-48.82763	
23:56:32	47.45732	-122.3116	74.372	74.2413	-33.74046	24.56	24.32704	100	0	47	-0.7055301	-1.971618	-48.7724	
23:56:34	47.45758	-122.3121	74.267	74.02745	-31.0197	24.51	24.26813	100	0	47	-0.9517508	-2.20479	-48.68703	
23:56:36	47.45781	-122.3125	74.129	73.95644	-27.93164	24.47	24.23656	100	0	46	-1.387354	-2.482958	-48.77723	
23:56:37	47.45808	-122.3129	73.751	73.71048	-31.82234	24.43	24.19073	100	0	45	-1.534777	-2.721109	-49.06289	
23:56:39	47.4583	-122.3133	73.26	73.22929	-38.82227	24.41	24.17638	100	0	45	-1.527136	-2.882232	-49.31036	
23:56:41	47.45852	-122.3137	73.286	72.99681	-23.58303	24.42	24.18956	100	0	45	-1.582725	-2.845795	-49.54028	
23:56:42	47.45878	-122.3141	73	72.29118	-249.2795	24.27	24.17176	100	0	40	-42.15458	-8.230061	-58.17733	
23:56:44	47.45893	-122.3146	67.972	67.65914	-334.8747	25.01	24.3549	100	0	42	-42.6031	-10.44985	-91.2264	
23:56:46	47.45883	-122.3152	61.639	63.03017	-106.9911	26.58	26.32087	100	0	60	-45.3366	-5.407251	-131.9024	
23:56:47	47.45853	-122.3155	60.134	61.51183	175.0926	27.27	27.47473	100	0	62	-37.10463	1.451043	-172.4568	
23:56:49	47.4581	-122.3156	62.832	63.18907	102.5933	25.86	26.5151	100	0	51	12.93793	0.6906536	179.0979	
23:56:51	47.45773	-122.3156	63.263	63.02794	-34.76933	25.34	25.52229	100	0	52	22.99644	-1.411405	-165.3016	
23:56:53	47.45734	-122.3158	63.646	63.13033	-44.0026	25.13	24.56301	100	0	47	16.05665	-2.368183	-149.1774	
23:56:54	47.45705	-122.316	63.84	63.33611	-21.94917	24.97	24.68252	100	0	46	6.886214	-2.624398	-139.6218	
23:56:56	47.45675	-122.3164	63.972	63.70808	-9.795122	24.82	24.70919	100	0	45	-0.208377	-2.837382	-136.2569	
23:56:58	47.4565	-122.3168	63.844	63.80351	-23.15146	24.71	24.55865	100	0	44	-3.113044	-3.252446	-137.0665	
23:56:59	47.4562	-122.3171	62.92	63.00468	-49.6152	24.68	24.49183	100	0	44	-2.911502	-3.417197	-138.9304	
23:57:01	47.4559	-122.3175	61.971	62.04699	-50.43483	24.68	24.4779	100	0	45	-1.388475	-3.060595	-140.2858	
23:57:03	47.45564	-122.3178	61.053	61.02456	-53.74606	24.66	24.45421	100	0	46	-0.5052465	-2.665854	-140.7923	
23:57:04	47.45534	-122.3182	60.242	60.15984	-49.66283	24.62	24.41812	100	0	47	-0.4438351	-2.265125	-141.0223	
23:57:06	47.45503	-122.3186	59.499	59.52195	-38.78459	24.56	24.36382	100	0	47	-0.4633917	-1.847771	-141.2641	
23:57:08	47.45475	-122.3189	58.693	58.83104	27.49477	24.81	24.49857	100	0	81	43.78743	1.691199	-121.5447	
23:57:09	47.45467	-122.3195	64.469	62.88172	457.5594	25.28	24.8417	100	0	96	49.50124	11.66863	-70.85227	
23:57:11	47.4549	-122.3199	77.425	74.37268	663.0573	24.61	24.74416	100	0	95	48.79939	14.83331	-26.0585	
23:57:13	47.45525	-122.32	89.616	88.07848	619.5626	24.74	25.27851	100	0	84	43.90287	11.41799	9.686377	
23:57:15	47.45556	-122.3199	96.954	97.89315	499.7018	24.89	25.56622	100	0	71	21.61548	8.543534	34.52858	
23:57:16	47.45586	-122.3195	101.547	102.5514	194.2622	24.77	25.4733	100	0	57	-4.379713	3.289643	43.31741	
23:57:18	47.45616	-122.3191	100.829	101.6781	-77.78283	24.93	25.74421	100	0	56	-25.12828	-0.852215	35.10945	
23:57:20	47.45645	-122.3188	99.47	99.52518	-68.51922	25.28	25.65409	100	0	57	-25.87012	-0.1856585	17.22771	
23:57:21	47.45679	-122.3187	99.63	99.3361	-0.05443901	25.19	25.55116	100	0	54	-17.47721	0.4495668	3.002526	
23:57:23	47.45718	-122.3186	100.35	100.0111	5.159343	24.8	25.1214	100	0	51	-6.632383	-0.4540052	-4.432367	
23:57:25	47.45758	-122.3186	100.671	100.4492	-5.587491	24.5	24.94291	100	0	50	-1.723366	-1.054654	-5.979655	
23:57:26	47.458	-122.3187	100.457	100.4645	-16.16986	24.35	24.55342	100	0	49	-0.5657594	-1.289805	-5.563975	
23:57:28	47.45834	-122.3187	99.981	100.0173	-33.97124	24.32	24.27945	100	0	49	-0.3438913	-1.499826	-4.515868	
23:57:30	47.45872	-122.3187	98.823	99.0815	-43.31277	24.33	24.20613	100	0	50	-0.1251775	-1.18116	-3.645078	
23:57:31	47.4591	-122.3187	98.109	98.23972	-31.52547	24.32	24.16432	100	0	51	-0.431546	-0.5175558	-2.864622	
23:57:33	47.45945	-122.3187	97.759	97.7524	-20.74546	24.3	24.11828	100	0	51	-0.5583898	-0.08306646	-2.257478	
23:57:35	47.45983	-122.3187	97.632	97.5605	-11.11688	24.26	24.07956	100	0	52	0.06869067	0.1516637	-1.530532	
23:57:37	47.46015	-122.3188	97.349	97.35508	-11.43433	24.24	24.03569	100	0	52	-0.2022328	0.3029175	-0.8533543	
23:57:38	47.46053	-122.3188	97.413	97.33949	0.5767255	24.23	24.01177	100	0	53	-0.723471	0.5748388	-0.4230832	
23:57:40	47.46093	-122.3188	97.585	97.55993	8.523843	24.21	23.99119	100	0	53	-0.2725165	0.6245598	-0.2071373	
23:57:42	47.4613	-122.3188	97.811	97.73138	6.371624	24.21	23.98056	100	0	53	0.3000321	0.5595269	0.3549235	
23:57:43	47.46165	-122.3188	98.063	98.13667	49.54513	24.37	24.257	100	0	82	42.2055	2.61902	12.53044	
23:57:45	47.46197	-122.3185	100.935	101.5856	451.0265	25.24	25.07088	100	0	102	50.33115	11.61129	63.88206	
23:57:47	47.46202	-122.3179	111.334	110.1873	672.9044	24.07	24.77267	100	0	92	43.22431	16.85469	114.5264	
23:57:48	47.46186	-122.3175	121.375	119.8138	211.4751	23.03	23.77938	100	0	59	-6.108943	4.836763	126.3511	
23:57:50	47.46168	-122.3171	123.334	122.8982	8.004597	22.93	23.59076	100	0	53	-17.57735	-0.2811907	118.95	
23:57:52	47.46153	-122.3166	120.745	121.6885	-129.854	23.4	23.36325	100	0	50	-16.28279	-2.635267	106.0964	
23:57:54	47.46148	-122.3161	117.339	118.4347	-122.9767	23.95	23.87956	100	0	53	-10.39567	-0.7749243	95.22927	
23:57:55	47.46147	-122.3155	114.776	115.434	-79.59242	24.27	24.22803	100	0	57	-1.321944	1.89277	90.47099	
23:57:57	47.46148	-122.315	114.093	114.0349	-42.76162	24.27	24.15642	100	0	60	1.852232	3.400558	90.74585	
23:57:59	47.46148	-122.3144	114.616	114.0453	-9.244791	24.19	23.99905	100	0	60	1.221589	3.840671	91.87218	
23:58:00	47.46148	-122.3139	115.426	115.0011	19.14962	24.13	23.91474	100	0	60	-0.1552625	3.614012	92.28292	
23:58:02	47.46146	-122.3134	116.012	115.8475	25.96998	24.12	23.88252	100	0	59	-1.045592	3.309273	92.16148	
23:58:04	47.46145	-122.3128	116.686	116.5102	26.92898	24.13	23.86795	100	0	59	-1.389936	3.172264	91.6871	
23:58:05	47.46145	-122.3123	117.268	117.2147	31.82662	24.15	23.89541	100	0	59	-1.518874	3.021662	91.11513	
23:58:07	47.46144	-122.3117	117.844	117.777	30.20574	24.18	23.91452	100	0	59	-1.382104	2.928741	90.66898	
23:58:09	47.46143	-122.3112	118.5	118.4086	29.65898	24.2	23.92149	100	0	58	-1.389923	2.731786	90.33269	
23:58:11	47.46143	-122.3106	119.197	119.0843	28.30529	24.23	23.94862	100	0	58	-1.193555	2.404036	90.08001	
23:58:12	47.46142	-122.3101	119.545	119.5509	20.97548	24.27	23.98483	100	0	57	-1.458615	2.117721	90.0336	
23:58:14	47.46141	-122.3095	120.176	119.9956	21.34251	24.29	24.00655	100	0	57	-1.473756	1.965425	89.83823	
23:58:16	47.46141	-122.309	120.568	120.528	21.0557	24.3	24.02364	100	0	56	-1.364422	1.661798	89.74763	
23:58:17	47.4614	-122.3085	120.847	120.8606	13.63423	24.31	24.03091	100	0	55	-1.289909	1.413842	89.73245	
23:58:19	47.4614	-122.3079	120.853	121.0205	7.263743	24.32	24.03881	100	0	49	11.93532	1.080328	90.22353	
23:58:21	47.46135	-122.3074	118.258	118.1393	-337.938	24.7	24.14993	100	0	51	45.07369	-6.221195	114.4626	
23:58:22	47.46111	-122.3069	110.75	111.7494	-419.4345	25.92	24.82261	100	0	47	44.98476	-7.634995	151.3191	
23:58:24	47.46073	-122.3068	102.774	103.4913	-345.6782	27.02	26.51391	100	0	63	44.43877	-4.696188	-169.3811	
23:58:26	47.46038	-122.307	100.264	100.7439	121.471	27.37	27.44967	100	0	61	12.87968	6.330252	-140.5653	
23:58:27	47.46006	-122.3074	103.459	102.2727	-18.90788	26.1	26.11266	100	0	62	-23.10493	2.641958	-149.8595	
23:58:29	47.45973	-122.3077	104.577	104.2978	112.5994	25.93	24.85348	100	0	58	-22.11306	2.663758	-168.3752	
23:58:31	47.45929	-122.3079	105.64	105.9094	69.40145	25.45	24.98734	100	0	54	-11.21761	0.4843126	-179.5342	
23:58:33	47.45893	-122.3079	105.767	106.1621	29.61619	25.12	24.78202	100	0	53	-3.549158	-0.06003018	175.7346	
23:58:34	47.4586	-122.3079	105.646	105.8275	0.8671783	24.89	24.94244	100	0	53	-1.227693	-0.05035849	175.3495	
23:58:36	47.45824	-122.3079	105.716	105.6626	-18.68579	24.69	24.61632	100	0	51	-0.7508093	-0.260554	175.8946	
23:58:38	47.45779	-122.3079	105.639	105.4568	-32.22276	24.54	24.34631	100	0	50	-0.1182414	-0.8480396	177.1682	
23:58:39	47.4574	-122.3079	105.247	105.1607	-39.26114	24.48	24.23359	100	0	49	-1.218258	-1.346535	178.7668	
23:58:41	47.45711	-122.3079	104.799	104.7143	-40.09554	24.44	24.17687	100	0	48	-1.894389	-1.589905	179.6164	
23:58:43	47.45667	-122.3079	103.871	104.0164	-40.7015	24.44	24.16107	100	0	48	-2.13574	-1.599202	-179.6974	
23:58:44	47.4563	-122.3079	103.026	102.8744	-222.6771	24.23	24.05466	71	0	32	-1.724515	-6.842371	-178.7798	
23:58:46	47.45594	-122.3079	97.671	98.06582	-314.3784	24.35	23.97064	72	0	33	-2.12306	-8.933908	-177.9674	
23:58:48	47.45556	-122.3079	92.206	92.89168	-252.046	24.76	24.48421	74	0	38	-3.262557	-6.745106	-177.9569	
23:58:50	47.45523	-122.3079	88.702	88.73004	-203.1033	24.87	24.58747	75	0	39	-2.897588	-5.163194	-178.3789	
23:58:51	47.45478	-122.308	85.38	85.59743	-172.7047	25.13	24.91508	77	0	55	43.00661	-4.450479	-164.7513	
23:58:53	47.45448	-122.3082	83.168	83.06741	-187.4097	25.67	25.37848	78	0	48	44.92938	-5.309999	-128.0656	
23:58:55	47.45429	-122.3087	78.646	79.39743	-268.1833	26.01	26.24628	79	0	43	43.48787	-7.684158	-92.81861	
23:58:56	47.45435	-122.3093	72.421	73.48167	-352.2647	26.5	26.81729	80	0	43	44.22107	-9.432819	-56.51655	
23:58:58	47.45467	-122.3097	63.224	65.87717	-203.654	27.74	27.9707	81	0	57	36.38289	-3.996839	-17.4046	
23:59:00	47.45502	-122.3098	61.72	62.85032	78.94316	27.52	28.07455	82	0	58	4.027972	3.492532	1.82699	
23:59:01	47.45541	-122.3098	63.531	63.12678	2.46814	26.34	26.73888	84	0	58	-9.463727	2.733615	1.018138	
23:59:03	47.45586	-122.3099	64.857	64.09229	-25.80543	25.65	25.66412	85	0	57	-22.6382	1.788277	-9.021178	
23:59:05	47.4562	-122.3101	64.916	64.51028	-28.40673	25.55	25.24103	85	0	56	-21.93751	1.120136	-23.81275	
23:59:07	47.45653	-122.3104	64.751	64.5189	-16.23302	25.52	25.36284	86	0	55	-15.00957	0.9078822	-35.89859	
23:59:08	47.45683	-122.3108	64.991	64.7093	-10.17193	25.4	25.30388	87	0	53	-8.258854	0.3616364	-43.07338	
23:59:10	47.45707	-122.3112	65.244	65.03249	-1.05151	25.25	25.10763	88	0	52	-3.405512	-0.0918641	-46.08015	
23:59:12	47.45734	-122.3117	65.509	65.32481	-10.5115	25.06	24.88047	89	0	50	-1.496063	-0.8605531	-46.89617	
23:59:13	47.45756	-122.312	65.766	65.47665	-13.69437	24.96	24.73815	89	0	49	-1.085676	-1.485172	-47.23471	
23:59:15	47.45782	-122.3125	65.783	65.65916	-9.351092	24.83	24.62072	90	0	47	-1.164954	-1.920887	-47.41693	
23:59:17	47.45806	-122.3129	65.616	65.54684	-20.12364	24.74	24.52759	91	0	46	-1.641832	-2.387763	-47.70834	
23:59:18	47.45832	-122.3133	65.125	65.15003	-33.03496	24.66	24.43735	91	0	45	-1.748917	-2.745725	-48.32574	
23:59:20	47.45853	-122.3137	65.151	64.87758	-28.25854	24.62	24.3982	92	0	45	-1.567047	-3.054904	-48.86622	
23:59:22	47.45882	-122.3142	64.689	64.46025	-192.2584	24.42	24.30205	92	0	39	-39.93959	-7.225504	-54.51961	
23:59:23	47.45896	-122.3146	59.764	59.69656	-371.0381	25	24.22843	93	0	40	-42.83591	-11.47945	-85.53702	
23:59:25	47.45892	-122.3152	53.964	54.76727	-140.1527	26.37	25.58418	93	0	55	-44.79449	-6.349059	-125.8246	
23:59:27	47.4586	-122.3156	51.56	52.77676	114.3074	27.14	26.83565	94	0	63	-42.48414	-0.5508243	-167.3651	
23:59:29	47.45823	-122.3157	52.794	53.91586	153.5792	26.31	26.64385	94	0	49	2.74169	0.9790173	176.3402	
23:59:30	47.45781	-122.3156	53.507	53.49286	-50.18097	25.29	25.39776	94	0	50	21.19794	-1.774005	-173.7417	
23:59:32	47.45744	-122.3157	53.153	52.76099	-65.41436	25.1	24.46421	95	0	48	19.98748	-2.119305	-157.4413	
23:59:34	47.45708	-122.316	53.224	52.61194	-56.02071	24.92	24.64375	95	0	46	11.30707	-2.623784	-145.9412	
23:59:35	47.45681	-122.3163	53.289	52.87408	-28.42416	24.81	24.6313	67	0	45	3.626483	-2.859785	-139.8771	
23:59:37	47.4565	-122.3167	53.038	52.99987	-19.98024	24.74	24.70242	69	0	45	-0.3895175	-3.086357	-137.8535	
23:59:39	47.45619	-122.3171	52.226	52.46392	-33.83058	24.71	24.60465	71	0	45	-2.485076	-3.167615	-137.9834	
23:59:40	47.45594	-122.3174	51.568	51.62786	-42.64028	24.68	24.53939	72	0	45	-2.605615	-2.986736	-139.0227	
23:59:42	47.45565	-122.3178	50.543	50.7464	-47.32073	24.68	24.50108	74	0	46	-2.017003	-2.770768	-139.9349	
23:59:44	47.45535	-122.3182	49.669	49.81529	-42.8058	24.64	24.48217	75	0	47	-1.429621	-2.288641	-140.3389	
23:59:46	47.45508	-122.3185	48.991	49.04954	-40.11585	24.62	24.44901	76	0	47	-1.193581	-1.927452	-140.4073	
23:59:47	47.4548	-122.3189	48.047	48.30467	-7.540271	24.79	24.60701	78	0	75	42.37663	0.03037571	-126.3699	
23:59:49	47.45468	-122.3194	50.592	50.95678	416.2538	25.78	24.84656	79	0	97	49.78846	9.881439	-74.48864	
23:59:51	47.45485	-122.3198	60.518	60.66868	673.2635	25.55	25.47582	80	0	99	49.34356	14.91462	-25.8514	
23:59:52	47.45528	-122.32	75.76	74.05952	680.4255	25.4	25.77021	81	0	91	45.38489	13.17834	12.0467	
23:59:54	47.45562	-122.3197	85.148	84.91227	580.3239	25.18	26.02915	82	0	75	20.67219	10.87765	37.72374	
23:59:56	47.4559	-122.3193	91.077	91.17096	265.5566	24.82	25.70912	83	0	62	-11.72002	5.435609	44.11001	
23:59:57	47.45616	-122.319	91.791	92.01591	-26.25418	24.89	25.45981	84	0	58	-26.72543	0.1793631	33.02348	
23:59:59	47.45649	-122.3187	91.123	90.86715	-103.6439	25.05	24.6305	85	0	54	-26.07351	-1.685121	16.06813	
00:00:01	47.45683	-122.3186	90.371	90.15165	-41.8436	25.06	24.83515	86	0	52	-17.49186	-1.042167	1.521795	
00:00:02	47.45721	-122.3186	90.163	89.92125	-31.47802	24.8	24.74419	87	0	50	-6.570497	-1.300921	-5.95507	
00:00:04	47.45757	-122.3186	90.125	89.89922	-20.39552	24.57	24.61636	88	0	49	-1.035698	-1.253709	-7.490129	
00:00:06	47.45797	-122.3187	89.84	89.72792	-35.97417	24.41	24.31783	89	0	49	1.272622	-1.612434	-6.229722	
00:00:08	47.45833	-122.3187	89.22	89.20878	-40.7855	24.38	24.20799	89	0	49	0.5617236	-1.546342	-4.345853	
00:00:09	47.45876	-122.3187	87.986	88.23768	-43.7746	24.37	24.1778	90	0	50	0.169754	-0.9997802	-2.91333	
00:00:11	47.45911	-122.3187	87.376	87.39904	-37.9472	24.36	24.1551	91	0	51	-0.7484419	-0.3879806	-2.123594	
00:00:13	47.45949	-122.3187	87.04	87.01617	-23.42507	24.33	24.12703	91	0	52	-0.3883991	0.06995923	-1.839433	
00:00:14	47.45982	-122.3187	87.033	86.88747	-9.943397	24.31	24.10049	92	0	52	-0.206612	0.3767996	-0.9590763	
00:00:16	47.46024	-122.3188	86.755	86.70842	-11.70758	24.3	24.08516	92	0	53	-0.8907036	0.4887641	-0.5365753	
00:00:18	47.46058	-122.3188	86.873	86.75092	2.137951	24.28	24.06833	93	0	53	-0.9013532	0.8264748	-0.3723089	
00:00:19	47.46097	-122.3188	87.197	87.05717	10.501	24.27	24.05575	93	0	53	-1.111921	0.8576843	-0.326246	
00:00:21	47.46128	-122.3188	87.404	87.38594	12.50885	24.26	24.04716	94	0	53	-0.5190489	0.7639992	-0.2434362	
00:00:23	47.46167	-122.3188	87.721	87.64253	37.90066	24.46	24.4382	94	0	84	43.87055	2.434859	14.71672	
00:00:25	47.46199	-122.3185	91.695	91.80003	496.2711	24.93	24.63442	68	0	101	49.77295	12.45608	68.32473	
00:00:26	47.46202	-122.3179	103.599	101.8852	703.7299	23.15	23.45645	69	0	83	35.31223	16.46366	115.351	
00:00:28	47.46186	-122.3175	112.913	110.8848	172.9074	22.39	22.86427	71	0	55	-0.6977692	2.211524	127.738	
00:00:30	47.46167	-122.3171	113.798	113.7074	-45.44572	22.23	22.44236	72	0	45	-15.59042	-3.537377	127.362	
00:00:31	47.46152	-122.3166	110.467	111.3185	-179.879	22.72	22.23034	74	0	46	-20.27384	-4.672207	115.8758	
00:00:33	47.46143	-122.3161	105.746	106.7825	-204.3366	23.42	22.60844	75	0	49	-15.65722	-2.810019	101.8964	
00:00:35	47.46142	-122.3155	102.664	103.2497	-132.6608	23.8	22.88306	77	0	53	-6.103857	0.265471	93.24416	
00:00:36	47.46143	-122.3151	101.184	101.1829	-89.20092	23.9	22.97455	78	0	56	-0.06610166	1.87997	90.75637	
00:00:38	47.46145	-122.3145	100.68	100.325	-28.23428	23.99	23.41318	79	0	59	1.420021	3.367729	90.95984	
00:00:40	47.46146	-122.314	101.222	100.9088	23.25764	24.01	23.59602	80	0	60	0.7529711	4.022638	91.40907	
00:00:42	47.46146	-122.3134	102.037	101.8379	41.95992	24.06	23.72821	82	0	61	-0.02463222	4.129994	91.25685	
00:00:43	47.46145	-122.3129	102.911	102.751	50.75455	24.13	23.82683	83	0	61	-0.69867	4.23619	90.81084	
00:00:45	47.46145	-122.3124	103.933	103.8401	57.42542	24.2	23.91041	84	0	61	-0.7535949	4.117322	90.15599	
00:00:47	47.46144	-122.3118	104.909	104.8806	59.32453	24.28	23.97998	85	0	61	-0.7402181	4.003427	89.58237	
00:00:48	47.46144	-122.3112	106.012	105.8817	59.65709	24.35	24.06384	86	0	61	-0.9628068	3.898772	89.19227	
00:00:50	47.46143	-122.3107	107.074	107.0562	61.54742	24.38	24.09694	86	0	60	-0.9870881	3.621387	88.76228	
00:00:52	47.46143	-122.3101	108.111	108.0139	53.1298	24.43	24.14476	87	0	60	-0.7890498	3.289799	88.50357	
00:00:53	47.46142	-122.3096	108.926	108.8157	43.82631	24.47	24.17681	88	0	59	-0.9627732	2.955194	88.47746	
00:00:55	47.46141	-122.3091	109.733	109.6911	44.99713	24.51	24.2279	89	0	58	-1.073515	2.65057	88.33772	
00:00:57	47.46141	-122.3085	110.399	110.3893	37.94456	24.54	24.25946	90	0	57	-0.8873883	2.304199	88.26096	
00:00:58	47.4614	-122.3079	110.704	110.8443	27.06487	24.55	24.26278	90	0	52	4.14364	1.927658	88.3981	
00:01:00	47.46137	-122.3074	108.244	108.1631	-337.5605	24.82	24.1002	91	0	51	44.77832	-5.526835	109.2486	
00:01:02	47.46113	-122.3069	99.67	101.1035	-456.0571	26.27	25.08817	91	0	49	45.15062	-6.618039	145.6986	
00:01:04	47.46077	-122.3068	90.985	91.88263	-400.8675	27.68	26.92826	92	0	67	45.18717	-2.241496	-176.4249	
00:01:05	47.46037	-122.307	88.293	88.08941	66.60809	28.29	28.04719	92	0	68	19.25627	8.605324	-145.0151	
00:01:07	47.46005	-122.3074	92.242	90.4501	-39.14576	26.99	26.65353	93	0	67	-22.0237	4.54251	-153.2389	
00:01:09	47.45968	-122.3077	93.797	93.35437	160.2001	26.81	26.60213	93	0	65	-22.06714	4.217047	-172.4138	
00:01:10	47.45927	-122.3078	95.993	96.45781	217.2587	26.23	26.87261	94	0	62	-8.848545	3.874305	176.659	
00:01:12	47.45891	-122.3079	97.937	98.44452	128.9931	25.64	26.24034	94	0	58	-2.464787	2.560484	173.8432	
00:01:14	47.4585	-122.3079	99.195	99.21739	31.40073	25.19	25.43367	95	0	55	-1.169005	0.7588707	174.1086	
00:01:15	47.45814	-122.3079	99.446	99.35771	-14.84955	24.95	24.9602	95	0	52	-0.7949935	-0.464117	175.2583	
00:01:17	47.45776	-122.3079	99.253	99.14232	-30.99373	24.79	24.65191	95	0	50	-1.445335	-1.149565	176.5706	
00:01:19	47.45736	-122.3079	98.63	98.61512	-52.56348	24.69	24.47603	96	0	48	-2.176607	-1.955071	177.7187	
00:01:21	47.45695	-122.3079	97.493	97.73244	-54.52351	24.65	24.42758	96	0	48	-1.986836	-2.119975	178.7199	
00:01:22	47.45662	-122.3079	96.603	96.66907	-55.57941	24.6	24.37732	96	0	47	-1.92821	-2.10481	179.5858	
00:01:24	47.45625	-122.3079	95.775	95.75553	-56.06692	24.53	24.26102	96	0	47	-1.810146	-2.18988	-179.4739	
00:01:26	47.45586	-122.3079	94.51	94.68111	-63.5808	24.49	24.21004	97	0	47	-2.57687	-2.349922	-178.9739	
00:01:27	47.45552	-122.3079	93.424	93.49654	-61.54007	24.46	24.18823	97	0	47	-2.289857	-2.15074	-178.8595	
00:01:29	47.45514	-122.3079	92.36	92.41547	-53.52948	24.43	24.14747	97	0	47	-1.9321	-1.869916	-178.6096	
00:01:31	47.45475	-122.308	90.415	90.14206	-327.4163	24.4	24.29358	97	0	44	43.53746	-8.921984	-162.4038	
00:01:32	47.45444	-122.3082	83.817	84.03289	-407.8131	25.37	25.07606	97	0	40	44.32336	-11.54907	-124.1313	
00:01:34	47.45427	-122.3087	74.503	76.08332	-405.9352	26.42	26.31238	97	0	42	43.97542	-10.80348	-85.14745	
00:01:36	47.4544	-122.3093	65.513	67.82674	-374.5182	27.3	27.24144	98	0	51	44.81882	-8.989777	-46.89739	
00:01:38	47.45473	-122.3097	60.548	61.99078	-8.429425	27.9	28.20359	98	0	60	31.49451	0.2984663	-7.856677	
00:01:39	47.45512	-122.3097	62.856	62.39367	76.78864	26.4	27.04356	98	0	55	-2.305537	2.920534	3.853061	
00:01:41	47.45553	-122.3097	65.183	64.15696	-1.494471	25.23	25.93587	98	0	54	-16.06643	0.9563802	-0.8565707	
00:01:43	47.45589	-122.3098	65.498	65.04736	-36.54136	24.88	24.95512	98	0	52	-22.90536	-0.3149154	-14.04862	
00:01:44	47.45623	-122.31	64.76	64.67036	-59.2467	24.88	24.85414	98	0	51	-19.97215	-0.9714901	-29.06352	
00:01:46	47.4565	-122.3103	64.205	64.03616	-41.49872	24.89	25.04887	98	0	51	-12.2801	-0.7515419	-39.98971	
00:01:48	47.45678	-122.3107	64.133	63.86641	-26.96244	24.81	24.89751	98	0	50	-5.89817	-0.8597546	-45.80314	
00:01:49	47.45705	-122.3112	64.062	63.82721	-29.86597	24.71	24.73832	98	0	49	-2.247717	-1.346891	-48.12174	
00:01:51	47.45731	-122.3116	63.784	63.70072	-28.79893	24.63	24.57393	99	0	48	-0.7999669	-1.63583	-48.37811	
00:01:53	47.45756	-122.312	63.828	63.49502	-30.95074	24.58	24.45187	99	0	47	-0.9117661	-1.969938	-48.18537	
00:01:54	47.45778	-122.3124	63.545	63.38279	-29.7144	24.57	24.401	99	0	47	-1.454491	-2.334857	-48.29466	
00:01:56	47.45804	-122.3129	63.097	63.06675	-28.90327	24.56	24.38122	99	0	46	-1.578995	-2.425876	-48.52245	
00:01:58	47.45827	-122.3132	62.66	62.64518	-32.44721	24.56	24.36346	99	0	46	-1.616809	-2.494265	-48.73665	
00:02:00	47.45853	-122.3137	62.688	62.42249	-18.9319	24.56	24.37443	99	0	46	-1.824002	-2.486318	-48.8983	
00:02:01	47.45878	-122.3141	62.599	62.17583	-183.9942	24.44	24.2897	99	0	41	-40.57421	-6.360417	-54.4958	
00:02:03	47.45894	-122.3147	57.421	58.06381	-349.3324	25.16	24.36161	99	0	42	-43.9617	-10.54785	-85.18762	
00:02:05	47.45887	-122.3152	52.516	53.43369	-117.4022	26.48	25.91438	99	0	58	-44.80571	-5.128937	-125.26	
00:02:06	47.45855	-122.3156	51.433	52.13779	128.6525	27.05	27.02725	99	0	62	-40.72604	0.8645827	-165.1891	
00:02:08	47.45819	-122.3156	53.658	53.89637	111.9448	25.96	26.25998	99	0	48	-0.4657304	0.6946923	-178.5258	
00:02:10	47.45776	-122.3157	53.837	53.84857	-64.87983	25.13	25.19385	99	0	48	18.5832	-2.958301	-167.8236	
00:02:11	47.45744	-122.3158	53.053	52.95242	-43.34621	25.1	25.18236	99	0	48	17.12833	-2.760589	-151.7097	
00:02:13	47.45713	-122.316	53.062	52.96077	9.251844	25.01	25.33969	99	0	48	7.602077	-1.923231	-140.9836	
00:02:15	47.45678	-122.3164	53.86	53.54503	6.281733	24.78	25.02091	99	0	46	0.694283	-2.395728	-136.6778	
00:02:17	47.4565	-122.3168	53.911	53.89391	0.1462944	24.67	25.169	99	0	45	-2.597755	-2.774169	-136.705	
00:02:18	47.4562	-122.3172	53.317	53.51844	-26.77691	24.62	24.86418	99	0	45	-2.406663	-3.056199	-137.902	
00:02:20	47.45596	-122.3175	52.633	52.6839	-47.4702	24.6	24.62849	99	0	44	-2.049451	-3.173277	-138.9935	
00:02:22	47.45561	-122.3179	51.303	51.5653	-60.72864	24.58	24.51328	99	0	45	-1.305524	-3.04456	-139.8592	
00:02:23	47.45538	-122.3182	50.409	50.37873	-56.93483	24.6	24.47192	99	0	46	-0.8072795	-2.601799	-140.3704	
00:02:25	47.45504	-122.3186	49.275	49.45385	-46.82876	24.59	24.43991	99	0	47	-0.5910184	-2.130188	-140.6624	
00:02:27	47.45476	-122.319	48.403	48.56396	27.39387	24.99	24.8154	99	0	78	43.89803	1.157121	-121.5997	
00:02:28	47.45469	-122.3194	51.869	52.34081	452.3661	25.54	25.23477	99	0	96	49.24718	11.61257	-71.23366	
00:02:30	47.45493	-122.3199	66.507	63.14278	629.9221	24.93	25.02106	99	0	95	49.12969	14.38569	-27.07963	
00:02:32	47.45525	-122.32	77.948	76.85575	646.1126	24.74	25.36425	99	0	85	44.03016	12.12884	9.906953	
00:02:33	47.45564	-122.3198	88.431	87.78513	518.9975	24.51	25.07644	99	0	70	21.93693	8.343564	34.25586	
00:02:35	47.45592	-122.3195	93.219	93.63274	216.2511	24.19	24.83086	99	0	54	0.093156	2.194186	43.0425	
00:02:37	47.45618	-122.3191	92.355	93.14479	-109.2081	24.21	24.8224	99	0	50	-21.03559	-3.310538	37.78597	
00:02:39	47.45642	-122.3189	90.239	90.28725	-134.9242	24.61	24.85706	99	0	52	-25.33736	-2.684227	21.80715	
00:02:40	47.45685	-122.3187	88.141	88.21015	-68.4468	24.96	25.13728	99	0	52	-18.48451	-1.024127	6.021377	
00:02:42	47.45725	-122.3186	87.737	87.63773	-24.43453	24.79	25.06202	99	0	51	-7.350523	-0.4430871	-2.448554	
00:02:44	47.45758	-122.3186	87.688	87.48867	-25.46441	24.63	24.66806	99	0	51	-1.326083	-0.7011604	-4.422793	
00:02:45	47.45792	-122.3187	87.382	87.29514	-22.81582	24.55	24.47095	99	0	51	1.074961	-0.8037103	-3.786764	
00:02:47	47.45832	-122.3187	87.135	87.11247	-11.57391	24.51	24.37339	99	0	51	1.452444	-0.5533124	-2.337114	
00:02:49	47.45869	-122.3187	86.397	86.58713	-14.91993	24.48	24.31071	99	0	52	0.2695406	-0.1067449	-1.040963	
00:02:50	47.45912	-122.3187	86.092	86.12704	-8.941246	24.45	24.25616	99	0	53	0.3721115	0.408748	-0.2620793	
00:02:52	47.45945	-122.3187	86.157	86.10201	2.756113	24.42	24.22753	99	0	53	-0.5064085	0.6931446	0.3041093	
00:02:54	47.45985	-122.3188	86.399	86.36165	11.87631	24.37	24.1796	99	0	54	-0.9019323	0.81705	0.3286398	
00:02:56	47.46023	-122.3188	86.481	86.40511	5.480798	24.33	24.12968	99	0	54	-0.8384308	0.9128753	0.3482166	
00:02:57	47.46059	-122.3188	86.778	86.69579	12.68448	24.32	24.1104	99	0	54	-1.124172	0.9929282	0.203548	
00:02:59	47.46097	-122.3188	87.316	87.15753	20.69157	24.3	24.09453	99	0	54	-1.177236	0.9990597	0.05516281	
00:03:01	47.4613	-122.3188	87.603	87.56863	20.4444	24.31	24.09751	99	0	54	-0.9394094	0.9133613	-0.2175954	
00:03:02	47.4617	-122.3188	87.896	87.87177	27.56249	24.54	24.24116	99	0	79	41.23985	2.278236	11.95947	
00:03:04	47.46198	-122.3185	89.889	90.84962	423.2335	25.45	25.09167	99	0	102	49.64416	11.83577	62.80929	
00:03:06	47.46206	-122.3179	99.804	99.12221	631.1915	24.75	24.96633	99	0	95	39.8071	17.26352	109.2934	
00:03:07	47.46191	-122.3175	109.873	108.7694	502.1722	23.83	24.32075	99	0	83	2.435701	14.78818	125.7138	
00:03:09	47.4617	-122.317	118.355	117.7652	441.1238	23.48	24.1243	99	0	84	-19.09177	13.0373	119.9377	
00:03:11	47.46155	-122.3165	125.832	125.1751	421.0053	23.39	23.41772	99	0	83	-18.77805	12.80771	106.6994	
00:03:12	47.46148	-122.316	132.426	131.6409	383.5684	23.32	23.32157	99	0	83	-12.44612	12.54659	96.1263	
00:03:14	47.46146	-122.3155	138.602	138.5487	399.8062	23.22	23.15401	99	0	82	-4.975631	12.73018	90.73376	
00:03:16	47.46146	-122.315	146.14	145.2641	385.9795	23.18	23.01043	99	0	82	-0.9522991	12.63855	89.48586	
00:03:18	47.46146	-122.3145	152.899	151.9339	354.9374	23.2	22.91471	99	0	72	-0.3181814	11.34013	89.75	
00:03:19	47.46145	-122.3139	157.026	156.275	73.34997	23.48	23.20673	99	0	61	-0.3231165	3.588353	90.37741	
00:03:21	47.46145	-122.3134	156.983	157.076	-17.87031	23.88	23.56048	99	0	57	-1.184475	1.00101	90.60252	
00:03:23	47.46144	-122.3128	155.892	156.2538	-23.83647	24.26	23.94801	99	0	57	-1.625069	1.360103	90.40699	
00:03:24	47.46143	-122.3123	155.542	155.6343	-4.582611	24.41	24.1116	99	0	58	-1.687365	2.243658	89.89784	
00:03:26	47.46143	-122.3118	155.707	155.6578	11.70385	24.43	24.12361	99	0	59	-1.283549	2.635373	89.49689	
00:03:28	47.46143	-122.3112	156.326	156.1437	29.91621	24.4	24.08756	99	0	59	-0.8265166	2.822867	89.41937	
00:03:29	47.46143	-122.3107	157.105	156.9739	36.72845	24.35	24.01568	99	0	58	-0.726736	2.590653	89.6216	
00:03:31	47.46142	-122.3101	157.606	157.6263	30.74326	24.32	23.98947	99	0	57	-1.086806	2.277174	89.80587	
00:03:33	47.46141	-122.3096	158.285	158.1826	31.38004	24.31	23.97876	99	0	57	-1.167478	2.133261	89.81062	
00:03:35	47.46141	-122.309	158.941	158.8155	28.7906	24.31	23.96914	99	0	56	-1.107825	1.843796	89.78388	
00:03:36	47.46141	-122.3085	159.334	159.3575	25.34651	24.3	23.96854	99	0	56	-1.057905	1.550757	89.82707	
00:03:38	47.4614	-122.308	159.493	159.6255	18.6291	24.31	23.97906	99	0	51	5.116895	1.303434	90.05341	
00:03:40	47.46136	-122.3074	156.576	157.0472	-328.6399	24.7	24.18082	99	0	51	44.98954	-6.20581	111.9036	
00:03:41	47.46116	-122.307	149.911	150.1749	-403.2175	25.9	25.4334	99	0	51	45.02097	-6.504299	149.6519	
00:03:43	47.46073	-122.3068	140.626	142.1124	-402.8754	27.33	26.94886	99	0	54	44.55111	-4.763845	-172.673	
00:03:45	47.46035	-122.307	135.495	135.775	-299.5193	27.69	27.66837	99	0	44	16.01774	-1.627836	-149.0835	
00:03:46	47.46005	-122.3073	131.472	130.3963	-438.0222	26.91	26.81541	99	0	39	-13.56731	-5.752711	-151.6163	
00:03:48	47.4597	-122.3076	125.112	124.4192	-394.0102	26.77	26.67519	99	0	38	-18.77357	-7.111619	-162.7872	
00:03:50	47.45927	-122.3078	117.443	118.5113	-333.8506	26.74	26.29023	99	0	35	-14.77113	-7.323781	-174.1422	
00:03:51	47.45897	-122.3079	112.399	111.8076	-374.4921	26.51	26.42871	99	0	33	-8.937701	-8.33715	179.1928	
00:03:53	47.45852	-122.3079	104.785	104.831	-390.1709	26.23	26.39725	99	0	32	-4.522285	-8.481222	176.0525	
00:03:55	47.45816	-122.3079	98.772	97.97513	-403.782	25.99	26.03165	99	0	30	-1.592787	-8.975288	176.0725	
00:03:57	47.45768	-122.3079	90.649	91.10885	-447.0146	25.68	25.51148	99	0	27	-0.3692303	-10.41802	177.4868	
00:03:58	47.45728	-122.3079	82.754	83.66849	-473.7426	25.54	25.25052	99	0	24	-0.8942778	-11.64909	179.0837	
00:04:00	47.45692	-122.3079	74.941	75.26035	-497.6462	25.55	25.21416	99	0	27	-1.660687	-11.9831	-179.654	
00:04:02	47.45656	-122.3079	68.244	68.48777	-233.4073	25.9	25.53861	99	0	43	-2.926465	-5.362134	-179.2858	
00:04:03	47.45613	-122.3079	66.057	66.14839	-30.12176	25.54	25.33982	99	0	49	-2.557669	-0.6477649	-179.6272	
00:04:05	47.45576	-122.3079	66.258	65.98778	-23.74476	24.96	24.66701	99	0	48	-1.454826	-0.7793637	-179.3369	
00:04:07	47.45541	-122.3079	66.07	65.85548	-39.36251	24.62	24.33541	99	0	47	-1.170839	-1.639417	-178.5793	
00:04:08	47.45504	-122.3079	65.359	65.27905	-51.18402	24.44	24.16295	99	0	47	15.54331	-2.357167	-176.9015	
00:04:10	47.45465	-122.308	63.492	63.45109	-81.45773	25.03	24.61616	99	0	64	44.86456	-2.608168	-143.2744	
00:04:12	47.4544	-122.3084	62.562	63.21679	90.20564	25.88	26.42954	99	0	69	45.81834	0.7743698	-99.65327	
00:04:14	47.4544	-122.309	63.956	64.47656	152.7808	26.23	26.95873	99	0	69	45.54114	2.33707	-58.76222	
00:04:15	47.45472	-122.3095	65.419	65.8955	145.3912	26.59	27.2782	99	0	65	39.65209	2.517228	-20.90684	
00:04:17	47.45506	-122.3096	66.801	67.17918	75.23533	26.07	26.88962	99	0	52	7.436158	1.227812	-2.004665	
00:04:19	47.45549	-122.3096	66.565	66.6634	-62.4063	25.44	26.37406	99	0	52	-13.42766	-0.8849578	-1.991861	
00:04:20	47.45587	-122.3097	65.432	65.40538	-83.70654	25.36	25.83379	99	0	54	-26.17127	-0.8783754	-15.16786	
00:04:22	47.4562	-122.3099	64.776	64.52464	-43.93789	25.32	25.64634	99	0	54	-24.15631	-0.4183365	-32.50414	
00:04:24	47.4565	-122.3102	65.048	64.61634	-5.058767	24.98	25.451	99	0	51	-13.74955	-0.4120595	-44.90704	
00:04:25	47.45677	-122.3106	65.961	65.32941	-12.88401	24.55	25.03619	99	0	48	-5.916903	-1.57697	-50.54761	
00:04:27	47.45699	-122.311	65.95	65.66109	-37.74249	24.35	24.61633	99	0	45	-2.235585	-2.828433	-52.3681	
00:04:29	47.45725	-122.3115	65.072	65.11086	-65.77776	24.28	24.29847	99	0	44	-0.907865	-3.562992	-52.47902	
00:04:30	47.45747	-122.3119	64.043	63.9516	-73.38186	24.31	24.20968	99	0	44	-0.6561568	-3.542473	-52.05295	
00:04:32	47.45773	-122.3123	62.989	63.02526	-56.79163	24.37	24.21013	99	0	44	-0.7069589	-3.249443	-51.46411	
00:04:34	47.45798	-122.3128	62.093	62.23677	-51.17023	24.4	24.2115	99	0	44	-0.8920295	-3.154684	-51.03317	
00:04:36	47.45819	-122.3131	61.46	61.48084	-44.66304	24.43	24.24683	99	0	45	-1.07333	-2.935722	-50.67404	
00:04:37	47.45843	-122.3135	61.121	60.91397	-28.55295	24.46	24.26588	99	0	45	-0.9032189	-2.619446	-50.38205	
00:04:39	47.45868	-122.314	61.298	61.0437	-16.89335	24.46	24.26999	99	0	41	-14.83016	-2.786015	-50.4819	
00:04:41	47.45889	-122.3144	58.772	58.51019	-322.7432	24.58	24.32125	99	0	39	-43.69865	-9.426834	-73.14404	
00:04:42	47.45893	-122.315	52.373	53.41203	-257.2701	25.95	25.68591	99	0	54	-44.69379	-7.871874	-108.9794	
00:04:44	47.45869	-122.3155	48.312	49.71683	42.08282	27.51	27.76047	99	0	69	-46.29938	-0.1154762	-151.4052	
00:04:46	47.45844	-122.3156	49.048	51.04361	415.4791	27.46	27.62062	99	0	57	-19.8371	9.166447	176.363	
00:04:47	47.45844	-122.3156	49.048	54.92543	744.238	27.46	25.74376	99	0	44	12.33224	26.19468	149.5708	
00:04:49	47.45844	-122.3156	49.048	54.47625	318.9456	27.46	23.83544	99	0	41	32.44456	45.26696	129.925	
00:04:51	47.45844	-122.3156	49.048	48.12342	-563.8118	27.46	22.35195	99	0	61	52.71025	59.91943	118.7307	
00:04:53	47.45844	-122.3156	49.048	39.7724	-1394.792	27.46	21.69186	99	0	174	76.66886	74.24908	113.019	
00:04:54	47.45844	-122.3156	49.048	33.09859	-1874.797	27.46	21.07381	99	0	61	-152.5611	86.84657	-148.939	
00:04:56	47.45844	-122.3156	49.048	30.74343	-1807.748	27.46	20.0646	99	0	189	-84.79442	71.81383	-119.6235	
00:04:58	47.45844	-122.3156	49.048	33.82104	-1185.564	27.46	19.30747	99	0	100	-58.679	59.24393	-138.8666	
00:04:59	47.45844	-122.3156	49.048	41.14619	-304.8417	27.46	18.58504	99	0	51	-34.28482	53.22634	-163.5694	
00:05:01	47.46367	-122.3179	0.022	7.157474	-1587.183	0	7.229319	99	0	101	-15.72721	43.05771	-157.9829	
00:05:03	47.46362	-122.3179	0.045	-9.218336	-1047.033	3.53	7.808844	99	0	4	10.34495	-4.004134	-167.5449	
00:05:04	47.4636	-122.3178	0.02	-5.416584	-102.6556	0	7.808844	99	0	5	-1.906942	18.61798	-135.6836	
00:05:06	47.4636	-122.3178	0.02	1.539358	481.9811	0	7.808844	99	0	5	-2.472721	11.71349	-143.7404	
00:05:08	47.4636	-122.3178	0.02	5.016907	598.1185	0	7.808844	99	0	4	-1.81064	6.543488	-149.4589	
00:05:09	47.4636	-122.3178	0.02	5.379203	517.6209	0	7.808844	99	0	4	-0.9383916	3.068954	-154.2151	
00:05:11	47.4636	-122.3178	0.02	4.68027	460.9948	0	7.808844	99	0	4	0.230741	0.3016005	-159.2436	
00:05:13	47.46367	-122.3178	0.02	4.958733	455.819	0	7.808844	99	0	4	3.119475	-1.279989	-166.4549	
00:05:15	47.46367	-122.3178	0.02	3.881841	325.5026	0	7.808844	99	0	4	3.080319	-2.465174	-171.5629	
00:05:16	47.46367	-122.3178	0.02	2.960273	258.4616	0	7.808844	99	0	4	2.998541	-3.378048	-175.7455	
00:05:18	47.46367	-122.3178	0.02	2.466666	228.1098	0	7.808844	99	0	4	2.889112	-4.076066	-178.8796	
00:05:20	47.46367	-122.3178	0.02	2.199018	208.7684	0	7.808844	99	0	4	2.796171	-4.61948	179.0084	
00:05:21	47.46367	-122.3178	0.02	1.995684	190.0617	0	7.808844	99	0	4	2.532531	-4.8459	177.5698	
00:05:23	47.46367	-122.3178	0.02	1.814901	172.2168	0	7.808844	99	0	4	2.250595	-4.975076	176.7381	
00:05:25	47.46367	-122.3178	0.02	1.633182	151.7003	0.21	7.808844	99	0	53	2.389846	-5.142132	175.3559	
00:05:26	47.46364	-122.3178	0.032	1.133852	67.53311	6.92	7.808844	99	0	98	2.264943	3.927882	173.4024	
00:05:28	47.46346	-122.3178	0.294	0.7577392	223.6057	15.62	7.808844	99	0	98	1.544054	5.016665	174.4565	
00:05:30	47.46316	-122.3179	5.466	4.796851	347.8285	20.22	7.808844	99	0	98	1.802368	4.208191	-178.1657	
00:05:31	47.46284	-122.3179	11.42	11.20391	450.9865	23.13	7.808844	99	0	98	0.683795	4.206402	-174.8485	
00:05:33	47.46255	-122.318	16.9	17.86545	458.5167	25.08	7.808844	99	0	100	0.4795196	3.279191	-172.7029	
00:05:35	47.4621	-122.3181	24.227	24.57332	457.9864	27.26	7.808844	99	0	100	0.4346575	2.431205	-171.6805	
00:05:37	47.46169	-122.3182	30.054	30.64303	442.7166	28.58	7.808844	99	0	100	0.330359	1.993847	-171.1437	
00:05:38	47.46131	-122.3183	35.32	36.44323	412.4568	29.42	7.808844	99	0	100	-0.2214224	1.49402	-171.1233	
00:05:40	47.46078	-122.3185	41.573	41.82507	380.4296	30.28	7.808844	99	0	100	0.2223729	1.020708	-171.5754	
00:05:42	47.46033	-122.3186	46.218	46.64299	355.7567	30.72	7.808844	99	0	100	-0.2960275	0.8521727	-172.0582	
00:05:43	47.45993	-122.3188	49.973	50.72071	309.6853	31.11	7.808844	99	0	98	-0.07816116	0.6299774	-172.4245	
00:05:45	47.45948	-122.3189	53.819	54.4446	277.4996	31.41	7.808844	99	0	98	-0.4748175	0.40532	-173.0731	
00:05:47	47.45896	-122.3191	57.765	57.9397	266.5683	31.68	7.808844	99	0	100	-0.2361279	0.4982636	-173.4527	
00:05:48	47.45847	-122.3192	61.674	61.24601	239.1242	31.98	7.808844	99	0	100	-0.4700211	0.2817738	-173.7088	
00:05:50	47.45835	-122.3193	62.491	63.74173	223.5629	32.05	7.808844	99	0	98	-0.3491483	0.6558722	-172.9724	
00:05:52	47.45755	-122.3195	66.495	65.3042	138.8338	32.36	7.808844	99	0	98	-0.5576466	0.02485599	-174.0376	
