Date	Latitude(deg) 	Longitude(deg)	hamsl(m)	hafl(m)	climbrate(cm/s)	GroundSpeed(m/s)	Airspeed(m/s)	Mav_Link(%)	Rssi_Link(%)	Throttle	Roll(deg)	Pitch(deg)	Yaw(deg)
08:54:09	0	0	0	-0.7089744	-35.03345	0	3	72	0	4	1.318667	0.7177488	25.57465	
08:54:11	0	0	0	0.4669626	27.36715	0	3	79	0	4	1.307692	0.7562474	25.69884	
08:54:13	0	0	0	0.6287	16.03632	0	3	83	0	4	1.336839	0.7855545	25.80193	
08:54:15	0	0	0	0.5463169	3.796578	0	3	86	0	4	1.301018	0.837644	25.82289	
08:54:16	47.46364	-122.3078	0.02	0.3410556	-57.24787	0	3	88	0	4	1.242843	0.778637	27.74327	
08:54:18	47.46364	-122.3078	0.02	-0.3750954	-46.79406	0	3	90	0	4	0.9638979	0.4885668	37.45774	
08:54:20	47.46364	-122.3078	0.02	-0.2560347	-13.77548	0	3	91	0	4	0.7371023	0.1743063	50.55182	
08:54:21	47.46364	-122.3078	0.02	-0.04456218	2.748473	0	3	92	0	4	0.4705659	-0.03789211	63.91559	
08:54:23	47.46364	-122.3078	0.02	0.05071902	5.396023	0	3	93	0	4	0.251253	-0.1569622	83.11185	
08:54:25	47.46364	-122.3078	0.02	0.06050007	3.48618	0	3	94	0	4	0.06600976	-0.1861268	102.5976	
08:54:26	47.46364	-122.3078	0.02	0.0533005	2.430247	0	3	95	0	4	-0.1017151	-0.1562667	115.5112	
08:54:28	47.46364	-122.3078	0.02	0.03926276	1.292643	0	3	95	0	4	-0.1880552	-0.1019863	137.4009	
08:54:30	47.46364	-122.3078	0.02	0.03208251	0.9796591	0	3	96	0	4	-0.2226819	-0.04898274	156.6996	
08:54:31	47.46364	-122.3078	0.02	0.02870125	0.718366	0	3	96	0	4	-0.2293869	-0.002931383	173.3134	
08:54:33	47.46364	-122.3078	0.02	0.02621846	0.534558	0	3	96	0	4	-0.2262033	0.008098259	-174.7008	
08:54:35	47.46364	-122.3078	0.02	0.02355469	0.197015	0	3	97	0	4	-0.2188011	0.005143545	-165.6314	
08:54:37	47.46364	-122.3078	0.02	0.02434089	0.6121098	0	3	97	0	4	-0.2048065	-0.02237388	-156.7397	
08:54:38	47.46364	-122.3078	0.02	0.02345535	0.2131735	0	3	97	0	4	-0.1961439	-0.03752308	-150.9397	
08:54:40	47.46364	-122.3078	0.02	0.02245352	0.3852272	0	3	97	0	4	-0.1858333	-0.0521601	-148.3763	
08:54:42	47.46364	-122.3078	0.02	0.02376048	0.2871198	0	3	98	0	4	-0.1691114	-0.06939158	-147.4182	
08:54:43	47.46364	-122.3078	0.02	0.02244277	0.1407282	0	3	98	0	4	-0.1575318	-0.08208351	-146.5777	
08:54:45	47.46364	-122.3078	0.02	0.02317166	0.3949866	0	3	98	0	4	-0.1439438	-0.08652046	-146.784	
08:54:47	47.46364	-122.3078	0.02	0.02381056	0.4465658	0	3	98	0	4	-0.1255644	-0.09220816	-148.0055	
08:54:48	47.46364	-122.3078	0.02	0.02352856	0.3636649	0	3	98	0	4	-0.1133867	-0.09482002	-149.1788	
08:54:50	47.46364	-122.3078	0.02	0.02354877	0.3592896	0	3	98	0	4	-0.1024058	-0.09578926	-150.6182	
08:54:52	47.46364	-122.3078	0.02	0.02231589	0.2045126	0	3	98	0	4	-0.08566184	-0.09181397	-153.1692	
08:54:53	47.46364	-122.3078	0.02	0.02053903	-0.01434174	0	3	98	0	4	-0.07548106	-0.08631878	-155.1068	
08:54:55	47.46364	-122.3078	0.02	0.01851313	-0.2242062	0	3	99	0	23	-0.09113988	-0.08869615	-156.8014	
08:54:57	47.46364	-122.3078	0.02	-0.0206392	-6.238643	0	3	99	0	4	-0.04390754	0.02196898	-159.4145	
08:54:59	47.46364	-122.3078	0.02	-0.02357204	-3.093104	0	3	99	0	4	-0.050887	-0.09108201	-161.2823	
08:55:00	47.46364	-122.3078	0.02	0.00211683	-0.3095247	0	3	99	0	4	-0.04598668	-0.1033577	-162.8193	
08:55:02	47.46364	-122.3078	0.02	0.02065081	0.67785	0	3	99	0	5	-0.03883879	-0.0963058	-164.9145	
08:55:04	47.46364	-122.3078	0.02	0.02914244	1.051105	0	3	99	0	4	-0.03347325	-0.08360753	-166.4386	
08:55:05	47.46364	-122.3078	0.02	0.02627198	0.3820884	0	3	99	0	4	-0.02941078	-0.07113911	-167.7069	
08:55:07	47.46364	-122.3078	0.02	0.02266543	0.02987635	0	3	99	0	4	-0.02638248	-0.05911481	-169.2576	
08:55:09	47.46364	-122.3078	0.02	0.02033241	0.06883703	0	3	99	0	4	-0.02244067	-0.05044952	-170.3707	
08:55:10	47.46364	-122.3078	0.02	0.02338468	0.4359883	0	3	99	0	4	-0.0211383	-0.04695617	-171.2952	
08:55:12	47.46364	-122.3078	0.02	0.0229611	0.2392096	0	3	99	0	4	-0.01831064	-0.03627705	-172.3081	
08:55:14	47.46364	-122.3078	0.02	0.02158716	0.006820628	0	3	99	0	4	-0.01619054	-0.02831857	-173.0453	
08:55:15	47.46364	-122.3078	0.02	0.02160542	0.35882	0	3	99	0	4	-0.01437834	-0.02306077	-173.6423	
08:55:17	47.46364	-122.3078	0.02	0.02294169	0.4562867	0	3	99	0	4	-0.01453903	-0.01572848	-174.2537	
08:55:19	47.46364	-122.3078	0.02	0.02552028	0.702142	0	3	99	0	4	-0.01176975	-0.02768867	-174.7018	
08:55:21	47.46364	-122.3078	0.02	0.02826515	0.9708474	0	3	99	0	4	-0.01063836	-0.01577454	-175.0532	
08:55:22	47.46364	-122.3078	0.02	0.02797143	0.4560805	0	3	99	0	4	-0.009699616	-0.008196689	-175.3945	
08:55:24	47.46364	-122.3078	0.02	0.02528078	0.4754841	0	3	99	0	4	-0.008316956	-0.006178764	-175.6413	
08:55:26	47.46364	-122.3078	0.02	0.0247049	0.5182316	0	3	99	0	4	-0.007031001	-0.006146522	-175.8264	
08:55:27	47.46364	-122.3078	0.02	0.02605437	0.5008945	0	3	99	0	4	-0.007186487	-0.01138527	-175.9837	
08:55:29	47.46364	-122.3078	0.02	0.02244855	-0.07246634	0	3	99	0	4	-0.007390479	-0.006736184	-176.0987	
08:55:31	47.46364	-122.3078	0.02	0.02110576	0.1368181	0	3	99	0	4	-0.005118703	-0.006485302	-176.1814	
08:55:32	47.46364	-122.3078	0.02	0.02232746	0.3512561	0	3	99	0	4	-0.004582407	-0.006140063	-176.2317	
08:55:34	47.46364	-122.3078	0.02	0.02435782	0.5804654	0	3	99	0	4	-0.002458061	-0.006311588	-176.269	
08:55:36	47.46364	-122.3078	0.02	0.02689874	0.8015938	0	3	99	0	4	-0.003739353	-0.004761704	-176.2934	
08:55:37	47.46364	-122.3078	0.02	0.02582379	0.424803	0	3	99	0	4	-0.002538671	-0.001127544	-176.2867	
08:55:39	47.46364	-122.3078	0.02	0.02402817	0.2714722	0	3	99	0	4	-0.003032481	0.004012661	-176.2837	
08:55:41	47.46364	-122.3078	0.02	0.02287757	0.3621674	0	3	99	0	4	-0.00346248	0.001825619	-176.2795	
08:55:43	47.46364	-122.3078	0.02	0.02266064	0.1905634	0	3	99	0	4	-0.002293784	0.004950886	-176.2484	
08:55:44	47.46364	-122.3078	0.02	0.0221893	0.2868486	0	3	99	0	4	-0.002244841	0.002718458	-176.2258	
08:55:46	47.46364	-122.3078	0.02	0.01997763	-0.0479901	0	3	99	0	4	-0.004159414	-0.000566601	-176.2085	
08:55:48	47.46364	-122.3078	0.02	0.02146508	0.2017027	0	3	99	0	4	-0.002137545	0.001125407	-176.1697	
08:55:49	47.46364	-122.3078	0.02	0.02286151	0.326079	0	3	99	0	4	-0.002321781	0.001609019	-176.1421	
08:55:51	47.46364	-122.3078	0.02	0.02286761	0.3158731	0	3	99	0	4	-0.002213418	0.002863741	-176.1216	
08:55:53	47.46364	-122.3078	0.02	0.02049491	-0.1208712	0	3	99	0	4	-0.002182397	0.01772976	-176.0896	
08:55:54	47.46364	-122.3078	0.02	0.02044355	0.05610418	0	3	99	0	4	-0.005411144	0.01157852	-176.0661	
08:55:56	47.46364	-122.3078	0.02	0.01918677	-0.01465314	0	3	99	0	5	-0.000858917	0.004245564	-176.0488	
08:55:58	47.46364	-122.3078	0.02	0.02073282	0.06298628	0	3	99	0	4	-0.001655552	0.003955172	-176.0217	
08:55:59	47.46364	-122.3078	0.02	0.02105096	0.1449894	0	3	99	0	4	-0.001163167	0.004636271	-176.0023	
08:56:01	47.46364	-122.3078	0.02	0.02093415	0.1378766	0	3	99	0	4	-0.0006994955	0.004909432	-175.9882	
08:56:03	47.46364	-122.3078	0.02	0.01951442	-0.1487836	0	3	99	0	4	-0.001838709	0.005628023	-175.9695	
08:56:05	47.46364	-122.3078	0.02	0.01975912	0.08259667	0	3	99	0	4	3.749241E-05	0.002559518	-175.9553	
08:56:06	47.46364	-122.3078	0.02	0.02197849	0.3576652	0	3	99	0	4	0.0008047958	-0.0009683095	-175.9451	
08:56:08	47.46364	-122.3078	0.02	0.0233445	0.2585279	0	3	99	0	4	0.0002749355	0.001391176	-175.9336	
08:56:10	47.46364	-122.3078	0.02	0.02201814	0.218461	0	3	99	0	4	-0.000688787	-0.00457413	-175.9242	
08:56:11	47.46364	-122.3078	0.02	0.02080154	0.05803928	0	3	99	0	4	-0.0005614788	0.0032288	-175.9176	
08:56:13	47.46364	-122.3078	0.02	0.02033669	-0.0196705	0	3	99	0	4	0.001841851	0.007966448	-175.9115	
08:56:15	47.46364	-122.3078	0.02	0.02061997	0.1478874	0	3	99	0	4	0.0005784722	0.008502092	-175.9069	
08:56:16	47.46364	-122.3078	0.02	0.0178548	-0.447846	0	3	99	0	4	0.002937097	0.004508039	-175.9032	
08:56:18	47.46364	-122.3078	0.02	0.01686811	-0.2188733	0	3	99	0	4	-6.961136E-05	-0.001377477	-175.8988	
08:56:20	47.46364	-122.3078	0.02	0.01872651	-0.01150528	0	3	99	0	5	-0.001240931	-0.001780294	-175.894	
08:56:21	47.46364	-122.3078	0.02	0.02001536	-0.04604402	0	3	99	0	4	-0.0006969098	-0.002798957	-175.8906	
08:56:23	47.46364	-122.3078	0.02	0.01964545	0.1123556	0	3	99	0	4	0.0002393995	-0.003289781	-175.8878	
08:56:25	47.46364	-122.3078	0.02	0.02197835	0.2124273	0	3	99	0	4	-0.0008221962	-0.002801232	-175.8859	
08:56:27	47.46364	-122.3078	0.02	0.02024519	-0.01018925	0	3	99	0	4	-0.0004645039	-0.002736737	-175.8848	
08:56:28	47.46364	-122.3078	0.02	0.02026247	-0.01164772	0	3	99	0	4	0.0001440934	0.007555301	-175.8846	
08:56:30	47.46364	-122.3078	0.02	0.01832843	-0.3769799	0	3	99	0	4	0.0005497673	0.004661652	-175.8848	
08:56:32	47.46364	-122.3078	0.02	0.01815601	-0.1062316	0	3	99	0	4	-0.0002163372	0.001099005	-175.8846	
08:56:33	47.46364	-122.3078	0.02	0.02070258	0.1912338	0	3	99	0	4	0.000935106	-0.0009834687	-175.8843	
08:56:35	47.46364	-122.3078	0.02	0.02158228	0.07288867	0	3	99	0	4	-0.0006195153	-0.004518298	-175.8838	
08:56:37	47.46364	-122.3078	0.02	0.01961276	-0.1943354	0	3	99	0	4	0.0008708958	-0.004026446	-175.8837	
08:56:38	47.46364	-122.3078	0.02	0.01953868	-0.009665219	0	3	99	0	4	0.0003965339	-0.005588925	-175.8837	
08:56:40	47.46364	-122.3078	0.02	0.02127124	0.259356	0	3	99	0	4	-0.0001867604	-0.01022918	-175.8833	
08:56:42	47.46364	-122.3078	0.02	0.02196412	0.1462223	0	3	99	0	4	-9.056357E-05	-0.01645084	-175.8823	
08:56:44	47.46364	-122.3078	0.02	0.01897992	-0.1688419	0	3	99	0	4	0.0004131527	-0.009177688	-175.8818	
08:56:45	47.46364	-122.3078	0.02	0.02011144	0.1687643	0	3	99	0	4	-2.214262E-05	-0.009158077	-175.8815	
08:56:47	47.46364	-122.3078	0.02	0.01774292	-0.4897302	0	3	99	0	4	0.0001597314	-0.009129174	-175.8812	
08:56:49	47.46364	-122.3078	0.02	0.01835572	0.02896012	0	3	99	0	4	-1.176323E-05	-0.004389028	-175.8817	
08:56:51	47.46364	-122.3078	0.02	0.01997205	0.05575919	0	3	99	0	4	-0.0002830177	-0.001830667	-175.8829	
08:56:52	47.46364	-122.3078	0.02	0.02026164	-0.05647308	0	3	99	0	4	0.001643169	0.0003590379	-175.8843	
08:56:54	47.46364	-122.3078	0.02	0.02085564	0.241286	0	3	99	0	5	0.002594231	-0.002253472	-175.8861	
08:56:56	47.46364	-122.3078	0.02	0.02223596	0.2021979	0	3	99	0	4	0.001012146	-0.005686817	-175.8876	
08:56:57	47.46364	-122.3078	0.02	0.02067564	-0.1635737	0	3	99	0	4	0.001779167	-0.003702606	-175.8881	
08:56:59	47.46364	-122.3078	0.02	0.01810464	-0.3493685	0	3	99	0	4	0.001281194	0.007263154	-175.8892	
08:57:01	47.46364	-122.3078	0.02	0.01759225	-0.3621718	0	3	99	0	4	0.0004077438	0.002798449	-175.89	
08:57:02	47.46364	-122.3078	0.02	0.01816971	-0.03778264	0	3	99	0	5	-0.00134843	8.955609E-05	-175.8896	
08:57:04	47.46364	-122.3078	0.02	0.01949806	0.02585159	0	3	99	0	4	-0.002781125	-0.00149778	-175.8894	
08:57:06	47.46364	-122.3078	0.02	0.01990261	-0.08112633	0	3	99	0	5	-0.0008832288	-0.002182393	-175.8914	
08:57:08	47.46363	-122.3078	0.021	0.03198801	3.039304	2.74	3	99	0	99	-0.2309714	2.271991	-176.3288	
08:57:09	47.46348	-122.3077	0.026	0.1607489	26.58632	14	12.97256	99	0	99	0.3527694	3.207003	178.86	
08:57:11	47.46324	-122.3077	0.058	0.169462	6.408297	20.04	19.35259	99	0	99	0.5862203	3.143914	-177.1304	
08:57:13	47.46294	-122.3078	0.373	0.6739522	106.0918	24	23.32388	99	0	99	-1.46304	4.101217	-173.8407	
08:57:14	47.46294	-122.3078	0.373	1.755709	182.7079	24	23.32388	99	0	99	-3.625506	9.075077	-170.7078	
08:57:16	47.46294	-122.3078	0.373	2.179186	188.1947	24	23.32388	99	0	99	-5.001701	12.73634	-167.5524	
08:57:18	47.46294	-122.3078	0.373	2.117867	163.1393	24	23.32388	99	0	99	-5.836052	15.30743	-164.4046	
08:57:19	47.46294	-122.3078	0.373	1.877321	135.5592	24	22.4577	99	0	99	-6.338489	17.13725	-161.3564	
08:57:21	47.46266	-122.3078	0.897	1.74896	-347.4015	18.87	16.05381	99	0	99	6.752144	10.22251	-156.9892	
08:57:23	47.46263	-122.3078	0.322	-15.39133	-2344.284	18.08	10.88314	99	0	4	132.6494	-76.70929	76.56196	
08:57:24	47.46263	-122.3078	0.322	-14.86314	-942.2594	18.08	8.741693	99	0	4	179.5693	28.26073	39.44913	
08:57:26	47.46363	-122.3077	0.02	-13.27523	-1802.566	0	9.948536	99	0	4	-172.2896	48.59504	46.19487	
08:57:28	47.46363	-122.3077	0.021	-21.17992	-2411.727	0	9.948536	99	0	4	-163.1659	63.13342	54.71701	
08:57:30	47.46363	-122.3077	0.021	-21.7496	-1970.757	0	8.978554	99	0	4	-130.1874	78.3024	86.37698	
08:57:31	47.46363	-122.3077	0.021	-15.26544	-1037.374	0	8.529626	99	0	4	-32.97393	73.08815	-178.1289	
08:57:33	47.46363	-122.3077	0.021	-6.3359	-127.7484	0	7.697987	99	0	4	-12.72405	54.33661	-159.5356	
08:57:35	47.46363	-122.3077	0.021	1.33222	500.9106	0	7.313087	99	0	4	-5.87435	37.17575	-153.7858	
08:57:36	47.46363	-122.3077	0.021	6.279156	834.0257	0	6.947433	99	0	4	-4.87471	20.24886	-157.9372	
08:57:38	47.46363	-122.3077	0.021	8.60186	926.2302	0	6.600061	99	0	4	-3.341585	8.555267	-162.0397	
08:57:40	47.46363	-122.3077	0.021	8.93275	870.5485	0	6.270058	99	0	4	-1.550115	0.2338087	-165.0597	
08:57:41	47.46363	-122.3077	0.02	8.174682	755.67	0	5.956555	99	0	4	0.3148591	-6.226768	-168.4829	
08:57:43	47.46363	-122.3077	0.02	7.055306	637.4039	0	5.956555	99	0	5	1.758334	-10.49539	-171.3263	
08:57:45	47.46363	-122.3077	0.019	5.981461	538.4996	0	5.658727	99	0	4	2.838681	-13.77245	-173.6305	
08:57:47	47.46363	-122.3077	0.019	5.081674	458.7857	0	5.658727	99	0	4	3.631513	-15.76804	-175.7589	
08:57:48	47.46363	-122.3077	0.019	4.333327	391.523	0	5.658727	99	0	4	4.103415	-17.19578	-177.4038	
08:57:50	47.46363	-122.3077	0.019	3.711403	336.9662	0	5.658727	99	0	5	4.364524	-18.24202	-178.635	
08:57:52	47.46363	-122.3077	0.019	3.233398	297.8034	0	5.658727	99	0	4	4.173136	-17.91953	-179.3878	
08:57:53	47.46363	-122.3077	0.019	2.884936	269.5292	0	5.658727	99	0	4	3.967828	-17.69263	-179.8942	
08:57:55	47.46363	-122.3077	0.019	2.617679	244.8651	0	5.658727	99	0	4	3.772359	-17.55958	179.7878	
08:57:57	47.46363	-122.3077	0.019	2.387116	225.6107	0	5.658727	99	0	4	3.234563	-16.31015	179.9695	
08:57:58	47.46363	-122.3077	0.019	2.219177	211.4564	0	5.658727	99	0	4	2.843359	-15.40984	-179.8079	
08:58:00	47.46363	-122.3077	0.019	2.073812	196.6765	0	5.658727	99	0	4	2.566498	-14.79964	-179.5881	
08:58:02	47.46363	-122.3077	0.019	1.930649	184.0486	0	5.658727	99	0	4	2.084973	-13.34068	-178.9513	
08:58:03	47.46363	-122.3077	0.019	1.823014	174.718	0	5.658727	99	0	4	1.7723	-12.28177	-178.4514	
08:58:05	47.46363	-122.3077	0.019	1.721539	163.9039	0	5.658727	99	0	4	1.558569	-11.5569	-178.0565	
08:58:07	47.46363	-122.3077	0.019	1.615104	153.4992	0	5.658727	99	0	4	1.268702	-10.1499	-177.4131	
08:58:09	47.46363	-122.3077	0.019	1.513235	143.5047	0	5.658727	99	0	4	1.102321	-9.154197	-176.9582	
08:58:10	47.46363	-122.3077	0.019	1.408312	132.913	0	5.658727	99	0	5	1.012202	-8.468167	-176.6479	
08:58:12	47.46363	-122.3077	0.02	1.309159	123.5266	0	5.658727	99	0	4	0.8582162	-7.332551	-176.2151	
08:58:14	47.46363	-122.3077	0.02	1.219615	114.8871	0	5.658727	99	0	4	0.7700247	-6.530857	-175.9385	
08:58:15	47.46363	-122.3077	0.02	1.129804	105.5851	0	5.658727	99	0	5	0.7223778	-5.967703	-175.7788	
08:58:17	47.46363	-122.3077	0.02	1.038405	96.67651	0	5.658727	99	0	4	0.6343697	-5.134823	-175.5737	
08:58:19	47.46363	-122.3077	0.02	0.9537103	88.71679	0	5.658727	99	0	4	0.5771078	-4.500056	-175.4603	
08:58:20	47.46363	-122.3077	0.02	0.8762648	81.03024	0	5.658727	99	0	4	0.5926411	-4.063612	-175.4509	
08:58:22	47.46362	-122.3077	0.021	0.6784431	40.33725	3.26	3	99	0	99	-0.004219877	8.044477	-174.8322	
08:58:24	47.46349	-122.3077	0.373	0.7071434	-206.8258	12.44	6.652105	99	0	99	-0.2779121	-8.774465	176.5068	
08:58:25	47.46336	-122.3077	1.199	-0.8716009	-449.2498	6.93	3	99	0	99	19.99483	-4.264334	-165.5639	
08:58:27	47.46326	-122.3078	0.021	-2.291975	-161.2556	5.83	3.13604	99	0	4	3.995639	-1.17187	-148.298	
08:58:29	47.4632	-122.3078	0.021	-0.3619679	74.9883	4.94	3.418787	99	0	4	3.249641	-1.808461	-145.2302	
08:58:31	47.46315	-122.3079	0.021	1.015383	143.6699	4.26	3.746749	99	0	4	2.897477	-1.547043	-142.8385	
08:58:32	47.4631	-122.308	0.021	1.319883	127.7766	3.54	4.025018	99	0	4	2.745729	-1.328689	-141.0817	
08:58:34	47.46307	-122.308	0.021	1.166199	101.9576	2.91	4.446616	99	0	4	2.497282	-1.179538	-139.7279	
08:58:36	47.46304	-122.3081	0.021	0.9532543	82.01962	2.31	4.617472	99	0	4	2.451213	-1.100467	-138.7584	
08:58:37	47.46301	-122.3081	0.021	0.8024274	71.14237	1.71	4.792796	99	0	4	2.324794	-0.8874689	-138.0687	
08:58:39	47.463	-122.3081	0.021	0.7004523	63.16198	1.23	4.986826	99	0	4	2.148321	-0.909256	-137.5688	
08:58:41	47.463	-122.3081	0.021	0.6281053	57.26941	0.78	5.236302	99	0	4	2.12992	-0.7935894	-137.1333	
08:58:42	47.46299	-122.3081	0.02	0.5702621	51.78217	0.58	5.372822	99	0	4	2.134992	-0.9880713	-136.7477	
08:58:44	47.46362	-122.3078	0.02	1.071372	166.3966	0	5.701363	99	0	4	3.488301	0.35775	-141.3274	
08:58:46	47.46362	-122.3078	0.02	1.138977	81.63625	0	5.337335	99	0	4	2.236783	0.8732744	-152.5698	
08:58:48	47.46362	-122.3078	0.02	0.5537439	23.18303	0	5.337335	99	0	4	1.310071	0.8282833	-160.8975	
08:58:49	47.46362	-122.3078	0.02	0.1954953	5.772283	0	5.070468	99	0	4	0.7176471	0.5961424	-166.6183	
08:58:51	47.46362	-122.3078	0.02	0.1006695	7.058699	0	5.070468	99	0	4	0.2933432	0.338027	-171.0717	
08:58:53	47.46362	-122.3078	0.02	0.1120098	10.54998	0	4.816945	99	0	4	-0.03184795	0.1084156	-174.6968	
08:58:54	47.46362	-122.3078	0.02	0.1328983	12.58601	0.08	4.738838	99	0	86	0.02491011	-0.05264077	-178.2267	
08:58:56	47.46358	-122.3078	0.024	0.1207447	7.662951	7.74	3	99	0	99	1.951713	-0.5226544	175.0813	
08:58:58	47.46342	-122.3077	0.112	1.341249	513.2404	15.08	9.50327	99	0	98	2.84542	19.29928	176.2469	
08:58:59	47.46317	-122.3077	6.029	6.212852	377.0212	16.48	10.57897	99	0	99	-2.364696	6.48575	-177.1912	
08:59:01	47.46287	-122.3078	10.261	9.296075	-51.87996	21.94	15.16117	99	0	99	1.135257	0.8564665	-175.6102	
08:59:03	47.46249	-122.3079	10.713	11.04703	104.7375	26.18	19.43754	99	0	99	-23.62285	2.567468	-176.744	
08:59:04	47.46207	-122.3079	12.543	12.77007	114.778	28.24	21.25626	99	0	99	2.020879	2.516774	-174.6617	
08:59:06	47.46158	-122.308	13.925	13.87138	69.37692	29.84	23.02103	99	0	99	1.184161	1.824519	-169.9952	
08:59:08	47.46115	-122.3082	14.807	14.75795	39.1282	30.88	24.13142	99	0	99	-12.16523	1.181188	-168.7843	
08:59:10	47.46074	-122.3082	17.179	18.39937	626.8319	30.41	24.02622	99	0	99	-40.26283	12.58613	155.1901	
08:59:11	47.46037	-122.308	26.408	26.76512	474.4262	28.75	23.56161	99	0	99	21.67593	10.00263	154.6851	
08:59:13	47.45992	-122.3078	36.375	36.00779	523.5897	28.22	21.61951	99	0	99	25.64057	10.97925	172.7735	
08:59:15	47.45945	-122.3078	43.675	42.43503	2.952649	29.34	22.83757	99	0	99	-0.6789883	0.0337708	-178.1517	
08:59:16	47.45901	-122.3078	44.274	44.65014	84.34298	30.93	24.50448	99	0	99	-5.003345	0.6865215	-174.3039	
08:59:18	47.45851	-122.3079	44.679	45.15742	69.02637	31.95	25.42705	99	0	99	-7.162546	1.077598	-174.9015	
08:59:20	47.45799	-122.3079	45.642	45.54186	46.47344	32.42	25.88506	99	0	98	-7.183688	1.002447	-177.3621	
08:59:21	47.45749	-122.308	47.228	46.7445	70.84869	32.61	26.08944	99	0	99	-7.148046	1.047092	179.8607	
08:59:23	47.45706	-122.308	48.707	48.57451	107.1879	32.67	26.15683	99	0	99	-4.125443	1.188905	177.1164	
08:59:25	47.45655	-122.308	50.802	50.62486	124.5373	32.66	26.14116	99	0	99	-0.6881045	1.282866	176.3263	
08:59:27	47.45603	-122.3079	52.961	52.76165	89.13582	32.7	26.15628	100	0	99	-5.226781	0.4129543	176.2458	
08:59:28	47.45558	-122.3079	54.211	54.32231	99.70116	32.79	26.27126	100	0	99	-5.219755	0.4991592	174.0857	
08:59:30	47.45506	-122.3079	56.004	56.00702	118.0444	32.76	26.25691	100	0	99	-5.217403	0.811061	171.4031	
08:59:32	47.45456	-122.3078	57.886	57.68523	104.5236	32.79	26.27806	100	0	99	-1.461144	0.5573715	170.3352	
08:59:33	47.45404	-122.3077	60.072	59.9184	108.2959	32.7	26.20298	100	0	99	-0.7949811	0.4864576	170.9335	
08:59:35	47.45354	-122.3076	62.082	61.9286	120.2921	31.97	25.74638	100	0	67	0.3062117	0.9131233	171.8262	
08:59:37	47.45312	-122.3076	63.572	63.44862	50.21834	30.6	24.0829	100	0	82	-0.470141	-0.3242939	172.6861	
08:59:38	47.45261	-122.3075	64.626	64.51295	67.70538	30.58	24.07978	100	0	82	-0.5896096	-0.09130275	173.3575	
08:59:40	47.45218	-122.3075	65.702	65.68316	73.17492	30.5	23.98307	100	0	82	-0.6632407	0.03357829	173.8975	
08:59:42	47.45169	-122.3075	66.978	66.95071	97.41596	30.41	23.89022	100	0	82	-0.8176031	0.5926941	174.3026	
08:59:43	47.4512	-122.3074	68.362	68.18024	63.93196	30.35	23.82333	100	0	82	-0.5301057	-0.03042877	174.7933	
08:59:45	47.45079	-122.3074	69.312	69.30171	68.45835	30.35	23.83581	100	0	82	-0.5087143	0.06918661	175.1911	
08:59:47	47.45031	-122.3074	70.516	70.48108	72.17542	30.33	23.82016	100	0	82	-0.2910537	0.07281262	175.7948	
08:59:49	47.44991	-122.3074	72.169	71.85207	-108.4273	29.71	23.5524	100	0	48	45.5464	-3.448758	-177.2417	
08:59:50	47.44947	-122.3075	66.274	65.52455	-706.8655	27.65	22.11435	100	0	34	44.34434	-16.61839	-155.9872	
08:59:52	47.44912	-122.308	53.391	55.99786	-242.979	29.46	26.67295	100	0	87	43.95052	-6.45552	-112.6523	
08:59:54	47.4491	-122.3085	52.323	53.91713	249.0922	30.84	32.16788	100	0	96	45.9259	5.316172	-68.63918	
08:59:55	47.44934	-122.3092	59.756	58.70656	281.8203	29.78	32.89032	100	0	79	13.63308	5.902991	-45.97197	
08:59:57	47.44967	-122.3096	64.995	63.62081	45.37045	28.61	32.04103	100	0	70	-2.479483	-0.4449162	-44.98088	
08:59:59	47.44994	-122.31	65.274	64.92661	-46.54294	28.27	31.62803	100	0	65	-0.5350019	-3.227434	-46.39031	
09:00:00	47.4503	-122.3106	62.927	63.56871	-76.55736	28.3	31.62945	100	0	67	0.5389134	-3.20172	-46.26908	
09:00:02	47.45062	-122.311	61.12	61.64285	-54.75663	28.54	31.90016	100	0	71	0.01907122	-1.746459	-45.58624	
09:00:04	47.45094	-122.3115	60.322	60.51245	-28.46197	28.72	32.10693	100	0	73	-0.6474694	-0.6380458	-45.04422	
09:00:06	47.45123	-122.3119	60.606	60.26393	-5.29607	28.79	32.22545	100	0	74	-1.500819	-0.1288389	-44.6303	
09:00:07	47.45154	-122.3124	61.293	60.96132	3.706824	28.83	32.2794	100	0	72	-1.6843	-0.6510822	-44.30894	
09:00:09	47.45187	-122.3128	61.507	61.30225	-7.566485	28.86	32.32357	100	0	70	-2.005988	-1.318403	-43.91088	
09:00:11	47.4522	-122.3133	61.231	61.24373	-15.54539	28.94	32.3975	100	0	70	-2.403443	-1.691552	-43.64999	
09:00:12	47.45245	-122.3136	61.167	61.12942	2.627911	29	32.4871	100	0	77	6.896562	-1.443089	-43.15436	
09:00:14	47.45289	-122.3141	63.735	63.40382	401.3077	29.56	33.0863	100	0	103	40.91854	7.12967	-15.81134	
09:00:16	47.45328	-122.3141	73.297	73.2835	757.3463	27.95	31.38502	100	0	94	9.985348	14.0333	8.932872	
09:00:17	47.45366	-122.314	86.138	85.32762	596.0242	26.58	30.01986	100	0	91	-6.898035	11.5324	9.275533	
09:00:19	47.45409	-122.314	96.744	96.03562	469.744	26.46	29.88125	100	0	86	-1.994942	7.630302	6.36306	
09:00:21	47.45454	-122.314	103.479	103.107	383.4242	26.96	30.32527	100	0	85	1.748968	5.903427	5.842412	
09:00:23	47.45492	-122.3139	108.26	108.282	356.2829	27.31	30.75792	100	0	86	1.652048	6.304241	6.812294	
09:00:24	47.45534	-122.3139	114.023	113.9474	371.5657	27.45	30.89138	100	0	87	-0.05904229	7.121427	7.287889	
09:00:26	47.45573	-122.3139	119.686	119.9325	384.069	27.48	30.92179	100	0	88	-1.395331	7.788768	7.021727	
09:00:28	47.45617	-122.3138	126.399	126.1956	406.8624	27.44	30.87934	100	0	89	-2.315499	8.675605	6.129412	
09:00:29	47.45655	-122.3137	132.765	132.833	416.1031	27.34	30.79491	100	0	90	-3.09805	9.124842	5.075751	
09:00:31	47.45698	-122.3137	140.262	140.2449	432.8354	27.25	30.70175	100	0	90	-3.56948	9.268121	3.93724	
09:00:33	47.45737	-122.3136	147.051	146.9743	251.1762	27.24	30.68155	100	0	77	-3.75688	4.559497	3.019276	
09:00:34	47.45781	-122.3136	148.185	147.8631	-161.5838	27.64	31.0786	100	0	63	-4.178143	-4.340797	2.773261	
09:00:36	47.45823	-122.3135	143.602	144.137	-207.6493	28.26	30.33309	100	0	67	-6.087012	-4.599614	1.371588	
09:00:38	47.45869	-122.3135	140.098	140.6744	-68.58212	29.11	31.2175	100	0	76	-7.859955	-1.166102	-1.654159	
09:00:39	47.4591	-122.3134	140.183	140.1926	51.46923	29.34	31.51879	100	0	78	-6.101988	1.251808	-4.653479	
09:00:41	47.45958	-122.3135	142.229	141.7489	80.87138	29.12	31.32784	100	0	77	-3.898363	1.381733	-5.937852	
09:00:43	47.45999	-122.3135	143.821	143.6369	74.41445	29.02	31.20248	100	0	76	-3.106142	0.7013527	-6.041251	
09:00:45	47.46045	-122.3135	145.371	145.1411	63.27411	29.03	31.20277	100	0	76	-2.622617	0.07651602	-5.82555	
09:00:46	47.46085	-122.3135	146.39	146.3446	54.27744	29.09	31.27072	100	0	74	-2.214886	-0.3875981	-5.512081	
09:00:48	47.46135	-122.3135	147.143	147.1603	41.42021	29.15	31.3191	100	0	73	-2.370664	-0.7475892	-5.044558	
09:00:50	47.46177	-122.3135	147.578	147.6297	31.19835	29.2	31.37807	100	0	73	-2.312252	-0.8859686	-4.559461	
09:00:51	47.46224	-122.3136	148.479	148.2934	39.50326	29.22	31.41758	100	0	73	-2.558688	-0.8647505	-4.253238	
09:00:53	47.46271	-122.3136	149.259	149.1326	35.59119	29.19	31.37857	100	0	71	-2.148926	-1.282775	-3.902614	
09:00:55	47.46313	-122.3136	149.571	149.6159	25.7324	29.16	31.34784	100	0	70	-2.009552	-1.622098	-3.516453	
09:00:56	47.46357	-122.3136	149.861	149.8594	19.4829	29.13	31.31737	71	0	48	-2.354043	-1.779985	-3.132265	
09:00:58	47.464	-122.3136	150.183	150.011	-14.71248	27.57	29.7571	72	0	47	-1.938959	-2.757679	-2.83028	
09:01:00	47.46439	-122.3136	149.583	149.6706	-20.30829	26.77	28.95684	74	0	48	-2.262893	-2.906309	-2.685767	
09:01:02	47.46479	-122.3137	149.126	149.4464	80.58858	26.34	28.53301	75	0	79	32.66826	0.1647774	2.942404	
09:01:03	47.46519	-122.3135	152.55	153.4853	561.9673	27.4	28.52507	77	0	117	49.87289	11.13813	50.49825	
09:01:05	47.46534	-122.3131	161.36	164.0117	785.2553	25.88	26.12408	78	0	112	45.67803	17.03511	101.1458	
09:01:07	47.46518	-122.3124	178.915	177.5855	801.8187	24.03	23.86413	79	0	92	13.03757	17.1086	130.6472	
09:01:08	47.46495	-122.312	188.525	188.1672	434.6462	24.1	23.98711	80	0	82	-23.34112	10.14544	132.6165	
09:01:10	47.46473	-122.3116	194.554	194.2006	316.804	24.49	24.0924	81	0	86	-31.71993	8.866301	115.3634	
09:01:12	47.46464	-122.311	200.878	199.7852	369.9395	24.77	24.50421	82	0	85	-24.32976	10.40865	94.28731	
09:01:13	47.46465	-122.3105	207.571	206.8707	374.3795	24.57	24.56363	84	0	81	-4.97299	10.05231	85.50728	
09:01:15	47.46469	-122.3099	214.416	213.9086	362.1725	24.56	24.53805	85	0	80	2.581038	9.111477	86.30553	
09:01:17	47.46471	-122.3093	220.713	220.3511	348.5192	24.77	24.69486	85	0	81	1.226832	8.691428	88.81575	
09:01:18	47.46472	-122.3089	225.849	226.2657	393.4413	24.93	24.84594	86	0	85	-1.802996	10.24399	89.50179	
09:01:20	47.46472	-122.3082	234.228	233.037	413.863	25.01	24.94103	87	0	86	-2.652532	10.99011	88.54977	
09:01:22	47.46473	-122.3076	240.808	239.9075	414.1902	25.06	24.99021	88	0	89	-1.668014	11.45735	87.65958	
09:01:24	47.46473	-122.3071	247.554	247.4156	438.5872	25.07	25.0171	89	0	88	-1.271025	11.82067	87.20697	
09:01:25	47.46474	-122.3066	255.052	254.6799	423.1158	25.18	25.11601	89	0	89	-0.5336575	11.62055	87.14549	
09:01:27	47.46476	-122.306	262.976	261.9408	429.0768	25.24	25.18003	90	0	90	-0.5161999	11.75006	87.33634	
09:01:29	47.46476	-122.3054	269.664	269.7911	446.511	25.26	25.20632	91	0	88	-0.5720069	11.81188	87.44792	
09:01:30	47.46477	-122.3049	277.282	277.1092	422.4908	25.31	25.24475	91	0	89	-0.5712486	11.31645	87.52608	
09:01:32	47.46477	-122.3044	284.011	284.5438	430.652	25.34	25.28362	92	0	89	-0.665354	11.39275	87.56468	
09:01:34	47.46478	-122.3037	292.295	292.2286	459.8	25.36	25.30434	92	0	81	-0.6957716	11.8763	87.50912	
09:01:35	47.46478	-122.3031	298.394	297.159	-55.53362	25.01	24.94787	93	0	43	3.147798	-1.519724	88.13019	
09:01:37	47.46478	-122.3027	294.307	292.8906	-720.4593	24.17	22.50017	93	0	17	44.28144	-19.56667	99.49896	
09:01:39	47.46464	-122.3021	277.749	279.1391	-914.1681	24.84	22.95413	94	0	18	42.58437	-22.87905	133.1832	
09:01:41	47.46431	-122.3018	259.023	261.4789	-731.705	27.39	25.88071	94	0	46	42.76491	-14.25189	174.727	
09:01:42	47.46391	-122.3019	249.033	250.2694	-167.8163	29.09	29.22022	94	0	52	24.16546	-0.4301681	-148.367	
09:01:44	47.46353	-122.3023	249.09	248.0193	-218.5228	27	27.56873	95	0	47	-20.63529	-1.075523	-151.1437	
09:01:46	47.46321	-122.3025	246.229	245.2873	-280.7975	26.23	26.22095	95	0	42	-24.23886	-5.081838	-169.1007	
09:01:47	47.46275	-122.3027	239.795	240.8695	-278.4124	25.96	25.43308	95	0	38	-15.49447	-6.64675	175.0487	
09:01:49	47.46241	-122.3026	234.616	235.2616	-306.0727	25.73	25.31007	96	0	36	-3.525777	-6.963208	168.2489	
09:01:51	47.46199	-122.3026	228.227	229.0885	-355.5679	25.5	25.01424	96	0	35	1.42449	-7.216543	167.8315	
09:01:52	47.46157	-122.3025	221.91	222.872	-366.0853	25.41	24.93147	96	0	35	2.356197	-6.968083	170.3495	
09:01:54	47.46124	-122.3025	216.75	216.7766	-383.6833	25.33	24.88475	96	0	34	0.606506	-7.378034	172.9698	
09:01:56	47.46089	-122.3025	211.054	210.5051	-459.9955	25.3	24.91177	97	0	38	35.59962	-9.839135	-178.4221	
09:01:57	47.4605	-122.3026	202.647	203.0003	-431.5728	26.2	25.95639	97	0	48	44.53796	-9.032932	-141.4296	
09:01:59	47.46027	-122.303	196.085	196.1219	-357.2852	27.1	27.43313	97	0	49	45.03646	-7.510463	-102.6979	
09:02:01	47.46028	-122.3037	189.371	190.2807	-304.192	27.57	28.45469	97	0	45	41.93813	-6.343996	-66.19656	
09:02:02	47.46046	-122.3042	185.739	185.2879	-316.2476	27.33	28.27155	97	0	30	20.82324	-7.576198	-42.67931	
09:02:04	47.46076	-122.3045	180.322	179.2912	-451.2716	26.36	27.51334	98	0	24	2.193418	-11.23572	-35.34728	
09:02:06	47.46115	-122.3049	170.469	171.4375	-522.7651	25.92	27.08466	98	0	22	-2.163317	-12.9621	-34.64282	
09:02:08	47.46144	-122.3052	162.431	162.4733	-509.0165	26.07	27.1982	98	0	25	-2.493723	-12.12452	-35.30204	
09:02:09	47.46176	-122.3056	154.535	154.4877	-455.4004	26.17	27.32178	98	0	25	-2.215936	-11.19462	-35.89105	
09:02:11	47.46209	-122.306	147.289	147.3673	-445.2097	26.04	27.19327	98	0	24	-2.109469	-11.42436	-36.21887	
09:02:13	47.46243	-122.3063	139.464	140.3556	-445.9901	25.91	27.06313	98	0	23	-2.378409	-12.00814	-36.47073	
09:02:14	47.46275	-122.3067	131.532	132.8284	-469.4152	25.87	27.00913	98	0	22	-2.651724	-12.64981	-36.85421	
09:02:16	47.46303	-122.307	124.333	124.7612	-490.08	25.9	27.05514	98	0	24	-19.22474	-12.69805	-40.94997	
09:02:18	47.46328	-122.3074	116.486	116.0517	-536.098	26.07	26.99381	98	0	32	-37.24837	-12.86369	-59.03214	
09:02:19	47.46346	-122.308	106.987	107.948	-336.4337	26.92	27.54316	99	0	25	-3.358555	-9.832586	-80.56835	
09:02:21	47.46354	-122.3085	101.505	101.1382	-502.6303	26.25	27.00797	99	0	35	42.70906	-13.00461	-63.27444	
09:02:23	47.46378	-122.309	92.668	92.99483	-468.8067	26.94	27.1511	99	0	37	44.04049	-12.01591	-26.98248	
09:02:24	47.46399	-122.3091	87.539	85.68157	-368.4958	27.44	27.82714	99	0	54	44.13688	-10.2847	9.249912	
09:02:26	47.46461	-122.3089	74.687	81.22258	-208.6865	28.45	27.8817	99	0	78	44.56968	-3.406893	48.80076	
09:02:28	47.46474	-122.3083	76.59	77.06873	323.3531	28.1	27.93446	99	0	101	48.88667	11.73393	101.9272	
09:02:30	47.46457	-122.3078	89.682	86.25131	515.3871	25.08	25.72603	99	0	72	30.85662	14.04154	138.7366	
09:02:31	47.46429	-122.3075	99.378	96.24488	65.54157	23.08	23.28423	99	0	39	8.204545	-1.447338	148.0512	
09:02:33	47.46401	-122.3072	98.337	97.66724	-240.7227	22.25	21.98986	99	0	30	24.02119	-12.54833	159.5117	
09:02:35	47.46368	-122.307	90.666	91.82478	-405.2956	23	22.84139	99	0	46	41.74707	-15.20398	-169.392	
09:02:36	47.46333	-122.3073	82.174	84.52919	-155.0663	25.08	25.16678	99	0	62	44.0438	-6.69075	-120.7873	
09:02:38	47.46321	-122.3077	80.013	81.25829	86.48897	26.19	27.12668	99	0	72	46.35553	0.724551	-72.47195	
09:02:40	47.46341	-122.3083	81.737	81.96448	147.7825	27.02	27.74632	99	0	69	46.65475	2.963562	-30.2097	
09:02:41	47.4638	-122.3085	83.954	83.71096	76.3181	27.22	27.39196	99	0	64	45.99963	1.324553	5.697011	
09:02:43	47.46417	-122.3083	84.241	84.25814	-25.9542	27.33	26.9804	99	0	61	45.24865	-0.7674407	39.12843	
09:02:45	47.46444	-122.3079	82.121	82.75426	-112.2413	27.58	26.99488	99	0	62	44.95035	-1.268199	72.21797	
09:02:46	47.46447	-122.3072	77.932	79.28171	-131.0495	28.09	27.39456	99	0	70	45.13213	0.9326051	107.3572	
09:02:48	47.46423	-122.3067	75.892	76.14765	-76.2081	28.33	27.74672	99	0	80	45.85188	4.774462	143.3795	
09:02:50	47.46387	-122.3065	77.737	76.42907	1.202561	28.02	27.83251	99	0	82	46.15289	7.138522	177.5441	
09:02:52	47.46348	-122.3066	81.748	79.54756	11.22349	27.6	27.65337	99	0	74	45.11431	5.597577	-151.6956	
09:02:53	47.46315	-122.307	85.088	83.05582	-29.34556	27.31	27.72896	99	0	64	44.62155	1.068413	-121.4566	
09:02:55	47.46302	-122.3076	85.292	84.59641	-70.10259	27.32	27.5902	99	0	59	43.8559	-2.788745	-89.21748	
09:02:57	47.46312	-122.3081	83.524	83.80836	-69.7436	27.63	27.69822	99	0	59	44.18295	-4.099363	-54.01425	
09:02:58	47.46347	-122.3086	80.87	81.91319	-29.97113	28.18	28.28657	99	0	62	44.7726	-3.106855	-17.3563	
09:03:00	47.46387	-122.3086	79.536	80.46774	21.26015	28.48	28.35154	99	0	64	44.35188	-1.1	18.7024	
09:03:02	47.46424	-122.3082	78.214	79.31928	20.69477	28.61	28.52716	99	0	67	45.12258	-0.02851708	54.17197	
09:03:03	47.46439	-122.3077	77.25	78.05589	20.55715	28.58	28.41561	99	0	71	45.08806	1.362483	90.01814	
09:03:05	47.46426	-122.307	76.619	77.11736	14.29852	28.25	28.26427	99	0	75	45.72559	2.818859	126.0683	
09:03:07	47.46392	-122.3066	77.703	77.17635	21.3504	27.87	27.90439	99	0	77	45.4399	3.925251	161.9035	
09:03:08	47.46357	-122.3066	79.424	78.63923	23.23758	27.63	27.58191	67	0	67	45.35934	3.284314	-162.8815	
09:03:10	47.4632	-122.3069	81.148	80.27618	-15.72968	26.92	26.84783	69	0	62	45.32604	0.3156165	-128.0486	
09:03:12	47.46302	-122.3074	81.33	81.08971	-1.236079	26.75	26.99118	71	0	58	44.11858	-0.8800272	-90.23682	
09:03:14	47.46311	-122.308	79.99	80.7206	-27.40145	26.88	26.97837	72	0	58	44.86625	-1.83763	-52.40358	
09:03:15	47.4634	-122.3084	77.76	78.98715	6.537952	27.5	27.60519	74	0	64	45.54446	-0.1555912	-12.78751	
09:03:17	47.46379	-122.3084	76.7	77.63351	40.09441	28.03	28.07149	75	0	69	45.74821	1.976217	24.92887	
09:03:19	47.46414	-122.3081	76.862	77.41896	82.44638	28.21	28.12929	76	0	71	45.76962	3.741894	61.74772	
09:03:20	47.46426	-122.3073	78.529	78.26006	68.60394	27.59	27.73976	78	0	70	45.61751	4.143207	97.45991	
09:03:22	47.46412	-122.3068	79.742	79.2692	12.45436	26.91	26.90178	79	0	68	45.47648	3.325805	132.2089	
09:03:24	47.46377	-122.3065	80.633	80.00407	-23.8795	26.38	26.42197	80	0	66	45.50456	2.147528	168.0976	
09:03:25	47.46342	-122.3065	80.889	80.43209	-30.06076	26.24	26.28874	81	0	64	45.31838	1.131393	-154.121	
09:03:27	47.4631	-122.3069	80.952	80.73845	-2.740101	26.36	26.49982	82	0	63	45.28277	0.4772446	-114.921	
09:03:29	47.46302	-122.3075	81.144	81.18108	48.80141	26.52	26.60183	83	0	57	40.59504	0.54768	-76.75397	
09:03:31	47.46313	-122.3079	81.574	81.77335	30.83798	26.28	26.23159	84	0	51	36.44005	-0.08972432	-46.8973	
09:03:32	47.46349	-122.3083	80.844	81.15656	-45.50354	26.33	26.56357	85	0	58	44.34512	-1.288941	-13.56832	
09:03:34	47.46386	-122.3083	79.42	80.09811	-0.1486994	26.96	26.99118	86	0	62	45.34413	0.4401394	24.68805	
09:03:36	47.46421	-122.308	78.294	79.0228	8.81752	27.32	27.27621	87	0	65	45.40822	2.155212	62.07777	
09:03:37	47.4643	-122.3073	77.855	78.29459	1.592589	27.19	27.11017	88	0	69	45.61004	3.541194	98.56218	
09:03:39	47.46415	-122.3068	78.191	77.96366	-12.01066	26.9	26.75408	89	0	71	45.69229	4.43284	134.5704	
09:03:41	47.46379	-122.3065	79.439	78.53596	-4.562952	26.58	26.61956	89	0	71	45.55074	4.75801	170.7856	
09:03:42	47.46341	-122.3066	81.148	79.91846	-17.38186	26.38	26.50621	90	0	68	45.7575	3.276709	-153.6393	
09:03:44	47.4631	-122.307	82.532	81.44035	-14.21423	26.3	26.41721	91	0	61	44.92875	1.370286	-117.2831	
09:03:46	47.46302	-122.3075	82.799	82.40237	-12.08936	26.33	26.37414	91	0	55	43.41399	-0.5332912	-80.45598	
09:03:47	47.46316	-122.308	81.752	82.17057	-18.7889	26.42	26.45192	92	0	54	43.53759	-1.894098	-44.57601	
09:03:49	47.46351	-122.3084	80.009	80.85831	-11.80719	26.82	26.96497	92	0	59	45.01022	-0.9475994	-6.586926	
09:03:51	47.46389	-122.3083	79.015	79.74499	25.6316	27.18	27.19488	93	0	63	45.42177	0.861433	31.46948	
09:03:53	47.46421	-122.3078	78.787	79.27813	29.48743	27.14	27.22124	93	0	65	45.70844	2.051061	68.4198	
09:03:54	47.46425	-122.3072	78.689	78.99389	1.650487	26.83	26.84744	94	0	66	45.8632	2.708876	104.6947	
09:03:56	47.46405	-122.3067	78.526	78.51015	-16.36277	26.68	26.37985	67	0	76	44.95332	3.391158	141.7721	
09:03:58	47.46368	-122.3065	79.083	78.71073	11.67489	27.09	26.95146	69	0	77	45.87421	4.027913	179.2395	
09:03:59	47.46333	-122.3066	80.451	79.84763	23.11519	27.27	27.14385	70	0	74	45.35718	3.332791	-143.8434	
09:04:01	47.46302	-122.3071	82.384	81.47952	31.99541	27.48	27.47541	72	0	69	45.08078	1.773358	-107.8702	
09:04:03	47.46299	-122.3077	83.38	82.8385	1.949339	27.66	27.2709	73	0	65	45.44231	-0.460117	-73.17344	
09:04:04	47.46318	-122.3082	82.893	83.04392	-29.80357	27.9	27.70568	75	0	63	44.71368	-1.8862	-38.2361	
09:04:06	47.46356	-122.3085	80.816	81.62424	-45.23432	28.47	28.5491	76	0	65	44.96069	-1.61305	-2.48814	
09:04:08	47.46399	-122.3084	78.691	79.7033	-19.39001	29.03	29.12514	77	0	69	44.82076	0.2232369	33.36295	
09:04:10	47.46428	-122.3079	77.517	78.1875	-1.944569	29.24	29.04214	79	0	73	44.92743	1.98035	67.66859	
09:04:11	47.46436	-122.3073	76.704	77.17809	6.114219	29.18	29.09546	80	0	77	45.51277	3.497371	102.3806	
09:04:13	47.46413	-122.3067	76.972	76.80058	6.475348	28.83	28.79742	81	0	80	46.00023	4.450016	136.7121	
09:04:15	47.4638	-122.3064	78.359	77.66709	11.303	28.51	28.71568	82	0	79	45.39568	4.711514	170.7884	
09:04:16	47.46336	-122.3064	80.231	79.19199	8.279513	28.37	28.50984	83	0	75	45.32064	3.45484	-154.5452	
09:04:18	47.46305	-122.3068	81.547	80.9043	18.91897	28.4	28.36525	84	0	72	45.46114	1.372039	-119.341	
09:04:20	47.46291	-122.3074	82.205	82.16058	119.6689	28.5	28.4432	85	0	73	25.04894	1.989285	-84.29027	
09:04:21	47.46297	-122.3081	87.365	87.57205	498.7276	27.61	27.66738	86	0	97	-29.71168	11.29012	-85.76005	
09:04:23	47.46294	-122.3087	98.796	97.49055	711.2026	26.71	26.90822	87	0	95	-15.47339	16.39892	-102.2528	
09:04:25	47.46284	-122.3093	110.411	108.396	276.7913	26.01	26.13978	88	0	51	-0.3942178	5.097325	-101.1063	
09:04:27	47.46275	-122.3099	110.031	109.7945	-254.5355	25.11	25.28269	88	0	34	-0.9810721	-8.954658	-97.18136	
09:04:28	47.46268	-122.3104	103.456	104.2703	-331.8044	25.46	24.80434	89	0	38	-3.652621	-9.748122	-95.01076	
09:04:30	47.46262	-122.3108	98.712	98.86198	-170.8657	26.07	25.41123	90	0	47	-6.205984	-4.577762	-95.55577	
09:04:32	47.46254	-122.3115	96.096	97.76711	-73.00961	26.03	25.42904	91	0	49	-7.523603	0.122035	-96.59862	
09:04:33	47.46245	-122.3121	94.063	94.27017	-100.9027	26.22	25.46862	91	0	60	-5.804913	0.8880979	-95.91561	
09:04:35	47.46236	-122.3127	95.126	94.44641	72.84292	26.26	24.82167	92	0	62	-5.887578	3.587421	-96.27897	
09:04:37	47.46232	-122.313	96.274	96.56348	83.18648	26.09	24.61975	92	0	57	-5.316687	2.799847	-96.88821	
09:04:38	47.46218	-122.3138	99.689	98.4162	88.15909	25.64	24.17148	93	0	54	-5.078024	1.305876	-97.75781	
09:04:40	47.4621	-122.3143	100.764	100.5971	27.5767	25.38	23.91574	93	0	48	-4.378252	-2.002332	-99.06098	
09:04:42	47.46201	-122.3147	100.419	100.5266	12.68828	25.3	23.83763	94	0	48	-4.726567	-2.351966	-100.6435	
09:04:43	47.46189	-122.3153	100.289	100.5687	12.73365	25.15	23.69084	94	0	48	-4.389019	-1.899402	-101.8285	
09:04:45	47.46189	-122.3153	100.289	100.3419	-29.09241	25.15	23.69084	94	0	48	-1.420171	-3.726547	-102.1423	
09:04:47	47.46171	-122.3162	100.82	100.8273	110.0727	25.05	23.58721	95	0	47	-7.220994	-0.5836387	-103.8874	
09:04:49	47.46149	-122.317	102.3	102.0883	-182.6743	24.49	22.94481	95	0	58	-47.248	-9.767991	-133.4381	
09:04:50	47.46112	-122.3173	89.741	96.63609	260.527	27.8	26.26286	95	0	57	-20.3428	0.3531768	169.0356	
09:04:52	47.4607	-122.3172	84.536	89.70555	11.89692	28.66	28.20087	96	0	84	41.06622	4.079062	169.7347	
09:04:54	47.46028	-122.3173	86.814	85.96453	147.0947	29.36	27.59495	96	0	110	50.16407	14.56281	-147.5774	
09:04:55	47.46004	-122.3178	99.272	95.19625	325.0782	27.47	25.70187	96	0	89	46.67385	16.35761	-114.8518	
09:04:57	47.45996	-122.3185	114.85	108.5351	117.7626	26.49	25.49428	96	0	55	44.65126	2.876877	-95.61623	
09:04:59	47.46004	-122.319	114.802	113.8006	-191.2744	25.83	24.96727	97	0	36	42.44528	-10.81683	-71.28442	
09:05:00	47.46022	-122.3194	108.27	109.1442	-348.6266	26.06	25.57285	97	0	41	42.58716	-13.23194	-36.96219	
09:05:02	47.46062	-122.3197	96.025	99.08372	-260.5732	27.94	28.90782	97	0	63	44.58747	-6.127388	5.026499	
09:05:04	47.46106	-122.3193	87.977	92.6992	-28.60158	29.44	30.13616	97	0	81	45.33931	3.28785	48.46232	
09:05:06	47.46125	-122.3188	89.529	89.59826	82.59109	28.52	30.74272	97	0	79	-23.35607	9.96169	64.02244	
09:05:07	47.46149	-122.3182	93.415	91.80344	135.0065	27.78	29.53071	98	0	80	-18.54767	10.05309	46.67686	
09:05:09	47.46174	-122.3178	97.577	96.11906	26.81136	26.91	27.90159	98	0	81	42.26365	6.139105	53.19948	
09:05:11	47.46188	-122.3173	97.621	97.46854	-20.00188	27.93	28.13744	98	0	85	47.82565	5.512593	88.23219	
09:05:12	47.46175	-122.3166	94.844	95.7673	-70.86464	29.57	29.49807	98	0	89	47.57143	7.185761	125.0229	
09:05:14	47.46141	-122.3162	94.102	93.69508	-83.12444	30.41	30.06082	98	0	96	47.78138	9.708065	158.6285	
09:05:16	47.46093	-122.3162	97.911	95.13496	-4.554426	30.66	30.33994	98	0	95	47.08463	11.1759	-170.8932	
09:05:17	47.46052	-122.3165	104.429	100.4515	30.79624	30.34	30.0182	98	0	82	45.64729	7.938062	-144.5825	
09:05:19	47.46028	-122.317	108.699	106.2317	19.07554	29.88	29.25582	98	0	66	44.30059	1.478207	-118.3248	
09:05:21	47.46017	-122.3177	110.226	109.3802	-1.227973	29.26	28.75837	98	0	57	44.60749	-3.809781	-88.23343	
09:05:22	47.46032	-122.3183	107.918	108.9873	-55.29469	28.98	28.7824	98	0	54	44.30783	-6.209086	-55.58587	
09:05:24	47.46066	-122.3187	102.314	104.9755	-102.1927	29.09	28.7362	99	0	57	43.75888	-5.085462	-20.57122	
09:05:26	47.46107	-122.3188	96.03	98.95134	-92.12808	29.7	29.90992	99	0	69	41.67949	-0.7803569	16.98802	
09:05:28	47.46147	-122.3184	91.975	94.18712	31.31149	29.93	30.46982	99	0	72	23.96417	5.183009	42.95165	
09:05:29	47.46175	-122.3178	92.171	92.4034	4.010966	29.16	29.63874	99	0	89	41.80859	7.189914	62.84874	
09:05:31	47.46183	-122.3172	94.262	93.44102	103.5724	29.37	29.76815	99	0	94	47.10624	9.628448	98.58359	
09:05:33	47.46167	-122.3167	97.918	96.728	104.9014	29.21	29.5135	99	0	88	46.28726	8.976159	131.7058	
09:05:34	47.4613	-122.3163	101.512	100.0163	36.39937	29.1	29.10249	99	0	81	45.90922	5.64152	162.8424	
09:05:36	47.46085	-122.3162	103.378	102.2294	8.353989	29.22	29.11559	99	0	75	45.96324	2.471695	-163.9622	
09:05:38	47.46048	-122.3166	104.536	103.9928	37.91968	29.33	29.0407	99	0	69	45.27662	-0.04754246	-129.0108	
09:05:39	47.4603	-122.3171	104.816	105.0425	52.80979	29.35	29.14276	99	0	64	44.98481	-2.087941	-93.62446	
09:05:41	47.46036	-122.3178	104.228	105.1363	37.45333	29.35	29.05303	99	0	62	44.71436	-3.103001	-58.47612	
09:05:43	47.46064	-122.3183	101.968	103.5582	8.658756	29.48	29.59203	99	0	63	44.73232	-2.35411	-22.61497	
09:05:45	47.4611	-122.3184	97.917	100.2141	-26.78412	29.57	29.69464	99	0	65	38.73972	-0.1893207	9.869143	
09:05:46	47.46149	-122.3182	95.055	96.61013	-58.41093	29.44	29.77851	99	0	77	43.11979	2.603639	39.04928	
09:05:48	47.46177	-122.3177	93.398	94.00652	-11.10808	29.76	29.95313	99	0	89	46.34066	6.569173	75.11555	
09:05:50	47.46178	-122.317	93.989	93.81737	25.91457	29.98	30.01586	99	0	93	47.07384	8.980837	110.4087	
09:05:51	47.46151	-122.3164	96.53	95.22642	16.99356	29.99	30.05092	99	0	91	46.27376	9.524836	142.9371	
09:05:53	47.46109	-122.3162	99.919	97.72311	-1.754007	29.98	29.88923	99	0	87	45.85658	8.111092	173.0622	
09:05:55	47.46066	-122.3163	103.274	101.1381	7.682161	29.95	29.74737	99	0	79	45.74723	5.01754	-156.729	
09:05:56	47.46034	-122.3166	105.692	104.4004	24.7608	29.82	29.60605	99	0	70	45.34266	0.6902851	-125.1026	
09:05:58	47.46014	-122.3173	106.691	106.3302	37.22063	29.58	29.36424	99	0	63	44.92982	-2.329434	-91.14303	
09:06:00	47.46018	-122.3177	106.228	106.46	12.03215	29.47	29.28378	99	0	59	43.26292	-3.637377	-56.46146	
09:06:02	47.46056	-122.3184	101.495	104.3011	-111.66	29.46	30.00483	99	0	62	45.59454	-3.82897	-22.64712	
09:06:03	47.46101	-122.3185	92.923	96.60866	-122.2919	30.59	30.71556	99	0	73	36.93601	0.8979768	12.77993	
09:06:05	47.46139	-122.3183	88.532	90.87837	8.269657	31.12	31.52698	99	0	83	28.61068	7.228988	36.05553	
09:06:07	47.46174	-122.3177	89.216	89.10102	65.31731	30.76	30.92823	99	0	104	46.95717	10.7743	66.85693	
09:06:08	47.46181	-122.317	95.455	93.32385	214.1279	29.63	29.60998	99	0	100	47.45263	12.34361	103.096	
09:06:10	47.46161	-122.3165	103.435	100.4805	185.9489	28.66	28.48811	99	0	85	46.34761	8.460453	134.3426	
09:06:12	47.46128	-122.3161	108.137	106.368	52.28209	28.06	27.96224	99	0	68	45.05985	1.019061	165.1032	
09:06:13	47.46084	-122.3161	108.352	108.105	-43.06713	27.82	27.7108	99	0	60	44.02674	-4.682117	-158.41	
09:06:15	47.46051	-122.3164	105.943	106.886	-30.43059	28.14	28.06827	99	0	60	44.61688	-6.27768	-117.3156	
09:06:17	47.46037	-122.317	101.675	104.1834	20.40912	28.98	28.97499	99	0	63	44.88434	-4.591889	-75.41645	
09:06:19	47.46052	-122.3176	98.798	101.1842	113.8561	29.66	29.94418	99	0	62	34.14698	-0.4337746	-37.57732	
09:06:20	47.46091	-122.318	98.499	99.76192	71.8643	28.98	29.83808	99	0	62	25.47832	1.403432	-18.42002	
09:06:22	47.46135	-122.3181	98.679	98.8046	-47.05226	28.47	29.01936	99	0	76	45.04377	1.181499	8.409073	
09:06:24	47.46174	-122.3179	97.572	98.0771	-1.22837	29.03	29.20775	99	0	79	46.25692	3.359722	45.42418	
09:06:25	47.46198	-122.3173	96.352	96.98425	-21.59886	29.34	29.2776	99	0	83	46.02211	4.918607	81.83746	
09:06:27	47.46195	-122.3168	95.916	95.8208	-40.40393	29.54	29.10147	99	0	89	47.56646	6.193379	117.9626	
09:06:29	47.46165	-122.3162	96.977	96.29665	28.80858	29.6	29.28478	99	0	81	34.46936	8.435553	153.7059	
09:06:30	47.46117	-122.3159	102.113	99.52341	-92.6974	27.83	27.72492	99	0	72	-30.30516	4.386245	155.5168	
09:06:32	47.46084	-122.3157	102.321	101.3322	18.9247	27.55	27.35161	99	0	65	-21.54958	4.379408	137.9194	
09:06:34	47.46056	-122.3153	103.009	102.3827	-64.07603	26.59	25.67897	99	0	59	-2.703384	1.62562	135.238	
09:06:35	47.46026	-122.3149	102.358	101.9961	-68.65114	26.03	25.15367	99	0	59	-0.9810687	1.404017	139.3353	
09:06:37	47.46	-122.3145	102.012	101.6308	-49.56893	25.67	24.70898	99	0	60	-4.029731	1.926956	142.8464	
09:06:39	47.45968	-122.3141	102.163	101.6798	-37.47337	25.23	24.32413	99	0	59	-5.364086	2.169708	144.7057	
09:06:41	47.45939	-122.3137	102.365	101.8509	-45.24398	24.93	23.96364	99	0	58	-5.281055	1.712275	146.2038	
09:06:42	47.45909	-122.3134	102.385	101.9108	-45.59572	24.66	23.72356	99	0	65	-7.24158	1.452617	147.3278	
09:06:44	47.45884	-122.313	103.882	103.8646	296.1028	25.16	24.07224	99	0	118	-50.41245	11.26203	117.3603	
09:06:46	47.45882	-122.3124	114.731	112.2141	545.4193	23.54	23.88124	99	0	121	-54.88476	17.87976	62.37292	
09:06:47	47.45904	-122.3121	127.28	124.5461	599.5565	22.39	23.08252	99	0	117	-51.92633	18.64788	16.34665	
09:06:49	47.45937	-122.3122	140.487	138.7942	628.0824	22.97	24.41112	99	0	84	-38.9374	14.75245	-21.78462	
09:06:51	47.45969	-122.3124	149.808	148.8504	314.07	23.53	25.16465	99	0	62	-9.898673	4.434154	-35.00044	
09:06:52	47.45994	-122.3128	152.403	152.8965	210.4455	23.99	25.62464	99	0	63	3.046716	1.561105	-37.65049	
09:06:54	47.46023	-122.3131	155.381	155.5161	157.1452	24.57	26.22174	99	0	45	19.5444	-0.1099444	-30.44578	
09:06:56	47.46057	-122.3134	154.012	154.3004	-259.128	24.3	25.19113	99	0	33	21.21141	-10.0942	-18.05896	
09:06:58	47.46093	-122.3136	147.081	148.5663	-304.9652	25.07	25.49776	99	0	37	15.61663	-9.951139	-3.469464	
09:06:59	47.46123	-122.3136	142.216	143.2839	-123.5229	25.86	26.30379	99	0	46	2.262892	-4.315319	4.896005	
09:07:01	47.4617	-122.3135	139.513	140.2137	-4.18101	25.9	26.50368	99	0	55	-9.609454	0.2654358	3.537564	
09:07:03	47.46206	-122.3135	141.322	140.9449	111.5465	25.4	25.9943	99	0	57	-10.1291	2.589017	-2.267463	
09:07:04	47.46244	-122.3135	145.034	144.2053	128.0751	24.63	24.49039	99	0	52	-6.633721	1.2638	-6.261653	
09:07:06	47.46283	-122.3135	147.667	147.1109	62.85316	24.01	23.87699	99	0	46	-4.16309	-1.848611	-7.63976	
09:07:08	47.46318	-122.3135	148.031	148.026	3.845188	23.86	23.72294	99	0	45	-3.492001	-3.615784	-7.940257	
09:07:09	47.46355	-122.3135	147.772	147.9029	5.167316	23.94	23.78153	99	0	46	-4.147268	-3.139191	-8.394228	
09:07:11	47.46395	-122.3136	148.184	148.0868	21.46131	23.95	23.80693	99	0	46	-5.032229	-2.545639	-9.249157	
09:07:13	47.46428	-122.3136	148.746	148.6327	32.76654	23.91	23.78242	99	0	46	-4.006748	-2.38329	-9.982512	
09:07:14	47.46466	-122.3136	149.355	149.2562	46.50018	23.85	23.71191	99	0	66	17.87059	-1.530545	-8.300055	
09:07:16	47.46502	-122.3135	151.735	152.351	454.6931	25.55	24.37539	99	0	117	49.6547	10.26245	34.59381	
09:07:18	47.46518	-122.313	159.565	160.732	716.5929	25.22	24.2394	99	0	115	48.72807	18.40815	93.70172	
09:07:20	47.46503	-122.3125	173.053	172.0787	725.4113	23.51	23.37604	99	0	100	3.524243	20.31792	118.5804	
09:07:21	47.46485	-122.312	184.607	183.356	504.5786	24.02	23.5873	99	0	94	-24.75511	15.07834	110.6898	
09:07:23	47.46472	-122.3115	193.282	192.0602	430.7358	24.71	23.33131	99	0	88	-22.77424	11.60032	94.54655	
09:07:25	47.46469	-122.311	199.749	199.7683	423.089	24.82	23.60226	99	0	82	-8.827866	10.22861	84.17597	
09:07:26	47.46471	-122.3104	206.484	206.4013	368.7595	24.79	23.55875	99	0	80	1.566165	8.7968	83.64467	
09:07:28	47.46473	-122.3098	213.4	212.5551	380.0198	24.75	23.54626	99	0	82	2.387037	9.266089	86.69574	
09:07:30	47.46474	-122.3093	219.342	219.2186	395.9351	24.68	23.47493	99	0	83	-0.4211458	9.802681	89.10935	
09:07:31	47.46473	-122.3087	226.495	225.9354	397.6527	24.6	23.39845	99	0	83	-2.267042	9.983156	90.03712	
09:07:33	47.46473	-122.3082	233.19	233.0829	408.4367	24.57	23.36578	99	0	83	-2.654779	10.11629	90.09209	
09:07:35	47.46473	-122.3077	240.261	240.2092	401.5897	24.53	23.31348	99	0	83	-2.482188	9.843786	90.15517	
09:07:37	47.46473	-122.3072	246.218	246.8152	402.622	24.53	23.31274	99	0	85	-2.550827	10.36843	90.18621	
09:07:38	47.46473	-122.3065	254.375	253.9936	429.9305	24.51	23.29227	99	0	87	-2.573977	11.07932	90.17675	
09:07:40	47.46474	-122.3059	262.381	261.4241	434.8583	24.52	23.30214	99	0	87	-2.44694	11.39694	90.2032	
09:07:42	47.46474	-122.3055	269.229	269.0634	445.2162	24.52	23.3021	99	0	88	-2.581441	11.58105	90.1642	
09:07:43	47.46474	-122.3049	277.796	276.9479	450.6894	24.54	23.32209	99	0	88	-2.488418	11.6257	90.05379	
09:07:45	47.46475	-122.3043	286.118	285.1751	441.4941	24.57	23.3421	99	0	85	-2.334006	10.7364	90.05858	
09:07:47	47.46475	-122.3041	288.72	291.1089	338.9286	24.59	23.37208	99	0	85	-1.960761	10.25935	90.06561	
09:07:48	47.46475	-122.3041	288.72	290.4654	66.28757	24.59	23.37208	99	0	61	-1.620996	10.0145	90.3202	
09:07:50	47.46475	-122.3041	288.72	288.7315	-77.25438	24.59	23.37208	99	0	60	-1.359124	9.857988	90.6908	
09:07:52	47.46475	-122.3041	288.72	287.9139	-99.89066	24.59	23.37208	99	0	63	-1.135467	9.819281	91.06606	
09:07:53	47.46475	-122.304	289.665	287.5399	-278.1995	24.56	23.37208	99	0	69	-2.832191	2.233924	91.83211	
09:07:55	47.46475	-122.3035	289.57	286.7098	-124.4105	25.91	23.54609	99	0	78	-3.720194	1.544182	91.51517	
09:07:57	47.46476	-122.3028	292.626	290.74	1.056382	26.11	24.21717	99	0	46	28.14244	-1.514641	93.1973	
09:07:59	47.46472	-122.3023	286.824	287.5178	-519.9676	25.75	23.27498	99	0	33	43.50477	-15.01121	115.2587	
09:08:00	47.46451	-122.3018	273.812	276.3171	-647.8205	26.66	25.19974	99	0	38	43.10693	-16.0218	150.4562	
09:08:02	47.46411	-122.3016	258.71	262.3889	-498.5109	28.74	28.41893	99	0	56	43.16501	-9.261988	-168.8014	
09:08:04	47.46371	-122.3019	250.728	252.6593	-101.5914	29.71	30.68376	99	0	54	9.621325	1.497557	-139.1439	
09:08:05	47.46338	-122.3023	249.93	249.2682	-229.8697	28.05	28.94026	99	0	55	-26.87358	-0.2502039	-148.0688	
09:08:07	47.463	-122.3026	247.036	246.5919	-213.7997	27.39	26.9236	99	0	49	-26.23786	-1.890754	-166.8731	
09:08:09	47.46262	-122.3027	243.417	243.0174	-274.1692	26.82	26.26213	99	0	42	-14.77218	-4.491814	-179.3553	
09:08:10	47.4622	-122.3027	238.069	237.8848	-342.3785	26.28	25.78988	99	0	38	-6.371341	-6.248081	175.1505	
09:08:12	47.46178	-122.3026	231.499	231.8996	-379.9352	25.98	25.52062	99	0	36	-2.361586	-7.123484	173.7477	
09:08:14	47.46143	-122.3026	225.651	225.176	-418.381	25.84	25.33253	99	0	34	-0.6646958	-7.973868	174.7047	
09:08:15	47.46098	-122.3025	217.678	218.2796	-427.2228	25.78	25.28479	99	0	33	16.89297	-8.656525	177.2912	
09:08:17	47.46057	-122.3026	209.164	210.2728	-517.1875	26.37	25.34656	99	0	46	43.75526	-10.18604	-155.1197	
09:08:19	47.4603	-122.3029	202.799	203.1943	-361.2228	27.17	26.81907	99	0	48	45.10086	-7.184966	-117.3136	
09:08:21	47.4602	-122.3035	198.063	197.903	-354.9388	27.28	27.40413	99	0	44	45.05094	-8.151183	-82.60918	
09:08:22	47.46035	-122.3041	191.019	191.9172	-358.5181	27.33	28.07295	99	0	34	33.39462	-8.896917	-51.2024	
09:08:24	47.46061	-122.3045	185.211	185.5089	-403.6095	26.86	27.90421	99	0	25	8.178122	-10.18518	-35.90322	
09:08:26	47.46096	-122.3049	176.475	177.4578	-509.4319	26.31	27.38897	99	0	24	-1.331391	-11.98447	-32.76124	
09:08:27	47.4613	-122.3052	167.765	168.6499	-492.6065	26.37	27.42041	99	0	26	-3.603663	-11.24693	-33.15576	
09:08:29	47.4616	-122.3055	160.975	160.9299	-452.228	26.35	27.40791	99	0	26	-3.591912	-10.69878	-34.21714	
09:08:31	47.46198	-122.3059	152.878	154.048	-433.8343	26.1	27.21257	99	0	24	-3.217995	-11.15904	-35.13998	
09:08:32	47.46224	-122.3062	147.23	146.6978	-456.6938	25.95	26.99696	99	0	23	-2.843366	-12.05961	-35.81736	
09:08:34	47.46259	-122.3065	138.825	139.3203	-463.5806	25.87	26.93048	99	0	22	-3.201062	-12.68556	-36.38128	
09:08:36	47.46288	-122.3068	131.406	131.2661	-482.4873	25.85	26.89259	99	0	22	-9.668793	-12.94497	-37.54515	
09:08:37	47.46322	-122.3072	121.929	123.0045	-518.7471	25.94	26.89213	99	0	27	-30.20879	-13.23693	-48.6637	
09:08:39	47.46343	-122.3077	113.561	114.1674	-490.7241	26.45	26.72195	99	0	32	-33.91031	-12.4457	-74.02644	
09:08:41	47.46352	-122.3083	107.252	107.6334	-378.8994	26.32	26.76274	99	0	28	33.76052	-11.38813	-75.96352	
09:08:42	47.46369	-122.3088	99.808	100.0171	-504.967	26.29	26.19501	99	0	32	43.25952	-13.19909	-43.45143	
09:08:44	47.46399	-122.3091	91.369	91.256	-481.8282	27.04	27.23079	99	0	36	43.89032	-12.07771	-7.134451	
09:08:46	47.46441	-122.309	80.943	82.3668	-291.0111	28.19	28.20762	99	0	63	44.12608	-6.020927	31.55936	
09:08:48	47.46473	-122.3085	76.645	78.38783	188.6164	29.43	29.79655	99	0	90	47.23291	5.774207	77.99027	
09:08:49	47.46471	-122.308	82.354	82.4309	378.2504	27.94	27.86281	99	0	88	47.0611	10.37734	119.5709	
09:08:51	47.46443	-122.3075	93.144	90.79451	284.7424	25.49	25.7563	99	0	55	25.04762	5.943631	145.6815	
09:08:53	47.46409	-122.3072	97.662	95.97697	-75.61165	23.65	23.95545	99	0	39	21.0146	-6.053065	158.7034	
09:08:54	47.46378	-122.307	94.4	94.26578	-280.2924	23.41	23.12544	99	0	42	37.58737	-12.17648	-176.4289	
09:08:56	47.46341	-122.3071	86.695	88.32051	-235.9004	24.7	24.20722	99	0	55	42.41137	-9.750998	-132.0942	
09:08:58	47.46321	-122.3076	80.561	82.7853	-26.0715	26.5	26.90577	99	0	69	45.86422	-3.224948	-83.45513	
09:08:59	47.46333	-122.3082	78.389	80.18279	103.7376	27.91	28.4276	99	0	77	47.47733	1.956763	-38.80771	
09:09:01	47.46369	-122.3085	80.105	80.47686	139.0263	28.52	28.74665	99	0	75	46.65027	4.08219	1.082392	
09:09:03	47.46413	-122.3083	83.857	82.92449	92.90814	28.19	28.23288	99	0	68	45.8035	2.761369	35.33534	
09:09:05	47.46441	-122.308	85.655	84.98583	-19.91674	27.64	27.33717	99	0	61	44.54561	-0.3981675	66.55906	
09:09:06	47.46452	-122.3073	83.415	84.22652	-132.5067	27.44	27.2289	99	0	61	44.95812	-2.558051	99.42638	
09:09:08	47.46438	-122.3068	79.52	80.53216	-166.8036	27.76	27.37622	99	0	68	44.5496	-1.002056	135.9252	
09:09:10	47.46404	-122.3064	76.248	77.03593	-80.84757	28.26	28.17811	99	0	79	45.941	2.280082	175.1515	
09:09:11	47.46363	-122.3065	76.755	76.41019	48.82578	28.38	28.29235	99	0	79	43.53321	5.842968	-146.4498	
09:09:13	47.46329	-122.307	81.397	79.66551	108.7803	27.75	28.19611	99	0	66	34.67764	4.852129	-117.0424	
09:09:15	47.46318	-122.3074	84.396	83.25073	-37.1316	27.06	27.45055	99	0	62	42.79243	-0.7588023	-93.36382	
09:09:16	47.46323	-122.3082	84.849	84.23486	-43.21566	27.22	27.38649	99	0	60	44.22316	-2.567796	-59.02811	
09:09:18	47.4635	-122.3086	83.694	83.81712	-55.10534	27.6	27.51095	99	0	60	44.38953	-3.415689	-23.79926	
09:09:20	47.46392	-122.3087	81.507	82.23611	-46.01099	28.14	28.12732	99	0	63	45.23281	-2.62024	12.68506	
09:09:21	47.46431	-122.3084	79.448	80.3771	-33.45763	28.48	28.49088	99	0	66	45.14706	-0.9323996	48.97865	
09:09:23	47.46451	-122.3078	78.092	78.70528	-21.67574	28.46	28.33395	99	0	70	45.12985	0.9015581	85.08971	
09:09:25	47.46443	-122.3072	77.404	77.68581	-8.442408	28.16	28.04228	99	0	74	45.23652	2.419291	121.379	
09:09:27	47.46415	-122.3068	78.048	77.66422	-3.194208	27.81	27.62488	99	0	75	45.49209	2.909764	157.3495	
09:09:28	47.46375	-122.3067	79.473	78.79163	31.79361	27.56	27.46098	99	0	73	45.6809	2.560259	-165.7161	
09:09:30	47.46336	-122.307	81.071	80.45661	12.87696	27.45	27.7779	99	0	69	44.86868	0.5450826	-129.1357	
09:09:32	47.46318	-122.3076	81.015	81.08346	13.17635	27.78	28.09764	99	0	65	43.77426	-0.5286537	-90.98839	
09:09:33	47.46326	-122.3081	79.965	80.64214	1.279393	28.28	28.43841	99	0	67	44.68099	-0.9580615	-53.19177	
09:09:35	47.4636	-122.3086	79.032	79.73501	23.18684	28.86	28.90465	99	0	70	45.51303	0.01053731	-15.97845	
09:09:37	47.46401	-122.3086	79.27	79.49815	49.90012	29.08	28.82741	99	0	70	44.92694	1.199133	19.73099	
09:09:38	47.46439	-122.3082	80.075	80.00258	35.30817	28.87	28.82771	99	0	69	45.38588	1.153457	53.87895	
09:09:40	47.46457	-122.3076	80.251	80.33621	-15.45394	28.41	28.38754	99	0	68	45.0297	0.5817038	87.18834	
09:09:42	47.46451	-122.3071	79.357	79.71775	-57.34737	28.09	28.03411	99	0	69	44.71645	0.82379	121.3914	
09:09:44	47.46426	-122.3066	77.736	77.94247	-70.03281	28.13	27.99885	99	0	75	45.27721	1.167216	157.4958	
09:09:45	47.46384	-122.3065	76.796	76.98978	20.33525	28.36	28.50386	99	0	79	45.61333	3.378529	-163.2657	
09:09:47	47.46342	-122.3068	79.07	78.30129	94.91093	28.19	28.55503	99	0	71	38.07446	4.418418	-128.6805	
09:09:49	47.46323	-122.3073	82.042	80.92479	9.788651	27.51	27.73251	99	0	66	40.65832	1.03031	-103.282	
09:09:50	47.4632	-122.308	83.106	82.47374	-13.10902	27.62	27.77087	99	0	66	45.45705	-1.413892	-69.80244	
09:09:52	47.4634	-122.3085	82.641	82.79758	-10.2345	27.98	27.73984	99	0	63	44.96242	-1.859344	-34.03432	
09:09:54	47.46381	-122.3087	80.776	81.63103	-41.61066	28.55	28.45864	99	0	65	45.15004	-1.70633	1.660036	
09:09:55	47.46426	-122.3085	78.514	79.85786	139.1418	29.17	29.09023	100	0	78	19.81228	3.75787	36.45572	
09:09:57	47.46458	-122.3082	83.806	83.93571	415.3881	28.45	28.46341	100	0	115	-48.89328	12.85548	25.09677	
09:09:59	47.46501	-122.3081	94.933	92.79507	573.583	27.76	28.20651	100	0	120	-53.52107	15.92894	-21.31368	
09:10:01	47.46532	-122.3084	108.302	105.7461	532.8571	26.61	26.69096	100	0	74	-49.03188	11.73138	-55.84484	
09:10:02	47.4655	-122.3089	115.499	113.3313	-107.7954	25.83	26.24785	100	0	36	-35.30804	-6.900759	-69.93632	
09:10:04	47.46558	-122.3095	110.384	110.368	-372.6224	25.17	24.98688	100	0	27	-23.66656	-14.66655	-88.83227	
09:10:06	47.46556	-122.3101	100.157	102.3242	-306.1964	26.07	26.02634	100	0	38	-11.58791	-10.90841	-105.0011	
09:10:07	47.46545	-122.3107	94.772	96.22763	-75.33405	26.5	26.55072	100	0	49	0.9641164	-2.680755	-109.5383	
09:10:09	47.46534	-122.3112	95.143	94.91283	7.189965	25.76	25.72344	99	0	54	1.309405	0.9342955	-108.3036	
09:10:11	47.46524	-122.3117	96.872	96.11951	23.7599	25.16	25.11456	100	0	53	-0.3633942	0.8988409	-107.0488	
09:10:12	47.46514	-122.3123	98.362	97.75851	11.71879	24.69	24.64387	100	0	50	-1.557824	-0.3427546	-106.2139	
09:10:14	47.46504	-122.3129	98.656	98.45684	-15.21394	24.49	24.44135	100	0	49	-2.124799	-1.367691	-105.6188	
09:10:16	47.46495	-122.3134	98.58	98.4677	-14.82388	24.46	24.41424	100	0	50	-2.450906	-1.243868	-105.11	
09:10:17	47.46486	-122.314	98.403	98.37505	-4.52044	24.46	24.41944	100	0	50	-2.605741	-0.7690591	-104.8354	
09:10:19	47.46478	-122.3144	98.631	98.47752	0.8134581	24.42	24.37724	100	0	51	-2.758411	-0.4581201	-104.5149	
09:10:21	47.46468	-122.315	99.136	98.82681	11.4363	24.38	24.34225	100	0	51	-2.824616	-0.2473104	-104.2812	
09:10:23	47.46458	-122.3156	99.717	99.46255	6.889122	24.35	24.30315	100	0	49	-2.917738	-0.7699347	-104.1521	
