Date	Latitude(deg) 	Longitude(deg)	hamsl(m)	hafl(m)	climbrate(cm/s)	GroundSpeed(m/s)	Airspeed(m/s)	Mav_Link(%)	Rssi_Link(%)	Throttle	Roll(deg)	Pitch(deg)	Yaw(deg)
03:19:32	0	0	0	0	0	0	0	31	0	0	0	0	0	
03:19:34	0	0	0	0.538758	18.54359	0	3	41	0	13	0.2056292	-0.02329154	60.16189	
03:19:35	0	0	0	0.8080035	8.135341	0	3	51	0	12	0.214261	-0.09052382	60.43905	
03:19:37	0	0	0	0.4424862	-20.7158	0	3	58	0	12	0.4265805	0.2815314	66.13259	
03:19:39	0	0	0	0.5621019	-6.041589	0	3	63	0	12	0.1895221	0.1376415	66.62611	
03:19:41	0	0	0	0.3113197	-16.21267	0	3	68	0	12	0.08578701	-0.03264673	66.83622	
03:19:42	0	0	0	0.1255296	-37.41848	0	3	71	0	12	0.05574043	-0.1130329	66.69834	
03:19:44	47.44956	-122.3103	4.48	3.860372	127.5405	23.07	23.07063	74	0	12	2.105159	-0.1086163	83.0648	
03:19:46	47.44956	-122.3103	4.48	5.347723	99.45894	23.07	22.20548	77	0	13	1.469709	-0.7842202	101.8561	
03:19:47	47.44956	-122.3103	4.48	5.041478	24.488	23.07	21.38359	80	0	12	0.9422005	-1.063321	119.938	
03:19:49	47.44956	-122.3103	4.48	4.567543	-11.21163	23.07	19.86103	81	0	12	0.5747483	-1.110659	135.8447	
03:19:51	47.44956	-122.3103	4.48	4.367286	-15.7795	23.07	19.15637	83	0	12	0.2731065	-0.9976305	152.7895	
03:19:52	47.44956	-122.3103	4.48	4.356334	-10.54867	23.07	18.48693	85	0	12	0.1459358	-0.841908	166.0477	
03:19:54	47.44956	-122.3103	4.48	4.395475	-6.225904	23.07	17.85097	86	0	12	0.126446	-0.7134671	175.6664	
03:19:56	47.44956	-122.3103	4.48	4.424913	-4.371703	23.07	17.2468	88	0	12	0.1633669	-0.5509219	-176.3137	
03:19:57	47.44956	-122.3103	4.48	4.437455	-3.835863	23.07	18.46577	89	0	12	0.2244452	-0.4221145	-170.3479	
03:19:59	47.44956	-122.3103	4.48	4.442194	-3.589851	23.07	18.45671	90	0	12	0.2851335	-0.331131	-166.069	
03:20:01	47.44956	-122.3103	4.48	4.445325	-3.280875	23.07	19.62216	90	0	12	0.3545625	-0.219337	-163.4954	
03:20:03	47.44956	-122.3103	4.48	4.448692	-2.930036	23.07	21.00552	91	0	4	0.4130981	-0.1250746	-161.814	
03:20:04	47.44956	-122.3103	4.48	4.452149	-2.587199	23.07	21.90575	92	0	4	0.4557923	-0.05773585	-160.6661	
03:20:06	47.44956	-122.3103	4.48	4.455394	-2.280083	23.07	22.39067	93	0	4	0.4900163	0.02385548	-160.8492	
03:20:08	47.44956	-122.3103	4.48	4.458357	-2.005621	23.07	22.62714	93	0	4	0.514561	0.09304585	-161.4121	
03:20:09	47.44956	-122.3103	4.48	4.46088	-1.776764	23.07	22.67352	94	0	4	0.531222	0.1400285	-161.8692	
03:20:11	47.44956	-122.3103	4.48	4.463058	-1.57425	23.07	22.74566	94	0	4	0.5373088	0.1952685	-163.3074	
03:20:13	47.44956	-122.3103	4.48	4.465017	-1.394224	23.07	22.82383	95	0	4	0.5397581	0.2388009	-164.7684	
03:20:14	47.44956	-122.3103	4.48	4.466696	-1.240546	23.07	22.87048	95	0	4	0.5422592	0.2654615	-165.8535	
03:20:16	47.44956	-122.3103	4.48	4.468114	-1.11307	23.07	22.89369	95	0	4	0.5364237	0.2961761	-167.5862	
03:20:18	47.44956	-122.3103	4.48	4.469301	-1.005281	23.07	22.90015	96	0	4	0.5315702	0.3175803	-169.0955	
03:20:20	47.43813	-122.3112	0.02	0.9336957	-120.8825	0	5.457025	96	0	5	0.7211131	1.224901	-162.9819	
03:20:21	47.43813	-122.3112	0.02	-0.8456283	-109.4717	0	4.249319	96	0	5	0.7842521	1.253914	-154.6895	
03:20:23	47.43813	-122.3112	0.02	-0.6357777	-35.19312	0	4.249319	96	0	5	0.8308761	1.254415	-146.5314	
03:20:25	47.43813	-122.3112	0.02	-0.1477714	5.135476	0	3.416792	97	0	4	0.9539627	1.126081	-133.2248	
03:20:26	47.43813	-122.3112	0.02	0.08546171	12.61635	0	3.245952	97	0	4	1.043475	0.9076848	-114.4454	
03:20:28	47.43813	-122.3112	0.02	0.1164527	8.538238	0	3	97	0	4	1.080817	1.07048	-91.72293	
03:20:30	47.43813	-122.3112	0.02	0.08271454	4.155554	0	3	97	0	5	1.154771	0.8386378	-68.39397	
03:20:31	47.43813	-122.3112	0.02	0.05396082	2.265145	0	3	97	0	5	1.074943	0.600161	-44.66663	
03:20:33	47.43813	-122.3112	0.02	0.04239822	2.037454	0	3	98	0	5	0.9035888	0.5157028	-24.41466	
03:20:35	47.43813	-122.3112	0.02	0.04198923	2.257067	0	3	98	0	4	0.746859	0.5649056	-9.364398	
03:20:36	47.43813	-122.3112	0.02	0.04266476	2.308312	0	3	98	0	4	0.5824751	0.6460583	2.827816	
03:20:38	47.43813	-122.3112	0.02	0.04199112	2.071094	0	3	98	0	5	0.4287317	0.7273297	12.27157	
03:20:40	47.43813	-122.3112	0.02	0.0394016	1.798123	0	3	98	0	4	0.3028694	0.8245322	19.10564	
03:20:42	47.43813	-122.3112	0.02	0.03645984	1.542818	0	3	98	0	4	0.1810113	0.8707854	23.59526	
03:20:43	47.43813	-122.3112	0.02	0.03487734	1.366378	0	3	98	0	5	0.05707626	0.9039487	26.50834	
03:20:45	47.43813	-122.3112	0.02	0.03329689	1.23513	0	3	98	0	4	-0.03129496	0.9372228	28.62205	
03:20:47	47.43813	-122.3112	0.02	0.03243403	1.213587	0	3	98	0	4	-0.1247283	0.9165512	29.16678	
03:20:48	47.43813	-122.3112	0.02	0.03186503	1.144755	0	3	99	0	5	-0.2096448	0.8765494	28.59497	
03:20:50	47.43813	-122.3112	0.02	0.03048889	0.8085052	0	3	99	0	4	-0.2525111	0.8452297	28.07626	
03:20:52	47.43813	-122.3112	0.02	0.02814719	0.782433	0	3	99	0	5	-0.3025111	0.7893604	26.66276	
03:20:53	47.43813	-122.3112	0.02	0.02704889	0.7942807	0	3	99	0	4	-0.3244866	0.7151074	24.47395	
03:20:55	47.43813	-122.3112	0.02	0.02863575	0.917339	0	3	99	0	5	-0.3440917	0.6675988	22.8435	
03:20:57	47.43813	-122.3112	0.02	0.02818579	0.7402311	0	3	99	0	5	-0.3442929	0.6197712	20.81555	
03:20:59	47.43813	-122.3112	0.02	0.02602015	0.4106017	0	3	99	0	4	-0.3332637	0.5539399	18.22295	
03:21:00	47.43813	-122.3112	0.02	0.02508499	0.5376596	0	3	99	0	4	-0.3123636	0.5074636	16.34957	
03:21:02	47.43813	-122.3112	0.02	0.02534116	0.5453795	0	3	99	0	4	-0.2998777	0.4695397	14.35388	
03:21:04	47.43813	-122.3112	0.02	0.02566553	0.5810133	0	3	99	0	5	-0.2734532	0.4199753	12.10973	
03:21:05	47.43813	-122.3112	0.02	0.02510523	0.3615264	0	3	99	0	4	-0.245256	0.3916545	10.50816	
03:21:07	47.43813	-122.3112	0.02	0.02328631	0.32664	0	3	99	0	4	-0.2158586	0.3484577	8.884387	
03:21:09	47.43813	-122.3112	0.02	0.02350235	0.3560691	0	3	99	0	4	-0.18961	0.3040604	7.206619	
03:21:10	47.43813	-122.3112	0.02	0.02400619	0.4333635	0	3	99	0	5	-0.173594	0.271584	5.999517	
03:21:12	47.43813	-122.3112	0.02	0.02415004	0.3743031	0	3	99	0	5	-0.1496292	0.2541184	4.864743	
03:21:14	47.43813	-122.3112	0.02	0.02109765	0.01016973	0	3	99	0	5	-0.1188315	0.231947	3.717176	
03:21:15	47.43813	-122.3112	0.02	0.02101885	0.1988012	0	3	99	0	5	-0.1102203	0.2010173	2.896142	
03:21:17	47.43813	-122.3112	0.02	0.0225372	0.2843786	0	3	99	0	4	-0.08752478	0.183422	2.141935	
03:21:19	47.43813	-122.3112	0.02	0.02316394	0.3447943	0	3	99	0	5	-0.07441168	0.150688	1.436958	
03:21:21	47.43813	-122.3112	0.02	0.02337769	0.3352703	0	3	99	0	5	-0.06701308	0.1405811	0.9322551	
03:21:22	47.43813	-122.3112	0.02	0.02228953	0.110432	0	3	99	0	5	-0.05181898	0.1324638	0.4822634	
03:21:24	47.43813	-122.3112	0.02	0.0217164	0.1909054	0	3	99	0	4	-0.0385548	0.1173337	0.08342253	
03:21:26	47.43813	-122.3112	0.02	0.02198171	0.1267994	0	3	99	0	4	-0.03265878	0.1002802	-0.2008528	
03:21:27	47.43813	-122.3112	0.02	0.02168247	0.1825903	0	3	99	0	4	-0.02473886	0.08336554	-0.4407407	
03:21:29	47.43813	-122.3112	0.02	0.02197903	0.2111188	0	3	99	0	4	-0.02063378	0.07133218	-0.6410463	
03:21:31	47.43813	-122.3112	0.02	0.02205511	0.2016146	0	3	99	0	5	-0.01518122	0.06619657	-0.7833713	
03:21:32	47.43813	-122.3112	0.02	-0.0004363627	-7.29697	0	3	99	0	55	-0.2433488	0.8416259	-0.8903828	
03:21:34	47.43813	-122.3112	0.019	-0.1797925	-32.5135	0	3	99	0	58	-0.1197953	1.032634	-0.9752617	
03:21:36	47.43813	-122.3112	0.019	-0.3458243	-42.25702	0	3	99	0	59	-0.0855343	0.8248049	-1.080457	
03:21:37	47.43813	-122.3112	0.019	-0.3910392	-40.69657	0	3	99	0	58	0.01045155	0.550442	-1.341599	
03:21:39	47.43817	-122.3112	0.021	-0.2328908	-10.26871	5.38	5.486538	99	0	58	-0.6307376	0.6026969	-7.825175	
03:21:41	47.43829	-122.3112	0.024	0.02204498	8.420314	10.76	10.09848	99	0	58	0.8996592	0.7036934	-1.903947	
03:21:43	47.43852	-122.3112	0.031	0.05118557	5.229369	15.53	15.05968	99	0	59	0.7216527	0.5358192	1.234404	
03:21:44	47.4388	-122.3112	0.336	0.4121428	79.12662	18.5	18.37192	99	0	62	7.024667	3.658033	5.234952	
03:21:46	47.43906	-122.3111	1.724	1.817933	114.9958	20.06	20.17853	99	0	62	5.989615	4.190845	11.87187	
03:21:48	47.43935	-122.311	3.462	3.510093	101.1967	21.32	21.43016	99	0	62	3.145718	3.466033	15.20988	
03:21:49	47.4397	-122.3109	5.067	4.984552	80.80465	22.65	22.5898	99	0	62	1.361012	2.572321	16.39393	
03:21:51	47.43998	-122.3107	5.958	6.122531	64.81868	23.49	23.52713	99	0	64	0.5407526	2.029657	16.39523	
03:21:53	47.44038	-122.3105	6.845	6.946011	69.55518	24.89	24.78271	99	0	71	-0.09202424	1.926754	15.60624	
03:21:54	47.44078	-122.3104	7.774	7.771812	55.07028	25.89	25.81276	99	0	71	0.1007566	1.625964	14.77712	
03:21:56	47.44113	-122.3102	8.441	8.483656	43.98135	26.66	26.6619	99	0	74	0.008405233	1.397385	13.73791	
03:21:58	47.44153	-122.3101	9.128	9.12839	37.95775	27.51	27.37994	99	0	80	0.06016879	1.147702	12.43663	
03:22:00	47.44197	-122.3099	9.632	9.672038	32.00228	28.27	28.14986	99	0	83	-0.07693195	0.9374874	11.29416	
03:22:01	47.44241	-122.3097	10.057	10.05353	24.90476	28.97	28.8672	99	0	83	0.166456	0.7153468	9.899143	
03:22:03	47.44282	-122.3096	10.254	10.3354	17.50621	29.37	29.24115	99	0	83	-0.07160107	0.5210729	8.519046	
03:22:05	47.44326	-122.3095	10.479	10.52494	17.22795	29.72	29.57909	99	0	86	0.2757689	0.4685701	7.161097	
03:22:06	47.44368	-122.3094	10.649	10.65509	14.00089	30.07	29.99549	99	0	86	0.3048245	0.4069088	5.727223	
03:22:08	47.44384	-122.3094	10.675	10.75619	4.636514	30.15	30.05974	99	0	86	1.068446	0.103026	4.346148	
03:22:10	47.44459	-122.3092	10.719	10.75833	23.223	30.43	30.37829	99	0	86	-0.1934047	0.4083741	3.410908	
03:22:11	47.44507	-122.3092	11.175	11.09777	16.90599	30.42	30.33974	99	0	86	0.2115237	0.2636299	1.778054	
03:22:13	47.44555	-122.3091	11.547	11.56064	44.14224	31.06	30.85968	99	0	98	0.5349244	0.6272004	1.144464	
03:22:15	47.44598	-122.3091	12.371	12.24583	48.55449	31.78	31.70247	99	0	98	0.7123479	0.7149993	0.2133829	
03:22:16	47.44651	-122.3091	13.366	13.18371	49.05878	32.27	32.11327	99	0	98	0.5314453	0.5237484	-0.4970528	
03:22:18	47.44701	-122.3091	13.89	13.96804	40.72324	32.55	32.43819	99	0	98	0.7862182	0.204464	-1.116498	
03:22:20	47.44753	-122.3091	14.423	14.4833	58.52911	32.72	32.58364	99	0	98	0.776004	0.7144759	-1.611605	
03:22:22	47.44799	-122.3091	14.853	14.81644	21.49887	32.85	32.68955	99	0	98	0.6874457	0.1934334	-2.008697	
03:22:23	47.44849	-122.3091	15.146	15.15355	15.9526	32.89	32.74886	99	0	98	3.119323	0.04905572	-0.1658789	
03:22:25	47.44893	-122.3091	15.357	15.39365	14.77563	32.91	32.70852	99	0	98	2.178978	0.0834187	1.975697	
03:22:27	47.44935	-122.3091	15.425	15.5039	8.699801	32.92	32.70981	99	0	98	1.297885	0.1159275	2.644739	
03:22:28	47.45	-122.309	15.356	15.45478	-1.254252	32.93	32.72484	99	0	97	0.655255	0.04893473	4.67945	
03:22:30	47.45049	-122.309	17.604	17.38365	219.7222	32.31	32.29323	99	0	98	0.1948094	4.526289	6.174799	
03:22:32	47.45101	-122.3089	22.727	21.60768	312.4751	31.41	31.21827	99	0	98	3.206221	6.46662	6.781009	
03:22:33	47.45143	-122.3088	28.723	27.91425	446.1473	30.49	30.32313	99	0	98	-0.6115584	9.185735	6.590467	
03:22:35	47.4519	-122.3087	34.334	33.19466	-35.24475	30.65	30.23748	99	0	98	0.07025412	-0.780795	7.866722	
03:22:37	47.45234	-122.3086	34	34.32275	51.71777	31.77	31.58947	99	0	98	0.7202932	0.03776209	9.222831	
03:22:39	47.45284	-122.3085	34.95	35.12094	63.90453	29.3	29.12763	99	0	98	0.6230113	0.694282	1.406743	
03:22:40	47.45331	-122.3084	35.646	35.46424	29.07172	30.61	30.18204	99	0	98	2.166387	0.471984	8.281684	
03:22:42	47.45371	-122.3083	36.435	36.28294	41.24997	31.45	31.28885	99	0	98	1.441677	0.4432319	10.19693	
03:22:44	47.45421	-122.3082	37.429	37.27667	44.06506	30.81	30.01526	99	0	98	-7.217661	-0.3111635	-2.22087	
03:22:45	47.45432	-122.3082	37.645	37.88302	53.78246	30.46	29.02035	99	0	98	-5.855684	-0.3204197	-17.85836	
03:22:47	47.45505	-122.3083	39.2	39.28152	80.18626	29.4	27.3309	99	0	98	5.819856	0.6427214	-10.8191	
03:22:49	47.45557	-122.3084	40.437	40.42715	78.37209	31.03	29.58315	99	0	98	5.689593	0.008078489	-2.199929	
03:22:50	47.45599	-122.3084	41.639	41.67823	81.58351	29.12	27.52158	99	0	98	10.40236	-0.05412478	15.20795	
03:22:52	47.45647	-122.3083	43.496	43.08474	41.11982	29.47	27.60859	99	0	98	-2.244639	0.1191357	12.2114	
03:22:54	47.45685	-122.3082	44.12	44.17147	54.27038	30.71	29.67836	99	0	98	-1.13911	0.4012448	13.32682	
03:22:55	47.45736	-122.308	44.865	44.84405	43.61371	29.93	29.381	99	0	100	-10.72955	-0.625976	-3.93419	
03:22:57	47.45777	-122.3081	45.554	45.4879	25.50134	28.46	27.98979	99	0	100	-9.200153	-0.8834955	-21.86255	
03:22:59	47.45819	-122.3083	46.037	46.00097	37.23913	26.95	26.64384	99	0	100	-6.445396	-0.3754105	-37.68179	
03:23:01	47.45852	-122.3086	47.079	46.88444	42.91222	28.3	28.54587	99	0	98	8.992079	-0.05163227	-29.99114	
03:23:02	47.45892	-122.3089	48.528	48.26558	91.29288	30.37	30.2507	99	0	98	6.289761	0.5123376	-25.66616	
03:23:04	47.45938	-122.3093	50.185	50.00159	98.61502	31.57	31.35956	99	0	100	3.977072	0.3488088	-22.14929	
03:23:06	47.45943	-122.3093	50.371	50.91535	97.70407	31.67	31.57381	99	0	100	3.817176	0.581072	-19.16141	
03:23:07	47.45993	-122.3096	52.913	53.05816	124.8132	32.17	32.01667	99	0	100	0.3363616	1.122759	-17.37465	
03:23:09	47.45993	-122.3096	52.913	53.57457	44.44662	32.17	31.9668	99	0	98	-4.650776	0.7815765	-18.39398	
03:23:11	47.45993	-122.3096	52.913	52.98534	-28.47311	32.17	31.95183	99	0	100	-8.198451	0.3900537	-21.00099	
03:23:12	47.45993	-122.3096	52.913	52.51815	-57.70763	32.17	31.93456	99	0	98	-10.66485	-0.0121223	-23.65761	
03:23:14	47.45993	-122.3096	52.913	52.33342	-62.85521	32.17	31.89074	99	0	100	-12.27835	-0.3832475	-26.45604	
03:23:16	47.45993	-122.3096	52.913	52.30595	-59.93866	32.17	31.85544	99	0	98	-13.0121	-0.6810851	-29.82717	
03:23:17	47.45993	-122.3096	52.913	52.33574	-55.49707	32.17	31.842	99	0	98	-13.52126	-0.7812209	-32.53009	
03:23:19	47.45993	-122.3096	52.913	52.37399	-51.65866	32.17	31.81471	99	0	98	-13.77395	-0.7368262	-34.70642	
03:23:21	47.45993	-122.3096	52.913	52.42335	-45.37184	32.17	31.77838	99	0	100	-13.31075	-0.5504636	-37.00885	
03:23:23	47.45993	-122.3096	52.913	52.4934	-37.65143	32.17	31.79195	99	0	98	-12.9972	-0.2524621	-38.53287	
03:23:24	47.45993	-122.3096	52.913	52.56402	-31.04358	32.17	31.82525	99	0	98	-12.65738	0.08561815	-39.54954	
03:23:26	47.45993	-122.3096	52.913	52.63377	-23.68808	32.17	31.85171	99	0	98	-11.79203	0.523046	-40.32872	
03:23:28	47.45993	-122.3096	52.913	52.70679	-16.56309	32.17	31.86141	99	0	98	-11.1887	0.9228158	-40.58066	
03:23:29	47.45993	-122.3096	52.913	52.76853	-11.36343	32.17	31.86649	99	0	100	-10.68574	1.266338	-40.50854	
03:23:31	47.45993	-122.3096	52.913	52.81876	-6.518082	32.17	31.88361	99	0	100	-9.736218	1.642398	-40.11938	
03:23:33	47.45993	-122.3096	52.913	52.8666	-2.135234	32.17	31.8917	99	0	100	-9.065784	1.928402	-39.51721	
03:23:34	47.45993	-122.3096	52.913	52.90286	0.7047753	32.17	31.89414	99	0	98	-8.56409	2.136906	-38.81334	
03:23:36	47.45993	-122.3096	52.913	52.92952	3.091385	32.17	31.89229	99	0	100	-7.706095	2.33123	-37.83186	
03:23:38	47.45993	-122.3096	52.913	52.95208	5.070677	32.17	31.89076	99	0	98	-7.102736	2.454741	-36.86147	
03:23:39	47.45993	-122.3096	52.913	52.96811	6.172143	32.17	31.88467	99	0	100	-6.686118	2.524813	-35.96994	
03:23:41	47.45993	-122.3096	52.913	52.97713	6.874748	32.17	31.87606	99	0	100	-6.013099	2.563835	-34.90242	
03:23:43	47.45993	-122.3096	52.913	52.98407	7.429106	32.17	31.87309	99	0	100	-5.537105	2.572928	-33.93355	
03:23:45	47.45993	-122.3096	52.913	52.98761	7.53772	32.17	31.87262	99	0	98	-5.206741	2.561403	-33.10697	
03:23:46	47.45993	-122.3096	52.913	52.98786	7.467401	32.17	31.87355	99	0	100	-4.720728	2.521897	-32.22071	
03:23:48	47.45993	-122.3096	52.913	52.98694	7.300858	32.17	31.87414	99	0	98	-4.385606	2.480682	-31.45607	
03:23:50	47.45993	-122.3096	52.913	52.98456	6.963025	32.17	31.87208	99	0	100	-4.15324	2.439597	-30.82643	
03:23:51	47.45993	-122.3096	52.913	52.98074	6.546663	32.17	31.87277	99	0	100	-3.814965	2.380019	-30.20233	
03:23:53	47.45993	-122.3096	52.913	52.97689	6.159583	32.17	31.87686	99	0	100	-3.584828	2.331011	-29.67967	
03:23:55	47.45993	-122.3096	52.913	52.97276	5.724247	32.17	31.88122	99	0	100	-3.420295	2.28915	-29.25125	
03:23:56	47.45993	-122.3096	52.913	52.96839	5.290373	32.17	31.88452	99	0	100	-3.194026	2.2389	-28.87943	
03:23:58	47.45993	-122.3096	52.913	52.96405	4.856797	32.17	31.88576	99	0	100	-3.038	2.200419	-28.55925	
03:24:00	47.45993	-122.3096	52.913	52.95984	4.43287	32.17	31.88645	99	0	100	-2.93149	2.170678	-28.29682	
03:24:02	47.45993	-122.3096	52.913	52.95553	4.012375	32.17	31.88873	99	0	100	-2.776724	2.136921	-28.10958	
03:24:03	47.45993	-122.3096	52.913	52.9516	3.644809	32.17	31.8912	99	0	98	-2.66952	2.112499	-27.9393	
03:24:05	47.45993	-122.3096	52.913	52.94804	3.30234	32.17	31.89285	99	0	100	-2.59563	2.094575	-27.78705	
03:24:07	47.45993	-122.3096	52.913	52.94466	2.97974	32.17	31.89422	99	0	100	-2.493557	2.076639	-27.71437	
03:24:08	47.45993	-122.3096	52.913	52.94162	2.694323	32.17	31.89464	99	0	98	-2.418993	2.064117	-27.63548	
03:24:10	47.45993	-122.3096	52.913	52.93886	2.432187	32.17	31.895	99	0	100	-2.367815	2.055189	-27.56353	
03:24:12	47.45993	-122.3096	52.913	52.93634	2.195369	32.17	31.8958	99	0	98	-2.298908	2.048135	-27.55412	
03:24:13	47.45993	-122.3096	52.913	52.93411	1.982056	32.17	31.89633	99	0	100	-2.249484	2.043841	-27.53095	
03:24:15	47.45993	-122.3096	52.913	52.93195	1.774227	32.17	31.89662	99	0	100	-2.214748	2.041164	-27.49882	
03:24:17	47.46035	-122.3098	43.481	43.2891	-955.8207	33.04	30.50992	99	0	100	69.44292	-15.51885	4.833416	
03:24:18	47.46062	-122.3094	37.268	37.403	-25.01678	33.79	31.61961	99	0	100	58.52346	-3.544616	97.58002	
03:24:20	47.46041	-122.3085	39.742	38.3802	-140.5496	32.8	32.55524	99	0	100	47.80274	-4.757233	119.3667	
03:24:22	47.46008	-122.308	39.352	38.86967	-38.97293	32.87	33.97184	99	0	98	10.45537	-3.567762	134.3396	
03:24:24	47.45974	-122.3076	38.735	38.54429	-28.92065	33.11	34.38432	99	0	98	39.19184	-1.998859	144.6406	
03:24:25	47.45926	-122.3073	39.315	38.98522	92.67162	33.11	34.75706	99	0	98	13.41291	2.027243	166.0442	
03:24:27	47.45879	-122.3072	40.253	40.27545	202.5292	33.1	34.75858	99	0	98	2.185783	2.970042	160.9784	
03:24:29	47.45825	-122.3071	40.12	40.71486	20.16615	33.18	33.68065	99	0	100	1.297255	-0.6049376	153.6147	
03:24:30	47.45776	-122.3069	38.499	39.67109	12.23717	33.6	34.03965	99	0	98	0.8288674	-0.7890371	145.9237	
03:24:32	47.4573	-122.3067	36.798	37.95577	8.94449	33.82	34.36694	99	0	100	0.1020855	-0.5039297	139.3232	
03:24:34	47.45685	-122.3065	35.466	36.50918	106.3189	33.87	33.89572	99	0	100	43.91653	2.9371	142.9461	
03:24:35	47.45631	-122.3063	40.306	38.41927	12.82042	32.64	29.84353	99	0	100	44.18919	5.504726	164.012	
03:24:37	47.45585	-122.3065	45.342	42.54922	-65.37824	32.2	28.59473	99	0	98	2.561753	3.28656	175.0995	
03:24:39	47.45536	-122.3067	44.471	43.87267	-59.80671	33.16	29.68796	99	0	100	-0.3256076	-0.7482503	167.6171	
03:24:40	47.45486	-122.3069	41.479	43.04958	68.85194	34.05	30.16457	99	0	98	-0.5320535	-0.8891092	160.5954	
03:24:42	47.45439	-122.307	39.943	41.61953	104.9758	34.24	31.29	99	0	100	-0.6754738	-0.5650733	154.9188	
03:24:44	47.45384	-122.3071	39.482	40.75584	102.8586	34.11	32.16575	99	0	100	-0.5580006	-0.5080559	150.4793	
03:24:46	47.45356	-122.3071	39.538	40.61587	110.1958	33.99	32.48095	99	0	100	-1.009435	-0.3963569	146.6057	
03:24:47	47.45343	-122.3071	39.634	40.65303	97.0043	33.92	32.61281	99	0	98	-1.356754	-0.4348001	141.6688	
03:24:49	47.45224	-122.3069	41.342	41.75416	175.3675	33.39	33.47889	99	0	98	-0.3348714	-0.2156907	142.4575	
03:24:51	47.45178	-122.3068	43.176	43.61892	164.8951	33.12	33.34988	99	0	100	-0.08228593	-0.1616372	143.6937	
03:24:52	47.45134	-122.3066	45.223	45.68584	168.6942	32.96	33.25183	99	0	100	-0.404709	0.06532567	144.9582	
03:24:54	47.45077	-122.3064	47.839	47.93217	174.9299	32.79	33.17036	99	0	100	-0.1967957	-0.02594949	146.4038	
03:24:56	47.45033	-122.3062	50.08	50.274	177.2549	32.66	32.96881	99	0	98	-0.2392753	0.1189973	147.4574	
03:24:57	47.44982	-122.306	53.007	52.88259	170.7485	32.57	32.82462	99	0	100	-0.3139222	0.0874797	148.257	
03:24:59	47.44939	-122.3058	55.43	55.62606	179.8908	32.56	32.91137	99	0	100	-0.2642438	0.2315378	149.4262	
03:25:01	47.44891	-122.3055	58.114	58.19215	186.1077	32.55	32.83362	99	0	100	-0.1321264	0.4846479	150.1291	
03:25:03	47.44855	-122.3053	60.041	60.58939	173.3919	32.58	32.66333	99	0	98	0.03412795	0.5041243	150.9292	
03:25:04	47.44851	-122.3053	60.284	61.32318	167.898	32.59	32.64839	99	0	100	0.1516339	1.561212	150.7122	
03:25:06	47.44752	-122.3047	63.161	61.93479	15.48417	33.03	32.95285	99	0	100	-2.008407	-1.708543	150.8718	
03:25:08	47.44714	-122.3045	62.382	63.7268	156.9981	33.53	33.367	99	0	100	0.9818524	-0.02565139	154.3135	
03:25:09	47.44657	-122.3041	62.814	63.55265	74.42135	33.58	33.28892	99	0	100	1.00297	-0.03239476	156.8071	
03:25:11	47.44608	-122.3039	63.743	63.66511	45.42805	33.49	33.12593	99	0	98	0.2354861	0.007422234	159.2364	
03:25:13	47.44564	-122.3037	64.885	64.64841	64.98786	33.26	32.85307	99	0	98	0.383621	0.1543561	160.7104	
03:25:14	47.44514	-122.3034	66.653	66.23421	86.25755	33.06	32.69994	99	0	98	0.0406793	0.1864453	161.9034	
03:25:16	47.44469	-122.3032	68.3	68.11942	65.84631	32.89	32.51379	99	0	98	27.55652	-0.5133133	165.7786	
03:25:18	47.44419	-122.3031	70.492	70.26179	95.58932	32.74	31.80203	99	0	100	-10.13521	0.04904707	170.1745	
03:25:19	47.44368	-122.3029	72.103	72.04988	213.6412	32.83	32.31003	99	0	100	-3.65841	1.684809	154.736	
03:25:21	47.44329	-122.3026	73.881	73.99168	95.60912	32.83	31.77069	100	0	98	32.06487	-0.5260503	156.5571	
03:25:23	47.44329	-122.3026	73.881	72.71993	-473.8878	32.83	31.77069	100	0	98	114.0987	-9.993164	162.4684	
03:25:25	47.44262	-122.3024	68.968	63.93492	-1994.206	33.19	31.73695	100	0	89	-178.2115	-40.75903	149.1724	
03:25:26	47.44191	-122.3024	15.273	34.64409	276.9736	9.82	13.52558	100	0	99	-16.38202	48.34762	-145.5774	
03:25:28	47.44215	-122.3025	24.553	-14.70655	-3533.116	18.72	18.68518	100	0	99	-169.815	35.49139	33.94881	
03:25:30	47.44244	-122.3027	40.684	-0.157212	-2342.69	18.44	17.7563	100	0	98	-136.5031	40.29193	26.56239	
03:25:31	47.44264	-122.3029	37.579	23.61121	-1001.416	19.25	17.24326	100	0	99	-6.066488	79.56307	139.5381	
03:25:33	47.44277	-122.3033	8.605	10.04724	-2473.797	15.16	11.64436	100	0	99	-145.047	37.97866	159.4294	
03:25:35	47.44256	-122.3035	20.674	-34.6535	-4628.297	17.41	17.83437	100	0	99	-116.5512	-14.7288	177.8516	
03:25:36	47.4423	-122.3036	37.215	-3.477457	-1342.452	17.39	17.60243	100	0	99	-93.0844	-18.68391	172.8081	
03:25:38	47.44205	-122.3037	50.007	36.78836	709.6176	18.36	18.81584	100	0	99	-93.10367	-6.434807	172.5488	
03:25:40	47.44177	-122.3039	62.982	62.99826	1375.125	18.53	18.74159	100	0	99	-72.68862	2.931338	164.0834	
03:25:41	47.44151	-122.3039	81.42	85.70644	1848.494	16.97	16.72923	100	0	99	-46.47104	17.03209	175.7992	
03:25:43	47.44129	-122.3041	99.282	109.1527	2194.76	15.07	11.69714	100	0	99	10.5672	19.14792	-162.1011	
03:25:45	47.44102	-122.3042	101.849	117.4699	1770.966	22.53	18.28155	100	0	99	-0.1868631	5.114507	-132.1781	
03:25:46	47.44068	-122.3045	100.696	119.3229	1974.072	27.43	22.11974	100	0	99	-3.792484	12.03131	-118.9866	
03:25:48	47.44033	-122.3049	103.767	119.5272	1752.254	28.8	23.29109	100	0	99	-0.6254034	13.4227	-119.1	
03:25:50	47.43998	-122.3052	113.731	125.2574	1677.552	26.16	21.10995	100	0	99	1.184794	16.37568	-115.365	
03:25:52	47.43966	-122.3056	128.296	137.3383	1809.706	24.57	21.21727	100	0	100	0.1465135	20.41932	-120.514	
03:25:53	47.43938	-122.3059	142.315	151.0603	1765.161	23.86	21.73365	100	0	98	-0.3795158	20.90587	-126.8536	
03:25:55	47.43907	-122.3062	158.32	165.419	1697.189	23.13	19.64598	100	0	100	-0.9127299	20.82895	-136.1376	
03:25:57	47.43878	-122.3065	173.16	180.3175	1658.146	22.57	18.65294	100	0	100	1.148974	21.46247	-144.5998	
03:25:58	47.43862	-122.3066	181.239	192.6951	1462.612	22.39	18.19356	100	0	100	3.085364	21.36298	-150.9448	
03:26:00	47.43862	-122.3066	181.239	193.5754	1321.649	22.39	18.19356	100	0	100	6.284482	21.52816	-153.2516	
03:26:02	47.43785	-122.3071	217.201	211.4933	1542.938	22.89	17.54083	100	0	100	0.1985589	14.96681	-164.3006	
03:26:03	47.43749	-122.3073	221.533	229.3417	1051.249	27.06	20.15101	100	0	100	-0.1170722	0.07028435	-178.8559	
03:26:05	47.43708	-122.3074	218.248	228.2773	714.7393	30.68	23.53632	100	0	98	-0.7873527	-0.6986311	167.3363	
03:26:07	47.43655	-122.3076	217.575	223.9435	558.4399	32.28	25.7796	100	0	100	28.72298	4.192584	175.9992	
03:26:09	47.43612	-122.3078	220.549	222.8084	195.1713	32.31	28.09097	100	0	100	-12.27429	-0.558484	172.5928	
03:26:10	47.43561	-122.3079	219.262	223.6803	592.47	33.34	32.04464	100	0	100	-3.635692	-0.2974739	147.6654	
03:26:12	47.43514	-122.3078	221.654	226.6205	856.0001	32.53	32.6336	100	0	100	43.20595	6.494867	154.4568	
03:26:14	47.43465	-122.3078	233.454	232.9817	514.6712	30.59	26.52991	100	0	100	11.38814	5.059833	171.2822	
03:26:15	47.43421	-122.3079	238.303	238.5714	336.5024	31.32	27.97504	100	0	100	-33.83026	-0.4587369	153.9431	
03:26:17	47.43371	-122.3078	240.603	243.8559	578.7198	31.94	30.91081	100	0	98	23.00961	-0.6758841	145.7759	
03:26:19	47.43348	-122.3077	242.461	246.9793	516.1628	31.92	30.20927	100	0	98	45.18703	3.086274	168.677	
03:26:20	47.43348	-122.3077	242.461	247.5518	470.2498	31.92	30.20927	100	0	98	52.01353	6.566661	-164.2776	
03:26:22	47.4325	-122.3084	261.869	255.5083	555.2779	30.39	23.99833	100	0	98	0.3174404	5.687694	-144.6524	
03:26:24	47.43225	-122.309	261.548	264.2108	411.2662	31.92	26.09562	100	0	100	-8.655048	-2.084717	-156.09	
03:26:25	47.43189	-122.3096	260.73	264.9	418.7812	33.4	28.84689	100	0	100	-7.136687	-1.86765	-166.8912	
03:26:27	47.43151	-122.31	260.26	264.1811	390.7717	33.89	31.49505	100	0	100	-47.00893	-1.52512	163.1066	
03:26:29	47.431	-122.31	257.245	263.0637	369.4691	34.46	35.91089	100	0	100	-44.38432	-2.461679	127.6251	
03:26:31	47.43055	-122.3095	253.361	259.0615	239.006	34.77	38.75941	100	0	100	-2.099204	-1.503849	116.816	
03:26:32	47.43015	-122.309	249.953	253.0224	-115.1233	34.29	37.0263	100	0	100	38.81608	-1.611961	120.5327	
03:26:34	47.42974	-122.3086	252.211	250.0602	-142.8024	33.67	32.08965	100	0	100	43.17441	2.010821	147.1211	
03:26:36	47.42921	-122.3086	259.791	254.8304	13.90043	32.87	29.48112	100	0	98	43.8067	2.601207	171.1771	
03:26:37	47.42872	-122.3088	267.276	263.6353	279.8814	32.65	27.93063	100	0	100	21.09673	3.846451	-164.7848	
03:26:39	47.4284	-122.3091	272.392	270.8605	179.3348	32.7	28.0601	100	0	100	0.2353594	-1.318681	-163.5495	
03:26:41	47.42789	-122.3096	272.692	274.8211	263.916	33.14	29.98295	100	0	98	-0.3999684	-0.3492458	-163.9037	
03:26:42	47.4277	-122.3098	272.483	274.4851	158.7194	33.17	30.72777	100	0	98	-0.1706651	0.5631071	-164.0575	
03:26:44	47.42705	-122.3103	271.789	272.9781	-7.368388	33.29	31.69242	100	0	98	-0.1736742	-0.2646224	-163.9658	
03:26:46	47.4266	-122.3107	270.582	271.069	-43.97054	33.47	32.37976	100	0	98	-0.07333148	-0.09767415	-162.9488	
03:26:47	47.42615	-122.3111	269.769	269.8748	-43.17054	33.48	32.67172	100	0	100	0.1356947	-0.0394839	-161.7787	
03:26:49	47.4257	-122.3115	265.632	267.8227	-98.91461	33.43	32.62058	100	0	98	-0.1375181	0.0760797	-160.4798	
03:26:51	47.42525	-122.3119	260.524	262.084	-261.2411	33.31	32.56359	100	0	98	-0.05697547	-0.02707416	-158.9265	
03:26:53	47.4248	-122.3123	255.415	256.2028	-312.2445	33.35	32.65239	100	0	100	0.2049235	0.1557474	-157.3275	
03:26:54	47.42439	-122.3127	251.679	251.2638	-308.0396	33.35	32.68052	100	0	100	-0.02067643	0.1420759	-155.8901	
03:26:56	47.42397	-122.313	248.465	247.9455	-240.4278	33.28	32.63422	100	0	100	0.1573119	0.1568074	-153.9508	
03:26:58	47.42353	-122.3135	245.294	245.3458	-182.0737	33.3	32.64233	100	0	100	0.2679092	0.3374447	-152.2236	
03:26:59	47.4231	-122.3139	243.994	242.7675	-171.3802	33.26	32.56158	100	0	100	0.1347726	0.1177531	-150.5711	
03:27:01	47.42273	-122.3142	245.943	242.9263	-51.8166	33.22	32.49212	100	0	98	0.1707593	0.2637598	-148.8634	
03:27:03	47.42229	-122.3147	248.824	246.581	129.1689	33.08	32.34062	100	0	100	0.5980738	0.4945527	-147.2632	
03:27:04	47.42186	-122.3151	253.855	252.6319	281.6443	32.96	32.2624	100	0	100	0.3536571	0.3571218	-145.2618	
03:27:06	47.42148	-122.3156	258.114	258.1406	328.1609	32.93	32.2692	100	0	98	0.3599128	0.2956727	-142.9533	
03:27:08	47.4211	-122.3161	261.201	262.0987	312.7992	33.16	31.76941	100	0	100	45.17144	0.7450637	-121.5112	
03:27:10	47.42094	-122.3168	263.375	264.7217	242.7621	32.93	31.42999	100	0	100	44.83146	1.377859	-91.94606	
03:27:11	47.42101	-122.3175	267.331	267.2628	162.3695	32.67	31.64917	100	0	98	0.2004395	0.6618858	-72.76241	
03:27:13	47.42112	-122.3181	268.029	268.0925	57.7215	32.99	32.01587	100	0	98	-44.44783	0.3965633	-91.11208	
03:27:15	47.42102	-122.3189	270.03	269.6123	131.4167	33.25	32.11385	100	0	98	-45.12993	0.9040173	-119.8566	
03:27:16	47.42073	-122.3194	272.889	272.8383	193.1322	33.45	32.95701	100	0	98	-44.86052	0.6029394	-146.8969	
03:27:18	47.4202	-122.3198	276.227	276.4058	282.955	33.54	33.91928	100	0	100	-23.77902	1.30074	-172.5713	
03:27:20	47.41973	-122.3198	279.155	279.3221	165.9864	33.42	33.83119	100	0	98	0.2876052	-0.9083816	-174.0767	
03:27:21	47.41919	-122.3199	281.86	281.812	186.3916	33.47	33.42757	100	0	98	0.2817234	-0.518828	-172.8768	
03:27:23	47.41869	-122.3201	283.428	284.4204	179.5321	33.59	33.27595	100	0	98	45.18343	-0.4835861	-153.9307	
03:27:25	47.4183	-122.3205	282.081	284.6879	66.70953	33.27	32.93528	100	0	98	0.8967415	-0.3221132	-136.9353	
03:27:26	47.4179	-122.321	278.685	280.3487	-142.8488	33.17	32.79141	100	0	98	-1.549361	-0.2383199	-136.2225	
03:27:28	47.41758	-122.3214	275.621	275.6206	-323.5736	33.26	32.72785	100	0	100	-46.20849	-2.906379	-156.7757	
03:27:30	47.41705	-122.3216	270.482	273.1609	-162.4441	34.12	32.86532	100	0	98	-47.90918	-1.820857	162.7023	
03:27:32	47.41652	-122.3213	263.402	266.6726	-121.9615	35.73	34.44835	100	0	98	-1.568959	-2.5301	136.9007	
03:27:33	47.41609	-122.321	261.311	261.9346	-66.26553	36.37	35.43391	100	0	100	1.437279	-1.405806	135.75	
03:27:35	47.41569	-122.3206	264.847	262.9221	68.38395	33.5	32.32363	100	0	100	10.71629	-1.471254	149.7641	
03:27:37	47.41517	-122.3203	273.124	269.9226	203.223	28.91	28.17641	100	0	100	6.884572	-0.5956789	165.3108	
03:27:38	47.41478	-122.3203	278.225	277.1374	285.8549	30	28.69661	100	0	98	-7.119427	-0.3886302	155.2586	
03:27:40	47.41433	-122.3201	281.618	282.9897	355.6582	31.78	31.04687	100	0	98	-4.195305	-0.3543654	154.9222	
03:27:42	47.41379	-122.3199	285.059	285.7437	247.0771	32.56	31.97756	100	0	98	-2.604607	-0.06980291	156.3578	
03:27:43	47.41338	-122.3198	288.695	288.8755	298.4152	30.22	30.76469	100	0	98	-1.470421	3.127868	153.6634	
03:27:45	47.41305	-122.3195	292.544	292.5178	159.9849	30.67	30.94328	100	0	98	0.8943403	0.2780003	151.04	
03:27:47	47.41249	-122.3193	297.639	296.2536	91.41743	27.65	28.87106	100	0	77	24.56308	-3.422696	171.3774	
03:27:48	47.4121	-122.3192	300.381	298.9081	23.58268	23.85	22.96837	100	0	11	-7.0144	0.1088557	171.9646	
03:27:50	47.41177	-122.3192	299.603	299.2541	-45.52018	21.19	20.45282	100	0	10	0.7389194	-3.091509	158.9309	
03:27:52	47.41146	-122.3191	300.709	300.6173	124.0366	17.6	18.10853	100	0	10	-9.031141	2.712503	147.9768	
03:27:54	47.41122	-122.319	302.5	302.0472	-39.27769	14.46	14.55337	100	0	11	24.1225	-4.515444	169.1564	
03:27:55	47.41102	-122.319	297.982	298.455	-428.3974	14.74	12.76963	100	0	30	19.42589	-14.76095	-178.9017	
03:27:57	47.41078	-122.3192	287.186	288.9033	-492.3591	19.18	16.16659	100	0	80	0.8711807	-14.08484	-165.227	
03:27:59	47.41046	-122.3193	283.586	284.2761	310.4916	22.67	21.72526	100	0	89	-6.964316	12.10856	-160.9461	
03:28:00	47.4102	-122.3195	295.99	293.6833	262.8487	18.4	13.90365	100	0	99	26.91943	11.37965	-153.112	
03:28:02	47.40989	-122.3197	290.394	291.6855	-63.40632	25.51	20.7661	100	0	98	-26.19506	3.527727	-148.6531	
03:28:04	47.40955	-122.3199	287.158	286.4359	-588.1072	28.36	25.31134	100	0	98	-7.538736	-10.51374	-169.2335	
03:28:05	47.40916	-122.3201	276.665	276.1815	-692.8788	28.76	25.58508	100	0	99	2.944623	-11.69957	-152.2034	
03:28:07	47.4087	-122.3202	261.996	262.8156	-758.1506	30.98	27.60151	100	0	97	9.919315	-14.41619	-147.5655	
03:28:09	47.40823	-122.3205	248.859	251.0661	-175.2004	33.86	31.18622	100	0	97	36.08779	-0.9392653	-129.6506	
03:28:10	47.40802	-122.321	253.323	255.3681	732.2394	31.54	32.10808	100	0	97	31.68107	14.83618	-80.04572	
03:28:12	47.40807	-122.3217	269.143	266.3155	358.0725	28.2	29.26418	100	0	100	-18.74531	4.116807	-91.02769	
03:28:14	47.40804	-122.3224	277.707	274.909	412.1273	25.2	25.45286	100	0	98	-10.426	4.022853	-112.7832	
03:28:15	47.40793	-122.3229	282.401	281.9145	309.5157	24.08	23.69954	100	0	94	-6.549188	1.913741	-127.7246	
03:28:17	47.4077	-122.3233	285.915	286.2388	220.5026	23.4	22.80953	100	0	92	-4.042066	1.170844	-142.827	
03:28:19	47.40742	-122.3237	287.673	287.9667	111.098	23.41	22.56207	100	0	95	-2.524185	0.953331	-156.5489	
03:28:21	47.40709	-122.3239	288.542	288.6296	31.28562	23.56	22.56285	100	0	95	-1.284633	0.775595	-168.9475	
03:28:22	47.40676	-122.324	288.639	288.6537	5.745727	24.09	22.70166	100	0	95	11.55305	0.3786733	-157.1995	
03:28:24	47.40641	-122.3242	289.606	289.2838	69.76911	26.69	25.52772	100	0	88	12.54336	1.204616	-148.164	
03:28:26	47.40607	-122.3245	292.306	291.8008	128.0685	23.97	23.16899	100	0	64	21.31877	-3.470045	-110.41	
03:28:27	47.40589	-122.3249	295.179	295.2347	194.0301	22.98	22.54276	100	0	98	-14.49075	-1.272065	-130.4088	
03:28:29	47.4056	-122.3253	300.094	298.7147	198.998	23.29	21.77296	100	0	98	-13.16308	-0.1156397	-155.4127	
03:28:31	47.4053	-122.3255	303.898	303.144	185.8224	23.2	21.34846	100	0	98	-8.294065	0.2546749	-175.5664	
03:28:32	47.40494	-122.3256	307.234	307.0582	201.8159	24.96	22.85141	100	0	98	10.50694	1.188686	-165.7817	
03:28:34	47.40457	-122.3257	310.606	310.275	204.0255	27.82	26.40259	100	0	98	8.340785	1.260022	-158.0048	
03:28:36	47.40429	-122.3259	313.46	314.1327	215.5609	29.23	28.64472	100	0	98	5.642355	1.253884	-150.6904	
03:28:37	47.40429	-122.3259	313.46	314.7606	97.13431	29.23	28.64472	100	0	98	1.63987	3.113224	-142.8584	
03:28:39	47.40429	-122.3259	313.46	313.9665	6.06366	29.23	28.53567	100	0	98	-0.9991114	4.943234	-134.7751	
03:28:41	47.40429	-122.3259	313.46	313.4349	-20.25007	29.23	27.17792	100	0	100	-2.67737	6.443495	-127.193	
