Date	Latitude(deg) 	Longitude(deg)	hamsl(m)	hafl(m)	climbrate(cm/s)	GroundSpeed(m/s)	Airspeed(m/s)	Mav_Link(%)	Rssi_Link(%)	Throttle	Roll(deg)	Pitch(deg)	Yaw(deg)
00:26:37	0	0	0	0.5211655	-16.81492	0	3	50	0	50	1.099614	0.900578	15.6278	
00:26:38	0	0	0	1.00405	-6.831509	0	3	60	0	50	1.077851	0.839664	15.60957	
00:26:40	0	0	0	0.5549743	-29.43344	0	3	67	0	50	1.06236	0.8238505	15.60521	
00:26:42	0	0	0	0.5295156	-21.24035	0	3	72	0	50	1.085714	0.842654	15.60943	
00:26:43	0	0	0	0.5983849	-12.88592	0	3	76	0	50	1.094246	0.8318442	15.58892	
00:26:45	0	0	0	0.8760356	-2.362727	0	3	79	0	50	1.108256	0.7182018	15.59478	
00:26:47	0	0	0	1.260673	8.708017	0	3	81	0	50	1.10066	0.6341981	15.58403	
00:26:48	0	0	0	1.296198	-1.913741	0	3	84	0	50	1.08845	0.6742467	15.58719	
00:26:50	0	0	0	1.153788	-10.16171	0	3	85	0	50	1.050356	0.6903859	15.60608	
00:26:52	0	0	0	1.126053	-10.27471	0	3	87	0	50	1.070425	0.6956227	15.61238	
00:26:53	0	0	0	0.8060476	-19.72583	0	3	88	0	50	1.025043	0.7623314	15.62145	
00:26:55	0	0	0	0.8644672	-10.16931	0	3	89	0	50	1.053054	0.7982242	15.63592	
00:26:57	47.46363	-122.3078	0.02	0.08428314	-29.49946	0	3	90	0	50	0.933947	0.461522	20.1492	
00:26:59	47.46363	-122.3078	0.02	-0.1393808	-13.57948	0	3	91	0	50	0.7194286	0.1254435	25.75426	
00:27:00	47.46363	-122.3078	0.02	-0.0163423	4.745731	0	3	92	0	50	0.5575666	-0.107128	34.41075	
00:27:02	47.46363	-122.3078	0.02	0.09227972	11.12113	0	3	93	0	50	0.3878532	-0.2759247	46.48519	
00:27:04	47.46363	-122.3078	0.02	0.1232122	10.51093	0	3	93	0	50	0.1906344	-0.3838108	63.28543	
00:27:05	47.46363	-122.3078	0.02	0.1126309	7.615422	0	3	94	0	50	-0.1012264	-0.320775	82.87399	
00:27:07	47.46363	-122.3078	0.02	-0.09580425	-34.17399	0	3	94	0	50	0.1528945	1.132507	105.2431	
00:27:09	47.46363	-122.3078	0.02	-0.4585953	-62.68126	0	3	95	0	50	0.4304307	0.6553208	128.852	
00:27:10	47.46363	-122.3078	0.02	-0.590537	-62.53735	0	3	95	0	50	0.4269277	0.2332817	148.4862	
00:27:12	47.46363	-122.3078	0.02	-0.5558667	-53.36601	0	3	96	0	50	0.311734	-0.05647763	164.7637	
00:27:14	47.46363	-122.3078	0.02	-0.4747956	-45.03663	0	3	96	0	50	0.1637592	-0.2244279	178.9761	
00:27:15	47.46363	-122.3078	0.02	-0.4133192	-40.07685	0	3	96	0	50	0.04476002	-0.375419	-170.6128	
00:27:17	47.46363	-122.3078	0.02	-0.3653682	-36.28101	0	3	96	0	50	-0.04101044	-0.4184774	-162.9485	
00:27:19	47.46363	-122.3078	0.02	-0.3267232	-32.39324	0	3	97	0	50	-0.1013929	-0.4193898	-157.0833	
00:27:20	47.46363	-122.3078	0.019	-0.2929103	-29.48147	0	3	97	0	50	-0.1317563	-0.2958142	-152.784	
00:27:22	47.46363	-122.3078	0.02	-0.2648484	-26.67783	0	3	97	0	50	-0.1364324	-0.2776377	-149.9032	
00:27:24	47.46363	-122.3078	0.02	-0.2350894	-23.80512	0	3	97	0	50	-0.1287182	-0.2895586	-148.8389	
00:27:26	47.46363	-122.3078	0.02	-0.2075506	-21.26028	0	3	97	0	50	-0.121166	-0.3454804	-148.1035	
00:27:27	47.46363	-122.3078	0.02	-0.1819925	-18.77106	0	3	98	0	50	-0.1137143	-0.2857948	-147.9293	
00:27:29	47.46363	-122.3078	0.019	-0.1601688	-16.98578	0	3	98	0	50	-0.0967994	-0.2853543	-149.3447	
00:27:31	47.46363	-122.3078	0.02	-0.1454682	-15.61924	0	3	98	0	50	-0.09738822	-0.2125984	-147.1407	
00:27:32	47.46363	-122.3078	0.02	-0.1418886	-15.25693	0	3	98	0	50	-0.09789427	-0.1012965	-143.0191	
00:27:34	47.46363	-122.3078	0.02	-0.1251502	-13.5577	0	3	98	0	50	-0.08806244	-0.1447502	-144.8071	
00:27:36	47.46363	-122.3078	0.02	-0.1131787	-12.5504	0	3	98	0	50	-0.07771338	-0.1920573	-143.6388	
00:27:37	47.46363	-122.3078	0.019	-0.1053681	-11.83103	0	3	98	0	50	-0.06885119	-0.2311744	-141.847	
00:27:39	47.46363	-122.3078	0.02	-0.09256712	-10.52211	0	3	98	0	50	-0.03750637	-0.2474829	-146.4844	
00:27:41	47.46363	-122.3078	0.02	-0.08183476	-9.417727	0	3	99	0	50	-0.01284797	-0.2454875	-151.4411	
00:27:42	47.46363	-122.3078	0.02	-0.07121824	-8.619689	0	3	99	0	50	-0.008177657	-0.2776284	-153.3175	
00:27:44	47.46363	-122.3078	0.02	-0.06140897	-7.503563	0	3	99	0	50	0.008621526	-0.248898	-158.4059	
00:27:46	47.46363	-122.3078	0.02	-0.05123035	-6.594729	0	3	99	0	50	0.01747324	-0.1831279	-162.1874	
00:27:47	47.46363	-122.3078	0.02	-0.04164331	-5.645642	0	3	99	0	50	0.0162512	-0.1398912	-165.155	
00:27:49	47.46363	-122.3078	0.02	-0.03485802	-5.254484	0	3	99	0	50	0.0158846	-0.1559525	-168.2475	
00:27:51	47.46363	-122.3078	0.02	-0.03249208	-5.100691	0	3	99	0	50	0.009806505	-0.1268521	-170.6346	
00:27:52	47.46363	-122.3078	0.02	-0.02893691	-4.642523	0	3	99	0	50	0.005776225	-0.1380914	-172.3597	
00:27:54	47.46363	-122.3078	0.02	-0.02307742	-4.036695	0	3	99	0	50	0.002551229	-0.1344487	-173.9688	
00:27:56	47.46363	-122.3078	0.02	-0.02008463	-3.913745	0	3	99	0	50	-0.002461162	-0.1008288	-175.1998	
00:27:58	47.46363	-122.3078	0.019	-0.01668618	-3.380953	0	3	99	0	50	-0.007457442	-0.07755008	-176.0876	
00:27:59	47.46363	-122.3078	0.02	-0.01144566	-2.871011	0	3	99	0	50	-0.007634518	-0.09688247	-176.7758	
00:28:01	47.46363	-122.3078	0.02	-0.007908847	-2.667855	0	3	99	0	50	-0.01131849	-0.06965269	-177.2826	
00:28:03	47.46363	-122.3078	0.02	-0.005649582	-2.344882	0	3	99	0	50	-0.01041612	-0.08032757	-177.6441	
00:28:04	47.46363	-122.3078	0.02	-0.003792217	-2.264058	0	3	99	0	50	-0.01078677	-0.07953603	-177.9986	
00:28:06	47.46363	-122.3078	0.02	-0.005457675	-2.522292	0	3	99	0	50	-0.01305973	-0.0608229	-178.0291	
00:28:08	47.46363	-122.3078	0.02	-0.006987557	-2.668964	0	3	99	0	50	-0.01580835	-0.08631183	-178.0573	
00:28:09	47.46363	-122.3078	0.02	-0.002679985	-1.989074	0	3	99	0	50	-0.01502025	-0.04185665	-177.9397	
00:28:11	47.46363	-122.3078	0.02	-0.0007028057	-2.087145	0	3	99	0	50	-0.01508534	-0.0518966	-177.8003	
00:28:13	47.46363	-122.3078	0.019	-0.0002102258	-2.139279	0	3	99	0	50	-0.01638474	0.02165067	-177.6967	
00:28:14	47.46363	-122.3078	0.019	0.0005997795	-1.754349	0	3	99	0	50	-0.01389639	-0.04901301	-177.5053	
00:28:16	47.46363	-122.3078	0.02	0.005356979	-1.158657	0	3	99	0	50	-0.01330029	-0.08420387	-177.3084	
00:28:18	47.46363	-122.3078	0.02	0.01004584	-0.8228987	0	3	99	0	50	-0.01328052	-0.03198899	-177.1685	
00:28:19	47.46363	-122.3078	0.02	0.01284244	-0.5559782	0	3	99	0	50	-0.01343301	0.0008502518	-177.0143	
00:28:21	47.46363	-122.3078	0.02	0.01359493	-0.4952056	0	3	99	0	50	-0.01153314	-0.02021608	-176.8123	
00:28:23	47.46363	-122.3078	0.02	0.01463558	-0.4681375	0	3	99	0	50	-0.01098861	-0.03602385	-176.6699	
00:28:25	47.46363	-122.3078	0.02	0.01626761	-0.2044931	0	3	99	0	50	-0.009360758	0.0002436996	-176.5243	
00:28:26	47.46363	-122.3078	0.02	0.01652724	-0.3869201	0	3	99	0	50	-0.008724161	0.008945446	-176.3635	
00:28:28	47.46363	-122.3078	0.02	0.01731322	-0.1390914	0	3	99	0	50	-0.008317671	0.01681123	-176.2484	
00:28:30	47.46363	-122.3078	0.02	0.01930869	-0.008070573	0	3	99	0	50	-0.005967086	0.01628046	-176.137	
00:28:31	47.46363	-122.3078	0.02	0.01940283	-0.1450787	0	3	99	0	50	-0.004737413	0.04125595	-176.0233	
00:28:33	47.46363	-122.3078	0.02	0.01827946	-0.2091139	0	3	99	0	50	-0.003982799	0.02235716	-175.942	
00:28:35	47.46363	-122.3078	0.02	0.01919438	-0.01254193	0	3	99	0	50	-0.004246826	0.05124365	-175.8695	
00:28:36	47.46363	-122.3078	0.02	0.02250859	0.4618332	0	3	99	0	50	-0.004105704	0.01685818	-175.7928	
00:28:38	47.46363	-122.3078	0.02	0.02249854	0.1656576	0	3	99	0	50	-0.004453506	0.04341299	-175.7369	
00:28:40	47.46363	-122.3078	0.02	0.02117609	-0.01439198	0	3	99	0	50	-0.004387583	-0.007580642	-175.6894	
00:28:41	47.46363	-122.3078	0.02	0.01973936	-0.158423	0	3	99	0	50	0.004818267	0.020332	-175.6448	
00:28:43	47.46363	-122.3078	0.02	0.01945882	-0.07307044	0	3	99	0	50	0.002227844	0.02475786	-175.6125	
00:28:45	47.46363	-122.3078	0.02	0.0187672	-0.05772447	0	3	99	0	50	0.0002396225	0.01403193	-175.5854	
00:28:46	47.46363	-122.3078	0.02	0.01943072	-0.121292	0	3	99	0	50	-0.001206171	0.002893586	-175.5576	
00:28:48	47.46363	-122.3078	0.02	0.01872978	-0.1765041	0	3	99	0	50	-0.0007319552	0.004388115	-175.5367	
00:28:50	47.46363	-122.3078	0.02	0.01816986	-0.1298798	0	3	99	0	50	-0.0009592658	-0.01255342	-175.5186	
00:28:52	47.46363	-122.3078	0.02	0.02048694	0.2272488	0	3	99	0	50	-0.001547251	0.02941657	-175.5029	
00:28:53	47.46363	-122.3078	0.02	0.01991583	-0.06286094	0	3	99	0	50	-0.001719942	-0.008870586	-175.4931	
00:28:55	47.46363	-122.3078	0.02	0.02132369	0.2013634	0	3	99	0	50	-0.002705381	-0.00019914	-175.4836	
00:28:57	47.46363	-122.3078	0.02	0.02116834	0.07288433	0	3	99	0	50	-0.002819708	-0.02144407	-175.4754	
00:28:58	47.46363	-122.3078	0.02	0.01912023	-0.168508	0	3	99	0	50	-0.003301914	-0.01042655	-175.4694	
00:29:00	47.46363	-122.3078	0.02	0.01810296	-0.2978995	0	3	99	0	50	-0.002819201	0.007983958	-175.4658	
00:29:02	47.46363	-122.3078	0.02	0.01833523	-0.1444493	0	3	99	0	50	-0.003647349	-0.01288539	-175.4649	
00:29:03	47.46363	-122.3078	0.02	0.01728902	-0.2907049	0	3	99	0	50	-0.00222754	0.0006906651	-175.4649	
00:29:05	47.46363	-122.3078	0.02	0.01812837	-0.09308083	0	3	99	0	50	-0.001680135	-0.001856341	-175.4655	
00:29:07	47.46363	-122.3078	0.02	0.0208815	0.2339321	0	3	99	0	50	-0.001238678	-0.01191472	-175.468	
00:29:08	47.46363	-122.3078	0.02	0.02110392	-0.04002991	0	3	99	0	50	-0.001041259	0.008489336	-175.47	
00:29:10	47.46363	-122.3078	0.02	0.01924768	-0.0330373	0	3	99	0	50	0.0001480003	-0.005773209	-175.4705	
00:29:12	47.46363	-122.3078	0.02	0.01931781	0.004523068	0	3	99	0	50	-0.001373346	-0.02974298	-175.4739	
00:29:13	47.46363	-122.3078	0.02	0.02229578	0.2701967	0	3	99	0	50	-0.0004335229	-0.01294847	-175.4778	
00:29:15	47.46363	-122.3078	0.02	0.02314282	0.2781979	0	3	99	0	50	0.000744193	0.01168429	-175.4817	
00:29:17	47.46363	-122.3078	0.02	0.02235165	0.3829137	0	3	99	0	50	0.00188507	0.002786165	-175.4868	
00:29:19	47.46363	-122.3078	0.02	0.02161506	0.007574359	0	3	99	0	50	-0.001014084	0.002948764	-175.4899	
00:29:20	47.46363	-122.3078	0.02	0.0201449	-0.07818516	0	3	99	0	50	-0.0009042459	0.01452826	-175.4925	
00:29:22	47.46363	-122.3078	0.02	0.0194661	-0.1966342	0	3	99	0	50	-0.0009228377	0.01043385	-175.4959	
00:29:24	47.46363	-122.3078	0.02	0.01824811	-0.2511753	0	3	99	0	50	0.001075227	0.01643413	-175.4982	
00:29:25	47.46363	-122.3078	0.02	0.0165713	-0.5887106	0	3	99	0	50	-0.0003578955	0.04512222	-175.5007	
00:29:27	47.46363	-122.3078	0.019	0.01209012	-1.090991	0	3	99	0	50	-0.001451661	0.04830089	-175.5016	
00:29:29	47.46363	-122.3078	0.02	0.007287663	-1.28141	0	3	99	0	50	0.001386538	0.01297796	-175.5005	
00:29:30	47.46363	-122.3078	0.02	0.008034241	-1.082168	0	3	99	0	50	0.00196011	0.01449047	-175.4988	
00:29:32	47.46363	-122.3078	0.02	0.01033023	-0.7336515	0	3	99	0	50	0.00448591	0.021284	-175.4971	
00:29:34	47.46363	-122.3078	0.02	0.01174597	-0.9195088	0	3	99	0	50	-0.002664489	-3.696702E-05	-175.4962	
00:29:35	47.46363	-122.3078	0.02	0.01287243	-0.5982127	0	3	99	0	50	-0.002116443	0.008674705	-175.493	
00:29:37	47.46363	-122.3078	0.02	0.01476084	-0.2356029	0	3	99	0	50	-0.002274458	0.01381198	-175.4897	
00:29:39	47.46363	-122.3078	0.02	0.01718729	-0.1084851	0	3	99	0	50	-0.00268292	-0.01228578	-175.4873	
00:29:40	47.46363	-122.3078	0.02	0.01925149	-0.0356912	0	3	99	0	50	-0.002594835	0.06191378	-175.4858	
00:29:42	47.46363	-122.3078	0.02	0.01814909	-0.01404954	0	3	99	0	50	-0.001922553	0.001933734	-175.4855	
00:29:44	47.46363	-122.3078	0.02	0.01962375	-0.1516947	0	3	99	0	50	-0.0006467964	-0.02315762	-175.4865	
00:29:46	47.46363	-122.3078	0.02	0.01913467	-0.1430257	0	3	99	0	50	-0.0001381831	0.01385992	-175.4866	
00:29:47	47.46363	-122.3078	0.02	0.02026847	0.2538178	0	3	99	0	50	-0.0001415995	-0.03204027	-175.4853	
00:29:49	47.46363	-122.3078	0.02	0.0243487	0.7236726	0	3	99	0	50	0.0003005235	-0.02742468	-175.485	
00:29:51	47.46363	-122.3078	0.02	0.02600909	0.5807262	0	3	99	0	50	-0.002693177	-0.03999818	-175.484	
00:29:52	47.46363	-122.3078	0.02	0.02526208	0.5406068	0	3	99	0	50	-0.0006438648	-0.02532614	-175.4831	
00:29:54	47.46363	-122.3078	0.02	0.02342703	0.229437	0	3	99	0	50	-0.002466496	-0.03286167	-175.4829	
00:29:56	47.46363	-122.3078	0.02	0.02394115	0.4380314	0	3	99	0	50	-0.0006826808	-0.01337722	-175.4833	
00:29:57	47.46363	-122.3078	0.02	0.02455091	0.5742041	0	3	99	0	50	0.001822032	0.05222735	-175.4884	
00:29:59	47.46363	-122.3078	0.02	0.02389898	0.2719822	0	3	99	0	50	0.001409383	0.02034619	-175.4933	
00:30:01	47.46363	-122.3078	0.02	0.02158417	0.05378319	0	3	99	0	50	0.00188039	0.03527793	-175.4967	
00:30:03	47.46363	-122.3078	0.02	0.02060587	-0.06530723	0	3	99	0	50	-0.001367314	0.07192495	-175.5005	
00:30:04	47.46363	-122.3078	0.02	0.09497772	23.33115	0	3	99	0	4	0.208321	-0.8952015	-175.511	
00:30:06	47.46363	-122.3078	0.02	0.4184391	56.90837	0	3	99	0	4	0.1078633	-1.059975	-175.5069	
00:30:08	47.46363	-122.3078	0.02	0.6038421	63.00097	0	3	99	0	4	0.06557155	-0.7716826	-175.524	
00:30:09	47.46363	-122.3078	0.02	0.6071501	55.66668	0	3	99	0	4	0.03961318	-0.530876	-175.5611	
00:30:11	47.46363	-122.3078	0.02	0.5355694	47.1534	0	3	99	0	4	0.0201218	-0.3492677	-175.6067	
00:30:13	47.46363	-122.3078	0.02	0.4651172	40.87453	0	3	99	0	4	0.004521499	-0.1810106	-175.662	
00:30:15	47.46363	-122.3078	0.02	0.4103507	36.187	0	3	99	0	5	-0.00330243	-0.05893593	-175.7153	
00:30:16	47.46363	-122.3078	0.02	0.3683161	32.439	0	3	99	0	4	-0.01667798	0.01922699	-175.7637	
00:30:18	47.46363	-122.3078	0.02	0.332395	29.3808	0	3	99	0	4	-0.02204006	0.09031527	-175.8156	
00:30:20	47.46363	-122.3078	0.02	0.3026114	26.67644	0	3	99	0	4	-0.02531474	0.1401868	-175.8599	
00:30:21	47.46363	-122.3078	0.02	0.2758777	23.95807	0	3	99	0	4	-0.02810105	0.1846108	-175.8977	
00:30:23	47.46363	-122.3078	0.02	0.2480354	21.18986	0	3	99	0	4	-0.02784642	0.1864171	-175.9324	
00:30:25	47.46363	-122.3078	0.02	0.2238918	18.89995	0	3	99	0	4	-0.02818801	0.201528	-175.9599	
00:30:26	47.46363	-122.3078	0.02	0.2022957	16.95914	0	3	99	0	4	-0.02633078	0.2098354	-175.9825	
00:30:28	47.46363	-122.3078	0.02	0.183722	15.27965	0	3	99	0	4	-0.02597808	0.2081906	-176.0002	
00:30:30	47.46363	-122.3078	0.02	0.1656102	13.59152	0	3	99	0	4	-0.02347841	0.2147452	-176.0145	
00:30:31	47.46363	-122.3078	0.02	0.1512886	12.36439	0	3	99	0	4	-0.02317921	0.2145036	-176.0266	
00:30:33	47.46363	-122.3078	0.02	0.139575	11.27306	0	3	99	0	4	-0.02084101	0.193056	-176.0319	
00:30:35	47.46363	-122.3078	0.02	0.1261775	9.780916	0	3	99	0	4	-0.02015307	0.1822237	-176.0343	
00:30:37	47.46363	-122.3078	0.02	0.1131598	8.687537	0	3	99	0	4	-0.01689421	0.1737853	-176.0349	
00:30:38	47.46363	-122.3078	0.02	0.1036564	7.92639	0	3	99	0	4	-0.01627435	0.1583263	-176.0302	
00:30:40	47.46363	-122.3078	0.02	0.0958828	7.157133	0	3	99	0	4	-0.01402215	0.1482499	-176.0255	
00:30:42	47.46363	-122.3078	0.02	0.08731055	6.314869	0	3	99	0	4	-0.0134325	0.1383629	-176.0211	
00:30:43	47.46363	-122.3078	0.02	0.08000098	5.614639	0	3	99	0	5	-0.01337628	0.1204039	-176.011	
00:30:45	47.46363	-122.3078	0.02	0.07496276	5.236684	0	3	99	0	4	-0.01114635	0.105911	-176.0021	
00:30:47	47.46363	-122.3078	0.02	0.069189	4.601624	0	3	99	0	4	-0.01022086	0.09975635	-175.9947	
00:30:48	47.46363	-122.3078	0.02	0.0645	4.193196	0	3	99	0	4	-0.009707754	0.08766079	-175.9844	
00:30:50	47.46363	-122.3078	0.02	0.05953578	3.654148	0	3	99	0	4	-0.007186646	0.07776967	-175.9765	
00:30:52	47.46363	-122.3078	0.02	0.05404852	3.148896	0	3	99	0	4	-0.005674333	0.07631548	-175.9703	
00:30:53	47.46363	-122.3078	0.02	0.05076119	2.755432	0	3	99	0	4	-0.005213001	0.06260422	-175.962	
00:30:55	47.46363	-122.3078	0.02	0.04701066	2.118811	0.08	3	99	0	99	0.2492641	-0.03854529	-176.5969	
00:30:57	47.46362	-122.3078	0.02	0.04882653	3.646923	3.39	3.397131	99	0	100	0.5957198	2.663376	175.6243	
00:30:59	47.46347	-122.3077	0.132	0.6162381	215.5027	14.08	14.0892	99	0	100	0.09113301	12.48535	170.5549	
00:31:00	47.46321	-122.3077	4.759	4.598013	334.124	18.41	17.98084	99	0	100	3.237116	12.47663	173.8232	
00:31:02	47.46291	-122.3076	11.694	10.79383	392.5171	21.4	20.68484	99	0	100	0.9302302	12.21428	177.2699	
00:31:04	47.46253	-122.3076	19.731	18.13896	425.6425	23.91	23.55043	99	0	100	-3.460225	10.78086	177.6889	
00:31:05	47.46229	-122.3075	24.432	25.52636	413.5479	25.03	25.03958	99	0	100	-4.131104	9.74659	176.4062	
00:31:07	47.46183	-122.3075	32.533	30.72379	406.5139	26.53	26.53367	99	0	100	-5.338	8.470731	175.0329	
00:31:09	47.46142	-122.3074	39.828	39.39661	457.6487	27.31	27.23534	99	0	100	-4.05452	8.490022	173.3358	
00:31:10	47.46098	-122.3073	44.822	44.23915	24.78391	26.5	26.4926	99	0	92	44.58368	-0.2577434	-177.4867	
00:31:12	47.46063	-122.3075	48.798	49.28192	580.766	26.82	26.28192	99	0	118	50.99538	12.05751	-126.5211	
00:31:14	47.46049	-122.308	62.561	61.48734	859.2327	24.63	25.17141	99	0	94	22.05247	18.83876	-88.12798	
00:31:15	47.4605	-122.3083	71.459	73.3462	381.6534	24.15	24.8124	99	0	81	-11.69415	8.398382	-85.33507	
00:31:17	47.46054	-122.3091	85.036	81.94246	405.1819	24.42	25.10921	99	0	72	-8.346211	7.540319	-90.43671	
00:31:19	47.46054	-122.3097	90.931	90.745	342.562	24.21	24.76459	99	0	62	-0.3952111	3.249264	-91.28131	
00:31:20	47.46054	-122.3102	94.253	94.83189	267.5831	24.39	24.90663	99	0	66	-0.6288076	2.748775	-89.93718	
00:31:22	47.46054	-122.3103	94.655	96.83373	271.6552	24.44	25.0266	99	0	73	1.290905	5.695743	-89.23246	
00:31:24	47.46058	-122.3113	102.623	101.1455	50.52189	24.35	25.00616	99	0	42	23.03358	-2.037784	-84.69902	
00:31:26	47.46066	-122.3118	99.187	99.59413	-276.9049	24.5	23.96221	99	0	36	28.46073	-10.81896	-67.44477	
00:31:27	47.46086	-122.3123	91.969	93.67963	-190.2457	25.85	25.32616	99	0	44	20.52985	-7.282643	-45.97515	
00:31:29	47.46109	-122.3127	89.108	90.11714	9.916586	26.41	26.29156	99	0	51	2.486713	-1.279722	-35.21727	
00:31:31	47.46147	-122.3131	89.791	89.93236	69.87837	25.96	25.84067	99	0	55	-8.75836	1.137955	-37.07845	
00:31:32	47.46179	-122.3135	91.839	91.43172	94.14231	25.63	25.49958	99	0	56	20.10298	1.155725	-38.9743	
00:31:34	47.46203	-122.3137	92.773	92.77733	76.7221	25.81	25.54508	99	0	62	36.20129	0.3568581	-15.73036	
00:31:36	47.46252	-122.3139	95.204	94.62594	138.26	25.96	25.62842	99	0	57	29.72241	1.65883	11.16369	
00:31:37	47.46284	-122.3137	96.658	96.73004	57.12846	25.42	25.42882	99	0	49	-2.391711	-0.791378	20.03554	
00:31:39	47.46318	-122.3136	96.388	96.60539	-12.86928	25.13	24.99322	99	0	51	-11.38679	-1.492728	15.37713	
00:31:41	47.46364	-122.3135	96.11	96.18761	27.5376	25.27	24.95406	99	0	54	-10.69462	-0.03837765	7.582226	
00:31:43	47.46397	-122.3134	97.087	96.99834	65.66793	25.22	24.84293	99	0	53	-4.721807	0.5280565	2.817368	
00:31:44	47.46433	-122.3134	98.37	98.28238	50.15002	25.08	24.66442	99	0	51	-1.508153	-0.3304992	1.525699	
00:31:46	47.46476	-122.3134	98.848	98.89334	19.88601	25.04	24.62535	99	0	50	-1.307515	-1.137862	1.71179	
00:31:48	47.46513	-122.3134	98.788	98.93625	17.30033	25.12	24.7278	99	0	50	-2.083795	-1.055128	1.674157	
00:31:49	47.46552	-122.3133	98.873	99.00845	22.86804	25.18	24.77122	99	0	50	-3.077233	-0.843559	0.9949149	
00:31:51	47.46592	-122.3133	99.065	99.17621	23.09305	25.18	24.7765	99	0	50	-2.651653	-0.8005152	0.4173956	
00:31:53	47.46626	-122.3133	99.391	99.43478	25.70992	25.15	24.73931	99	0	50	-2.409618	-0.7502385	-0.02397514	
00:31:54	47.46669	-122.3133	99.709	99.72626	21.52535	25.1	24.69629	99	0	50	-2.565932	-0.9197305	-0.2799489	
00:31:56	47.46703	-122.3133	99.486	99.71088	4.67848	25.07	24.65106	99	0	50	-2.153314	-1.123165	-0.4311115	
00:31:58	47.46743	-122.3132	98.941	99.25028	-139.4207	25.08	24.81426	99	0	19	22.95094	-4.669427	2.996566	
00:31:59	47.46779	-122.3131	84.434	87.32948	-1111.925	22.53	21.91602	99	0	29	46.43426	-17.48817	30.47644	
00:32:01	47.46798	-122.3127	55.792	61.26367	-1157.073	25.96	26.91716	99	0	74	46.17994	-2.471422	72.55655	
00:32:03	47.4679	-122.3121	30.509	35.17412	-731.6412	35.76	36.51331	99	0	100	2.837709	16.2358	94.79022	
00:32:05	47.46771	-122.3113	19.76	18.16836	-754.11	36.72	37.66935	99	0	101	-20.39086	13.61784	77.93047	
00:32:06	47.46767	-122.3107	15.174	13.89307	-186.5016	36.38	37.48739	99	0	100	-10.89284	13.85493	65.23077	
00:32:08	47.46771	-122.3097	17.111	15.81128	119.7619	33.81	35.16046	99	0	100	9.537205	14.87849	63.23333	
00:32:10	47.46768	-122.309	20.798	19.62811	71.86673	32.62	33.57491	99	0	100	-7.191462	15.63707	69.2099	
00:32:11	47.4676	-122.3081	24.146	22.66276	142.9067	31.84	33.04308	99	0	101	-19.02002	13.61723	66.38809	
00:32:13	47.46756	-122.3075	29.599	28.33295	380.5168	30.32	31.28398	99	0	101	20.93577	15.09511	60.36707	
00:32:15	47.46743	-122.3069	32.66	32.6683	-48.29445	31.14	31.67275	100	0	116	50.52118	19.05155	90.69375	
00:32:16	47.46701	-122.3064	16.902	20.52234	-1001.83	33.23	33.51834	100	0	112	44.40174	19.79137	113.1416	
00:32:18	47.46672	-122.3063	1.341	-4.33254	-1979.799	34.35	34.35092	100	0	100	-10.36644	7.645708	110.5588	
00:32:20	47.46672	-122.3063	1.341	-15.89299	-1840.093	34.35	34.35092	100	0	109	-40.26837	-5.619934	125.5296	
00:32:21	47.46363	-122.3077	0.021	-14.12819	-1279.271	0	3	100	0	4	-58.30198	-7.788074	138.77	
00:32:23	47.46363	-122.3077	0.02	-9.089766	-532.6251	0	3	100	0	4	-44.22499	0.1142553	144.1292	
00:32:25	47.46363	-122.3077	0.02	-2.900733	23.88255	0	3	100	0	4	-30.01008	6.605389	156.0862	
00:32:27	47.46363	-122.3077	0.02	1.274261	295.7483	0	3	100	0	4	-18.29445	9.303242	171.5391	
00:32:28	47.46363	-122.3077	0.02	3.146704	370.5517	0	3	100	0	4	-10.31809	8.094284	-176.5106	
00:32:30	47.46363	-122.3077	0.02	3.596678	360.9177	0	3	100	0	4	-4.026507	5.091379	-169.4181	
00:32:32	47.46363	-122.3077	0.02	3.459658	328.3999	0	3	100	0	6	-0.1331842	2.284657	-167.8879	
00:32:33	47.46363	-122.3077	0.02	3.141073	291.7097	0	3	100	0	5	2.451258	0.3194661	-168.4946	
00:32:35	47.46363	-122.3077	0.02	2.784746	255.9446	0	3	100	0	4	4.433022	-1.232734	-170.079	
00:32:37	47.46363	-122.3077	0.02	2.43711	221.8689	0	3	100	0	4	5.850607	-2.086059	-171.7856	
00:32:38	47.46363	-122.3077	0.02	2.117843	192.587	0	3	100	0	4	6.852853	-2.827482	-173.3999	
00:32:40	47.46363	-122.3077	0.02	1.840427	167.1994	0	3	100	0	5	7.283204	-3.161015	-175.6326	
00:32:42	47.46363	-122.3077	0.02	1.606587	146.32	0	3	100	0	4	7.52769	-3.41986	-177.4346	
00:32:43	47.46363	-122.3077	0.02	1.412395	128.9038	0	3	100	0	4	7.681019	-3.657992	-178.7403	
00:32:45	47.46363	-122.3077	0.02	1.253737	115.2545	0	3	100	0	4	7.35197	-3.605368	179.7195	
00:32:47	47.46363	-122.3077	0.02	1.133538	104.9594	0	3	100	0	4	7.042248	-3.615824	178.6593	
00:32:49	47.46363	-122.3077	0.02	1.025503	94.54201	0	3	100	0	4	6.806428	-3.670489	178.0083	
00:32:50	47.46363	-122.3077	0.02	0.9317997	86.23977	0	3	100	0	4	6.228453	-3.511114	177.3908	
00:32:52	47.46363	-122.3077	0.02	0.8530782	78.97894	0	3	100	0	34	5.711866	-3.387685	177.0971	
00:32:54	47.46363	-122.3077	0.019	0.6421528	32.77945	0	3	100	0	62	5.108239	-1.235845	177.2413	
00:32:55	47.46363	-122.3077	0.019	0.1398562	3.231731	1.73	3	100	0	98	4.779827	-1.551364	176.5277	
00:32:57	47.46356	-122.3077	0.021	0.2499934	33.89848	6.23	5.35317	100	0	99	4.097898	-1.176593	-179.6411	
00:32:59	47.46344	-122.3077	0.022	0.5806171	91.94067	10.36	8.344125	100	0	99	4.072773	2.61099	173.7304	
00:33:00	47.46325	-122.3077	0.646	1.500956	183.9294	16.15	14.68213	100	0	99	-13.2358	5.752949	168.459	
00:33:02	47.46296	-122.3076	3.604	4.354883	302.945	20.45	19.03555	100	0	99	-10.47315	5.90945	156.8083	
00:33:04	47.46267	-122.3075	7.436	8.297269	293.1175	22.68	21.61837	100	0	99	-7.921233	5.428601	153.77	
00:33:05	47.46231	-122.3072	11.556	11.89868	241.7083	24.39	23.22169	100	0	99	-4.676432	3.939277	153.3352	
00:33:07	47.46194	-122.3069	14.621	14.63407	179.9023	25.62	24.45192	100	0	99	-3.067897	2.671274	155.0711	
00:33:09	47.46166	-122.3067	16.388	16.90222	169.4258	26.89	25.86832	100	0	99	-7.075537	2.16679	147.2518	
00:33:11	47.46126	-122.3064	18.92	19.17245	163.554	28.97	28.07471	100	0	99	-5.250366	1.337911	143.6289	
00:33:12	47.46086	-122.306	21.163	21.45804	166.4446	30.21	29.27913	100	0	99	-3.406986	1.105612	141.5345	
00:33:14	47.46048	-122.3056	23.198	23.47268	147.7806	30.95	30.12591	100	0	99	-2.269013	0.8892657	140.6258	
00:33:16	47.46013	-122.3052	24.634	24.91039	120.6309	31.42	30.70147	100	0	99	-1.639521	0.6939068	140.2661	
00:33:17	47.45978	-122.3048	26.363	26.35713	108.0592	31.7	30.97024	100	0	99	-1.130736	0.6033728	140.6281	
00:33:19	47.45943	-122.3044	28.12	28.17815	127.1542	31.89	31.20641	100	0	99	-0.773602	0.6447883	140.5562	
00:33:21	47.45904	-122.3039	29.913	29.96005	115.8914	32.06	31.38054	100	0	99	-0.7767269	0.3822139	140.8332	
00:33:22	47.45866	-122.3034	31.361	31.43773	112.457	32.2	31.50259	100	0	99	-0.5289358	0.4008295	141.3865	
00:33:24	47.45826	-122.3029	33.207	33.09178	115.3634	32.28	31.58107	100	0	99	-0.4228897	0.4089035	142.2893	
00:33:26	47.45792	-122.3025	35.148	35.05882	121.1587	32.31	31.60856	100	0	99	0.2354906	0.3159602	142.5725	
00:33:28	47.45751	-122.302	37.292	37.19886	128.3499	32.37	31.64009	100	0	99	-0.4587147	0.2306827	143.1455	
00:33:29	47.4571	-122.3016	39.062	39.04913	132.7455	32.49	31.76152	100	0	99	-0.6907592	0.3211365	143.5775	
00:33:31	47.45675	-122.3012	40.719	40.86444	116.0596	32.54	31.79885	100	0	99	-0.2976203	0.1480766	143.9545	
00:33:33	47.45638	-122.3008	42.602	42.68575	121.7657	32.59	31.82935	100	0	99	-0.4478332	0.2155207	144.8376	
00:33:34	47.45595	-122.3003	44.963	44.82442	135.2644	32.59	31.81838	100	0	99	-1.250999	0.3165918	145.3647	
00:33:36	47.45552	-122.2998	47.306	47.12952	133.0305	32.63	31.81882	100	0	99	-0.210081	0.170752	146.0089	
00:33:38	47.45515	-122.2994	49.361	49.3617	138.5819	32.68	31.86713	100	0	99	-0.4207493	0.1104632	146.5343	
00:33:39	47.45472	-122.299	51.881	51.81804	156.843	32.71	31.87456	100	0	98	-0.3471719	0.2735119	147.2151	
00:33:41	47.45435	-122.2986	54.163	54.30573	160.7576	32.73	31.8645	100	0	99	-0.3003976	0.3424523	147.9606	
00:33:43	47.45389	-122.2982	56.997	56.80466	149.8131	32.74	31.86052	100	0	99	-0.2354584	0.07309087	148.6167	
00:33:44	47.45345	-122.2978	59.648	59.44831	157.37	32.77	31.86617	100	0	99	-0.7590697	0.06544389	149.264	
00:33:46	47.45299	-122.2974	62.593	62.20885	174.989	32.8	31.87764	100	0	99	-0.4163978	0.2785321	149.9558	
00:33:48	47.45267	-122.2971	64.751	65.07221	173.3078	32.8	31.85538	100	0	99	-0.4349183	0.1884902	150.4763	
00:33:50	47.45218	-122.2967	67.984	67.93237	174.7527	32.83	31.85966	100	0	99	-0.4275876	0.1332637	151.1815	
00:33:51	47.45173	-122.2963	70.777	70.79207	176.0356	32.85	31.85889	100	0	99	-0.6109837	0.1495087	152.1779	
00:33:53	47.45127	-122.296	73.143	73.17956	157.743	32.86	31.85571	100	0	99	-0.4998749	0.1759454	152.7533	
00:33:55	47.45086	-122.2957	74.299	75.07505	131.8007	32.87	31.84599	100	0	98	-0.1230621	0.2078402	153.5086	
00:33:56	47.45041	-122.2953	74.519	75.17146	53.73273	32.83	31.77199	100	0	98	-0.4555899	0.2797689	153.9445	
00:33:58	47.44993	-122.295	75.54	75.28358	17.86528	32.87	31.7798	100	0	99	-0.3880574	0.1552094	154.8126	
00:34:00	47.44953	-122.2947	76.706	76.31208	38.73362	32.85	31.77047	100	0	99	-0.3201846	0.1939341	155.6404	
00:34:01	47.44909	-122.2944	77.804	77.63612	64.29415	32.89	31.77731	100	0	99	-0.163264	0.200067	156.5559	
00:34:03	47.44862	-122.2941	79.039	78.96015	71.15658	32.92	31.7742	100	0	99	-0.4018317	0.1900544	157.6085	
00:34:05	47.44817	-122.2939	80.248	80.29078	77.0014	32.92	31.76274	100	0	99	-0.2698762	0.2408596	158.2052	
00:34:07	47.44766	-122.2936	81.689	81.59174	75.36892	32.93	31.75187	100	0	99	-0.3347378	0.1776716	159.1385	
00:34:08	47.44718	-122.2933	83.056	82.95996	82.70096	32.94	31.74285	100	0	99	-0.1368427	0.2047991	160.0175	
00:34:10	47.44669	-122.2931	84.621	84.43326	84.89555	32.95	31.72276	100	0	99	-0.9932075	0.1601189	160.257	
00:34:12	47.44625	-122.2929	86.059	86.01235	84.57426	32.91	31.67594	100	0	99	-0.4265017	0.1385801	161.612	
00:34:13	47.44579	-122.2926	87.578	87.56307	92.69187	32.94	31.68141	100	0	99	-0.4756837	0.1929362	162.3147	
00:34:15	47.44525	-122.2924	90.782	89.59202	117.2672	32.95	31.65591	100	0	99	-0.2383864	0.2364469	163.3346	
00:34:17	47.44477	-122.2922	92.778	93.01607	173.6241	32.97	31.6746	100	0	99	-0.3259607	0.2044467	164.2201	
00:34:18	47.44426	-122.292	94.215	94.59071	131.8308	32.97	31.65208	100	0	99	-0.3503197	0.2985042	165.404	
00:34:20	47.44381	-122.2918	95.705	95.68477	90.38213	32.97	31.62985	100	0	99	-0.2598945	0.2005612	166.58	
00:34:22	47.4433	-122.2917	98.489	97.71339	105.9617	32.97	31.6233	100	0	99	-0.275767	0.03071943	167.3966	
00:34:23	47.44284	-122.2915	100.818	100.56	147.5055	32.97	31.59551	100	0	99	-0.7289937	0.09390717	168.253	
00:34:25	47.44241	-122.2914	102.972	103.1907	148.6452	32.95	31.56876	100	0	99	-0.33135	0.02735332	168.8483	
00:34:27	47.44182	-122.2912	105.874	105.5771	161.3083	32.96	31.56378	100	0	99	-0.4112291	0.3217649	169.8396	
00:34:29	47.44136	-122.2911	108.291	108.1223	156.1832	32.95	31.52657	100	0	101	-0.4631228	0.2193979	170.6916	
00:34:30	47.44085	-122.291	112.27	111.3407	173.3421	32.94	31.49989	100	0	99	-0.5386477	0.05979017	171.4738	
00:34:32	47.44035	-122.2909	115.293	115.2883	221.7291	32.93	31.47548	100	0	99	-0.4683753	0.2408245	172.44	
00:34:34	47.43987	-122.2909	116.819	117.4441	180.6986	33.1	31.44485	100	0	99	37.69216	-0.3084125	-170.195	
00:34:35	47.43945	-122.2911	120.034	121.2237	392.3868	32.95	30.54641	100	0	99	45.01139	3.370724	-134.2377	
00:34:37	47.43913	-122.2918	124.303	124.9196	258.093	32.86	31.78921	100	0	99	44.56752	1.626142	-102.8203	
00:34:39	47.43909	-122.2924	127.327	127.3692	116.9869	33	32.74501	100	0	99	0.3483599	-0.6135066	-85.12032	
00:34:40	47.43911	-122.2931	127.511	128.1413	73.12357	33.28	33.06661	100	0	99	-0.04877608	-0.4812551	-83.39873	
00:34:42	47.43916	-122.2939	127.71	127.9324	-17.63422	32.26	32.55215	100	0	55	0.626425	-1.080529	-82.49669	
00:34:44	47.4392	-122.2947	125.426	126.1045	-199.5481	29.37	29.38685	100	0	55	-40.68583	-2.311123	-87.97164	
00:34:45	47.43913	-122.2953	119.574	120.9444	-275.0968	28.31	27.51639	100	0	55	-45.41141	-2.171161	-120.1229	
00:34:47	47.43887	-122.2957	115.321	115.771	-184.4338	27.36	26.57191	100	0	55	-3.195698	-0.04696764	-142.45	
00:34:49	47.43853	-122.2961	121.067	119.6362	664.8735	21.47	21.34499	100	0	55	-8.917465	26.2159	-147.7231	
00:34:51	47.43829	-122.2963	132.77	128.8217	-266.5907	19.72	17.85209	100	0	55	-1.003109	-2.163223	-149.7385	
00:34:52	47.438	-122.2965	130.271	129.4677	-79.38416	22.36	20.24191	100	0	55	-0.02406984	-1.149594	-149.3013	
00:34:54	47.43768	-122.2968	128.681	129.1386	1.920376	23.81	21.84447	100	0	55	0.02997816	-0.06460541	-149.0581	
00:34:56	47.43739	-122.2971	128.242	128.3138	-150.8338	23.89	22.01884	100	0	10	26.07692	-5.577589	-145.1347	
00:34:57	47.43711	-122.2974	119.32	119.8728	-774.1029	22.84	19.80963	100	0	9	32.39809	-20.73732	-127.6517	
00:34:59	47.43694	-122.2978	105.455	106.0687	-814.6935	24.39	21.74724	100	0	5	17.90901	-19.89914	-108.3066	
00:35:01	47.43682	-122.2985	87.746	90.45484	-888.8848	25.5	22.97166	100	0	4	2.759995	-19.54408	-102.1312	
00:35:02	47.43677	-122.2988	78.334	76.06586	-871.0302	25.81	23.36362	100	0	4	-2.681494	-19.6587	-102.5816	
00:35:04	47.43666	-122.2996	58.488	60.77414	-855.0648	26.41	23.72808	100	0	19	-1.379282	-17.80243	-103.592	
00:35:06	47.43657	-122.3001	52.396	53.71372	182.2422	26.62	24.54643	100	0	41	-2.568244	5.628135	-105.8005	
00:35:07	47.43647	-122.3007	56.91	55.4669	-26.48222	23.7	20.72403	100	0	31	-0.2244257	1.223486	-106.2178	
00:35:09	47.43639	-122.3012	56.791	55.93053	-126.8114	22.49	19.27494	100	0	29	-0.1172172	-3.536093	-105.5911	
00:35:11	47.43632	-122.3016	55.061	54.84564	-82.16965	22.06	18.86192	100	0	31	-0.5363951	-2.860729	-105.2678	
00:35:13	47.43625	-122.3021	53.78	53.86711	-42.73511	21.65	18.4553	100	0	33	-1.037392	-1.481467	-105.1918	
00:35:14	47.43618	-122.3025	53.344	53.44835	-10.34202	21.3	18.10386	100	0	32	-1.195906	-0.3965004	-105.3635	
00:35:16	47.43608	-122.3031	52.558	52.84397	-26.04494	20.9	17.72112	100	0	36	-0.7935024	-0.2790158	-104.9816	
00:35:18	47.43603	-122.3035	52.242	52.37217	-2.964825	20.78	17.58677	100	0	36	-0.9747943	0.8324043	-104.5486	
00:35:19	47.43595	-122.304	52.178	52.11061	-19.64836	20.54	17.35601	100	0	36	-0.7751508	0.4934012	-104.321	
00:35:21	47.43588	-122.3044	52.135	52.05151	-11.30513	20.33	17.3444	100	0	32	-1.215779	0.6772809	-104.4987	
00:35:23	47.43583	-122.3047	51.543	51.35421	-55.15887	20.32	17.12711	100	0	39	-0.6799482	-0.4091482	-103.369	
00:35:24	47.43576	-122.3052	50.87	51.13322	-22.93504	20.58	17.39253	100	0	33	-0.757901	1.151101	-102.6995	
00:35:26	47.43568	-122.3057	49.98	50.2764	-39.17028	20.69	17.5041	100	0	42	-1.149266	0.67435	-102.1015	
00:35:28	47.43561	-122.3062	49.652	49.85245	25.35484	20.95	17.75245	100	0	38	-1.359174	2.4991	-102.6314	
00:35:29	47.43554	-122.3066	50.06	49.88679	-22.77705	20.72	17.51615	100	0	35	-0.4181902	1.030986	-102.4846	
00:35:31	47.43549	-122.3069	50.114	49.81589	-33.45509	20.57	17.3679	100	0	32	-0.1259097	0.04951252	-102.0061	
00:35:33	47.43549	-122.3069	50.114	49.83838	-30.36193	20.57	17.3679	100	0	30	0.3418508	-0.6113197	-101.2927	
00:35:34	47.43533	-122.3079	47.444	47.93142	-143.2607	20.76	17.55906	100	0	50	-0.7264239	-1.900049	-100.8642	
00:35:36	47.43524	-122.3084	45.334	46.51788	210.8257	22.39	19.15011	100	0	49	-1.421708	8.27843	-103.0433	
00:35:38	47.43515	-122.3089	49.032	48.15372	-35.70005	21.62	18.46742	100	0	34	2.532657	1.327088	-102.6586	
00:35:39	47.43507	-122.3093	49.028	48.46138	-84.99583	21.12	17.9022	100	0	31	1.199064	-1.804963	-101.3828	
00:35:41	47.435	-122.3098	47.506	47.4803	-55.21302	21.02	17.82826	100	0	34	-0.531166	-1.261084	-101.2861	
00:35:43	47.43492	-122.3103	47.082	47.00741	-8.158491	20.8	17.60738	100	0	33	-1.154549	-0.05475116	-101.953	
00:35:45	47.43488	-122.3105	47.002	46.81337	-39.86395	20.57	17.3757	100	0	32	-0.7057829	-1.07175	-102.478	
00:35:46	47.43482	-122.311	46.646	46.4876	-9.173439	20.32	17.12996	100	0	32	-1.204629	-0.3401501	-102.9396	
00:35:48	47.43473	-122.3114	46.909	46.5677	-65.78725	19.93	16.74314	100	0	30	-0.8765007	-2.73377	-102.8551	
00:35:50	47.43465	-122.312	38.282	40.3615	-189.8779	20.24	17.06747	100	0	100	-0.8883681	1.611104	-102.6391	
00:35:51	47.43458	-122.3125	54.181	42.35817	499.39	17.5	14.50212	100	0	69	-6.424583	24.20045	-109.6291	
00:35:53	47.43453	-122.3128	63.662	57.94939	-521.7469	17.43	13.24638	100	0	4	4.935385	-31.51833	-110.6127	
00:35:55	47.43444	-122.3132	56.753	52.58593	-703.2886	17.66	13.12372	100	0	4	1.008656	-35.70116	-110.7207	
00:35:56	47.43437	-122.3135	66.537	59.77168	7.67168	7.04	3	100	0	4	1.751608	-15.25339	-130.2488	
00:35:58	47.43431	-122.3136	64.243	62.82288	-328.9809	8.7	3.828857	100	0	4	9.337938	-32.94825	-151.2955	
00:36:00	47.4342	-122.3138	60.359	60.29322	-212.6503	10.98	7.261465	100	0	5	14.5915	-19.25825	-168.483	
00:36:01	47.43407	-122.3139	57.256	57.28188	-169.0784	12.62	8.936612	100	0	5	17.21344	-13.89807	-175.9703	
00:36:03	47.4339	-122.3141	53.665	54.49939	-147.2758	14.3	10.34727	100	0	6	19.73341	-12.74536	-172.1492	
00:36:05	47.43374	-122.3144	50.001	51.00916	-176.2219	15.71	10.94009	100	0	5	18.28607	-12.73897	-160.1874	
00:36:06	47.43359	-122.3147	43.788	46.34285	144.2231	17.74	12.41776	100	0	55	-1.257571	4.343786	-146.1113	
00:36:08	47.43345	-122.315	45.638	47.37588	271.2818	19.01	13.61243	100	0	55	-1.553524	6.323018	-147.979	
00:36:10	47.43326	-122.3154	48.183	48.99521	189.6946	20.33	14.78618	100	0	55	-0.3160014	4.515072	-144.0331	
00:36:12	47.43309	-122.3157	48.947	50.03672	139.7524	21.61	16.27882	100	0	55	0.3259345	3.192694	-137.8516	
00:36:13	47.43309	-122.3157	48.947	50.10852	104.4801	21.61	16.27882	100	0	55	-0.1396788	2.318488	-135.1105	
00:36:15	47.4327	-122.3166	47.684	49.23889	65.51556	24.2	17.9769	100	0	55	0.7334791	1.311726	-128.8754	
00:36:17	47.4325	-122.3171	46.327	47.55525	0.8053893	25.1	18.53103	100	0	55	0.4961497	1.084509	-120.9199	
00:36:18	47.43233	-122.3176	45.288	45.79303	-34.12123	25.79	19.03487	100	0	55	0.2419513	0.6226536	-113.6566	
00:36:20	47.43216	-122.3181	43.552	44.17541	-31.93309	26.47	19.30043	100	0	55	0.007829228	0.1645237	-106.059	
00:36:22	47.432	-122.3187	41.746	42.58923	-20.91166	26.93	19.59157	100	0	55	0.1298707	0.08287119	-99.34479	
00:36:23	47.43189	-122.3192	39.343	40.87451	-26.70987	27.11	19.52232	100	0	55	0.2865698	0.07796064	-93.9144	
00:36:25	47.43177	-122.3199	32.191	35.09259	-189.7854	27.24	19.54129	100	0	55	0.2971128	-0.06730047	-88.89573	
00:36:27	47.43169	-122.3205	29.105	30.49198	-14.52025	26.31	18.81257	100	0	55	-1.737357	6.932232	-85.93742	
00:36:28	47.43164	-122.321	29.487	29.46233	52.85134	24.92	17.21217	100	0	54	-3.243544	9.880771	-84.17319	
00:36:30	47.43159	-122.3215	31.33	30.80089	41.33171	23.58	15.86178	100	0	55	-2.723405	8.785595	-83.63473	
00:36:32	47.43155	-122.3221	32.731	32.46803	121.6089	24.88	16.51828	100	0	99	-2.026926	7.581311	-81.70962	
00:36:34	47.43152	-122.3227	34.607	34.92599	297.1255	27.52	19.66389	100	0	99	0.3040877	10.37827	-77.99135	
00:36:35	47.43152	-122.3233	39.801	39.58541	309.4486	28.06	20.59346	100	0	99	0.2685688	10.11297	-74.6758	
00:36:37	47.43155	-122.3239	44.535	44.47904	313.968	28.54	21.23856	100	0	99	0.25461	9.543835	-72.35592	
00:36:39	47.43162	-122.3246	49.049	48.81995	217.1033	29.15	22.1182	100	0	99	26.18095	7.487212	-64.22977	
00:36:40	47.43182	-122.3252	52.934	52.66302	287.4743	29.72	24.67588	100	0	99	33.04828	8.33203	-43.78737	
00:36:42	47.43212	-122.3256	57.882	57.60128	330.2212	30.25	28.19378	100	0	99	39.92466	8.571228	-16.85425	
00:36:44	47.4326	-122.3258	62.57	62.39742	273.473	31.02	31.3881	100	0	99	38.67272	6.845598	7.317451	
00:36:45	47.43298	-122.3257	65.825	66.49326	279.2776	31.55	34.06838	100	0	98	38.25694	6.611931	31.72084	
00:36:47	47.4334	-122.3253	70.064	70.09277	253.7224	31.98	35.60412	100	0	98	38.87309	6.332754	54.81054	
00:36:49	47.43362	-122.3246	75.344	74.82799	310.014	31.98	35.68439	100	0	99	45.55709	7.477318	82.61258	
00:36:50	47.4336	-122.3239	85.739	83.63232	440.8349	31.84	35.23399	100	0	99	43.73677	7.253157	111.3284	
00:36:52	47.4333	-122.3233	94.247	93.9909	519.0005	31.78	33.95588	100	0	99	43.06012	6.467229	137.1784	
00:36:54	47.43293	-122.323	97.871	99.7433	409.2353	31.7	32.55969	100	0	99	42.60931	6.844922	164.1111	
00:36:56	47.4324	-122.323	101.248	102.1781	192.2438	31.61	31.32394	100	0	99	39.58125	5.70601	-171.3983	
00:36:57	47.43201	-122.3232	102.806	103.1747	78.65781	31.59	30.30068	100	0	99	36.43463	5.506082	-147.5129	
00:36:59	47.43167	-122.3237	103.584	103.5571	-0.2771782	31.71	29.87269	100	0	99	31.43283	3.279334	-126.7154	
00:37:01	47.43144	-122.3244	102.86	103.0618	-25.79093	32.09	29.74256	100	0	99	31.8575	2.214456	-105.9321	
00:37:02	47.4314	-122.3251	102.5	102.4367	-66.10092	32.24	30.08483	100	0	100	22.47946	1.2822	-86.68717	
00:37:04	47.43151	-122.3258	104.424	103.3387	46.54325	32.46	30.49751	100	0	99	26.757	1.98833	-69.42523	
00:37:06	47.43178	-122.3265	106.516	105.8549	100.6032	32.63	30.9309	100	0	99	24.90237	1.417972	-52.75268	
00:37:07	47.43209	-122.3269	107.436	107.7204	175.601	32.86	31.65867	100	0	99	20.62894	2.810659	-38.24133	
00:37:09	47.43252	-122.3273	110.328	110.4761	154.1507	32.62	31.7989	100	0	99	19.95557	2.386376	-24.55982	
00:37:11	47.43298	-122.3276	112.044	112.2255	98.21456	32.73	32.28379	100	0	99	18.9398	1.440535	-13.02871	
00:37:13	47.43349	-122.3276	113.461	113.5952	81.80908	32.89	32.77541	100	0	99	18.1975	1.251393	-0.7369643	
00:37:14	47.43399	-122.3275	114.804	114.9429	110.7979	32.97	33.35946	100	0	99	19.72025	2.039385	10.93659	
00:37:16	47.43444	-122.3273	116.78	116.325	79.26021	32.98	33.58702	100	0	99	14.9882	1.762187	21.68241	
00:37:18	47.43444	-122.3273	116.78	117.8909	172.7363	32.98	33.10926	100	0	99	3.58026	5.860205	25.09018	
