Date	Latitude(deg) 	Longitude(deg)	hamsl(m)	hafl(m)	climbrate(cm/s)	GroundSpeed(m/s)	Airspeed(m/s)	Mav_Link(%)	Rssi_Link(%)	Throttle	Roll(deg)	Pitch(deg)	Yaw(deg)
20:02:43	0	0	0	-0.745076	-56.49192	0	3	49	0	4	1.119282	0.4101225	26.57066	
20:02:44	0	0	0	0.03595113	-7.709894	0	3	59	0	4	1.109422	0.4454125	26.54499	
20:02:46	0	0	0	-0.126326	-20.98777	0	3	67	0	4	1.136252	0.4995222	26.49982	
20:02:48	47.43149	-122.308	0.021	-0.04481032	-7.743003	0	3	72	0	4	0.4472427	1.051304	26.47709	
20:02:49	47.43149	-122.308	0.021	0.0005821791	2.258797	0	3	76	0	4	0.3079421	0.9106213	26.38835	
20:02:51	47.43149	-122.308	0.021	0.0602688	6.33494	0	3	79	0	4	0.2022335	0.7721163	26.21713	
20:02:53	47.43149	-122.308	0.021	0.08168367	6.313107	0	4.170835	82	0	5	0.07853042	0.5525333	26.02455	
20:02:54	47.43149	-122.308	0.021	0.0777206	5.138127	0	4.968184	84	0	4	-0.0119049	0.4164702	25.84442	
20:02:56	47.43149	-122.308	0.021	0.06985454	4.542254	0	5.495737	86	0	4	-0.08127946	0.3986689	25.65656	
20:02:58	47.43149	-122.308	0.021	0.06489296	4.13616	0	5.71967	87	0	4	-0.1315883	0.3708738	25.46448	
20:03:00	47.43134	-122.308	0.021	0.3816371	91.57553	0	5.71967	88	0	4	-0.6424467	-2.014043	22.93196	
20:03:01	47.43134	-122.308	0.021	0.5748088	39.20036	0	5.712872	90	0	5	-0.264127	-0.8799964	15.66254	
20:03:03	47.43134	-122.308	0.021	0.2055369	-2.012997	0	5.259299	91	0	4	-0.1454398	-0.4681537	10.36081	
20:03:05	47.43134	-122.308	0.021	-0.04029753	-14.14758	0	5.157341	91	0	4	-0.1201531	-0.2527794	6.59719	
20:03:06	47.43134	-122.308	0.021	-0.09455059	-11.31381	0	5.169042	92	0	4	-0.1696572	-0.1461563	3.3854	
20:03:08	47.43134	-122.308	0.021	-0.06769632	-6.615725	0	4.893941	93	0	4	-0.2254685	-0.01533184	0.7180907	
20:03:10	47.43134	-122.308	0.021	-0.03699261	-4.820712	0	4.88454	94	0	4	-0.03472769	0.02476272	-1.144051	
20:03:11	47.43134	-122.308	0.021	-0.02837843	-4.874565	0	4.721825	94	0	4	-0.05139709	0.06537862	-2.565017	
20:03:13	47.43134	-122.308	0.021	-0.02357117	-4.066091	0	4.854101	95	0	4	-0.1252498	0.1025	-3.639809	
20:03:15	47.43134	-122.308	0.021	-0.01459303	-3.08683	0	4.958873	95	0	4	-0.1373914	0.1150723	-4.400503	
20:03:16	47.43134	-122.308	0.021	-0.008940881	-2.790429	0	5.078886	95	0	4	-0.1489959	0.1224081	-4.799237	
20:03:18	47.43134	-122.308	0.021	-0.004359429	-2.382347	0	5.189607	96	0	4	-0.191891	0.1299118	-4.980296	
20:03:20	47.43134	-122.308	0.021	-0.001816131	-2.216606	0	5.230916	96	0	4	-0.0760363	0.1267238	-5.080242	
20:03:22	47.43134	-122.308	0.021	-0.0006337187	-2.078044	0	5.258606	96	0	4	-0.08689284	0.1192414	-4.938152	
20:03:23	47.43134	-122.308	0.021	0.004005142	-1.429142	0	5.333905	97	0	4	-0.1532889	0.1206122	-4.679887	
20:03:25	47.43134	-122.308	0.021	0.006845904	-1.401042	0	5.467765	97	0	4	-0.08985174	0.1148185	-4.478307	
20:03:27	47.43134	-122.308	0.021	0.007981147	-1.203858	0	5.469615	97	0	4	-0.06843877	0.1072581	-4.093604	
20:03:28	47.43134	-122.308	0.021	0.006179916	-1.894903	0	5.485002	97	0	4	0.1304468	-0.2851819	-3.674042	
20:03:30	47.43134	-122.308	0.021	0.004644291	-1.677603	0	5.453663	97	0	4	0.0707655	0.166852	-3.397758	
20:03:32	47.43134	-122.308	0.02	-3.949172E-05	-2.282396	0	5.001012	98	0	4	0.1121967	0.1220599	-3.03561	
20:03:33	47.43134	-122.308	0.021	-0.0002685949	-1.657174	0	4.900824	98	0	4	-0.2417796	0.1522256	-2.70397	
20:03:35	47.43134	-122.308	0.021	0.005704909	-2.545231	0.35	5.082593	98	0	99	-0.455858	0.6723571	12.09418	
20:03:37	47.43142	-122.308	0.982	0.8459015	188.4215	8.41	11.57886	98	0	99	-5.050737	9.956752	9.168293	
20:03:39	47.43156	-122.3081	4.558	4.266325	252.5199	12.71	15.85828	98	0	99	-8.803185	7.683174	-9.252851	
20:03:40	47.43177	-122.3082	9.792	9.139758	260.695	16.4	19.69339	98	0	99	-3.907106	7.567631	-6.798149	
20:03:42	47.43205	-122.3083	14.821	14.02672	239.3648	19.05	22.99993	98	0	98	-3.248413	5.752681	-5.481768	
20:03:44	47.43233	-122.3084	18.096	17.88498	183.1402	21.45	25.54234	98	0	99	-4.768116	4.105671	-7.720116	
20:03:45	47.43266	-122.3085	20.685	20.69164	150.3942	23.73	28.44357	98	0	99	-3.304559	2.838314	-8.167594	
20:03:47	47.43304	-122.3086	22.619	22.63678	93.44957	25.63	30.25118	99	0	99	-2.470037	1.753239	-10.00966	
20:03:49	47.43345	-122.3088	24.003	23.97932	76.59315	26.78	31.26008	99	0	99	-1.609918	1.388105	-9.057549	
20:03:50	47.43345	-122.3088	24.003	24.25286	8.1159	26.78	31.34237	99	0	99	-0.7848614	-0.05396153	-7.821731	
20:03:52	47.43423	-122.3091	25.359	25.21082	118.0263	27.59	32.24343	99	0	99	-0.4611984	1.240803	-7.007166	
20:03:54	47.43462	-122.3093	20.831	26.86514	74.47418	27.69	32.2162	99	0	99	-0.8565689	0.6584048	-7.149525	
20:03:55	47.43504	-122.3094	27.605	27.05896	34.08882	27.83	32.34488	99	0	99	-0.5137713	0.4226962	-6.756071	
20:03:57	47.43549	-122.3096	27.897	27.992	36.04468	28.08	32.51451	99	0	99	-0.7793023	0.3557272	-6.102068	
20:03:59	47.43587	-122.3097	27.996	28.1073	6.189964	28.11	32.57194	99	0	99	-0.5067741	0.2029208	-5.009609	
20:04:01	47.43633	-122.3098	27.832	27.97231	-5.947366	28.21	32.75003	99	0	99	-0.329567	0.2366816	-4.183192	
20:04:02	47.43671	-122.3099	27.555	27.57643	-15.54807	28.17	32.81305	99	0	99	-0.4706181	0.3221834	-3.536902	
20:04:04	47.43713	-122.31	27.291	27.26331	-25.60708	28.05	32.87775	99	0	99	-0.3573147	0.1187798	-2.247116	
20:04:06	47.43759	-122.3101	26.853	26.83218	-28.32645	27.79	32.88341	99	0	99	-0.2741615	0.1003031	-1.205887	
20:04:07	47.43801	-122.3102	26.263	26.33414	-28.58481	27.72	32.97404	99	0	99	-0.4494239	0.08280642	-0.02069934	
20:04:09	47.43841	-122.3102	25.88	25.86898	-15.37963	27.8	33.10038	99	0	99	-0.4094791	0.2948401	0.02403768	
20:04:11	47.43883	-122.3103	25.799	25.65282	-18.04024	28.02	33.16911	99	0	99	-0.5108458	0.03407696	1.158053	
20:04:12	47.43926	-122.3103	25.685	25.68787	7.016704	28.05	33.08175	99	0	99	0.2964109	0.3012673	1.97174	
20:04:14	47.43967	-122.3103	25.677	25.64394	-2.436819	27.8	33.00131	99	0	99	-0.321979	0.1017817	3.235376	
20:04:16	47.44009	-122.3103	25.581	25.63968	3.346217	27.48	32.96616	99	0	99	-0.186712	0.145142	4.538434	
20:04:17	47.4405	-122.3103	25.59	25.61044	0.8029574	27.43	32.90911	99	0	99	-0.4481246	0.2319019	4.861588	
20:04:19	47.44093	-122.3103	25.56	25.58165	6.244187	27.62	33.16923	99	0	99	-0.4356202	0.2025896	6.050747	
20:04:21	47.44137	-122.3102	25.616	25.58428	12.50235	27.39	33.07214	99	0	99	-0.2824428	0.2381347	7.312594	
20:04:23	47.44172	-122.3102	25.703	25.69217	6.598871	27.36	32.97675	99	0	99	-0.4491279	0.1786261	8.135298	
20:04:24	47.4422	-122.3102	25.881	25.85189	6.405774	27.25	32.93024	99	0	99	-0.391434	0.1008053	9.241587	
20:04:26	47.44262	-122.3101	25.915	25.89982	10.89159	27.06	32.88883	99	0	99	-0.2463742	0.2057831	9.974284	
20:04:28	47.443	-122.31	26.105	26.05025	12.02986	27.36	32.90637	99	0	99	-0.6399868	0.207955	10.30517	
20:04:29	47.44343	-122.3099	26.412	26.38737	24.18973	27.16	32.81453	99	0	99	-0.3612768	0.2614477	11.864	
20:04:31	47.44381	-122.3099	26.586	26.54818	-7.675952	27.15	32.72434	99	0	98	-0.6377048	-0.1739534	12.13767	
20:04:33	47.44424	-122.3097	26.839	26.80942	30.92559	27.32	32.7892	99	0	98	0.06624512	0.4521168	12.96192	
20:04:34	47.44464	-122.3096	27.121	27.1109	16.05066	27.24	32.76046	99	0	99	-0.7854387	0.1985147	13.80918	
20:04:36	47.44505	-122.3095	27.346	27.3565	16.0459	27.24	32.77404	99	0	99	-0.5502587	0.1836742	14.58188	
20:04:38	47.44546	-122.3094	27.616	27.76181	132.3561	27.19	32.78246	99	0	4	18.26796	3.175068	16.711	
20:04:40	47.44575	-122.3092	32.292	32.18737	284.7873	20.08	24.88435	99	0	67	49.38807	8.73605	52.32844	
20:04:41	47.44582	-122.3087	41.188	39.38935	503.58	20.64	23.51054	99	0	55	39.82489	12.93347	97.84364	
20:04:43	47.44565	-122.3083	51.433	49.9849	567.6395	19.9	20.35348	99	0	48	12.95002	15.39952	123.7782	
20:04:45	47.44542	-122.3081	60.36	59.62017	457.9645	18.14	18.54307	99	0	52	-8.478835	13.15166	129.5417	
20:04:46	47.44533	-122.308	63.081	65.25564	310.7533	17.5	17.94712	99	0	52	-12.89544	12.2248	119.5269	
20:04:48	47.44509	-122.3076	70.4	68.13023	318.3624	15.43	16.33898	99	0	52	-12.07421	12.52427	107.4001	
20:04:50	47.44501	-122.3075	73.242	75.36699	401.7394	14.62	15.95881	99	0	52	6.788259	16.09438	99.98737	
20:04:51	47.4448	-122.3071	80.442	79.79458	309.4986	16.45	16.36139	99	0	52	14.20622	13.2017	115.8539	
20:04:53	47.44455	-122.3068	82.452	84.0891	328.0916	18.87	18.3377	99	0	52	-9.228693	13.84823	122.2478	
20:04:55	47.4443	-122.3066	85.922	86.52283	259.2197	18.29	17.66322	99	0	54	-14.85998	14.27589	109.4716	
20:04:56	47.44411	-122.3063	90.473	90.15621	280.6678	16.9	16.43109	99	0	56	-4.667367	15.39694	97.64469	
20:04:58	47.44396	-122.306	95.47	95.29174	298.8242	16.54	15.88087	99	0	59	3.758053	15.65569	100.6946	
20:05:00	47.44378	-122.3058	101.52	100.8806	261.3163	17.11	15.68137	99	0	63	1.968298	12.29934	105.7299	
20:05:02	47.4436	-122.3055	105.265	105.0915	212.2948	18.54	17.37459	99	0	62	0.8494017	8.855259	109.5139	
20:05:03	47.44339	-122.3052	109.053	108.9252	209.8978	19.54	18.38036	99	0	54	1.964508	7.846893	109.6041	
20:05:05	47.44318	-122.3048	112.447	112.1685	171.099	19.92	18.12173	99	0	52	2.464872	6.108676	114.6637	
20:05:07	47.44299	-122.3045	114.794	114.7081	133.3909	20.21	18.33299	99	0	44	2.320858	5.022366	115.7172	
20:05:08	47.44276	-122.3042	116.985	116.6357	2.958749	20.04	18.24447	99	0	9	25.66312	-0.2848089	122.6659	
20:05:10	47.4425	-122.3039	114.026	113.8428	-382.4401	21.61	16.92822	99	0	12	30.34357	-13.32427	147.9947	
20:05:12	47.44214	-122.3038	105.48	107.0243	-388.8845	24.9	18.42575	99	0	4	18.53219	-12.71474	175.0077	
20:05:13	47.44179	-122.3038	99.562	100.324	-179.7825	25.95	19.52967	99	0	4	4.629026	-4.454682	-170.9616	
20:05:15	47.44139	-122.3039	97.972	98.12115	-26.13608	24.45	18.2324	99	0	22	-6.453472	1.882954	-171.5237	
20:05:17	47.44124	-122.304	98.121	98.16391	29.13884	23.82	17.41664	99	0	29	-9.904079	4.295938	-179.3832	
20:05:19	47.44069	-122.304	100.438	99.85746	101.932	21.87	15.66548	99	0	33	-1.441204	5.852735	175.1179	
20:05:20	47.44035	-122.3041	102.331	102.0327	78.0415	21.26	15.1775	99	0	28	4.496768	3.994073	-179.1354	
20:05:22	47.44006	-122.3041	102.849	102.8015	1.546679	21.11	15.36475	99	0	24	0.9098227	1.532606	-176.0357	
20:05:24	47.43971	-122.3041	102.588	102.6214	-23.12382	21	15.48577	99	0	23	-1.762294	0.9579268	-176.7872	
20:05:25	47.43938	-122.3042	102.116	102.1846	-23.67451	20.82	15.56099	99	0	23	-1.837827	1.342338	-179.6716	
20:05:27	47.4391	-122.3042	101.699	101.7091	-31.01228	20.77	15.48962	99	0	23	-0.6326355	1.291661	177.3631	
20:05:29	47.43878	-122.3042	101.452	101.4723	2.981143	20.5	15.2982	99	0	24	0.677341	2.561369	177.2801	
20:05:30	47.43847	-122.3043	101.427	101.3337	-37.57206	20.36	15.08673	99	0	24	0.6344293	1.480155	175.3573	
20:05:32	47.43814	-122.3043	100.822	100.8022	-29.77917	20.67	15.29127	99	0	24	0.6467007	1.843552	174.6465	
20:05:34	47.43789	-122.3043	100.676	100.6388	-11.06655	20.66	15.23293	99	0	25	-5.308745	2.549753	171.8489	
20:05:35	47.43752	-122.3043	100.619	100.6187	4.076053	20.15	15.13887	99	0	26	-13.88827	2.766477	161.0468	
20:05:37	47.43725	-122.3042	100.511	100.6021	10.19607	19.37	15.25471	99	0	26	-12.57537	2.604179	143.8984	
20:05:39	47.43697	-122.3041	100.508	100.6312	9.090458	18.44	15.43849	99	0	24	-4.70108	2.581398	133.3045	
20:05:41	47.43672	-122.3039	100.516	100.5867	0.1924395	18.04	15.20841	99	0	25	1.927746	2.645705	134.487	
20:05:42	47.43647	-122.3037	100.509	100.4762	-6.090404	18.17	15.14758	99	0	26	2.170016	2.690661	136.9903	
20:05:44	47.43621	-122.3035	100.56	100.4887	-8.965691	18.3	15.11409	99	0	26	0.4850212	2.726246	135.8545	
20:05:46	47.43598	-122.3034	100.466	100.4147	-6.190277	18.29	15.1384	99	0	26	-0.8195124	2.621314	136.2629	
20:05:47	47.43574	-122.3032	100.462	100.4516	1.224883	18.24	15.1813	99	0	26	-0.6217163	2.783587	135.4446	
20:05:49	47.43549	-122.303	100.421	100.4108	-4.735972	18.17	15.1814	99	0	26	-0.1533098	2.625345	135.7476	
20:05:51	47.43531	-122.3029	100.422	100.3145	-19.72539	18.23	15.15231	99	0	26	-0.5954205	2.298214	131.4255	
20:05:52	47.43524	-122.3028	100.379	100.1059	-20.10875	18.28	15.18852	99	0	27	2.033267	2.406049	130.7956	
20:05:54	47.43471	-122.3024	100.274	100.0807	-12.45158	18.66	15.31392	99	0	26	4.445674	2.970053	131.4932	
20:05:56	47.43449	-122.3023	100.752	100.4808	10.80912	18.26	14.99759	99	0	27	-4.215749	3.342012	133.3268	
20:05:58	47.43427	-122.3021	101.084	100.9475	-6.231076	17.74	15.07728	99	0	25	-0.6130689	2.126969	126.8757	
20:05:59	47.43401	-122.3019	100.63	100.7153	-15.93148	17.76	15.26843	99	0	25	4.244389	1.776914	127.3209	
20:06:01	47.43375	-122.3016	100.225	100.3819	-4.891833	18.21	15.23567	99	0	26	6.688434	2.553756	133.5495	
20:06:03	47.43352	-122.3015	100.19	100.269	4.661377	18.51	14.89897	99	0	28	3.450417	2.931223	141.14	
20:06:04	47.43325	-122.3013	100.303	100.2075	-21.16405	18.77	14.90124	99	0	27	-1.740374	2.303277	137.685	
20:06:06	47.43297	-122.3011	100.045	100.0449	-5.212639	18.87	15.2761	99	0	26	-2.427411	2.71108	135.5226	
20:06:08	47.4328	-122.301	99.959	100.0734	21.18269	18.69	15.33186	99	0	26	0.01009837	3.459203	139.0021	
20:06:09	47.43277	-122.301	99.936	100.13	15.30151	18.66	15.32929	99	0	26	2.608457	3.647842	140.5538	
20:06:11	47.43224	-122.3006	99.51	99.88274	-18.31352	18.64	15.43097	99	0	27	-0.5867751	2.416935	137.3614	
20:06:13	47.43198	-122.3004	96.064	97.22916	-57.2794	18.85	16.13052	99	0	31	-1.197385	3.860096	127.7609	
20:06:14	47.43172	-122.3002	94.703	95.19479	-7.654048	18.68	16.09056	99	0	38	5.460608	8.552017	128.9538	
20:06:16	47.43145	-122.3	95.661	94.77928	-80.17444	20.22	15.80973	99	0	50	39.36271	6.705922	148.4453	
20:06:18	47.43115	-122.3	95.243	95.08212	11.42157	23.07	16.77409	99	0	56	52.13537	8.367904	-148.7762	
20:06:20	47.43093	-122.3003	96.877	95.83571	74.90538	20.32	17.28142	99	0	56	52.55747	11.51154	-73.09656	
20:06:21	47.431	-122.3006	104.532	102.3475	314.6946	12.56	16.01507	99	0	23	20.73652	14.89034	-21.80639	
20:06:23	47.43113	-122.3008	108.703	107.9612	9.185404	10.07	14.04787	99	0	11	-13.96567	-1.616675	-17.74685	
20:06:25	47.43123	-122.301	106.127	106.527	-132.8951	12.14	14.28914	99	0	15	-18.95575	-5.966095	-34.47778	
20:06:26	47.43133	-122.3013	102.998	103.7905	-57.96489	15.94	15.28043	99	0	19	-24.11405	-1.419123	-63.57802	
20:06:28	47.43132	-122.3016	102.897	103.0739	49.11212	18.32	15.48802	99	0	19	-21.25597	2.200508	-92.09419	
20:06:30	47.43121	-122.302	104.852	104.5482	99.14272	18.67	14.737	99	0	16	-5.721875	2.872214	-110.992	
20:06:31	47.43107	-122.3024	106.144	105.773	-12.82014	18.26	14.19427	99	0	15	7.33254	-2.367561	-108.0228	
20:06:33	47.43095	-122.3028	103.466	104.612	-52.16485	18.25	14.81145	99	0	16	8.510486	-2.958899	-96.47542	
20:06:35	47.43088	-122.3032	101.414	102.3849	-30.53812	18.06	15.04851	99	0	21	0.4005705	0.4074039	-88.53481	
20:06:37	47.43082	-122.3036	100.293	100.6795	-41.99767	18.26	15.15239	99	0	26	-5.819486	2.026687	-86.56625	
20:06:38	47.43081	-122.3037	100.177	100.0923	-6.681959	18.44	15.24555	99	0	27	-8.086265	3.546976	-91.80973	
20:06:40	47.43064	-122.3044	100.903	100.2707	-19.72321	18.85	14.89829	99	0	28	-2.498827	3.16561	-97.64884	
20:06:42	47.43053	-122.3048	101.589	100.97	-18.94911	18.85	14.99845	99	0	25	3.169979	1.730398	-92.94541	
20:06:43	47.43044	-122.3052	101.519	101.3371	-9.949397	18.67	15.26261	99	0	23	1.761807	0.842901	-89.08229	
20:06:45	47.43039	-122.3054	101.255	101.2038	-13.76435	18.67	15.45973	99	0	23	-1.316632	0.7479197	-88.56776	
20:06:47	47.43029	-122.306	99.805	100.3189	-37.17877	18.91	15.54839	99	0	25	-4.567244	1.150303	-92.91375	
20:06:48	47.43018	-122.3064	98.945	99.19918	-24.67634	19.59	15.46868	99	0	28	-4.656814	2.689076	-99.27421	
20:06:50	47.43007	-122.3068	98.79	98.75566	-12.42127	19.9	15.67284	99	0	29	2.445262	3.343506	-98.9958	
20:06:52	47.42996	-122.3072	98.808	98.80386	11.2744	19.62	15.55426	99	0	29	5.162071	4.036287	-96.68429	
20:06:53	47.42986	-122.3076	99.15	99.13677	16.3881	19.07	15.52197	99	0	28	2.762894	4.020872	-93.88181	
20:06:55	47.4298	-122.3079	99.386	99.2975	-4.146799	18.82	15.50236	99	0	28	-0.1378625	3.332781	-91.71171	
20:06:57	47.4297	-122.3084	99.248	99.2957	-8.229675	18.86	15.51876	99	0	28	-2.023676	3.182399	-90.45164	
20:06:59	47.42962	-122.3088	99.186	99.16409	-13.27647	19.09	15.56443	99	0	28	-2.742483	3.490356	-92.14297	
20:07:00	47.42952	-122.3092	100.837	99.43364	-1.043824	19.19	15.58902	99	0	28	-0.6686656	4.127073	-94.56873	
20:07:02	47.42943	-122.3096	102.472	102.3636	77.41238	18.99	15.25905	99	0	19	0.6694361	1.625376	-92.96004	
20:07:04	47.42934	-122.31	101.304	102.1086	-1.357845	18.87	15.33568	99	0	20	-1.07792	-0.4188695	-93.95302	
20:07:05	47.4293	-122.3102	100.731	100.9668	-10.09875	18.99	15.52439	99	0	23	1.038065	0.7331455	-91.08929	
20:07:07	47.42916	-122.3108	99.984	100.3684	23.58334	18.82	15.41762	99	0	25	-4.24385	3.556039	-93.51504	
20:07:09	47.42908	-122.3112	100.4	100.2044	-16.79628	19.09	15.27724	99	0	26	-2.803374	2.332399	-97.80174	
20:07:10	47.42896	-122.3116	100.406	100.351	10.37822	19.33	15.425	99	0	25	2.335633	2.996356	-96.22956	
20:07:12	47.42884	-122.3121	100.812	100.7111	11.25187	18.83	15.23009	99	0	25	3.530266	2.668867	-92.99673	
20:07:14	47.42877	-122.3124	100.759	100.7775	-5.213894	18.61	15.254	99	0	25	0.6007218	2.049896	-87.57166	
20:07:16	47.42871	-122.3128	100.452	100.4769	-78.23239	17.89	15.24635	99	0	32	36.31108	-1.095084	-73.01862	
20:07:17	47.42877	-122.3132	96.705	98.10696	-17.55316	14.18	16.43824	99	0	39	42.54605	2.360098	-13.4745	
20:07:19	47.42896	-122.3132	95.37	96.69606	122.2996	11.99	17.61905	99	0	31	33.66703	9.052319	38.51872	
20:07:21	47.42903	-122.313	97.668	97.93416	127.148	11.09	15.60019	99	0	33	0.2808525	12.51273	57.62098	
20:07:22	47.42908	-122.3128	100.293	99.2911	-86.60735	9.99	14.71288	99	0	33	-13.46229	3.734417	48.28217	
20:07:24	47.42917	-122.3126	99.562	99.51466	19.6171	9.87	15.37118	99	0	29	-4.322304	5.745509	34.91014	
20:07:26	47.42929	-122.3124	99.78	99.71768	-18.59359	9.73	14.81923	99	0	31	5.534815	4.367318	35.7019	
20:07:27	47.42939	-122.3123	99.351	99.34746	-20.74018	10.31	15.21076	99	0	31	5.725393	4.555103	42.42017	
20:07:29	47.42949	-122.3121	99.385	99.33288	28.04409	10.49	15.28964	99	0	31	0.7356284	5.930918	44.88399	
20:07:31	47.42956	-122.3119	100.017	99.89414	10.57773	10.01	15.05794	99	0	30	-2.531447	5.506061	44.63701	
20:07:32	47.42964	-122.3117	100.272	100.0045	-40.10862	9.91	15.00591	99	0	29	-2.361671	3.704917	43.91109	
20:07:34	47.42972	-122.3115	99.67	99.60786	-25.27982	10.28	15.10875	99	0	30	-1.00417	4.099245	43.09565	
20:07:36	47.42982	-122.3113	99.683	99.64609	28.75892	10.22	15.04797	99	0	31	-0.6330819	5.842536	43.16631	
20:07:37	47.42991	-122.3111	100.086	99.99979	-8.332605	10.12	14.7705	99	0	31	-1.21394	4.712421	44.16409	
20:07:39	47.42996	-122.311	100.024	99.88604	-14.2181	10.31	14.84288	99	0	31	-2.015806	4.449655	43.69441	
20:07:41	47.43005	-122.3108	99.793	99.86203	2.882035	10.47	14.93032	99	0	31	-2.023	5.182377	42.92453	
20:07:43	47.43016	-122.3106	99.441	99.79185	-3.488625	10.42	14.87142	99	0	31	-1.839855	5.551058	41.98389	
20:07:44	47.43024	-122.3104	98.929	99.11963	-13.84256	10.63	15.11741	99	0	33	-1.604063	5.53834	40.76028	
20:07:46	47.43026	-122.3103	98.796	99.11102	37.72089	10.62	15.11064	99	0	34	-1.415779	8.321372	41.52323	
20:07:48	47.43042	-122.31	99.025	98.97314	-63.80684	10.54	15.00336	99	0	35	-2.143852	4.485048	41.26667	
20:07:49	47.43052	-122.3098	98.206	98.38215	14.84537	10.94	15.51424	99	0	34	-1.676349	6.912729	39.52158	
20:07:51	47.4306	-122.3096	98.77	98.69464	19.12787	10.59	15.22306	99	0	35	-1.216167	7.303086	39.30083	
20:07:53	47.4307	-122.3094	99.203	99.09396	3.324414	10.47	15.08713	99	0	35	-1.193755	6.51615	39.87059	
20:07:54	47.43081	-122.3092	98.751	99.12144	1.956586	10.26	15.07559	99	0	35	-1.274936	6.905676	39.32253	
20:07:56	47.4309	-122.309	98.293	98.21793	-33.84523	10.02	14.84476	99	0	39	-1.688659	6.835731	39.02453	
20:07:58	47.43098	-122.3089	99.601	98.98891	43.84529	9.99	14.93481	99	0	37	-1.54169	7.94823	38.32986	
20:07:59	47.43108	-122.3087	101.226	100.7242	41.46353	9.86	14.80223	99	0	33	-0.655548	5.897352	38.48629	
20:08:01	47.43118	-122.3085	101.896	101.751	14.35494	9.92	14.84482	99	0	29	-1.546487	3.849447	39.29247	
20:08:03	47.43127	-122.3083	101.779	101.9066	10.21271	9.85	15.02238	99	0	28	-11.05105	3.545549	33.92206	
20:08:04	47.43139	-122.3082	101.554	101.6372	-20.12032	9.59	15.097	99	0	29	-19.15813	2.884073	18.49441	
20:08:06	47.43152	-122.3082	101.206	101.4313	29.28759	9.98	15.22513	99	0	27	7.115298	4.825219	3.999289	
20:08:08	47.43168	-122.3082	100.953	100.8483	-82.17934	9.5	14.3955	99	0	33	30.20641	1.653589	32.09975	
20:08:09	47.43177	-122.308	99.94	100.2405	25.42946	11.62	14.96276	99	0	35	30.05326	5.493897	67.98747	
20:08:11	47.43174	-122.3077	100.432	100.4618	24.87172	15.25	15.37397	99	0	34	34.65327	5.761316	105.0075	
20:08:13	47.43153	-122.3074	100.856	100.6671	-7.6169	19.16	15.71427	99	0	34	40.41621	3.842556	153.1421	
20:08:15	47.43122	-122.3074	100.649	100.6263	-28.07185	21.44	16.90169	99	0	31	45.34131	2.243459	-151.3086	
20:08:16	47.43098	-122.3077	99.715	100.0516	-28.49308	19.44	16.90531	99	0	33	46.21288	2.282885	-86.73569	
20:08:18	47.431	-122.3081	98.825	99.35905	55.61895	13.21	15.417	99	0	38	40.22746	7.307428	-25.39553	
20:08:20	47.43115	-122.3082	100.687	100.6159	148.3621	9.43	13.74833	99	0	31	7.090897	11.47091	9.208452	
20:08:21	47.43128	-122.3082	102.439	101.88	-48.45939	9.09	13.25659	100	0	31	-12.87805	3.122668	2.785144	
20:08:23	47.43143	-122.3083	101.735	101.7697	-18.08512	10.33	14.31601	100	0	26	7.773566	3.55151	-7.001235	
20:08:25	47.43157	-122.3083	100.929	101.0068	-54.27178	9.6	14.46263	100	0	31	26.9425	2.17838	17.37677	
20:08:26	47.43169	-122.3082	100.75	100.7521	20.81399	9.75	14.37323	100	0	32	26.12089	5.024642	49.00239	
20:08:28	47.43173	-122.308	101.484	101.1976	-9.865765	11.67	14.34844	100	0	30	22.52774	3.73244	76.76742	
20:08:30	47.43166	-122.3077	101.143	101.0059	-55.83784	15.09	14.79134	100	0	30	30.42089	1.571151	108.2227	
20:08:32	47.43147	-122.3075	100.009	100.1685	-44.96376	18.86	15.82432	100	0	32	38.90214	1.855892	154.1375	
20:08:33	47.43116	-122.3075	98.887	99.26329	-23.52173	21.41	16.56115	100	0	36	44.94715	2.390348	-149.3313	
20:08:35	47.43093	-122.3078	97.656	98.23499	-24.16284	19.49	16.68766	100	0	39	47.52299	3.05701	-83.4472	
20:08:37	47.43095	-122.3082	97.308	97.81125	92.69194	13.46	15.35312	100	0	44	42.7597	8.524538	-16.89816	
20:08:38	47.43108	-122.3082	99.615	100.0303	199.6926	8.69	13.62611	100	0	35	9.198636	12.80268	21.19733	
20:08:40	47.4312	-122.3082	102.326	101.6521	-61.00892	8.16	13.07153	100	0	33	-12.41975	2.127833	16.72759	
20:08:42	47.43135	-122.3082	101.249	101.2904	-30.61899	10.08	13.51971	100	0	34	-14.73551	2.490101	-1.624198	
20:08:43	47.43151	-122.3083	100.861	100.9844	-26.52486	10.71	13.94736	100	0	36	26.91119	2.85723	1.970832	
20:08:45	47.43165	-122.3083	100.2	100.1912	-28.21382	10.24	14.90126	100	0	35	28.91678	3.614258	34.88197	
20:08:47	47.43173	-122.3081	100.088	100.0349	-21.01909	11.15	15.09024	100	0	34	28.57638	3.66333	68.44824	
20:08:48	47.43172	-122.3078	99.748	99.80074	-38.97772	15.19	15.99609	100	0	33	28.84012	2.017731	102.0249	
20:08:50	47.43154	-122.3075	100.138	100.0135	16.68429	19.04	16.94115	100	0	30	39.66238	3.602574	144.1515	
20:08:52	47.43121	-122.3074	99.611	99.83056	-52.95697	21.97	17.76745	100	0	27	44.23976	0.8823912	-161.6069	
20:08:54	47.43096	-122.3077	97.426	98.4182	-58.91806	21.18	17.71308	100	0	34	46.51426	0.6766613	-97.58102	
20:08:55	47.43092	-122.3081	95.457	96.64178	81.28836	16.25	16.88509	100	0	42	45.33836	7.89343	-32.73748	
20:08:57	47.43108	-122.3082	97.742	98.00828	265.9941	10.29	14.78046	100	0	38	17.94548	17.05797	17.35731	
20:08:59	47.43122	-122.3082	102.694	101.39	-1.725703	8.45	12.79685	100	0	35	-13.74014	6.483323	14.9541	
20:09:00	47.43137	-122.3082	102.426	102.1341	-34.8968	10.54	13.0352	100	0	33	-10.8858	3.665716	-3.184341	
20:09:02	47.43151	-122.3083	101.639	101.6763	-82.36747	11.05	13.92538	100	0	33	25.89909	1.84157	4.727383	
20:09:04	47.43166	-122.3083	100.522	100.7798	8.487866	10.43	14.25686	100	0	37	29.92175	5.721092	39.28592	
20:09:05	47.43174	-122.308	100.937	100.7182	-20.42798	12.7	15.29268	100	0	32	29.48858	5.041776	71.79118	
20:09:07	47.4317	-122.3078	100.91	100.495	-58.72537	15.48	16.05636	100	0	31	33.74256	3.916607	105.9159	
20:09:09	47.43151	-122.3075	100.244	99.99763	-72.08812	19.3	17.12945	100	0	30	40.33504	3.125613	148.7306	
20:09:11	47.43119	-122.3075	99.219	99.16875	-69.53658	21.72	17.5913	100	0	32	45.34223	3.008749	-157.8743	
20:09:12	47.43095	-122.3077	98.507	98.48583	-22.55055	20.55	17.15768	100	0	37	47.19532	4.808499	-96.13421	
20:09:14	47.43093	-122.3081	98.638	98.62335	69.49081	14.54	15.09746	100	0	43	44.50738	8.580159	-28.15118	
20:09:16	47.43107	-122.3083	101.344	101.0394	191.0501	8.89	13.35942	100	0	34	14.46587	13.01254	16.23853	
20:09:17	47.43121	-122.3082	103.556	102.888	-68.44347	8.51	12.77597	100	0	30	-10.8917	1.750695	14.48331	
20:09:19	47.43133	-122.3082	102.104	102.2818	-47.43281	10.15	13.25209	100	0	31	-13.22468	1.753805	-2.087892	
20:09:21	47.43149	-122.3083	101.146	101.4426	-34.32942	10.97	13.84593	100	0	31	20.46813	2.808873	-1.332866	
20:09:22	47.43166	-122.3083	100.295	100.5515	15.29495	10.41	14.40335	100	0	35	30.14499	5.578304	33.03357	
20:09:24	47.43174	-122.3081	100.772	100.6979	5.642757	12.1	14.98692	100	0	32	29.36054	5.787907	66.15959	
20:09:26	47.43171	-122.3078	100.793	100.5317	-51.49834	14.96	16.04771	100	0	29	32.76788	3.867918	101.0138	
20:09:28	47.43152	-122.3075	99.855	99.78581	-75.45249	19.02	16.96741	100	0	29	39.62755	2.64224	143.6582	
20:09:29	47.43121	-122.3074	98.642	98.69638	-82.97175	21.89	18.00844	100	0	31	44.79968	2.743003	-166.2864	
20:09:31	47.43092	-122.3077	97.334	97.39815	-67.31506	20.83	17.63972	100	0	39	48.04848	3.495525	-104.0117	
20:09:33	47.43088	-122.3081	97.373	97.39481	78.72408	15.88	15.25963	100	0	49	45.89968	9.428465	-34.37365	
20:09:34	47.43101	-122.3082	100.802	100.3708	235.3135	8.17	12.64281	100	0	39	22.8167	14.3217	18.04786	
20:09:36	47.43111	-122.3082	103.543	102.99	-38.1771	7.73	12.62994	100	0	30	-5.367763	2.019875	24.37694	
20:09:38	47.43123	-122.3081	101.98	102.2886	-47.36164	9.2	13.94676	100	0	29	-15.24763	1.578639	14.10622	
20:09:39	47.43137	-122.3081	100.768	101.1477	-20.47117	10.53	14.2001	100	0	32	-20.07651	3.303918	-8.380551	
20:09:41	47.43155	-122.3082	100.919	100.955	21.04307	11.13	13.99466	100	0	12	1.757873	4.669899	-11.49559	
20:09:43	47.43168	-122.3083	99.143	98.713	-389.2196	10.87	12.99312	100	0	4	-15.86395	-12.03712	-13.94076	
20:09:44	47.4318	-122.3085	91.875	91.26509	-534.2201	13.36	14.5327	100	0	4	-17.94208	-15.54886	-27.85116	
20:09:46	47.43196	-122.3088	81.748	82.24411	-323.8904	17.59	17.09799	100	0	4	-19.67517	-6.807676	-49.17316	
20:09:48	47.43207	-122.3092	79.17	78.91145	-25.94748	18.55	16.17514	100	0	19	-13.66834	3.02565	-69.04232	
20:09:50	47.43209	-122.3096	81.731	80.7517	78.70439	17.2	14.60476	100	0	25	4.236645	5.042069	-71.75421	
20:09:51	47.43212	-122.31	82.963	82.68965	26.72134	15.72	14.09404	100	0	24	11.069	1.765136	-59.33453	
20:09:53	47.43218	-122.3102	82.402	82.75267	-7.665272	14.82	14.05901	100	0	24	5.291783	0.7862316	-46.5492	
20:09:55	47.43229	-122.3106	81.243	81.8047	-17.56594	14.46	14.35095	100	0	25	-2.682232	1.7152	-43.78943	
20:09:56	47.43238	-122.3108	80.467	80.70673	-21.78597	14.87	15.07808	100	0	26	-6.495749	2.81872	-46.55208	
20:09:58	47.4325	-122.3112	80.486	80.43472	3.651622	15.25	15.29881	100	0	26	-4.551919	3.891061	-50.95667	
20:10:00	47.43258	-122.3115	80.813	80.65281	7.414234	15.16	15.25969	100	0	25	0.5696375	3.74664	-47.08267	
20:10:01	47.43267	-122.3118	81.057	80.9296	-0.602223	14.61	15.17928	100	0	25	1.485777	3.024151	-43.77123	
20:10:03	47.43274	-122.3121	80.733	80.78364	-20.52077	14.46	15.30132	100	0	25	-0.4401051	2.247224	-44.71106	
20:10:05	47.43283	-122.3124	80.376	80.45704	-4.522529	14.49	15.40724	100	0	25	-1.276907	2.920109	-44.3349	
20:10:07	47.43293	-122.3127	80.263	80.37917	11.68132	14.42	15.37106	100	0	26	-1.248566	3.64757	-42.97264	
20:10:08	47.43302	-122.313	80.716	80.78536	117.8568	13.97	15.51797	100	0	52	22.683	9.375682	-32.75263	
20:10:10	47.43317	-122.3132	85.347	84.90363	353.2078	9.01	13.86371	100	0	53	26.8786	19.52083	5.549669	
20:10:17	47.43329	-122.3131	91.775	88.54279	61.5458	6.57	11.52946	44	0	71	58.0209	0.2353883	46.89824	
20:10:18	47.43343	-122.313	94.759	85.88098	-1623.049	11.67	14.63409	46	0	77	164.9868	-30.84845	64.46081	
20:10:20	47.43332	-122.3127	92.515	75.83865	-875.3448	20.02	19.41604	48	0	79	-11.04075	19.73256	159.0208	
20:10:22	47.43315	-122.3125	103.872	96.14332	342.4139	15.47	13.4281	50	0	83	-55.70113	21.20047	105.8878	
20:10:23	47.43313	-122.3121	107.295	110.3071	639.3549	15.64	18.23421	52	0	87	-48.1459	7.847862	46.65601	
20:10:25	47.43337	-122.312	106.372	113.4753	830.0262	19.01	22.98533	54	0	86	-52.26649	-4.73149	-17.40906	
20:10:27	47.43349	-122.3122	121.783	125.266	1755.897	13.31	13.37873	56	0	85	-31.84375	-0.6941241	-142.0628	
20:10:29	47.43338	-122.3124	142.721	144.5345	633.414	12.48	11.46809	58	0	93	2.776416	7.555726	-167.4538	
20:10:30	47.43316	-122.3126	146.578	143.2822	-1015.935	20.03	18.67753	60	0	96	71.11363	24.90865	-135.6604	
20:10:32	47.43284	-122.313	120.065	119.6237	-1975.966	31.48	28.60516	62	0	70	52.35656	26.74322	-137.9027	
20:10:34	47.43277	-122.3131	112.926	90.82358	-2534.735	31.57	28.71412	64	0	82	58.02754	20.42626	-139.1329	
20:10:35	47.43222	-122.3143	60.177	60.1974	-3021.676	44.02	40	66	0	4	43.00038	25.16201	-136.8755	
20:10:37	47.43177	-122.3151	46.794	28.7353	-2835.947	37.21	31.89539	67	0	56	43.28535	18.36149	-154.525	
20:10:39	47.43143	-122.3157	35.196	22.75852	-1402.137	37.13	31.94585	69	0	14	42.03509	16.88637	-162.4889	
20:10:40	47.43111	-122.3163	26.869	21.74074	-591.7783	34.44	27.4886	71	0	23	42.86288	16.31106	-161.6701	
20:10:42	47.43088	-122.317	21.424	20.61925	-107.3616	31.16	22.76047	72	0	42	43.13433	13.48537	-146.3389	
20:10:44	47.43081	-122.3175	21.541	23.38714	474.428	28.22	18.8752	74	0	52	45.06981	13.84024	-108.0494	
20:10:46	47.43093	-122.3181	33.164	32.51329	914.477	16.93	12.51426	75	0	56	49.71427	19.88597	-58.06704	
20:10:47	47.43107	-122.3182	45.14	47.87342	1113.026	9.12	14.33479	77	0	56	26.66597	22.92913	-12.138	
20:10:49	47.43118	-122.3181	52.697	57.76975	860.5112	8.88	15.87214	78	0	48	3.982014	11.20162	4.424256	
20:10:51	47.4313	-122.318	56.825	59.9555	686.5447	9.54	16.67115	79	0	52	-3.681731	9.317992	15.06752	
20:10:52	47.43138	-122.3178	60.501	65.559	798.4257	9.55	17.35716	81	0	50	-5.213158	15.55996	22.82218	
20:10:54	47.43142	-122.3176	64.592	69.21036	672.5127	9.61	16.85816	82	0	57	-11.62472	14.74586	24.93164	
20:10:56	47.43146	-122.3174	69.855	73.22588	643.1028	9.25	14.94906	83	0	66	-14.49638	16.38206	22.83488	
20:10:57	47.4315	-122.3172	76.23	78.90566	671.1937	9.31	13.43423	84	0	78	-13.19124	18.37874	20.85791	
20:10:59	47.43156	-122.317	84.537	86.06098	694.2362	9.97	13.67627	85	0	81	-10.89485	18.18933	21.01365	
20:11:01	47.43159	-122.3168	89.774	94.23646	735.5256	10.25	14.20266	86	0	83	-10.76685	18.15756	21.24828	
20:11:02	47.43167	-122.3166	102.258	97.26717	657.8603	10.53	14.69753	87	0	88	-10.72198	18.77511	21.90266	
20:11:04	47.43174	-122.3163	112.059	113.3438	934.6256	11.39	15.80438	88	0	82	-10.25011	16.28447	23.1805	
20:11:06	47.43181	-122.3161	120.478	124.197	851.2714	11.65	16.65882	88	0	82	-9.423344	14.63994	23.82872	
20:11:08	47.4319	-122.3159	128.915	131.712	701.7391	11.93	17.42402	89	0	82	-8.100258	14.5027	24.89285	
20:11:09	47.43204	-122.3157	140.972	140.8288	706.2026	12.11	18.13861	90	0	81	-5.853859	14.63012	26.26218	
20:11:11	47.43215	-122.3154	149.177	149.9199	631.3613	12.79	18.86331	90	0	79	-4.522526	11.64881	28.78439	
20:11:13	47.43229	-122.3152	156.792	157.2676	515.8386	14.17	19.63885	91	0	76	-4.245197	9.289675	32.11386	
20:11:14	47.43243	-122.315	162.38	163.1402	449.3388	15.19	20.19403	92	0	62	-3.792594	7.446919	34.51106	
20:11:16	47.43258	-122.3147	166.806	167.819	335.7908	15.06	19.99998	92	0	49	-3.552832	4.652522	36.53349	
20:11:18	47.43272	-122.3145	169.417	170.5695	212.9281	14.74	19.46942	93	0	41	-3.84754	1.794332	38.06744	
20:11:19	47.43288	-122.3142	170.413	171.5172	130.2941	14.44	19.07037	93	0	36	-3.883231	0.6858009	38.84834	
20:11:21	47.43302	-122.314	170.17	171.3581	87.11335	14.17	17.96981	93	0	39	-3.83419	0.4499635	38.34212	
20:11:23	47.43317	-122.3138	169.704	170.8004	87.54582	13.62	18.05039	94	0	37	-4.048659	2.118943	37.68803	
20:11:25	47.4333	-122.3135	169.415	170.2641	25.86147	13.13	17.87049	94	0	35	-4.128683	1.42262	38.38727	
20:11:26	47.43345	-122.3133	168.529	169.2573	1.988086	12.76	17.7946	95	0	35	-14.1977	1.744693	33.6412	
20:11:28	47.43362	-122.3132	167.695	168.2953	25.43898	12.43	17.75186	95	0	36	-17.46169	2.938767	19.87726	
20:11:30	47.43379	-122.3131	167.619	168.1365	50.4727	12.02	17.26544	95	0	36	-12.31632	4.484887	6.227836	
20:11:31	47.43398	-122.3131	167.488	167.8791	16.16262	11.9	16.9741	96	0	35	-4.283301	3.903453	-1.096922	
20:11:33	47.43414	-122.3132	167.065	167.454	16.2238	11.7	16.58601	96	0	36	0.7318249	4.383418	-0.9868459	
20:11:35	47.43432	-122.3132	166.676	167.0894	27.59464	11.35	16.13271	96	0	39	1.295818	5.138873	2.699573	
20:11:36	47.43447	-122.3132	166.61	166.9828	26.12441	11.04	15.89165	96	0	39	-1.658092	5.790894	4.003229	
20:11:38	47.43468	-122.3132	160.242	163.47	-131.1446	11.08	15.88603	97	0	49	-2.982618	5.637609	3.148224	
20:11:40	47.43482	-122.3132	167.995	165.8474	206.1882	11.48	16.17072	97	0	42	-3.851048	11.31911	0.4991092	
20:11:41	47.43497	-122.3133	171.528	171.4077	157.379	10.76	15.28884	97	0	28	-0.196272	3.857939	1.914215	
20:11:43	47.43516	-122.3133	171.457	172.2793	6.25009	10.44	15.27085	97	0	24	0.09577445	-0.7380295	4.364741	
20:11:45	47.43527	-122.3133	170.223	170.6506	-32.31352	10.57	15.11665	97	0	28	-1.328508	-0.1301448	5.671118	
20:11:47	47.43541	-122.3133	168.556	170.0509	-25.83452	10.8	15.36887	97	0	27	-3.922199	1.198129	5.710119	
20:11:48	47.43563	-122.3133	166.583	167.0484	-56.17868	11.43	16.13671	98	0	30	-3.390488	3.183702	2.942617	
20:11:50	47.43581	-122.3134	166.497	166.4976	23.94279	11.25	15.89755	98	0	32	-1.76455	5.745462	1.508756	
20:11:52	47.436	-122.3134	167.592	167.3994	41.95797	10.61	15.40715	98	0	31	-0.4883737	5.343451	2.495452	
20:11:53	47.43613	-122.3134	167.893	167.8477	-11.07393	10.48	15.33007	98	0	29	-0.7278907	3.198658	2.023661	
20:11:55	47.43631	-122.3134	167.28	167.5552	0.8726087	10.71	15.50399	98	0	29	-1.088647	3.373495	2.939543	
20:11:57	47.43647	-122.3135	167.25	167.4872	35.386	10.46	15.39552	98	0	29	-1.999271	4.659905	3.606767	
20:11:58	47.43665	-122.3135	167.541	167.597	12.8373	10.14	15.22346	98	0	29	-1.597319	4.074878	3.263218	
20:12:00	47.43679	-122.3135	167.556	167.611	-5.568789	9.97	15.20911	98	0	28	-0.8007864	3.784008	2.596991	
20:12:02	47.43694	-122.3135	166.958	167.1301	-27.42661	10.27	15.22894	98	0	30	-0.9584933	3.039517	2.114299	
20:12:04	47.43709	-122.3135	166.54	166.7314	-3.892488	10.36	15.25382	99	0	4	11.79106	2.871344	4.460308	
20:12:05	47.43724	-122.3135	163.955	163.8914	-367.8562	9.31	14.23956	99	0	4	21.99207	-11.56396	22.86039	
20:12:07	47.43733	-122.3134	158.029	156.8604	-489.6946	10.8	15.09645	99	0	4	18.49443	-15.34492	45.33444	
20:12:09	47.43742	-122.3133	150.381	148.8535	-386.5334	13.63	17.10347	99	0	4	22.12655	-10.05074	62.94785	
20:12:10	47.43746	-122.3128	142.077	142.433	-358.2251	16.6	18.0443	99	0	4	9.470318	-7.182868	81.73155	
20:12:12	47.4374	-122.3124	136.795	138.8571	-383.9243	15.96	17.32944	99	0	4	-11.01991	-6.185511	88.55916	
20:12:14	47.43738	-122.312	129.2	129.4067	-612.3918	16.51	17.7911	99	0	4	1.15694	-11.89728	85.07957	
20:12:15	47.43736	-122.3117	123.094	123.2758	-183.5404	17.4	19.26504	99	0	4	-0.8921114	-0.6683106	83.51875	
20:12:17	47.43732	-122.3113	121.78	121.7081	-44.54327	15.19	16.72503	99	0	22	-6.024128	3.874665	79.0862	
20:12:19	47.43731	-122.311	121.569	121.3497	-15.76292	13.97	15.82141	99	0	27	-8.247761	4.249098	71.86223	
20:12:20	47.43731	-122.3107	121.826	121.7992	30.73835	12.84	15.06327	99	0	29	-5.008593	5.078267	65.54789	
20:12:22	47.43732	-122.3104	122.029	122.0567	-4.998852	12.44	15.03971	99	0	28	-1.285589	3.64898	64.89224	
20:12:24	47.43733	-122.3101	121.592	121.6817	-18.09843	12.65	15.25033	99	0	27	-0.03030843	3.303835	66.85756	
20:12:26	47.43733	-122.3098	120.998	121.2287	6.454374	12.8	15.36	99	0	27	-1.466648	4.422114	65.81522	
20:12:27	47.43733	-122.3095	120.919	121.006	-1.086713	12.57	15.23491	99	0	28	-3.15582	4.385111	65.03635	
20:12:29	47.43733	-122.3092	120.818	120.8715	-2.987927	12.27	15.26404	99	0	28	-3.544254	4.336378	63.82576	
20:12:31	47.43733	-122.309	120.465	120.559	-25.20127	12.15	15.30765	99	0	28	-2.326317	3.728652	64.94092	
20:12:32	47.43734	-122.3088	120.167	120.2655	18.54238	12.21	15.38456	99	0	28	-0.9114097	4.780365	60.42563	
20:12:34	47.43734	-122.3084	120.704	120.6479	35.2944	11.49	14.55477	99	0	29	-1.735363	6.124584	56.27832	
20:12:36	47.43734	-122.3082	120.644	120.4788	-48.91793	11.71	14.71753	99	0	29	-2.258759	2.871689	60.18078	
20:12:37	47.43735	-122.3079	119.818	120.0117	0.035151	12.06	15.13006	99	0	29	-1.472806	4.491143	61.59514	
20:12:39	47.43735	-122.3078	119.781	119.911	14.57791	12.06	15.10906	99	0	29	-0.116048	5.246017	62.41649	
20:12:41	47.43736	-122.3074	120.025	119.9989	8.746858	11.8	14.69983	99	0	31	-0.6465693	5.332763	63.80695	
20:12:42	47.43736	-122.3071	120.06	120.0593	9.243956	11.81	14.85468	99	0	30	-1.52172	4.958867	62.76458	
20:12:44	47.43736	-122.3068	120.145	120.1165	-13.18376	11.72	15.05043	99	0	29	-0.6721388	4.273171	66.77247	
20:12:46	47.43737	-122.3066	119.83	119.9457	10.25339	11.86	15.15128	99	0	29	-0.8371401	4.780034	64.80065	
20:12:48	47.43737	-122.3063	119.732	119.9195	-0.1824177	11.89	15.11216	99	0	29	-0.4988138	4.712421	67.69404	
20:12:49	47.43737	-122.306	119.399	119.5616	5.389942	12.14	15.27903	99	0	30	-0.7091264	5.106323	67.83339	
20:12:51	47.43736	-122.3058	119.527	119.573	11.80841	12.04	15.16169	99	0	30	-2.112917	5.359727	67.8194	
20:12:53	47.43736	-122.3055	119.605	119.6071	-4.655587	11.96	15.13871	99	0	30	-2.649346	4.564026	67.17278	
20:12:54	47.43736	-122.3052	119.633	119.6476	10.98912	11.77	15.07053	99	0	30	-2.081257	5.140225	66.4521	
20:12:56	47.43737	-122.3049	119.881	119.8309	12.17796	11.67	14.9305	99	0	30	-0.4756217	5.059738	66.29404	
20:12:58	47.43738	-122.3047	120.187	120.1234	1.66527	11.7	14.80939	99	0	7	10.34381	3.728384	67.55231	
20:12:59	47.43736	-122.3044	117.369	117.5749	-367.224	12.99	13.96495	99	0	4	22.85296	-11.8144	85.3865	
20:13:01	47.43726	-122.3041	109.689	110.5063	-475.9482	17.18	15.65023	99	0	4	23.98987	-13.92497	110.1455	
20:13:03	47.43708	-122.3038	102.656	103.1622	-258.3334	20.98	17.82039	99	0	4	24.05934	-5.16057	138.7697	
20:13:05	47.43673	-122.3037	99.56	99.94779	-2.91683	22.07	17.6574	99	0	11	10.14307	4.519307	160.7723	
20:13:06	47.43642	-122.3036	100.866	100.4279	15.14666	20.13	15.28942	99	0	24	-11.86091	5.685088	160.9	
20:13:08	47.43611	-122.3035	101.386	101.0355	-13.4883	18.74	14.48856	99	0	26	-17.29845	3.618556	140.0952	
20:13:10	47.43586	-122.3033	101.6	101.6603	55.30173	17.27	14.56515	99	0	24	-6.449167	5.148388	125.2912	
20:13:11	47.43567	-122.3031	101.972	102.0373	-0.5869042	16.9	14.2736	99	0	25	5.506602	3.10307	124.6363	
20:13:13	47.43546	-122.3029	101.668	101.7113	-14.1714	17.71	14.51174	99	0	25	6.071487	2.853156	133.9195	
20:13:15	47.43517	-122.3027	101.656	101.6988	19.74394	18.29	14.50928	99	0	25	3.554991	4.095649	139.7895	
20:13:16	47.43492	-122.3026	101.727	101.6545	-23.38407	18.26	14.4964	99	0	25	-4.65503	2.413508	135.9308	
20:13:18	47.43468	-122.3024	101.367	101.4191	0.8999234	17.95	14.75271	99	0	25	-3.007793	3.060909	131.9213	
20:13:20	47.43444	-122.3022	101.375	101.4471	7.80495	17.67	14.71546	99	0	25	1.258117	3.075777	132.9905	
20:13:22	47.43422	-122.3021	101.256	101.2488	-18.2611	17.86	14.70428	99	0	26	1.724163	2.379651	132.3031	
20:13:23	47.43395	-122.3018	101.114	101.1357	2.951894	18.12	14.86281	99	0	25	1.529915	3.004995	136.8924	
20:13:25	47.4337	-122.3017	101.209	101.1298	-6.292338	18.16	14.86112	99	0	25	-0.07218849	2.636598	138.3814	
20:13:27	47.43345	-122.3015	101.096	101.0534	-6.947671	18.17	14.96287	99	0	25	-1.019314	2.512755	139.0336	
20:13:28	47.43318	-122.3013	100.743	100.786	-28.21242	18.26	15.01394	99	0	25	-2.154648	2.010189	133.4961	
20:13:30	47.43296	-122.3012	100.362	100.4237	-15.27967	18.37	15.16663	99	0	26	-1.028198	2.527851	132.8031	
20:13:32	47.4327	-122.301	100.215	100.2759	13.99516	18.28	15.21725	99	0	26	0.03020644	3.49596	137.8147	
20:13:33	47.43244	-122.3008	100.53	100.4859	8.086818	18.09	14.9967	99	0	27	0.1919896	3.336458	140.4013	
20:13:35	47.43219	-122.3006	99.997	100.519	-1.563583	18.07	15.06274	99	0	26	-1.327317	2.484591	140.5714	
20:13:37	47.43196	-122.3004	97.946	98.84677	-43.50317	18.11	15.23318	99	0	30	-1.416478	3.279386	139.4801	
20:13:38	47.43171	-122.3002	96.485	96.8764	-64.69223	18.27	15.25922	99	0	38	20.2061	5.017838	141.1961	
20:13:40	47.43139	-122.3001	94.635	94.89297	-108.3501	21.42	15.9363	99	0	52	45.68695	4.748626	-171.6115	
20:13:42	47.43114	-122.3004	94.345	94.13587	29.18534	21.3	17.11392	99	0	55	50.51877	9.51429	-98.85014	
20:13:44	47.43111	-122.3008	100.075	98.27225	279.4128	14.99	16.0407	99	0	36	27.10357	15.39983	-38.58816	
20:13:45	47.4312	-122.301	105.466	104.401	86.58811	11.82	13.92648	99	0	24	-13.13488	3.43345	-29.26611	
20:13:47	47.43129	-122.3013	104.65	104.7984	-74.7933	14.57	14.02037	99	0	23	-22.05167	-2.852242	-49.23086	
20:13:49	47.43131	-122.3016	102.759	103.3883	-7.303266	18.52	15.65945	99	0	18	-23.39046	0.3103132	-76.03215	
20:13:50	47.43123	-122.3021	102.928	103.0327	38.00483	20.15	16.1543	99	0	16	-15.22286	2.810699	-99.35725	
20:13:52	47.43108	-122.3025	103.759	103.7147	23.69654	20.07	15.7445	99	0	15	2.390526	1.362013	-103.3036	
20:13:54	47.43096	-122.3029	102.458	103.1716	-34.42384	19.64	15.49491	99	0	18	8.985622	-0.3719155	-95.75565	
20:13:55	47.43085	-122.3033	100.566	101.3849	-18.24215	18.97	15.62849	99	0	22	5.431603	2.051462	-89.88512	
20:13:57	47.43079	-122.3036	100.331	100.5774	6.771739	18.47	15.39411	99	0	25	-2.020558	4.408929	-89.33398	
20:13:59	47.43071	-122.304	100.82	100.6232	-6.48889	18.17	14.89344	99	0	27	-4.367869	3.969587	-95.16386	
20:14:01	47.4306	-122.3045	101.191	100.7629	-14.07638	18.51	15.00755	99	0	26	-1.26839	3.309932	-97.59544	
20:14:02	47.43051	-122.3048	101.553	101.2443	-7.602362	18.6	15.13508	99	0	24	2.737974	2.211366	-93.60291	
20:14:04	47.4304	-122.3052	101.679	101.5856	9.265959	18.36	15.16545	99	0	23	1.592685	2.039247	-92.85338	
20:14:06	47.43033	-122.3056	101.522	101.6778	-13.76265	18.24	15.12767	99	0	23	-0.8328759	1.423125	-89.95949	
20:14:07	47.43024	-122.306	100.519	100.785	-37.77452	18.43	15.24612	99	0	25	-2.261197	1.486776	-91.95421	
20:14:09	47.43016	-122.3064	99.911	100.0405	-23.14132	18.69	15.27757	99	0	27	-2.085085	2.820706	-91.28374	
20:14:11	47.43007	-122.3068	99.76	99.70607	-5.692829	18.8	15.20039	99	0	28	-0.7325867	3.475231	-93.44276	
20:14:12	47.42997	-122.3072	100.092	99.93548	4.577722	18.68	15.0052	99	0	28	-0.4034133	3.849086	-92.9679	
20:14:14	47.42989	-122.3076	100.115	100.0107	-10.076	18.63	14.98107	99	0	28	0.4351957	2.937208	-94.53844	
20:14:16	47.4298	-122.308	100.03	100.0676	0.7419819	18.57	15.08175	99	0	27	-0.4561231	3.189896	-94.65459	
20:14:17	47.42971	-122.3084	100.088	100.0519	-7.743067	18.54	15.10507	99	0	27	-1.132548	2.939933	-94.67908	
20:14:19	47.42963	-122.3088	99.962	99.92207	-15.76561	18.58	15.1598	99	0	27	-1.310622	3.050452	-95.14149	
20:14:21	47.42953	-122.3092	101.262	100.2362	-18.62927	18.68	15.19596	99	0	27	-1.086551	3.210021	-92.66166	
20:14:23	47.42944	-122.3096	102.737	102.8313	63.74664	18.72	15.24177	99	0	18	-0.3294391	0.7878197	-92.18128	
20:14:24	47.42934	-122.31	101.233	102.2037	-18.71796	18.87	15.29306	99	0	20	0.08636639	-1.23722	-91.60751	
20:14:26	47.42925	-122.3104	100.068	100.6406	-8.749081	19.13	15.5696	99	0	24	-1.559835	1.461774	-91.89768	
20:14:28	47.42917	-122.3108	100.021	100.1733	12.36726	19.08	15.4381	99	0	26	-1.913187	3.204586	-93.33698	
20:14:29	47.42908	-122.3112	100.653	100.4965	15.9894	18.99	15.18309	99	0	26	-0.6299816	3.053759	-95.76407	
20:14:31	47.42896	-122.3117	101.2	101.0795	18.19498	18.69	15.02846	99	0	25	0.2457421	2.606976	-97.9352	
20:14:33	47.42888	-122.312	101.351	101.2382	-23.78054	18.69	15.04175	99	0	24	0.957327	1.030445	-92.42911	
20:14:34	47.4288	-122.3123	100.8	100.6523	-77.27695	18.65	15.38837	99	0	30	33.1368	-0.4081931	-83.3587	
20:14:36	47.42882	-122.3128	98.478	98.8809	-49.82767	15.19	16.26291	99	0	36	42.12804	1.12048	-27.87623	
20:14:38	47.42897	-122.3129	98.061	98.81589	112.5732	10.88	16.13492	99	0	34	36.33453	6.919559	25.62381	
20:14:39	47.42908	-122.3127	99.811	99.99512	102.5088	10.57	15.753	99	0	26	9.533052	7.787788	54.1431	
20:14:41	47.42913	-122.3126	100.479	100.1342	-93.74626	10.15	15.13447	99	0	27	-11.43431	1.256168	51.75991	
20:14:43	47.42921	-122.3123	98.929	98.90247	-49.416	10.1	15.49096	99	0	29	-8.128628	3.134674	38.27697	
20:14:45	47.42933	-122.3122	98.611	98.68165	16.66613	9.98	15.32358	99	0	31	2.598107	5.18778	34.82105	
20:14:46	47.42944	-122.312	99.528	99.25354	36.48896	9.6	15.14969	99	0	30	5.806593	5.776145	39.68112	
20:14:48	47.42953	-122.3119	99.9	99.6884	-19.38078	9.68	15.02775	99	0	29	1.581399	3.728946	44.2284	
20:14:50	47.42958	-122.3117	99.716	99.58683	-12.84961	9.85	15.18846	99	0	29	-1.796925	3.694619	43.84579	
20:14:51	47.42968	-122.3115	99.641	99.64158	-4.350246	9.63	15.0832	99	0	29	-2.291049	4.27357	41.2319	
20:14:53	47.42968	-122.3115	99.641	99.43031	-50.29802	9.63	15.0832	99	0	30	-0.1940814	3.309911	44.27292	
20:14:55	47.42968	-122.3115	99.641	99.43031	-50.29802	9.63	15.0832	99	0	30	1.861097	2.227134	47.50938	
20:14:56	47.42994	-122.3109	96.839	97.64834	40.10056	11.34	16.33295	99	0	30	-3.06056	7.974082	50.90407	
20:14:58	47.43002	-122.3107	98.864	98.10641	-3.005119	9.86	15.0043	99	0	36	-8.115787	7.205505	45.56668	
20:15:00	47.43005	-122.3106	99.16	99.11	26.26194	9.66	14.86028	99	0	34	-3.479262	6.945794	37.74942	
20:15:01	47.4302	-122.3103	100.016	99.66769	-7.191704	9.42	14.27383	99	0	35	0.5054084	4.993095	36.28571	
20:15:03	47.43029	-122.3102	99.196	99.41982	-15.19513	9.95	14.95042	99	0	33	0.8314562	4.530525	36.06731	
20:15:05	47.43037	-122.3101	98.968	99.0731	2.230959	10.05	15.19527	99	0	33	3.17804	5.632362	37.62814	
20:15:06	47.43049	-122.3099	98.971	98.96008	1.253649	10.04	15.1538	99	0	34	3.120581	5.98588	40.73009	
20:15:08	47.43061	-122.3097	99.359	99.09702	7.363873	10	15.04461	99	0	35	1.992252	6.217949	43.04576	
20:15:10	47.4307	-122.3096	99.824	99.67133	19.47515	9.84	15.02376	99	0	33	1.079144	6.042808	44.07554	
20:15:11	47.4308	-122.3094	99.991	99.9875	-4.384498	9.7	14.90523	99	0	33	0.6690408	5.151407	44.30153	
20:15:13	47.43088	-122.3092	99.472	99.72784	-19.08554	9.67	14.966	99	0	34	0.5903322	5.357664	44.28255	
20:15:15	47.43098	-122.309	98.268	98.42584	-47.92811	9.7	15.0717	99	0	37	0.3759724	5.904025	44.78922	
20:15:17	47.43106	-122.3089	99.101	98.56185	30.6694	9.75	15.15373	99	0	37	-2.435692	7.497076	44.33829	
20:15:18	47.43113	-122.3087	100.583	100.2265	46.75373	9.38	14.92224	99	0	34	-10.52139	6.262073	38.03744	
20:15:20	47.43126	-122.3086	101.475	101.2498	1.375898	9.13	14.7682	99	0	32	-17.19093	3.808812	23.43486	
20:15:22	47.4314	-122.3085	101.234	101.4007	29.95155	9.87	14.92285	99	0	30	-8.822392	4.336173	6.713319	
20:15:23	47.43156	-122.3086	101.279	101.3584	-18.7829	10	14.88596	99	0	30	12.11946	2.973381	7.989004	
20:15:25	47.43171	-122.3085	100.817	100.8495	-18.31351	9.78	15.03492	99	0	31	18.59667	3.551771	26.63631	
20:15:27	47.43181	-122.3084	100.613	100.7516	19.93957	10.26	15.21235	99	0	30	14.5698	4.91253	45.91704	
20:15:28	47.43188	-122.3082	101.003	100.9843	19.89406	10.94	15.09878	99	0	29	10.16291	4.926356	57.9011	
20:15:30	47.43191	-122.3079	101.047	100.938	-36.73758	12.02	15.07135	99	0	28	13.11983	3.145796	71.56752	
20:15:32	47.43188	-122.3077	100.557	100.4799	-25.20717	13.68	15.47827	99	0	29	21.65961	3.161973	90.96727	
20:15:33	47.43174	-122.3073	100.275	100.2453	-27.98383	17.16	15.86229	99	0	30	32.15248	2.775258	121.4516	
20:15:35	47.4315	-122.3072	99.751	99.73946	-37.66137	20.27	16.26062	99	0	34	42.51563	3.29489	167.3802	
20:15:37	47.43121	-122.3072	99.065	99.05414	-37.60902	22.1	17.05954	99	0	35	47.14587	2.665694	-133.3705	
20:15:39	47.43103	-122.3076	98.613	99.08029	85.16572	19.02	16.57247	99	0	34	42.10267	6.671501	-68.32324	
20:15:40	47.43108	-122.308	100.661	100.8008	193.5147	11.84	14.42494	99	0	29	9.456804	11.96155	-27.97277	
20:15:42	47.43118	-122.3082	102.43	102.0157	-58.39006	11.53	13.56068	99	0	29	-11.87748	2.251915	-35.73675	
20:15:44	47.43128	-122.3084	101.505	101.5996	-37.58136	12.55	13.64749	99	0	30	15.10706	2.853949	-37.8764	
20:15:45	47.43139	-122.3086	100.457	100.565	-43.55218	11.39	14.03239	99	0	34	25.92006	3.349551	-10.38631	
20:15:47	47.43155	-122.3087	100.372	100.5095	74.99709	9.49	13.74739	99	0	34	19.33734	6.784853	21.96864	
20:15:49	47.43167	-122.3085	101.837	101.4568	0.543144	9.12	13.42989	99	0	31	2.131455	3.868876	33.52478	
20:15:50	47.43177	-122.3084	101.464	101.303	-51.00229	9.68	14.38069	99	0	29	3.070327	1.589155	34.81834	
20:15:52	47.43188	-122.3083	100.654	100.7022	-35.84279	10.19	14.87757	99	0	28	13.2301	2.458094	44.58934	
20:15:54	47.43196	-122.308	99.665	99.75822	-60.62331	11.79	15.02794	99	0	31	18.90137	2.101339	64.18456	
20:15:56	47.43195	-122.3077	99.132	99.1561	-3.51399	14.16	15.47771	99	0	32	23.99158	4.077705	89.63036	
20:15:57	47.43186	-122.3075	99.8	99.69665	58.84885	16.06	15.59013	99	0	29	16.89531	6.136677	111.0879	
20:15:59	47.43168	-122.3072	101.083	100.8252	20.1623	16.83	15.30675	99	0	25	1.661593	4.353862	118.6943	
20:16:01	47.43145	-122.3069	101.195	101.1378	-21.77824	16.54	15.00347	99	0	25	-5.133019	2.133343	117.8514	
20:16:02	47.43128	-122.3067	100.616	100.7827	-9.960095	16.33	15.14875	99	0	25	-3.022374	2.454489	112.7514	
20:16:04	47.43113	-122.3065	100.323	100.4514	-2.063634	16.22	15.10934	99	0	26	2.080446	3.186289	116.1983	
20:16:06	47.43093	-122.3062	100.286	100.3002	-2.721279	16.42	15.03531	99	0	27	1.805865	3.428566	117.9229	
20:16:07	47.43073	-122.3059	100.41	100.327	-0.1033606	16.58	14.99416	99	0	27	-0.7059869	3.48392	117.3428	
20:16:09	47.43056	-122.3057	100.433	100.3854	-0.9399351	16.6	14.99502	99	0	27	-0.423901	3.341309	120.076	
20:16:11	47.43036	-122.3054	100.383	100.3611	-0.5759465	16.6	14.99703	99	0	27	-1.70292	3.252166	118.5945	
20:16:13	47.43016	-122.3052	98.998	99.63175	-24.98225	16.64	15.04892	99	0	29	-0.6889558	3.37972	119.7312	
20:16:14	47.42999	-122.305	98.108	98.40133	-26.11386	16.7	15.10115	99	0	32	-2.166058	4.971447	118.1723	
20:16:16	47.42977	-122.3046	97.886	97.86663	-20.45609	16.14	15.02798	99	0	36	-14.03013	6.179816	112.0897	
20:16:18	47.42965	-122.3044	97.8	97.55873	-36.24441	14.16	14.84467	99	0	41	-28.9325	5.329202	85.23672	
20:16:19	47.42962	-122.3041	98.516	98.24549	79.58659	11.04	14.71945	99	0	38	-15.97251	8.839137	55.94456	
20:16:21	47.42966	-122.3039	100.514	99.99427	10.0301	10.34	14.59902	99	0	34	16.20201	4.701594	57.7549	
20:16:23	47.42968	-122.3037	100.228	100.3325	-16.54907	13.12	14.63067	99	0	35	25.6585	3.281829	81.72623	
20:16:24	47.42958	-122.3034	99.046	99.41856	-38.56195	16.6	15.4995	99	0	37	33.14784	3.659168	117.7753	
20:16:26	47.42932	-122.3032	97.421	97.90898	-50.25569	21.06	16.45077	99	0	42	41.70974	4.601347	163.2049	
20:16:28	47.42899	-122.3032	97.115	96.88908	-21.37303	22.73	17.53796	99	0	46	49.29293	5.88325	-137.2229	
20:16:29	47.42881	-122.3036	100.351	99.21347	138.0572	19.28	17.27159	99	0	35	43.70716	9.334135	-72.8521	
20:16:31	47.42886	-122.3039	104.29	103.793	198.9297	13.02	15.36954	99	0	19	11.96552	8.443284	-33.54355	
20:16:33	47.42897	-122.3042	104.868	105.1873	-66.64359	11.68	13.91377	99	0	18	-3.368291	-2.006552	-32.87479	
20:16:35	47.42907	-122.3044	102.262	103.0169	-103.9571	12.02	14.69357	99	0	22	15.15817	-1.353171	-27.681	
20:16:36	47.42921	-122.3046	99.75	100.5126	-44.62183	10.54	14.8106	99	0	29	22.60478	3.040706	-0.9287857	
20:16:38	47.42936	-122.3046	99.532	99.73179	64.26372	9.08	14.19775	100	0	33	14.85247	7.56832	23.8909	
20:16:40	47.42946	-122.3045	101.137	100.6906	-19.22349	8.66	13.62915	100	0	35	-23.58449	3.817974	17.95403	
20:16:41	47.42962	-122.3045	101.374	100.9478	-0.120993	10.89	14.49373	100	0	31	-26.7702	3.721402	-12.88978	
20:16:43	47.42973	-122.3046	101.873	101.7609	34.27954	13.25	15.10811	100	0	25	-19.17781	3.487676	-40.42057	
20:16:45	47.42983	-122.305	102.87	102.7523	46.4558	14.85	15.52839	100	0	18	-3.999219	2.684963	-50.35519	
20:16:46	47.42989	-122.3053	103.042	103.0472	-23.66427	14.53	15.16231	100	0	18	3.507711	-0.1349149	-50.78014	
20:16:48	47.42996	-122.3056	102.238	102.3971	-28.7548	14.38	15.22109	100	0	20	1.235953	0.006544967	-48.40969	
20:16:50	47.43003	-122.3059	101.851	101.9954	3.71202	14.55	15.29943	100	0	21	-2.606587	1.54783	-49.50156	
20:16:52	47.43011	-122.3062	101.146	101.5175	-17.24165	14.76	15.1641	100	0	23	-2.953489	1.857339	-52.44216	
20:16:53	47.43018	-122.3065	100.222	100.4395	-30.61659	15.02	15.19089	100	0	26	-1.768138	2.717129	-52.45248	
20:16:55	47.43025	-122.3068	99.718	99.82036	-12.62186	15.04	15.15448	100	0	28	-0.4381807	3.996156	-51.82144	
20:16:57	47.43031	-122.3071	99.773	99.7117	-8.884746	14.95	15.0604	100	0	29	0.1589416	4.070881	-49.89861	
20:16:58	47.43038	-122.3075	99.713	99.63032	-18.8439	14.97	15.0902	100	0	29	-0.9101695	3.518928	-51.22388	
20:17:00	47.43039	-122.3075	99.676	99.56639	-8.808602	14.99	15.12625	100	0	29	1.402866	3.717837	-45.51556	
20:17:02	47.43039	-122.3075	99.676	99.62376	-2.052856	14.99	15.10537	100	0	29	2.992448	3.755312	-40.78233	
