Date	Latitude(deg) 	Longitude(deg)	hamsl(m)	hafl(m)	climbrate(cm/s)	GroundSpeed(m/s)	Airspeed(m/s)	Mav_Link(%)	Rssi_Link(%)	Throttle	Roll(deg)	Pitch(deg)	Yaw(deg)
23:19:51	0	0	0	0.7023585	2.192187	0	3.044016	62	0	11	0.667663	-0.4080501	70.4507	
23:19:52	0	0	0	0.7233779	-11.43908	0	3.044016	71	0	10	0.6657413	-0.3896559	70.5156	
23:19:54	47.45849	-122.3136	35.272	26.15683	1182.511	33.84	3.044016	76	0	10	2.493579	2.221295	58.5426	
23:19:56	47.45849	-122.3136	35.272	44.48773	1180.057	33.84	3.044016	80	0	10	6.071711	7.231574	49.28243	
23:19:57	47.45849	-122.3136	35.272	42.81451	462.9535	33.84	3.044016	83	0	10	8.170053	10.66107	42.4792	
23:19:59	47.45849	-122.3136	35.272	37.97916	36.71306	33.84	3.044016	85	0	10	9.271761	12.47825	37.56025	
23:20:01	47.45849	-122.3136	35.272	35.32157	-76.26339	33.84	3.044016	87	0	10	10.10462	13.61005	33.67428	
23:20:03	47.45881	-122.3134	25.484	25.18094	-1208.982	28.71	3.044016	89	0	10	-7.158109	-9.688018	27.53896	
23:20:04	47.4592	-122.3133	8.167	9.266781	-649.7438	28.65	3.044016	90	0	4	-1.944987	5.537727	19.04667	
23:20:06	47.45962	-122.3134	3.669	2.548857	-401.4782	26.63	3.044016	91	0	44	10.01044	11.7626	17.88655	
23:20:08	47.46002	-122.3135	4.977	2.627113	-53.46454	25.84	3.044016	92	0	64	1.472644	10.31582	20.48232	
23:20:09	47.46038	-122.3135	7.46	6.349905	190.6523	26.83	3.044016	93	0	85	1.831865	8.5901	17.07479	
23:20:11	47.46081	-122.3136	13.363	13.38664	430.9855	27.21	3.044016	93	0	85	-0.906255	7.641417	14.06132	
23:20:13	47.46129	-122.3137	20.444	19.39818	262.2177	27.62	3.044016	94	0	91	-0.6407825	0.9724064	10.19597	
23:20:14	47.46171	-122.3137	25.126	24.66542	346.0003	28.2	3.044016	95	0	85	0.312593	0.9028594	7.535958	
23:20:16	47.46211	-122.3137	30.683	30.42846	376.1918	28.08	3.044016	95	0	85	0.5171797	0.9002654	4.87301	
23:20:18	47.46255	-122.3136	37.545	36.90095	393.2044	27.95	3.044016	96	0	85	0.8234973	0.8841787	3.949286	
23:20:20	47.46299	-122.3135	44.246	43.49407	396.5746	27.87	3.044016	96	0	85	1.008215	1.112532	4.843848	
23:20:21	47.46336	-122.3133	49.612	49.66136	353.1824	27.94	3.044016	96	0	85	1.187039	0.9706996	6.038634	
23:20:23	47.46376	-122.3131	55.52	55.17977	316.7632	28.15	3.044016	96	0	85	0.9939417	0.7047808	8.941931	
23:20:25	47.46414	-122.3128	60.629	60.47514	310.2975	28.4	3.044016	97	0	85	-2.210907	0.9054424	12.19258	
23:20:26	47.46452	-122.3124	65.486	65.3269	287.0135	28.6	3.044016	97	0	85	-3.380096	0.7454717	14.2217	
23:20:28	47.4649	-122.3121	70.366	69.82644	273.9066	28.71	3.044016	97	0	85	-3.355134	0.730793	16.35015	
23:20:30	47.46525	-122.3117	74.9	74.34284	267.9273	28.7	3.044016	97	0	85	-3.945778	0.8137634	18.56106	
23:20:31	47.46558	-122.3113	79.462	79.06089	264.4703	28.73	3.044016	98	0	85	-4.036572	0.7968524	20.93266	
23:20:33	47.46595	-122.3109	84.276	83.55453	259.2847	28.75	3.044016	98	0	85	-4.244487	0.7337139	23.12133	
23:20:35	47.46628	-122.3105	88.537	88.12395	264.8876	28.8	3.044016	98	0	85	-4.348416	0.7404753	24.93411	
23:20:36	47.46658	-122.3102	92.604	92.58557	256.3343	28.76	3.044016	98	0	85	-4.21313	0.8202488	27.15258	
23:20:38	47.46695	-122.3097	96.945	96.8272	243.7827	28.82	3.044016	98	0	85	-4.353365	0.6937091	28.64439	
23:20:40	47.46727	-122.3094	100.448	100.5999	222.2321	28.85	3.044016	98	0	85	-4.246507	0.6537133	29.75926	
23:20:42	47.46731	-122.3093	100.944	101.8575	149.1756	28.86	3.044016	98	0	85	-3.023598	0.7385053	30.38925	
23:20:43	47.46795	-122.3086	106.966	106.8737	237.7083	29.12	3.044016	98	0	85	-4.808938	0.5732663	31.33559	
23:20:45	47.46837	-122.3082	108.491	110.0757	202.0638	29.24	3.044016	98	0	85	-4.743979	0.6257989	31.41592	
23:20:47	47.46871	-122.3078	107.535	108.3397	-3.24816	29.26	3.044016	99	0	85	-4.52733	0.6258163	31.5796	
23:20:48	47.46909	-122.3074	106.374	105.9257	-102.8011	29.33	3.044016	99	0	85	-4.372438	0.599335	31.18277	
23:20:50	47.46943	-122.3071	105.337	104.9481	-95.86027	29.4	3.044016	99	0	85	-4.52166	0.5769834	30.65372	
23:20:52	47.46982	-122.3068	104.207	103.825	-105.4076	29.44	3.044016	99	0	85	-4.496285	0.4275437	30.15837	
23:20:53	47.47025	-122.3064	102.841	102.744	-98.39607	29.49	3.044016	99	0	85	-4.429483	0.5054706	29.70393	
23:20:55	47.47057	-122.3062	102.2	101.6464	-90.1245	29.54	3.044016	99	0	85	-4.374131	0.5613298	28.83813	
23:20:57	47.471	-122.3058	102.164	101.5305	-62.24806	29.61	3.044016	99	0	85	-4.069937	0.3265026	27.5145	
23:20:58	47.4714	-122.3055	102.907	101.8463	-24.43011	29.66	3.044016	99	0	85	-4.608188	0.3466233	26.19501	
23:21:00	47.47179	-122.3053	105.358	104.3111	80.91775	29.79	3.044016	99	0	85	-4.524889	0.3506656	24.92916	
23:21:02	47.47223	-122.305	107.942	107.5906	138.3546	29.6	3.044016	99	0	53	-3.755628	0.0009287989	23.70138	
23:21:04	47.47259	-122.3048	109.426	109.5384	78.16616	27.37	3.044016	99	0	5	-3.741301	-1.415171	22.97209	
23:21:05	47.47285	-122.3046	109.677	109.6034	-66.19622	24.8	3.044016	99	0	8	-2.828243	-5.334162	21.43229	
23:21:07	47.4733	-122.3044	107.1	107.635	-56.86285	21.7	3.044016	99	0	19	-4.672644	-4.00835	19.24052	
23:21:09	47.47361	-122.3042	105.916	106.2292	-42.26181	20.56	3.044016	99	0	19	-4.731977	-2.584237	15.87719	
23:21:10	47.47392	-122.3041	104.952	105.1051	-53.9757	19.52	3.044016	99	0	19	-5.001761	-2.184156	12.14322	
23:21:12	47.47418	-122.3041	104.001	104.048	-61.30519	18.83	3.044016	99	0	19	-4.772398	-2.00079	7.998671	
23:21:14	47.47449	-122.304	102.831	103.0107	-54.1163	18.24	3.044016	99	0	19	-5.041181	-1.483262	3.874567	
23:21:15	47.47475	-122.304	101.88	102.0043	-54.20743	17.85	3.044016	99	0	19	-4.918126	-1.268021	-0.28999	
23:21:17	47.47503	-122.3041	102.024	101.43	-35.34622	17.47	3.044016	99	0	19	-4.731271	-1.089059	-4.546361	
23:21:19	47.4753	-122.3041	102.718	102.2624	24.72649	17.17	3.044016	99	0	19	-4.764928	-0.8230518	-8.699279	
23:21:21	47.47557	-122.3042	103.35	103.2853	50.33441	16.94	3.044016	99	0	19	-4.756612	-0.8744541	-12.86277	
23:21:22	47.47578	-122.3043	103.816	103.9965	56.85846	16.78	3.044016	99	0	20	-4.795378	-0.5250049	-16.9248	
23:21:24	47.47601	-122.3044	104.18	104.4476	45.24731	16.65	3.044016	99	0	19	-4.679827	-0.3677738	-20.92003	
23:21:26	47.47626	-122.3045	104.564	104.74	35.71825	16.48	3.044016	99	0	19	-4.755177	-0.1961717	-25.00683	
23:21:27	47.47649	-122.3047	104.883	105.0051	25.47349	16.34	3.044016	99	0	19	-4.721527	-0.2337302	-29.04351	
23:21:29	47.47672	-122.3049	105.017	105.1768	21.37535	16.22	3.044016	99	0	19	-4.862865	-0.05348398	-33.02534	
23:21:31	47.47691	-122.305	105.134	105.2012	8.557107	16.13	3.044016	99	0	19	-4.539066	-0.1415123	-36.91108	
23:21:32	47.47712	-122.3053	104.99	105.1342	4.527757	16.09	3.044016	99	0	19	-4.585963	0.03503201	-40.90567	
23:21:34	47.47728	-122.3055	105.614	105.1197	10.5393	16.01	3.044016	99	0	19	-4.198681	0.5639934	-44.70496	
23:21:36	47.47746	-122.3058	106.022	105.8864	24.96554	16.17	3.044016	99	0	19	-4.696728	-0.1183511	-48.44506	
23:21:37	47.4776	-122.306	106.221	106.3154	2.015462	16.26	18.8072	99	0	59	27.26264	-0.6792423	-45.30763	
23:21:39	47.47788	-122.3063	106.453	107.1343	156.6556	19.15	18.44698	99	0	58	44.14888	3.808084	-1.102099	
23:21:41	47.47813	-122.3061	107.235	108.1009	143.9556	20.12	19.5914	99	0	68	45.99471	5.278614	49.32708	
23:21:43	47.47826	-122.3058	108.478	108.9882	107.0022	21.1	20.87943	99	0	71	45.30055	4.972785	97.55202	
23:21:44	47.47813	-122.3053	110.793	110.5963	183.5013	21.94	21.99499	99	0	64	25.56468	6.496531	136.6698	
23:21:46	47.47795	-122.305	114.066	113.8604	88.41126	21.89	22.22758	99	0	58	-2.399309	3.240994	145.6739	
23:21:48	47.47761	-122.3046	116.567	116.1743	74.59563	22.39	22.5532	99	0	56	-4.405807	1.946162	144.0172	
23:21:49	47.47736	-122.3043	116.031	116.6251	5.28323	22.77	22.72224	99	0	56	-1.455868	1.297302	143.3954	
23:21:51	47.47712	-122.304	114.793	115.086	-79.43645	23.2	23.16826	99	0	58	-1.160447	0.8966342	143.5721	
23:21:53	47.47681	-122.3037	112.817	112.9888	-119.0012	23.93	23.76373	99	0	62	-1.615394	0.9379894	143.3867	
23:21:54	47.47653	-122.3033	111.054	111.049	-117.5105	24.79	24.67903	99	0	68	-1.740422	1.107867	142.8798	
23:21:56	47.4762	-122.3029	109.149	109.3156	-105.8913	25.9	25.68241	99	0	74	-1.79595	1.351775	142.3492	
23:21:58	47.47593	-122.3026	107.825	107.7516	-101.2811	26.88	26.63422	99	0	80	-1.788864	1.552711	141.8556	
23:21:59	47.47563	-122.3022	106.895	106.2935	-141.8894	27.95	27.94867	99	0	83	36.06941	0.3399985	146.0358	
23:22:01	47.47515	-122.3019	105.646	105.3943	-24.72118	29.4	29.27932	99	0	79	35.7839	1.577832	176.5197	
23:22:03	47.47477	-122.3019	105.633	105.4078	-76.35059	29.04	29.47326	99	0	67	9.11796	0.1516153	-170.162	
23:22:05	47.47432	-122.3021	103.778	104.0276	-110.0853	28.39	28.76508	99	0	59	0.9227923	-0.5504383	-167.1495	
23:22:06	47.47393	-122.3022	102.415	102.1976	-124.1262	27.61	27.67943	99	0	50	-2.326125	-0.95717	-166.7382	
23:22:08	47.47369	-122.3023	101.628	101.0591	-98.99728	27	26.80332	99	0	40	-2.515802	-1.386186	-166.866	
23:22:10	47.47309	-122.3025	98.67	99.84497	-87.23373	25.18	25.22405	99	0	26	-2.570625	-1.209991	-167.3422	
23:22:11	47.47276	-122.3026	96.506	96.76677	-195.9344	23.41	23.22072	99	0	7	-1.97835	-2.87854	-167.6312	
23:22:13	47.47255	-122.3026	94.343	93.37466	-234.5799	22.17	21.6019	99	0	5	-2.55579	-4.641792	-168.5058	
23:22:15	47.47224	-122.3027	90.294	90.23611	-257.64	20.8	20.21944	99	0	5	-3.013094	-3.343687	-169.3862	
23:22:16	47.4722	-122.3027	89.767	89.23492	-247.2479	20.69	20.26293	99	0	5	-2.713362	3.514371	-170.2565	
23:22:18	47.47154	-122.3029	79.961	79.78902	-674.1737	19	18.57962	99	0	5	-7.089168	-5.073332	-170.2885	
23:22:20	47.47123	-122.303	71.441	71.23426	-490.3507	20.13	20.06875	99	0	11	-8.347069	-3.664925	-174.9547	
23:22:21	47.47094	-122.303	66.121	65.94143	-275.7504	20.37	20.44322	99	0	16	-6.170818	-1.465852	-179.5191	
23:22:23	47.47062	-122.303	62.367	62.58891	-170.0369	19.86	20.0094	99	0	16	-2.310129	-0.5191461	178.6924	
23:22:25	47.47038	-122.303	60.27	59.95248	-148.129	19.26	19.13482	99	0	14	0.04528761	-1.000298	179.3283	
23:22:27	47.47038	-122.303	60.27	59.39308	-112.1482	19.26	19.20584	99	0	13	2.000743	-1.187788	-179.584	
23:22:28	47.47038	-122.303	60.27	59.39299	-112.0343	19.26	19.21597	99	0	10	3.951493	-1.411688	-178.513	
23:22:30	47.46947	-122.303	54.324	55.79133	-246.4668	18.32	18.03544	99	0	25	29.00387	-2.187551	-173.9629	
23:22:32	47.46922	-122.3031	51.957	51.397	-176.3647	19.81	19.35623	99	0	62	38.24889	0.711124	-140.2919	
23:22:33	47.46907	-122.3035	53.938	52.86356	163.4975	21.59	21.42338	99	0	83	43.91483	6.909463	-99.43604	
23:22:35	47.46912	-122.304	61.322	59.87247	405.268	22.86	22.58115	99	0	86	32.88141	9.242066	-64.62267	
23:22:37	47.46935	-122.3045	69.561	68.39574	389.5685	23.98	23.7243	99	0	83	8.479789	5.869856	-50.80679	
23:22:38	47.46961	-122.3048	74.86	74.76395	342.9509	25.4	25.49031	99	0	91	0.1153294	3.677389	-48.64815	
23:22:40	47.46991	-122.3053	79.797	79.73396	311.4346	27.37	27.18693	99	0	100	-19.44032	2.893085	-53.24104	
23:22:42	47.47013	-122.3058	84.157	84.0171	302.7894	28.96	29.08157	99	0	100	-25.37451	2.565552	-67.4326	
23:22:44	47.47027	-122.3064	89.581	88.56792	279.542	30.44	30.3515	99	0	100	-46.8485	1.680606	-94.65094	
23:22:45	47.47016	-122.307	95.138	94.58739	383.8027	31.35	31.429	99	0	92	-45.74064	1.124743	-128.0829	
23:22:47	47.46988	-122.3075	99.452	100.7929	411.7632	31.54	31.69453	99	0	82	-45.07572	-0.2611808	-159.6885	
23:22:49	47.46988	-122.3075	99.452	102.2472	301.4186	31.54	31.72851	99	0	74	-44.62013	-1.505177	169.9565	
23:22:50	47.46988	-122.3075	99.452	102.2472	300.911	31.54	31.71805	99	0	68	-43.75149	-1.987187	139.9825	
23:22:52	47.46859	-122.3069	95.502	100.5393	211.0033	30.43	30.48828	99	0	46	-2.518916	1.322928	115.367	
23:22:54	47.46838	-122.3064	91.653	93.2881	-344.2508	28.44	28.64523	99	0	65	44.53642	-2.982879	135.6551	
23:22:55	47.46805	-122.3061	90.518	89.39697	-186.3459	28.84	28.74621	99	0	73	44.92416	0.1268884	173.1048	
23:22:57	47.46759	-122.3061	92.943	89.84871	-53.56242	29.05	28.9454	99	0	74	45.25612	0.4613529	-153.685	
23:22:59	47.46731	-122.3064	95.959	95.38054	231.1533	28.92	29.11787	99	0	61	31.47027	2.580398	-123.5982	
23:23:00	47.46731	-122.3064	95.959	97.087	349.0836	28.92	28.8937	99	0	52	10.56647	12.59382	-97.49613	
23:23:02	47.46731	-122.3064	95.959	97.087	348.6736	28.92	28.72995	99	0	46	-5.086352	30.2525	-74.06459	
23:23:04	47.46677	-122.3081	116.893	101.0733	229.6338	23.54	26.91693	99	0	49	31.27582	-15.26941	-47.55085	
23:23:06	47.46662	-122.3087	120.13	115.5689	571.6993	18.94	19.93183	99	0	61	12.82277	28.9765	-82.38699	
23:23:07	47.46658	-122.309	124.945	124.5731	-498.2437	11.6	13.28236	99	0	5	13.05048	10.12909	-76.84811	
23:23:09	47.46664	-122.3092	94.276	87.4234	-3544.211	17.65	9.453177	99	0	95	7.916609	2.300678	4.804335	
23:23:11	47.46676	-122.3095	52.566	51.571	-2542.284	17.34	6.230508	99	0	100	-48.07379	-47.76527	-28.98909	
23:23:12	47.46708	-122.3095	52.498	45.14204	-219.3663	26.06	25.5323	99	0	100	-90.04145	33.9942	-74.91444	
23:23:14	47.46727	-122.3092	29.736	33.08447	-2774.264	15.32	22.51308	99	0	100	-35.01397	18.51017	177.7451	
23:23:16	47.46713	-122.3091	2.276	-21.78786	-4256.489	16.46	18.27085	99	0	100	-61.32168	-60.8191	132.7451	
23:23:17	47.46713	-122.3091	2.276	-25.25926	-1938.053	16.46	14.40822	99	0	100	89.35494	-80.26227	36.04312	
23:23:19	47.46364	-122.3077	0.008	-10.55968	-634.7337	0	11.75794	99	0	100	116.1486	-80.05685	52.08578	
23:23:21	47.46363	-122.3077	0.022	-7.524174	-616.8178	0.22	3	99	0	4	60.75056	-64.16738	106.7555	
23:23:22	47.46363	-122.3077	0.02	-4.463251	-180.5796	0	3	99	0	4	37.14054	-43.52923	127.0077	
23:23:24	47.46363	-122.3077	0.02	0.5739203	371.4072	0	3	99	0	4	22.86613	-32.46813	139.872	
23:23:26	47.46363	-122.3077	0.02	5.025684	730.9663	0	3	99	0	4	13.64667	-20.28692	148.997	
23:23:28	47.46363	-122.3077	0.02	7.617985	867.256	0	3	99	0	5	8.907144	-10.54562	154.2215	
23:23:29	47.46363	-122.3077	0.02	8.339217	847.5478	0	3	99	0	4	6.275396	-3.05463	156.6975	
23:23:31	47.46363	-122.3078	0.02	8.531321	848.3992	0	3	99	0	4	5.792369	3.953756	160.3406	
23:23:33	47.46363	-122.3078	0.02	7.540861	682.8132	0	3	99	0	4	3.94695	8.061255	163.7702	
23:23:34	47.46363	-122.3078	0.02	6.186422	555.8403	0	3	99	0	4	2.635784	11.01321	165.7668	
23:23:36	47.46363	-122.3078	0.02	5.163567	474.7701	0	3	99	0	4	1.40378	12.83235	167.2912	
23:23:38	47.46363	-122.3078	0.02	4.458848	416.8501	0	3	99	0	4	0.4957052	14.13356	168.4085	
23:23:39	47.46363	-122.3078	0.02	3.909886	368.49	0	3	99	0	4	-0.1810725	15.03436	169.2729	
23:23:41	47.46363	-122.3078	0.02	3.452334	327.2635	0	3	99	0	4	-0.7016723	14.78496	170.2758	
23:23:43	47.46363	-122.3078	0.02	3.09286	293.8727	0	3	99	0	4	-1.034778	14.59255	171.6009	
23:23:44	47.46363	-122.3078	0.02	2.787244	266.0839	0	3	99	0	4	-1.231164	14.47451	172.9463	
23:23:46	47.46363	-122.3078	0.02	2.525674	241.5865	0	3	99	0	4	-1.312554	13.42686	174.3913	
23:23:48	47.46363	-122.3078	0.02	2.309321	221.8881	0	3	99	0	4	-1.365643	12.66686	175.954	
23:23:49	47.46363	-122.3078	0.02	2.11379	203.9182	0	3	99	0	4	-1.432485	12.13371	177.4275	
23:23:51	47.46363	-122.3078	0.02	1.938128	187.0321	0	3	99	0	4	-1.417491	10.90006	178.9185	
23:23:53	47.46363	-122.3078	0.02	1.793171	173.6684	0	3	99	0	4	-1.432371	10.0229	-179.6478	
23:23:55	47.46363	-122.3078	0.02	1.658923	160.3573	0	3	99	0	4	-1.480571	9.40564	-178.3571	
23:23:56	47.46363	-122.3078	0.02	1.532187	148.3035	0	3	99	0	4	-1.452113	8.285202	-177.1669	
23:23:58	47.46363	-122.3078	0.02	1.418537	136.4736	0	3	99	0	5	-1.45344	7.456524	-176.0648	
23:24:00	47.46363	-122.3078	0.02	1.312574	126.6516	0	3	99	0	4	-1.483827	6.880363	-175.1141	
23:24:01	47.46363	-122.3078	0.02	1.212003	115.6889	0	3	99	0	4	-1.437737	5.972183	-174.3436	
23:24:03	47.46363	-122.3078	0.02	1.115791	107.1119	0	3	99	0	4	-1.416411	5.290617	-173.6087	
23:24:05	47.46363	-122.3078	0.02	1.02845	98.44542	0	3	99	0	4	-1.417214	4.83701	-173.0452	
23:24:06	47.46363	-122.3078	0.02	0.9469578	90.27084	0	3	99	0	4	-1.348096	4.1606	-172.6882	
23:24:08	47.46363	-122.3078	0.02	0.8673933	82.22364	0	3	99	0	4	-1.29615	3.638877	-172.3921	
23:24:10	47.46363	-122.3078	0.02	0.7914575	74.85967	0	3	99	0	4	-1.261666	3.271762	-172.1076	
23:24:11	47.46363	-122.3078	0.02	0.7206644	68.44464	0	3	99	0	4	-1.17295	2.796577	-172.0709	
23:24:13	47.46363	-122.3078	0.02	0.6571757	61.74848	0	3	99	0	4	-1.1011	2.424681	-172.0484	
23:24:15	47.46363	-122.3078	0.02	0.5967864	56.16539	0	3	99	0	4	-1.049738	2.17663	-172.049	
23:24:16	47.46363	-122.3078	0.02	0.5420706	50.74718	0	3	99	0	4	-0.9526041	1.835638	-172.2255	
23:24:18	47.46363	-122.3078	0.02	0.491301	46.01892	0	3	99	0	4	-0.8722326	1.576377	-172.3791	
23:24:20	47.46363	-122.3078	0.02	0.4468832	41.5591	0	3	99	0	4	-0.8198746	1.399179	-172.5142	
23:24:22	47.46363	-122.3078	0.02	0.4013112	36.9734	0	3	99	0	4	-0.7266207	1.183988	-172.7248	
23:24:23	47.46363	-122.3078	0.02	0.3627301	33.62663	0	3	99	0	4	-0.6558524	1.00022	-172.9979	
23:24:25	47.46363	-122.3078	0.02	0.3294097	30.53527	0	3	99	0	4	-0.6042833	0.8877834	-173.2135	
23:24:27	47.46363	-122.3078	0.02	0.297197	27.08446	0	3	99	0	4	-0.5319608	0.7460821	-173.5051	
23:24:28	47.46363	-122.3078	0.02	0.2704084	24.78786	0	3	99	0	4	-0.4699145	0.6263412	-173.7384	
23:24:30	47.46363	-122.3078	0.02	0.2466062	22.40652	0	3	99	0	4	-0.428186	0.5544065	-173.9518	
23:24:32	47.46363	-122.3078	0.02	0.2238898	20.112	0	3	99	0	3	-0.3724197	0.4771547	-174.2185	
23:24:33	47.46363	-122.3078	0.02	0.2009507	17.85606	0	3	99	0	4	-0.3254327	0.4071307	-174.4554	
23:24:35	47.46363	-122.3078	0.02	0.180742	16.08148	0	3	99	0	4	-0.2931615	0.3566422	-174.6434	
23:24:37	47.46363	-122.3078	0.02	0.1641327	14.58943	0	3	99	0	4	-0.2525434	0.2945769	-174.8504	
23:24:38	47.46363	-122.3078	0.02	0.1495975	13.15769	0	3	99	0	4	-0.2186961	0.2416115	-175.0312	
23:24:40	47.46363	-122.3078	0.02	0.1380842	12.15662	0	3	99	0	4	-0.194851	0.2081013	-175.1714	
23:24:42	47.46363	-122.3078	0.02	0.127159	10.9847	0	3	99	0	4	-0.167207	0.1811245	-175.3135	
23:24:43	47.46363	-122.3078	0.02	0.1158084	9.811103	0	3	99	0	4	-0.1430942	0.1498487	-175.4403	
23:24:45	47.46363	-122.3078	0.02	0.1058871	8.966121	0	3	99	0	4	-0.1269415	0.127029	-175.5393	
23:24:47	47.46363	-122.3078	0.02	0.09730244	8.132854	0	3	99	0	4	-0.1078871	0.1128395	-175.6303	
23:24:49	47.46363	-122.3078	0.02	0.08896241	7.414407	0	3	99	0	4	-0.09176503	0.08551729	-175.71	
23:24:50	47.46363	-122.3078	0.02	0.07929762	6.358389	0	3	99	0	4	-0.07843147	0.06412683	-175.7731	
23:24:52	47.46363	-122.3078	0.02	0.07391898	6.069448	0	3	99	0	4	-0.0669433	0.05429085	-175.8253	
23:24:54	47.46363	-122.3078	0.02	0.06853674	5.492762	0	3	99	0	4	-0.05733103	0.03473626	-175.8697	
23:24:55	47.46363	-122.3078	0.02	0.06362144	5.137625	0	3	99	0	4	-0.04844447	0.0272002	-175.9057	
23:24:57	47.46363	-122.3078	0.02	0.06136422	4.918	0	3	99	0	4	-0.0407842	0.02719443	-175.932	
23:24:59	47.46363	-122.3078	0.02	0.05830527	4.53906	0	3	99	0	4	-0.03360097	0.004593373	-175.9512	
23:25:00	47.46363	-122.3078	0.02	0.05317891	3.842668	0	3	99	0	4	-0.024734	0.001630979	-175.968	
23:25:02	47.46363	-122.3078	0.02	0.04905611	3.625414	0	3	99	0	4	-0.02111986	-0.0006864831	-175.9786	
23:25:04	47.46363	-122.3078	0.02	0.04640656	3.400416	0	3	99	0	4	-0.02024694	0.009937693	-175.9858	
23:25:05	47.46363	-122.3078	0.02	0.04146215	2.862131	0	3	99	0	4	-0.01621669	0.01309082	-175.9933	
23:25:07	47.46363	-122.3078	0.02	0.04099236	3.000503	0	3	99	0	4	-0.01397323	0.01037257	-175.996	
23:25:09	47.46363	-122.3078	0.02	0.04016291	2.714623	0	3	99	0	4	-0.01120477	4.530237E-05	-175.9941	
23:25:10	47.46363	-122.3078	0.02	0.03629385	2.263411	0	3	99	0	4	-0.009895995	0.0003172326	-175.9941	
23:25:12	47.46363	-122.3078	0.02	0.03398432	2.069938	0	3	99	0	4	-0.008096523	0.002699735	-175.991	
23:25:14	47.46363	-122.3078	0.02	0.03117288	1.691912	0	3	99	0	4	-0.006798745	0.007813283	-175.9855	
23:25:16	47.46363	-122.3078	0.02	0.03035113	1.983905	0	3	99	0	4	-0.007002105	0.008108082	-175.9821	
23:25:17	47.46363	-122.3078	0.02	0.02680153	1.333249	0	3	99	0	4	-0.002790893	0.0096958	-175.9775	
23:25:19	47.46363	-122.3078	0.02	0.02772293	1.649188	0	3	100	0	4	-0.0006198601	0.002159922	-175.9715	
23:25:21	47.46363	-122.3078	0.02	0.02757959	1.429689	0	3	100	0	4	-0.00372431	-0.004223358	-175.966	
23:25:22	47.46363	-122.3078	0.02	0.02637947	1.442793	0	3	100	0	4	-0.001557243	0.005160701	-175.9603	
23:25:24	47.46363	-122.3078	0.02	0.02831443	1.625798	0	3	100	0	4	-0.006791933	0.006113562	-175.9543	
23:25:26	47.46363	-122.3078	0.02	0.02329453	0.05444992	0.53	3	100	0	53	0.06604126	0.1191027	-176.9313	
23:25:28	47.46359	-122.3078	0.022	0.02534087	2.812174	5.78	3	100	0	61	-0.4420927	1.556037	179.2038	
23:25:29	47.46344	-122.3077	0.026	0.07762472	9.634222	11.85	3	100	0	68	-1.151874	1.927826	-174.7232	
23:25:31	47.46324	-122.3078	0.027	0.110706	8.603601	16.41	3	100	0	79	-1.867028	1.198717	-168.9442	
23:25:33	47.46292	-122.3078	0.3	0.3207969	61.57314	20.96	3	100	0	83	-15.873	3.722091	-168.5166	
23:25:34	47.46262	-122.3079	1.771	1.720783	90.02728	22.9	3	100	0	83	-13.51531	4.542312	-173.375	
23:25:36	47.46226	-122.3079	3.195	3.088301	57.70668	24.21	3	100	0	83	-9.001247	3.097084	-176.3993	
23:25:38	47.46184	-122.3078	3.861	3.793183	34.72832	25.45	3	100	0	83	-7.556463	2.28975	-178.1145	
23:25:39	47.4615	-122.3078	4.179	4.091587	5.980391	26.14	3	100	0	86	-7.750699	1.411675	-179.9291	
23:25:41	47.46106	-122.3078	4.601	4.491371	13.27753	27.13	3	100	0	92	-5.383687	1.446994	-177.691	
23:25:43	47.46066	-122.3077	4.619	4.703846	18.04211	28.24	3	100	0	92	-6.559186	1.32768	-178.4849	
23:25:44	47.46023	-122.3077	4.615	4.680818	-3.476086	28.73	3	100	0	94	-4.846038	1.0574	-177.0912	
23:25:46	47.45982	-122.3077	4.682	4.420274	-14.92083	29.08	3	100	0	94	-4.592525	0.7213097	-175.7433	
23:25:48	47.45937	-122.3078	5.333	5.045863	19.87537	29.32	3	100	0	92	-4.613363	0.6713573	-174.2677	
23:25:50	47.45889	-122.3078	5.661	5.651707	23.03736	29.38	3	100	0	92	-5.605169	0.1316123	-175.648	
23:25:51	47.45844	-122.3079	5.929	6.011322	27.7885	29.63	3	100	0	98	-4.148427	0.3862555	-173.9222	
23:25:53	47.458	-122.308	6.464	6.385655	21.45629	30.04	3	100	0	98	-5.921405	0.3142703	-173.1914	
23:25:55	47.45755	-122.3081	7.325	7.107049	33.83679	30.23	3	100	0	98	-4.332856	0.4165965	-169.5682	
23:25:56	47.45709	-122.3082	8.111	8.031652	57.70992	30.4	3	100	0	98	-4.426341	0.560139	-167.4613	
23:25:58	47.4566	-122.3083	9.017	8.91991	55.66928	30.58	3	100	0	98	-6.266838	0.3268416	-167.6853	
23:26:00	47.45621	-122.3085	9.6	9.740306	59.18106	30.48	3	100	0	98	-4.691417	0.4846569	-164.5442	
23:26:01	47.45574	-122.3087	10.452	10.50708	53.7563	30.52	3	100	0	98	-3.624555	0.3981197	-163.0889	
23:26:03	47.4553	-122.3089	11.086	11.11254	41.67794	30.74	3	100	0	100	-6.188152	0.1591813	-163.1788	
23:26:05	47.45485	-122.3092	11.843	11.85483	47.14692	30.76	3	100	0	98	-3.809964	0.3945179	-158.3312	
23:26:07	47.4544	-122.3094	12.452	12.43533	39.39751	30.72	3	100	0	98	-4.41806	0.3407332	-154.7464	
23:26:08	47.45399	-122.3097	13.003	13.00681	53.9399	30.82	3	100	0	100	-3.339419	0.6064754	-151.9206	
23:26:10	47.45358	-122.31	13.679	13.71082	49.0829	30.86	3	100	0	100	-4.810058	0.4465916	-149.9737	
23:26:12	47.45315	-122.3104	14.589	14.48445	47.00951	30.8	3	100	0	98	-4.845769	0.1669053	-149.2625	
23:26:13	47.45279	-122.3106	15.623	15.59125	58.27775	30.86	3	100	0	98	-8.760331	0.2053376	-151.5911	
23:26:15	47.45238	-122.311	16.549	16.77129	81.90598	31.88	3	100	0	100	-7.14264	0.221395	-155.3993	
23:26:17	47.45193	-122.3113	17.456	17.73931	78.49508	32.45	3	100	0	98	-5.996228	0.350489	-157.9296	
23:26:18	47.45139	-122.3116	18.897	18.65663	69.0612	32.66	3	100	0	98	-5.428651	0.2591866	-159.4031	
23:26:20	47.45096	-122.3118	20.642	20.22195	88.86308	32.75	3	100	0	100	-5.510928	0.1823741	-161.2595	
23:26:22	47.45046	-122.3121	22.646	22.25381	124.3848	32.93	3	100	0	98	-4.674969	0.3813471	-162.6618	
23:26:23	47.44999	-122.3123	23.695	23.90484	109.3297	32.94	3	100	0	100	-5.027691	0.2264155	-164.0052	
23:26:25	47.44954	-122.3125	25.335	25.2298	87.96754	32.98	3	100	0	100	-4.919207	0.1122701	-165.1504	
23:26:27	47.44906	-122.3127	27.046	26.91817	101.2766	32.99	3	100	0	100	-4.53505	0.245362	-166.4099	
23:26:29	47.44862	-122.3129	28.713	28.77553	108.4232	33.01	3	100	0	100	-4.549699	0.2693096	-167.9204	
23:26:30	47.44811	-122.313	30.899	30.91932	135.6541	31.91	3	100	0	100	-5.173949	0.4030923	-171.7839	
23:26:32	47.44761	-122.3131	33.293	33.13388	117.1046	32.2	3	100	0	100	-3.853905	0.3818274	-172.0351	
23:26:34	47.44715	-122.3132	35.226	35.1974	123.4382	32.52	3	100	0	100	-4.447719	0.2009828	-174.0979	
23:26:35	47.44664	-122.3133	37.269	37.26932	118.5412	32.38	37.6509	100	0	52	-6.420937	0.253701	-173.759	
23:26:37	47.44619	-122.3135	36.364	37.39885	58.17934	30.67	28.98539	100	0	100	45.67697	-3.065789	-136.0936	
23:26:39	47.44591	-122.314	30.831	35.48891	226.2599	33.56	32.66497	100	0	100	47.37241	-0.8695451	-89.09261	
23:26:40	47.44597	-122.3148	23.227	28.49342	-22.94014	35.35	35.3539	100	0	100	43.00807	-0.5578843	-53.47989	
23:26:42	47.44632	-122.3155	19.403	21.22297	-207.6953	35.48	36.33163	100	0	100	5.592969	-0.6446792	-36.52599	
23:26:44	47.44675	-122.316	17.465	16.79587	-245.8853	34.98	35.54923	100	0	100	-2.581629	-0.4153003	-36.01242	
23:26:46	47.44709	-122.3165	16.75	15.31748	-181.5225	34.56	34.62041	100	0	100	-1.782843	-0.3307332	-37.02806	
23:26:47	47.44749	-122.3171	16.769	15.42401	-91.01894	34.14	34.07584	100	0	100	-1.86923	-0.04904849	-37.98016	
23:26:49	47.44783	-122.3175	17.421	16.41315	-28.30528	33.84	33.72776	100	0	100	-2.056787	-0.0890863	-39.05716	
23:26:51	47.44823	-122.3181	18.663	17.80059	20.22167	33.55	33.34359	100	0	100	1.896254	0.1336336	-40.07537	
23:26:52	47.44867	-122.3185	19.905	19.07244	58.20407	33.52	33.77703	100	0	100	42.45369	1.030604	-19.652	
23:26:54	47.44914	-122.3187	22.163	21.51927	85.9767	33.09	34.40289	100	0	100	17.26967	0.6693518	-0.9197918	
23:26:56	47.44963	-122.3187	23.785	23.20915	38.30508	32.87	34.28964	100	0	100	4.700166	0.1427155	4.244648	
23:26:57	47.45011	-122.3186	25.018	24.38943	24.2212	32.8	33.72887	100	0	100	-1.305838	0.1387698	5.593795	
23:26:59	47.45064	-122.3185	27.416	26.32338	56.13027	32.75	33.15421	100	0	100	-3.019825	0.216932	5.136601	
23:27:01	47.4511	-122.3185	29.406	28.80513	95.09241	32.7	32.80304	100	0	100	-2.895227	0.3609751	4.385908	
23:27:02	47.45158	-122.3184	31.694	31.30681	111.0743	32.68	32.65115	100	0	100	-3.014579	0.4349482	3.777659	
23:27:04	47.45206	-122.3183	34.593	34.13079	129.1966	32.66	32.54599	100	0	100	-3.140105	0.3905865	3.253032	
23:27:06	47.45257	-122.3182	37.814	37.33072	150.601	32.66	32.55278	100	0	100	-3.073722	0.3146428	2.864899	
23:27:08	47.45304	-122.3182	40.71	40.62254	165.8946	32.68	32.52441	100	0	100	-3.111687	0.36673	2.55259	
23:27:09	47.45358	-122.3181	43.84	43.57596	161.0652	32.69	32.51364	100	0	100	-3.249469	0.34859	2.242628	
23:27:11	47.45405	-122.318	46.976	46.655	161.473	32.71	32.50793	100	0	100	-3.151619	0.334459	2.005305	
23:27:13	47.45456	-122.318	50.304	49.8802	170.0524	32.71	32.5142	100	0	100	-3.117324	0.34828	1.766369	
23:27:14	47.45503	-122.3179	52.996	52.97715	171.8037	32.74	32.5254	100	0	100	-3.257685	0.4064784	1.439831	
23:27:16	47.45557	-122.3179	55.429	55.47646	151.6482	32.76	32.55953	100	0	100	-3.932119	0.4804082	1.069228	
23:27:18	47.45605	-122.3178	57.615	57.55676	127.1561	32.77	32.56313	100	0	100	-4.160379	0.4607061	0.5242296	
23:27:19	47.4565	-122.3178	59.484	59.65063	118.7424	32.79	32.56897	100	0	100	0.6306388	0.3811184	0.72385	
23:27:21	47.45704	-122.3178	61.096	61.29285	92.56147	32.8	32.5394	100	0	100	2.64292	0.3511834	2.982379	
23:27:23	47.45755	-122.3177	62.264	62.26604	63.80119	32.82	32.53011	100	0	100	1.516425	0.3793527	5.499585	
23:27:24	47.45802	-122.3176	63.194	63.13228	42.78528	32.83	32.53576	100	0	100	0.1534448	0.3474493	7.311471	
23:27:26	47.45852	-122.3175	63.914	63.85895	32.37019	32.85	32.54203	100	0	100	-1.641719	0.3773807	8.447525	
23:27:28	47.45904	-122.3173	64.337	64.30295	22.20857	32.87	32.57726	100	0	100	-1.783185	0.4352798	8.939915	
23:27:30	47.45949	-122.3172	64.711	64.62016	11.87586	32.89	32.61128	100	0	100	-2.304512	0.3921895	9.152632	
23:27:31	47.46	-122.3171	65.057	64.9438	4.883224	32.9	32.63065	100	0	100	-2.54267	0.3296893	9.207509	
23:27:33	47.46053	-122.3169	65.678	65.3465	14.24598	32.9	32.63952	100	0	100	-2.485341	0.3924959	9.194144	
23:27:35	47.46102	-122.3168	66.476	66.11109	23.53622	32.9	32.63866	100	0	100	-2.801292	0.2711602	9.178818	
23:27:36	47.46149	-122.3167	67.203	67.05123	38.46781	32.88	32.62181	100	0	100	-2.657785	0.35026	9.102448	
23:27:38	47.46201	-122.3166	68.728	68.19971	57.44862	32.88	32.61657	100	0	100	-2.420299	0.4016378	9.074974	
23:27:40	47.46246	-122.3164	70.288	69.99582	85.94081	32.88	32.6191	100	0	100	-2.399365	0.3678308	9.152127	
23:27:41	47.46298	-122.3163	72.095	71.90544	101.0843	32.88	32.62158	100	0	100	-2.578054	0.3734108	9.181708	
23:27:43	47.46343	-122.3162	74.017	73.91926	116.0039	32.89	32.62551	100	0	100	-2.303519	0.399044	9.207607	
23:27:45	47.46394	-122.3161	75.987	75.91364	116.8979	32.91	32.64267	100	0	100	-1.858065	0.3380056	9.341956	
23:27:47	47.46447	-122.3159	78.27	77.92054	117.2044	32.94	32.66369	100	0	100	-2.154085	0.2948279	9.494761	
23:27:48	47.46492	-122.3158	80.725	80.49805	147.2151	32.95	32.66709	100	0	100	-2.439073	0.417886	9.51695	
23:27:50	47.46544	-122.3157	83.25	83.186	163.2613	32.95	32.6684	100	0	100	-2.314513	0.4377193	9.619913	
23:27:52	47.4659	-122.3156	85.746	84.93571	116.2614	32.94	32.67089	100	0	100	-2.213756	0.1865791	9.707047	
23:27:53	47.4664	-122.3154	88.164	87.75591	61.64981	33.04	32.73819	100	0	100	46.51206	-0.3326735	22.98885	
23:27:55	47.4668	-122.315	89.231	89.92536	147.9074	33.35	32.99305	100	0	100	44.94013	1.17993	55.31944	
23:27:57	47.46701	-122.3142	89.658	90.39621	47.8704	33.52	33.55959	100	0	100	45.30965	0.8618702	84.67805	
23:27:58	47.46693	-122.3135	88.507	89.32861	-21.41349	33.72	33.82625	100	0	100	39.85465	1.001742	113.3952	
23:28:00	47.46664	-122.3128	86.841	87.43925	-138.1007	33.66	33.95256	100	0	100	2.007791	-0.07208692	126.6111	
23:28:02	47.46636	-122.3123	83.846	84.05764	-188.1111	33.79	33.94489	100	0	100	-23.61916	-0.3313009	120.6703	
23:28:04	47.46612	-122.3116	80.993	80.97807	-143.5743	33.79	33.88185	100	0	100	-25.50997	0.2664877	107.9786	
23:28:05	47.46597	-122.3109	79.31	79.0628	-103.4741	33.57	33.2725	100	0	100	-18.99384	0.3607644	97.40531	
23:28:07	47.46591	-122.3102	78.594	78.16991	-69.12892	33.37	33.63582	100	0	100	-12.72379	0.1927244	91.20031	
23:28:09	47.4659	-122.3094	78.351	78.01186	-32.51973	33.17	33.40393	100	0	100	-7.031833	0.1813643	87.98988	
23:28:10	47.46591	-122.3086	78.075	78.06868	-11.83887	33.02	32.98793	100	0	100	-3.578816	0.230441	87.02698	
23:28:12	47.46592	-122.3078	77.736	77.81367	-15.30987	32.93	32.78316	100	0	100	-1.8371	0.3153398	87.45277	
23:28:14	47.46591	-122.3072	76.727	76.90874	-43.11602	33.08	32.73653	100	0	100	45.05208	0.3676576	106.3864	
23:28:15	47.46571	-122.3066	75.892	76.19558	-12.05775	33.1	32.52528	100	0	100	44.8801	0.7536482	137.8479	
23:28:17	47.46527	-122.3062	75.42	75.49938	-32.48628	33.16	33.19351	100	0	100	45.27933	0.09458733	169.3967	
23:28:19	47.46475	-122.3062	74.615	74.87624	-7.400208	33.37	33.59953	100	0	100	44.87767	-0.2142205	-158.1715	
23:28:20	47.46426	-122.3066	75.519	75.18281	28.93645	33.26	33.83033	100	0	100	12.04261	0.1397788	-136.7894	
23:28:22	47.46393	-122.307	76.08	75.64743	-16.69357	33.25	33.65285	100	0	100	-22.95951	-0.4216856	-138.9583	
23:28:24	47.46352	-122.3075	75.863	76.0451	23.59439	33.24	33.25069	100	0	100	-28.4585	0.2847935	-152.3113	
23:28:26	47.46308	-122.3077	75.817	75.97245	12.03916	33.11	32.37825	100	0	100	-24.06748	0.602433	-165.3499	
23:28:27	47.46258	-122.3079	75.937	75.86698	-19.07784	32.96	32.59039	100	0	100	-15.50823	0.2230985	-173.6315	
23:28:29	47.46204	-122.3079	75.715	75.68922	-17.59833	32.94	32.59533	100	0	100	-8.582703	0.2528737	-178.2325	
23:28:31	47.46151	-122.3079	75.647	75.46003	-22.59367	32.91	32.59465	100	0	100	-3.896325	0.2052795	179.5558	
23:28:32	47.461	-122.3079	75.91	75.67059	-1.938616	32.89	32.80665	100	0	100	-1.177634	0.2895268	179.4072	
23:28:34	47.46061	-122.3079	76.062	75.99538	10.31502	32.87	32.70051	100	0	100	-0.2656354	0.3285885	179.8089	
23:28:36	47.46008	-122.3079	76.279	76.21283	5.729332	32.87	32.6354	100	0	100	-1.07529	0.2937368	-179.5011	
23:28:37	47.4596	-122.3079	77.454	76.9884	34.53743	32.86	32.58324	100	0	100	-1.246985	0.371124	-179.2237	
23:28:39	47.45905	-122.3079	78.751	78.52367	67.31201	32.85	32.56017	100	0	100	-1.79477	0.312395	-179.2313	
23:28:41	47.45852	-122.3079	79.97	79.8403	71.67616	32.84	32.53989	100	0	100	-1.58971	0.3275665	-179.3366	
23:28:43	47.45799	-122.3079	81.348	81.09721	76.88335	32.83	32.53495	100	0	100	-1.930267	0.4111634	-179.3441	
23:28:44	47.45762	-122.3079	82.559	82.63982	85.38691	32.84	32.53397	100	0	100	-2.644106	0.3443316	-179.6368	
23:28:46	47.45707	-122.3079	84.468	84.35416	63.48512	32.82	32.53035	100	0	100	34.78538	-0.4365125	-177.5897	
23:28:48	47.45661	-122.308	85.864	85.91262	143.7384	33.04	32.446	100	0	100	45.05415	1.435062	-148.306	
23:28:49	47.45622	-122.3085	89.059	88.80829	147.1805	32.93	33.02736	100	0	100	44.90658	1.155684	-119.4508	
23:28:51	47.45605	-122.3093	91.932	91.68528	136.7283	32.97	33.25832	100	0	100	45.05012	0.5017203	-90.33503	
23:28:53	47.45614	-122.31	93.72	93.87227	147.8831	33.14	33.53615	100	0	100	37.86628	0.618251	-61.14686	
23:28:54	47.45646	-122.3106	96.182	96.12301	94.82315	33.07	33.55857	100	0	66	-7.095041	-0.4489023	-49.05706	
23:28:56	47.4568	-122.3112	96.884	96.88631	17.8367	30.26	33.55857	100	0	48	-3.845441	-1.666575	-49.15492	
23:28:58	47.45706	-122.3116	96.765	96.9085	-0.3929645	28.03	33.55857	100	0	43	-3.86425	-1.874772	-49.96653	
23:28:59	47.45734	-122.3121	96.406	96.21525	-105.5996	26.34	25.60233	100	0	74	-39.58584	-3.1851	-61.26165	
23:29:01	47.45746	-122.3127	96.542	96.6577	148.853	27.92	27.90295	100	0	67	-30.52756	0.9894767	-90.75855	
23:29:03	47.45743	-122.3133	99.48	99.0638	131.2046	27.29	27.81697	100	0	64	-7.726838	-0.05816808	-101.5178	
23:29:05	47.45734	-122.3139	103.118	102.1361	169.2619	27.12	27.55177	100	0	67	3.740833	-0.0552249	-102.5939	
23:29:06	47.45728	-122.3145	106.304	105.6189	201.1312	27.18	27.5271	100	0	67	6.444159	0.2201563	-99.06737	
23:29:08	47.45723	-122.3151	110.34	109.8559	227.2374	27.17	27.1989	100	0	64	5.007976	0.1428131	-95.53519	
23:29:10	47.45722	-122.3157	113.756	113.8245	221.8091	26.93	26.76035	100	0	58	2.663984	-0.2625324	-92.63864	
23:29:11	47.45722	-122.3163	117.099	117.238	202.1469	26.43	26.15996	100	0	52	0.6253595	-0.52343	-90.80343	
23:29:13	47.45723	-122.3169	119.951	120.1154	176.329	25.59	25.4486	100	0	43	-0.8320568	-0.843869	-89.90677	
23:29:15	47.45724	-122.3175	122.099	122.1287	126.5412	24.5	24.30348	100	0	34	-1.536591	-1.307988	-89.6768	
23:29:16	47.45725	-122.318	123.322	123.3767	27.29755	23.4	23.08953	100	0	40	33.94596	-3.282887	-84.8439	
23:29:18	47.45735	-122.3185	122.635	122.9743	27.32143	23.87	23.30255	100	0	62	45.70194	-2.222332	-45.32011	
23:29:20	47.4577	-122.3188	122.392	123.2754	127.6957	25.25	24.58731	100	0	74	45.87959	1.327695	-1.491042	
23:29:22	47.45807	-122.3186	122.987	123.8807	127.1389	26.16	26.60678	100	0	62	34.26264	2.838102	35.73038	
23:29:23	47.45837	-122.3182	122.887	123.6189	-36.09725	25.5	26.30037	100	0	52	-3.645194	0.9065989	48.335	
23:29:25	47.45863	-122.3178	120.369	120.8284	-182.7069	25.06	25.61583	100	0	52	-20.88034	-0.6205273	40.32085	
23:29:27	47.4589	-122.3175	118.08	117.814	-172.0031	24.99	24.9251	100	0	53	-20.20569	-0.1442823	26.06149	
23:29:28	47.45926	-122.3173	116.426	115.9118	-124.7604	24.95	25.00063	100	0	53	-12.75394	0.1356909	14.99785	
23:29:30	47.45969	-122.3171	115.402	115.0791	-76.93446	24.9	24.97461	100	0	55	-6.86431	0.1837709	9.325091	
23:29:32	47.46003	-122.317	115.081	114.7767	-42.64397	24.94	25.08057	100	0	56	-2.365435	0.2114737	7.203703	
23:29:33	47.46043	-122.317	114.866	114.6706	-20.44854	25.09	25.03918	100	0	58	-0.8953655	0.3563636	7.219279	
23:29:35	47.46074	-122.3169	114.936	114.753	-8.250335	25.22	25.10486	100	0	59	-0.7906947	0.3548985	7.77485	
23:29:37	47.46112	-122.3168	115.005	114.8761	-0.3707209	25.43	25.26048	100	0	61	-0.8782363	0.3993347	8.295902	
23:29:39	47.46153	-122.3167	115.008	114.9896	6.602273	25.73	25.50418	100	0	62	-1.257903	0.5187909	8.656069	
23:29:40	47.46188	-122.3166	115.553	115.3122	15.24201	26.02	25.82804	100	0	65	-1.194049	0.4904985	8.919344	
23:29:42	47.46231	-122.3165	116.545	116.2894	43.26832	26.37	26.15511	100	0	67	-1.185961	0.505033	9.204785	
23:29:44	47.46267	-122.3164	117.371	117.3899	55.71304	26.65	26.44962	100	0	67	-1.185794	0.4720345	9.433628	
23:29:45	47.4631	-122.3163	118.424	118.3873	55.51078	26.89	26.68138	100	0	68	-1.573019	0.391062	9.577451	
23:29:47	47.46352	-122.3162	119.639	119.4593	65.22115	27.18	26.91759	100	0	68	-1.009194	0.4293447	9.751581	
23:29:49	47.46391	-122.3161	120.761	120.7221	71.21748	27.33	27.08206	100	0	68	-1.204875	0.3661334	9.995643	
23:29:50	47.46429	-122.316	121.876	121.9602	73.87874	27.44	27.2106	100	0	70	-1.514078	0.3151052	10.10812	
23:29:52	47.4648	-122.3159	123.979	123.4586	90.73077	27.66	27.39577	100	0	70	-1.301947	0.3060331	10.14944	
23:29:54	47.46518	-122.3158	125.509	125.4359	108.3653	27.76	27.48895	100	0	70	-1.520496	0.2760464	10.19056	
23:29:55	47.46562	-122.3157	127.038	127.0538	97.44713	27.75	27.50077	100	0	68	-1.516132	0.1069708	10.20193	
23:29:57	47.46601	-122.3155	128.67	128.63	86.92974	27.67	27.35928	100	0	61	23.14662	-0.2474576	11.25132	
23:29:59	47.4664	-122.3153	129.264	129.3053	70.76802	27.46	26.95553	100	0	58	45.56103	-0.8595998	41.54449	
23:30:01	47.46663	-122.3149	130.073	130.3894	69.59881	26.35	26.36744	100	0	40	44.77673	-1.316531	78.81574	
23:30:02	47.46662	-122.3143	129.433	130.2299	7.585176	24.39	24.95185	100	0	29	35.72828	-2.762724	116.0143	
23:30:04	47.46645	-122.3139	127.672	128.6211	-35.34871	22.8	23.59189	100	0	17	4.848197	-2.298944	137.2623	
23:30:06	47.46619	-122.3135	124.754	125.3115	-219.2948	20.83	21.92993	100	0	13	-20.69981	-3.824139	132.4193	
23:30:07	47.46603	-122.3131	120.875	120.7377	-293.6485	19.92	20.02123	100	0	7	-22.38692	-4.786257	114.1156	
23:30:09	47.46595	-122.3127	116.077	116.0197	-283.4943	19.06	19.12421	100	0	5	-14.4881	-4.394754	96.82458	
23:30:11	47.46594	-122.3123	111.894	111.9111	-247.4594	18.3	18.53721	100	0	5	-4.062772	-3.524978	88.36452	
23:30:12	47.46597	-122.3118	108.222	108.3179	-228.6803	17.64	17.91497	100	0	5	1.800504	-3.320298	87.49069	
23:30:14	47.46598	-122.3115	104.925	104.884	-217.8783	17.13	17.18692	100	0	5	2.507976	-3.012831	89.53275	
23:30:16	47.46598	-122.3111	100.91	101.3938	-210.7054	16.61	16.61545	100	0	5	0.7487413	-2.591453	91.05335	
23:30:17	47.46598	-122.3107	97.543	97.93491	-211.7398	16.23	16.20382	100	0	5	-0.5520025	-2.436918	90.76453	
23:30:19	47.46598	-122.3104	94.516	94.45624	-206.2103	15.93	15.80132	100	0	5	-0.6439924	-2.174107	89.80752	
23:30:21	47.46598	-122.3101	92.404	91.67039	-178.5163	15.73	15.59707	100	0	5	-0.3747606	-1.945778	89.1647	
23:30:23	47.46598	-122.3096	87.528	88.186	-199.4211	15.36	15.22604	100	0	5	0.1565513	-1.779655	89.1219	
23:30:24	47.46599	-122.3093	84.64	84.59562	-203.6166	15.16	15.02955	100	0	5	-0.01485776	-1.579575	89.249	
23:30:26	47.46599	-122.309	81.124	81.21712	-200.729	14.93	14.8099	100	0	5	-0.2046003	-1.433354	89.34122	
23:30:28	47.46598	-122.3087	78.014	78.45284	-174.6688	14.75	14.66658	100	0	7	-0.2405418	-1.289018	89.21642	
23:30:29	47.46598	-122.3083	74.475	74.82	-186.8986	14.67	14.54001	100	0	14	-0.8806822	-0.5687069	88.54195	
23:30:31	47.46599	-122.308	71.967	71.79469	-146.9808	14.84	14.75599	100	0	23	-0.520413	1.169916	87.64442	
23:30:33	47.46598	-122.3076	69.564	69.53227	-179.2151	15.09	14.98838	100	0	13	31.57982	-0.07074256	101.0051	
23:30:34	47.46587	-122.3073	65.275	65.90337	-230.7177	15.16	14.63565	100	0	11	36.27697	-1.562914	147.5231	
23:30:36	47.46566	-122.3073	61.442	61.87994	-206.5066	15.17	14.86035	100	0	10	30.05443	-0.5004271	-169.4947	
23:30:38	47.46544	-122.3074	58.974	58.96896	-159.6117	14.6	14.76536	100	0	5	6.526303	1.180574	-146.7962	
23:30:40	47.46527	-122.3076	56.691	56.5275	-219.3221	14.27	14.57369	100	0	11	-11.51423	-2.448164	-152.6944	
23:30:41	47.46508	-122.3077	53.202	53.55033	-139.4069	14.99	14.71517	100	0	26	-13.88966	-0.1011944	-169.653	
23:30:43	47.46481	-122.3077	51.002	51.57857	-18.24028	15.66	15.3789	100	0	35	-7.210583	4.582635	176.8704	
23:30:45	47.4646	-122.3077	50.853	50.9477	-18.08801	15.94	15.70782	100	0	40	1.595447	4.634486	174.9924	
23:30:46	47.46436	-122.3077	50.596	50.54581	-25.81008	16.65	16.4427	100	0	44	3.197892	3.943891	178.3342	
23:30:48	47.46408	-122.3077	50.364	50.33405	-10.60904	17.68	17.53875	100	0	49	0.5805048	3.715375	-178.8995	
23:30:50	47.4638	-122.3078	50.278	50.30763	7.547975	18.86	18.65832	100	0	53	-2.094192	3.795142	-178.9553	
23:30:51	47.46353	-122.3078	50.521	50.49273	6.032922	19.8	19.71258	100	0	40	-1.885277	3.269354	-179.8792	
23:30:53	47.46324	-122.3078	50.331	50.10778	-75.69647	19.56	19.54255	100	0	35	-0.7309137	0.7263752	-179.7809	
23:30:55	47.46293	-122.3078	49.013	48.97221	-82.86557	19.72	19.54561	100	0	43	-1.322631	0.179594	-179.7851	
23:30:56	47.46264	-122.3078	47.833	47.9288	-35.10131	20.48	20.39322	100	0	50	-1.475157	1.349646	179.7973	
23:30:58	47.46231	-122.3078	47.433	47.49123	-3.095901	21.37	21.24371	100	0	56	-0.7984227	2.131262	179.7367	
23:31:00	47.46201	-122.3078	47.48	47.46033	4.476759	22.21	22.18391	100	0	59	-0.4751318	2.164021	-179.7947	
23:31:02	47.46159	-122.3078	47.799	47.66527	10.84116	23.37	23.23685	100	0	64	-1.217407	1.852817	-179.4388	
23:31:03	47.46125	-122.3078	48.503	48.28399	35.20984	24.32	24.25448	100	0	68	-1.785116	1.919231	-179.6342	
23:31:05	47.46086	-122.3078	49.131	49.06759	39.83196	25.31	25.08286	100	0	71	-1.179073	1.681902	-179.7578	
23:31:07	47.46053	-122.3078	49.556	49.66057	40.53708	26.1	26.12592	100	0	74	-1.237504	1.551041	-179.5316	
23:31:08	47.46008	-122.3078	50.163	50.1851	36.37741	27.07	26.97401	100	0	79	-1.082193	1.369295	-179.2439	
23:31:10	47.45971	-122.3079	51.326	51.0491	44.88243	27.86	27.82099	100	0	82	-1.898603	1.114887	-179.0436	
23:31:12	47.45926	-122.3079	52.713	52.57727	78.61613	28.72	28.6639	100	0	85	-2.351272	1.10578	-179.2993	
23:31:13	47.45878	-122.3079	54.089	54.06808	83.39779	29.48	29.38464	100	0	88	-1.95824	0.9139847	-179.3452	
23:31:15	47.4583	-122.3079	55.461	55.38269	83.85357	30.16	30.00238	100	0	91	-1.656005	0.8840103	-179.2422	
23:31:17	47.45786	-122.3079	56.975	56.75934	87.805	30.75	30.56845	100	0	94	-2.255011	0.8524626	-179.146	
23:31:18	47.45736	-122.3079	58.984	58.58033	106.7409	31.34	31.11019	100	0	95	-2.655847	0.8381733	-179.4736	
23:31:20	47.45697	-122.3079	60.507	60.39799	21.55894	31.73	31.71765	100	0	100	45.44427	-1.753276	-170.0319	
23:31:22	47.45647	-122.3082	62.201	62.19091	217.7937	32.48	31.73374	100	0	100	46.21359	1.60401	-132.7001	
23:31:24	47.4562	-122.3088	65.212	65.19208	171.7968	32.67	32.15516	100	0	100	45.75544	0.8222544	-102.0007	
23:31:25	47.45619	-122.3095	66.87	67.25696	131.8341	32.97	33.00485	100	0	100	44.42888	0.6207727	-71.26492	
23:31:27	47.45644	-122.3102	68.408	68.73698	142.7599	33.22	33.56696	100	0	100	12.82317	0.7086601	-48.89223	
23:31:29	47.45678	-122.3108	69.242	69.2714	24.35087	33.38	33.8431	100	0	100	-23.64348	-0.5253364	-50.09616	
23:31:30	47.45706	-122.3114	70.787	70.25645	84.86874	33.34	33.43884	100	0	100	-28.49385	0.4271501	-63.47998	
23:31:32	47.45722	-122.312	73.782	72.89536	146.1468	33.08	32.85371	100	0	100	-24.13273	0.5106303	-76.43995	
23:31:34	47.45731	-122.3129	78.569	77.42555	228.1995	32.77	32.6185	100	0	100	-16.13141	0.4248319	-86.04053	
23:31:35	47.45733	-122.3135	82.918	82.50058	273.1369	32.62	32.44314	100	0	100	-9.625741	0.3133239	-91.75808	
23:31:37	47.45732	-122.3143	88.831	88.31712	316.7268	32.54	32.28333	100	0	100	-3.712727	0.2335454	-94.11235	
23:31:39	47.45729	-122.315	94.525	93.9141	331.3684	32.55	32.29756	100	0	100	-1.226507	0.3834342	-94.39542	
23:31:41	47.45728	-122.3157	100.023	99.80827	339.7609	32.59	32.30649	100	0	100	-0.3408672	0.4006908	-93.72792	
23:31:42	47.45726	-122.3165	105.72	105.5281	339.2256	32.67	32.36838	100	0	100	-0.3518288	0.323632	-92.84066	
23:31:44	47.45726	-122.3172	110.756	110.955	336.0705	32.76	32.43338	100	0	100	-0.6743391	0.4393179	-92.08349	
23:31:46	47.45726	-122.3179	115.236	115.7235	292.9959	32.82	32.49137	100	0	100	25.46284	-0.196785	-89.90495	
23:31:47	47.45739	-122.3188	120.201	119.9519	334.6629	33.09	32.11445	100	0	100	45.43632	1.520741	-60.56222	
23:31:49	47.45769	-122.3192	123.977	124.1433	250.8155	33.05	31.96848	100	0	100	45.07578	0.9761847	-31.68303	
23:31:51	47.45813	-122.3195	126.597	127.0943	195.1966	33.12	32.40277	100	0	100	45.07364	0.865819	-2.125124	
23:31:52	47.4586	-122.3194	126.81	127.8515	39.67907	33.28	32.89571	100	0	100	44.3775	0.5898437	25.88248	
23:31:54	47.45908	-122.3188	123.072	125.0083	-116.9025	33.79	33.93659	100	0	100	19.44024	0.5526893	47.17813	
23:31:56	47.45934	-122.3184	118.789	119.3628	-302.0833	34.15	34.39034	100	0	100	-9.461876	-0.6887316	51.75204	
23:31:57	47.45966	-122.3177	112.597	113.1137	-322.0444	34.45	34.52916	100	0	100	-31.83078	-0.2211124	41.53601	
23:31:59	47.4601	-122.3172	108.535	108.2574	-238.7648	34.23	33.75171	100	0	100	-27.67529	0.4040897	25.61061	
23:32:01	47.46058	-122.3169	107.547	106.3735	-148.2158	33.75	33.74536	100	0	100	-20.12889	0.1627609	14.50369	
23:32:03	47.46104	-122.3167	107.945	106.872	-40.4289	33.39	33.48218	100	0	100	-12.72437	0.04273017	7.796779	
23:32:04	47.46153	-122.3166	108.812	108.3	41.32196	33.12	33.36305	100	0	100	-5.5699	0.1468053	4.582407	
23:32:06	47.46206	-122.3165	110.974	110.3622	93.43779	32.93	32.90972	100	0	100	-1.591708	0.2960673	4.030705	
23:32:08	47.46254	-122.3164	113.147	112.8292	125.8185	32.84	32.65775	100	0	100	-0.6450014	0.3210905	4.950395	
23:32:09	47.46308	-122.3163	115.625	115.1962	133.7225	32.79	32.51157	100	0	100	-0.5586843	0.3351367	6.215087	
23:32:11	47.46354	-122.3162	117.847	117.6614	136.8118	32.77	32.45141	100	0	100	-1.097893	0.2969217	7.281114	
23:32:13	47.46404	-122.316	120.236	120.0516	139.3875	32.77	32.43385	100	0	100	-1.784767	0.3895054	8.050833	
23:32:14	47.46446	-122.3159	122.48	122.4869	144.9454	32.77	32.43552	100	0	100	-2.044489	0.4143119	8.565404	
23:32:16	47.46498	-122.3158	125.569	125.3803	162.5946	32.79	32.4489	100	0	100	-2.233249	0.3567528	8.867518	
23:32:18	47.46545	-122.3157	128.143	128.3613	169.8712	32.8	32.46549	100	0	100	-2.274024	0.3481836	9.129794	
23:32:20	47.46597	-122.3155	131.129	131.1939	178.053	32.83	32.46611	100	0	100	17.60334	0.2972477	9.562599	
23:32:21	47.46641	-122.3154	132.813	133.1848	169.6207	33.14	32.03022	100	0	100	45.18269	1.422155	34.89938	
23:32:23	47.46681	-122.3147	133.596	134.4541	85.68544	33.51	32.93441	100	0	98	45.27565	1.029527	64.71584	
23:32:25	47.4669	-122.314	132.463	133.3693	-39.9338	33.63	33.33461	100	0	100	45.23291	0.5903884	93.24735	
23:32:26	47.46678	-122.3134	130.36	130.8617	-101.1378	33.97	33.97599	100	0	98	27.6837	0.9135292	117.6658	
23:32:28	47.46644	-122.3126	125.917	126.8239	-262.547	33.97	33.96548	100	0	100	-17.20066	-0.7374418	121.0929	
23:32:30	47.46621	-122.3121	122.044	122.1659	-225.453	34.17	34.04571	100	0	100	-26.25823	-0.276601	109.6306	
23:32:31	47.46621	-122.3121	122.044	120.903	-72.9668	34.17	33.85897	100	0	100	-22.67775	1.50825	98.90693	
23:32:33	47.46621	-122.3121	122.044	122.1613	92.46786	34.17	33.86962	100	0	100	-19.56329	3.812722	90.15518	
23:32:35	47.46621	-122.3121	122.044	123.2149	155.3221	34.17	33.87189	100	0	100	-17.58002	6.10333	82.96239	
23:32:36	47.46621	-122.3121	122.044	123.5225	149.182	34.17	33.09877	100	0	100	-16.31288	8.128566	77.01101	
23:32:38	47.46621	-122.3121	122.044	123.4177	127.1804	34.17	32.65944	100	0	100	-14.14691	9.747309	73.33412	
23:32:40	47.46621	-122.3121	122.044	123.2485	110.4873	34.17	31.58747	100	0	100	-12.61658	11.0602	70.339	
23:32:42	47.46364	-122.311	0.007	123.1472	179.1848	0	26.19685	100	0	100	-8.5422	12.29471	71.84977	
23:32:43	47.46363	-122.311	0.022	-8.970778	-4440.092	3.01	14.13854	100	0	100	-2.162163	4.057431	70.84526	
23:32:45	47.46356	-122.3109	0.021	-29.3175	-2568.439	3.14	12.03658	100	0	4	2.403783	0.5563311	49.21989	
23:32:47	47.46355	-122.3109	0.02	-15.10357	-561.1338	0	12.03658	100	0	4	-0.5199626	1.21807	66.16524	
23:32:48	47.46355	-122.3109	0.02	-2.648199	210.6356	0	12.03658	100	0	4	1.929325	-0.6800342	81.80041	
23:32:50	47.46355	-122.3109	0.02	1.693887	240.7616	0	12.03658	100	0	4	2.955066	-2.883789	97.62689	
23:32:52	47.46365	-122.311	0.02	2.034451	161.5311	0	12.03658	100	0	4	4.840843	-4.329577	117.795	
23:32:53	47.46365	-122.311	0.02	0.9223548	21.30779	0	12.03658	100	0	4	3.712236	-6.110785	138.8259	
23:32:55	47.46365	-122.311	0.02	0.03422512	-29.88717	0	12.03658	100	0	4	2.50843	-6.696352	158.8169	
23:32:57	47.46365	-122.311	0.02	-0.2295697	-28.12852	0	12.03658	100	0	4	2.019945	-6.717363	174.3504	
23:32:58	47.46365	-122.311	0.02	-0.1905599	-15.82588	0	12.03658	100	0	4	2.112144	-6.574397	-174.265	
23:33:00	47.46365	-122.311	0.02	-0.1024638	-7.778862	0	12.03658	100	0	4	2.325639	-5.790804	-165.0579	
23:33:02	47.46365	-122.311	0.02	-0.0487556	-4.89107	0	12.03658	100	0	4	2.732756	-5.125033	-158.496	
23:33:04	47.46365	-122.311	0.02	-0.02735133	-3.943973	0	12.03658	100	0	4	3.251566	-4.855492	-153.9157	
23:33:05	47.46365	-122.311	0.02	-0.02023118	-3.57483	0	12.03658	100	0	5	3.653235	-4.235084	-151.8231	
23:33:07	47.46365	-122.311	0.02	-0.01632723	-3.314501	0	12.03658	100	0	4	3.996786	-4.004505	-150.6075	
23:33:09	47.46365	-122.311	0.02	-0.01171234	-2.711516	0	12.03658	100	0	4	4.24707	-3.571149	-149.8804	
23:33:10	47.46365	-122.311	0.02	-0.003901434	-1.698797	0	12.03658	100	0	4	4.301657	-2.914019	-151.353	
23:33:12	47.46365	-122.311	0.02	0.008429908	-0.3175253	0	12.03658	100	0	4	4.294618	-2.405631	-152.8394	
23:33:14	47.46365	-122.311	0.02	0.01907155	0.5952391	0	12.03658	100	0	4	4.269303	-2.057443	-153.9956	
23:33:15	47.46365	-122.311	0.02	0.02637556	1.169458	0	12.03658	100	0	4	4.024529	-1.567623	-156.8333	
23:33:17	47.46365	-122.311	0.02	0.0340156	1.999315	0	12.03658	100	0	5	3.801468	-1.237575	-159.13	
23:33:19	47.46365	-122.311	0.02	0.04267551	3.019614	0	12.03658	100	0	5	3.62365	-1.063873	-160.7944	
23:33:20	47.46365	-122.311	0.02	0.04706515	2.905542	0	12.03658	100	0	4	3.278302	-0.7872328	-163.4049	
23:33:22	47.46365	-122.311	0.02	0.04866909	3.063595	0	12.03658	100	0	4	2.98004	-0.6447453	-165.5157	
23:33:24	47.46365	-122.311	0.02	0.052292	3.684257	0	12.03658	100	0	4	2.766491	-0.5757986	-166.9263	
23:33:26	47.46365	-122.311	0.02	0.05637842	4.132113	0	12.03658	100	0	4	2.443489	-0.4704829	-168.8964	
23:33:27	47.46365	-122.311	0.02	0.06383503	4.825222	0	12.03658	100	0	4	2.175683	-0.4317851	-170.381	
23:33:29	47.46365	-122.311	0.02	0.06787129	4.906318	0	12.03658	100	0	4	1.98437	-0.3877968	-171.339	
23:33:31	47.46365	-122.311	0.02	0.06161034	3.609378	0	12.03658	100	0	4	1.724408	-0.3330686	-172.5486	
23:33:32	47.46365	-122.311	0.02	0.05298887	3.114272	0	12.03658	100	0	4	1.522166	-0.3019513	-173.4236	
23:33:34	47.46365	-122.311	0.02	0.05259932	3.356936	0	12.03658	100	0	4	1.375521	-0.3107175	-173.9606	
23:33:36	47.46365	-122.311	0.02	0.05407452	3.431277	0	12.03658	100	0	4	1.187244	-0.2847952	-174.6066	
23:33:37	47.46365	-122.311	0.02	0.05175543	2.889282	0	12.03658	100	0	5	1.025132	-0.2648984	-175.0623	
23:33:39	47.46365	-122.311	0.02	0.04447647	2.224938	0	12.03658	100	0	4	0.9249481	-0.2467621	-175.3233	
23:33:41	47.46365	-122.311	0.02	0.04104545	1.883532	0	12.03658	100	0	5	0.7895207	-0.2382176	-175.6044	
23:33:42	47.46365	-122.311	0.02	0.03693321	1.53338	0	12.03658	100	0	4	0.6843877	-0.2155811	-175.8028	
23:33:44	47.46365	-122.311	0.02	0.03781082	2.021379	0	12.03658	100	0	4	0.605407	-0.2310883	-175.8923	
23:33:46	47.46365	-122.311	0.02	0.04061346	2.159835	0	12.03658	100	0	4	0.5216767	-0.196931	-175.9786	
23:33:48	47.46365	-122.311	0.02	0.04252507	2.386172	0	12.03658	100	0	5	0.4400471	-0.2226419	-176.0342	
23:33:49	47.46365	-122.311	0.02	0.03908017	1.547503	0	12.03658	100	0	4	0.3851829	-0.1599112	-176.0389	
23:33:51	47.46365	-122.311	0.02	0.03300535	1.165067	0	12.03658	100	0	4	0.3291953	-0.1543278	-176.0427	
23:33:53	47.46365	-122.311	0.02	0.03307647	1.294342	0	12.03658	100	0	4	0.2750258	-0.1443873	-176.0293	
23:33:54	47.46365	-122.311	0.02	0.0336008	1.365441	0	12.03658	100	0	4	0.2409195	-0.1324806	-175.9978	
23:33:56	47.46365	-122.311	0.02	0.03421829	1.543006	0	12.03658	100	0	4	0.2044833	-0.1175368	-175.9686	
23:33:58	47.46365	-122.311	0.02	0.03354651	1.375715	0	12.03658	100	0	4	0.1717561	-0.1010987	-175.9369	
23:33:59	47.46365	-122.311	0.02	0.03422912	1.540376	0	12.03658	100	0	5	0.1458984	-0.09562127	-175.9017	
23:34:01	47.46365	-122.311	0.02	0.03122431	0.8436292	0	12.03658	100	0	4	0.1267705	-0.06939367	-175.8719	
23:34:03	47.46364	-122.311	0.02	0.02297906	-0.2590653	0.97	12.03658	100	0	38	0.5706691	0.6868072	179.2015	
23:34:05	47.4636	-122.311	0.022	0.02241595	2.710646	5.3	12.03658	100	0	46	0.1679593	1.392889	169.6602	
23:34:06	47.46348	-122.3109	0.023	0.0870681	11.33022	9.69	12.03658	100	0	53	-1.004831	1.588008	-179.8301	
23:34:08	47.46332	-122.3109	0.026	0.1202782	4.193269	13.05	12.03658	100	0	56	-1.605764	1.184547	-170.0356	
23:34:10	47.46313	-122.311	0.028	0.05638967	2.043591	15.69	12.03658	100	0	56	-2.218979	1.370313	-161.0123	
23:34:11	47.46286	-122.3111	0.029	0.1005744	8.315804	18.3	12.03658	100	0	62	-3.727407	0.652054	-155.6392	
23:34:13	47.46257	-122.3113	0.032	0.05881461	6.546777	20.39	12.03658	100	0	62	-5.49707	0.2754826	-148.134	
23:34:15	47.46227	-122.3116	0.119	-0.1295113	-42.83379	21.53	12.03658	100	0	62	-16.85239	3.593159	-142.5812	
23:34:16	47.46199	-122.3118	0.101	-0.7423525	-80.43254	22.53	12.03658	100	0	71	-10.62182	2.767836	-145.3979	
23:34:18	47.46169	-122.312	0.202	-0.5094699	-35.66878	23.83	12.03658	100	0	71	-16.63838	1.922982	-153.7942	
23:34:20	47.46136	-122.3122	0.556	0.4182768	44.51636	24.31	12.03658	100	0	71	-8.955037	1.789032	-157.4085	
23:34:21	47.46101	-122.3124	1.065	1.192872	45.80453	24.58	12.03658	100	0	73	-6.371902	1.378766	-157.3821	
23:34:23	47.46064	-122.3125	1.334	1.455416	24.15087	24.86	12.03658	100	0	71	-4.947277	0.8383377	-156.5976	
23:34:25	47.4603	-122.3127	1.427	1.563445	24.05265	25.1	12.03658	100	0	73	-3.227918	0.7817279	-154.944	
23:34:27	47.45993	-122.3129	1.796	1.79774	23.96761	25.26	12.03658	100	0	71	-1.155769	0.524272	-152.6171	
23:34:28	47.4596	-122.3132	2.476	2.360644	36.31633	25.45	12.03658	100	0	71	-1.19366	0.3999543	-149.9987	
23:34:30	47.45924	-122.3134	3.302	3.176243	48.24848	25.58	12.03658	100	0	71	-1.085821	0.2591396	-147.5835	
23:34:32	47.45892	-122.3137	4.386	4.263937	58.45788	25.75	12.03658	100	0	71	-0.9444019	0.09987283	-145.324	
23:34:33	47.45867	-122.314	5.313	5.479823	64.56586	25.87	12.03658	100	0	71	-0.7591043	-0.05500304	-143.2622	
