Date	Latitude(deg) 	Longitude(deg)	hamsl(m)	hafl(m)	climbrate(cm/s)	GroundSpeed(m/s)	Airspeed(m/s)	Mav_Link(%)	Rssi_Link(%)	Throttle	Roll(deg)	Pitch(deg)	Yaw(deg)
00:56:09	0	0	0	0.0149496	-22.94994	0	3	28	0	100	0.5518785	0.3929253	20.41584	
00:56:11	0	0	0	0.05149857	-1.253709	0	3	37	0	100	1.177722	0.7610887	19.81528	
00:56:13	0	0	0	0.3585602	0.9714668	0	3	45	0	100	1.092509	0.6954377	19.80087	
00:56:14	0	0	0	0.5081003	-2.429861	0	3	51	0	100	1.094791	0.7460311	20.02313	
00:56:16	0	0	0	0.3657898	-12.67583	0	3	56	0	100	1.141378	0.7719465	20.18942	
00:56:18	0	0	0	0.05457264	-20.07253	0	3	61	0	100	1.166701	0.793103	20.30192	
00:56:19	0	0	0	-0.01362518	-17.48251	0	3	65	0	100	1.141593	0.7645503	20.3044	
00:56:21	0	0	0	0.117577	-8.690621	0	3	69	0	100	1.09722	0.7600952	20.39236	
00:56:23	0	0	0	-0.1645804	-18.47863	0	3	72	0	100	1.09379	0.7739038	20.43403	
00:56:24	47.46363	-122.311	0.02	-1.078212	-119.6907	0.54	3	74	0	100	1.13741	-1.357059	23.08413	
00:56:26	47.46357	-122.311	0.022	-0.4483053	-8.913741	5.98	6.29232	77	0	4	4.871095	6.333792	14.84152	
00:56:28	47.46352	-122.3109	0.022	-0.1947702	-12.05714	1.77	3	79	0	4	2.705795	-1.320759	2.028249	
00:56:30	47.46352	-122.3109	0.02	0.04579773	15.554	0	3	81	0	4	0.4185912	-1.999478	11.29834	
00:56:31	47.46352	-122.3109	0.02	0.1922292	21.6353	0	3	82	0	4	0.1477026	-1.073089	29.55889	
00:56:33	47.46352	-122.3109	0.02	0.2167952	18.99823	0	3	84	0	5	0.00321511	-0.8157084	51.84037	
00:56:35	47.46352	-122.3109	0.02	0.1950663	15.78708	0	3	85	0	4	-0.1146837	-0.7866174	72.79218	
00:56:36	47.46352	-122.3109	0.02	0.1634887	12.71613	0	3	86	0	4	-0.1228078	-0.7588679	89.01594	
00:56:38	47.46352	-122.3109	0.02	0.1418591	11.31744	0	3	87	0	4	-0.1455224	-0.7032962	107.6056	
00:56:40	47.46352	-122.3109	0.02	0.1301985	10.50634	0	3	88	0	4	-0.1187448	-0.6429136	124.1327	
00:56:41	47.46352	-122.3109	0.02	0.1198758	9.325562	0	3	89	0	4	-0.04701916	-0.6128417	136.1734	
00:56:43	47.46352	-122.3109	0.02	0.1102388	8.688805	0	3	90	0	4	0.03741091	-0.584399	145.2966	
00:56:45	47.46352	-122.3109	0.02	0.1037458	7.969218	0	3	91	0	4	0.1220956	-0.5529221	152.363	
00:56:46	47.46352	-122.3109	0.02	0.09296876	6.587826	0	3	92	0	4	0.1988451	-0.5342752	157.4816	
00:56:48	47.46352	-122.3109	0.02	0.08390655	5.867196	0	3	92	0	4	0.2665022	-0.4998544	160.6056	
00:56:50	47.46352	-122.3109	0.02	0.07481746	5.134804	0	3	93	0	4	0.3214498	-0.4571962	162.3419	
00:56:52	47.46352	-122.3109	0.02	0.07389469	5.449	0	3	93	0	4	0.3523381	-0.4372484	165.2624	
00:56:53	47.46352	-122.3109	0.02	0.07007109	4.616718	0	3	94	0	4	0.3839795	-0.4120673	166.0541	
00:56:55	47.46352	-122.3109	0.02	0.06340163	3.85272	0	3	94	0	5	0.4019441	-0.3523328	164.4411	
00:56:57	47.46352	-122.3109	0.02	0.05990993	3.93527	0	3	95	0	4	0.386601	-0.3448631	167.6338	
00:56:58	47.46352	-122.3109	0.02	0.05565913	2.983626	0	3	95	0	4	0.3776402	-0.3092981	170.7715	
00:57:00	47.46352	-122.3109	0.02	0.04986219	2.767183	0	3	95	0	4	0.3756687	-0.2331042	168.553	
00:57:02	47.46352	-122.3109	0.02	0.04775212	2.851198	0	3	96	0	4	0.3733384	-0.1705586	163.157	
00:57:03	47.46352	-122.3109	0.02	0.05046957	3.174768	0	3	96	0	4	0.3585573	-0.1375805	160.6824	
00:57:05	47.46352	-122.3109	0.02	0.0471422	2.531212	0	3	96	0	5	0.3351572	-0.09725866	155.9142	
00:57:07	47.46352	-122.3109	0.02	0.04194507	1.879912	0	3	96	0	4	0.3096265	-0.06254809	151.6553	
00:57:08	47.46352	-122.3109	0.02	0.03789324	1.695019	0	3	97	0	4	0.2872421	-0.05377897	148.5654	
00:57:10	47.46352	-122.3109	0.02	0.03967675	2.148567	0	3	97	0	4	0.2565476	-0.04608839	145.4223	
00:57:12	47.46352	-122.3109	0.02	0.03976955	1.94812	0	3	97	0	4	0.2283804	-0.0383907	142.7489	
00:57:14	47.46352	-122.3109	0.02	0.03844669	1.723586	0	3	97	0	4	0.2030025	-0.03571472	140.8315	
00:57:15	47.46352	-122.3109	0.02	0.03430085	1.243793	0	3	97	0	4	0.1816932	-0.03502728	138.9923	
00:57:17	47.46352	-122.3109	0.02	0.03315546	1.34237	0	3	98	0	4	0.1606362	-0.03170675	137.5208	
00:57:19	47.46352	-122.3109	0.02	0.03129359	1.083973	0	3	98	0	4	0.144482	-0.03263368	136.4629	
00:57:20	47.46352	-122.3109	0.02	0.03005157	0.8016101	0	3	98	0	4	0.1242309	-0.03129322	135.5524	
00:57:22	47.46352	-122.3109	0.02	0.02885099	0.7380795	0	3	98	0	4	0.109447	-0.0292048	134.8562	
00:57:24	47.46352	-122.3109	0.02	0.0281688	0.8881319	0	3	98	0	4	0.09831058	-0.02936681	134.3615	
00:57:25	47.46352	-122.3109	0.02	0.0284294	0.661569	0	3	98	0	6	0.08440003	-0.02799528	134.0169	
00:57:27	47.46352	-122.3109	0.02	0.02547945	0.3030363	0	3	98	0	4	0.07293095	-0.03200698	133.7755	
00:57:29	47.46352	-122.3109	0.02	0.02349224	0.3710752	0	3	98	0	4	0.06447385	-0.03045838	133.6067	
00:57:31	47.46352	-122.3109	0.02	0.02456051	0.5050478	0	3	98	0	4	0.05476512	-0.0242561	133.5603	
00:57:32	47.46352	-122.3109	0.02	0.02356238	0.1682856	0	3	99	0	4	0.04703838	-0.01652193	133.5576	
00:57:34	47.46352	-122.3109	0.02	0.01996892	-0.2946074	0	3	99	0	4	0.04275055	-0.003068164	133.5548	
00:57:36	47.46352	-122.3109	0.02	0.0174036	-0.2948155	0	3	99	0	4	0.03580899	-0.004556767	133.6642	
00:57:37	47.46351	-122.3109	0.02	0.01608951	0.1869355	0.82	3	99	0	99	-0.7290401	1.564236	130.9704	
00:57:39	47.46346	-122.3108	0.026	0.09555574	12.63869	11.49	10.97957	99	0	99	-0.7967043	2.18592	121.2135	
00:57:41	47.46334	-122.3105	0.22	0.5586161	135.0648	19.23	18.73676	99	0	99	2.213242	5.715964	125.0421	
00:57:43	47.46315	-122.31	3.13	2.77031	174.7999	23.19	22.3448	99	0	99	1.666681	5.553272	129.6451	
00:57:44	47.46294	-122.3096	5.977	5.680579	144.4295	25.56	25.1517	99	0	99	0.6086956	4.299491	133.0607	
00:57:46	47.46267	-122.3092	8.096	7.929284	99.12498	27.65	27.04092	99	0	99	-0.02775403	2.921236	135.5568	
00:57:48	47.46238	-122.3087	9.087	9.199402	52.87146	29.09	28.56993	99	0	99	-0.1818399	2.041598	137.4197	
00:57:49	47.46206	-122.3083	9.345	9.492912	9.026509	30.24	29.78922	99	0	100	-0.4037136	1.307225	139.1351	
00:57:51	47.46169	-122.3078	9.077	9.216377	-18.083	31.09	30.71881	99	0	99	-0.3303522	1.003969	140.4944	
00:57:53	47.46133	-122.3074	8.901	8.767021	-36.85855	31.68	31.41294	99	0	99	-0.5880464	0.6285679	141.4834	
00:57:54	47.46092	-122.3069	8.242	8.242572	-43.82321	32.19	31.87531	99	0	99	-0.6297686	0.3368308	142.1458	
00:57:56	47.46053	-122.3065	7.637	7.614151	-41.10345	32.53	32.24974	99	0	99	-0.6584298	0.3128306	142.695	
00:57:58	47.46014	-122.306	7.09	7.078154	-4.754394	32.78	32.54413	99	0	63	8.996641	1.259444	143.7054	
00:58:00	47.45969	-122.3057	10.257	9.411205	294.1902	30.28	30.09731	99	0	106	47.28546	8.76653	173.1811	
00:58:01	47.4593	-122.3058	19.808	19.21995	673.3036	28.36	28.61732	99	0	115	49.66399	16.76838	-142.7931	
00:58:03	47.45903	-122.3063	35.381	32.89629	658.0363	26.69	27.73462	99	0	101	47.01157	15.62728	-109.5712	
00:58:05	47.45899	-122.3069	47.476	45.67446	486.1662	27.08	28.11801	99	0	82	41.91426	8.975608	-82.34134	
00:58:06	47.45911	-122.3075	53.069	53.18185	315.667	27.07	27.92132	99	0	68	25.81507	3.68716	-59.79008	
00:58:08	47.45937	-122.308	55.717	56.78434	273.4946	26.81	27.72232	99	0	69	3.922983	3.776842	-47.50529	
00:58:10	47.45966	-122.3084	58.876	59.75988	324.8346	26.63	27.55026	99	0	78	-4.620885	6.726429	-46.47419	
00:58:11	47.45995	-122.3088	65.124	65.04985	429.7177	26.31	27.28433	99	0	82	-3.470874	9.661315	-47.92938	
00:58:13	47.4602	-122.3092	72.697	72.66005	455.8648	25.99	26.90409	99	0	82	-5.263804	9.833648	-48.20531	
00:58:15	47.46048	-122.3097	81.39	80.43929	403.3741	25.81	26.73799	99	0	82	-24.08598	8.451453	-54.75995	
00:58:16	47.46068	-122.3102	88.9	88.59206	459.778	25.92	26.90442	99	0	81	-27.00235	8.239038	-71.24435	
00:58:18	47.46078	-122.3108	96.551	96.15831	453.5587	25.66	26.44334	99	0	78	-19.12594	7.720197	-85.1916	
00:58:20	47.4608	-122.3114	104.103	103.416	435.0843	25.35	26.12894	99	0	75	-9.506755	7.151029	-93.12038	
00:58:22	47.46078	-122.3119	110.089	110.2552	417.9876	25.16	25.91921	99	0	76	-2.869273	7.144845	-95.81712	
00:58:23	47.46075	-122.3125	117.395	117.0254	425.3015	25.05	25.79561	99	0	76	-0.5166165	7.490479	-95.42599	
00:58:25	47.46072	-122.3131	125.31	124.4443	453.1326	25.02	25.77603	99	0	77	-0.5884908	7.864649	-94.40375	
00:58:27	47.4607	-122.3136	132.441	132.0299	454.0366	25	25.74917	99	0	77	-1.296052	7.862288	-93.7002	
00:58:28	47.4607	-122.3142	140.047	139.2377	342.39	25.33	25.85868	99	0	91	44.29337	5.760999	-79.28098	
00:58:30	47.46089	-122.3147	146.66	146.0714	342.9373	26.83	26.75453	99	0	67	48.82485	4.123142	-40.17384	
00:58:32	47.4612	-122.3149	148.248	148.2083	-122.6453	26.73	26.48726	99	0	46	43.36016	-6.109126	-12.24098	
00:58:33	47.46169	-122.3149	139.535	142.7472	-299.0106	27.2	26.8307	99	0	45	29.65956	-7.640065	16.12171	
00:58:35	47.46202	-122.3147	133.403	135.3867	-152.6471	27.9	27.79852	99	0	58	-10.7632	-1.084645	26.5445	
00:58:37	47.46244	-122.3145	131.978	132.3378	35.85863	27.91	27.06945	99	0	75	-26.57195	4.562776	11.87359	
00:58:39	47.46282	-122.3144	136.514	135.2069	258.647	27.22	26.50829	99	0	72	-18.10448	7.942017	-3.598992	
00:58:40	47.46321	-122.3144	143.332	141.7797	221.4838	26.09	25.42029	99	0	59	-7.886027	4.289896	-9.555228	
00:58:42	47.4636	-122.3145	147.329	146.4358	87.4829	25.22	24.54781	99	0	49	-4.971902	-1.159191	-11.22856	
00:58:44	47.46401	-122.3145	147.757	147.8229	12.26032	24.93	24.28368	99	0	47	-4.986944	-3.53206	-12.46312	
00:58:45	47.46439	-122.3146	147.22	147.6197	17.17506	24.96	24.31633	99	0	48	-4.966201	-2.824262	-13.97115	
00:58:47	47.46475	-122.3147	147.358	147.5086	33.49868	24.92	24.30578	99	0	49	-4.068965	-1.811227	-15.1526	
00:58:49	47.46508	-122.3148	147.984	148.0354	39.86139	24.8	24.18284	99	0	49	-3.127865	-1.428093	-15.70477	
00:58:50	47.46552	-122.3149	148.77	148.6329	28.43959	24.65	24.0485	99	0	39	10.51263	-1.933037	-15.07978	
00:58:52	47.46586	-122.315	145.802	145.5619	-499.0959	24.12	22.9532	99	0	22	43.20637	-15.02245	2.896556	
00:58:54	47.46621	-122.3148	133.12	134.9971	-744.3704	24.75	22.98487	99	0	21	42.6337	-18.26251	35.79821	
00:58:55	47.46643	-122.3143	117.447	119.5539	-728.1302	26.75	25.8099	99	0	41	44.15444	-13.17881	72.41799	
00:58:57	47.46639	-122.3136	102.462	105.7902	-435.9082	29.52	28.59297	99	0	59	41.14698	-2.739246	111.6054	
00:58:59	47.46614	-122.3132	99.491	99.27236	-244.4571	28.65	29.15581	99	0	51	4.753579	3.601893	129.3859	
00:59:01	47.46583	-122.3127	97.048	95.6925	-380.5471	27.14	27.44428	99	0	50	-21.63806	-1.072918	121.8383	
00:59:02	47.4656	-122.3122	92.276	92.51038	-61.2019	27.18	26.51812	99	0	81	-24.46857	3.704435	103.3007	
00:59:04	47.46551	-122.3117	95.667	95.94457	453.4814	26.74	25.93406	99	0	86	-12.54282	13.24019	87.23787	
00:59:06	47.46549	-122.3111	104.352	103.4012	327.2412	25.61	24.901	99	0	73	1.657981	9.854096	87.1747	
00:59:07	47.46545	-122.3105	109.636	108.4501	107.4392	25.07	24.33136	99	0	59	-0.555187	3.514931	90.83857	
00:59:09	47.46542	-122.31	109.887	109.7549	-47.67168	24.84	24.03629	99	0	52	-4.629111	-0.6914239	92.60761	
00:59:11	47.46537	-122.3094	108.077	108.529	-90.29965	24.85	24.04263	99	0	52	-6.918236	-1.488135	92.1032	
00:59:12	47.46534	-122.3088	106.379	106.6736	-66.61478	24.84	24.05032	99	0	54	-6.685287	-0.1538524	90.40965	
00:59:14	47.46533	-122.3082	105.582	105.6832	-49.90611	24.66	23.90871	99	0	54	-5.058218	0.382194	89.16759	
00:59:16	47.46532	-122.3077	105.053	104.9463	-51.7588	24.48	23.67642	99	0	54	-3.083369	0.4005554	89.24527	
00:59:18	47.46532	-122.3072	104.438	104.3338	-49.84863	24.33	23.54635	99	0	53	-2.618335	0.3067548	89.84295	
00:59:19	47.46532	-122.3066	103.486	103.6049	-49.04464	24.22	23.43635	99	0	53	-2.517543	0.3859441	90.40538	
00:59:21	47.46532	-122.3061	102.848	102.7906	-48.67005	24.17	23.36673	99	0	54	-2.516417	0.5151445	90.84858	
00:59:23	47.4653	-122.3055	101.968	101.8605	-127.7548	24.3	23.39185	99	0	64	38.89518	-1.070521	102.2712	
00:59:24	47.46518	-122.3051	99.037	99.45226	-53.73627	25.71	24.68826	99	0	78	46.84314	1.386738	145.4149	
00:59:26	47.46478	-122.3049	97.28	98.20148	88.21607	27.15	26.625	99	0	80	46.95225	4.789086	-169.4684	
00:59:28	47.46438	-122.3051	100.301	99.83994	178.3974	26.78	27.34945	99	0	63	16.66996	6.991268	-141.2004	
00:59:29	47.46407	-122.3055	104.295	102.8211	-33.99656	25.5	26.18073	99	0	55	-21.854	0.927312	-144.0094	
00:59:31	47.46374	-122.3058	103.243	103.2935	-62.05845	25.41	25.1226	99	0	53	-24.73865	-1.398736	-159.5741	
00:59:33	47.46346	-122.306	101.62	102.0753	-31.06132	25.41	25.13031	99	0	53	-15.94588	-0.6219149	-174.036	
00:59:34	47.46301	-122.306	100.216	100.5746	-19.21652	25.14	24.80313	99	0	56	-5.812105	0.6620284	179.5621	
00:59:36	47.46267	-122.306	100.247	100.2572	5.611598	24.89	24.78603	99	0	56	0.6148615	1.571505	-179.833	
00:59:38	47.46227	-122.306	100.459	100.1661	-92.63187	24.69	24.58573	99	0	66	39.82885	-1.142228	-167.8903	
00:59:40	47.46194	-122.3062	99.244	99.27368	14.86201	25.81	25.14743	99	0	75	47.14211	0.3564385	-125.8166	
00:59:41	47.46177	-122.3068	100.7	100.6137	144.0944	26.74	26.70851	99	0	71	46.6693	1.700295	-82.29136	
00:59:43	47.46192	-122.3074	103.982	103.4689	162.3865	26.23	27.12108	99	0	49	16.53778	1.260707	-55.93754	
00:59:45	47.46214	-122.3078	104.968	104.6995	-32.03929	25.35	26.30737	99	0	44	-2.719651	-3.464132	-51.20684	
00:59:46	47.46234	-122.3082	104.027	104.003	-66.74176	25.14	25.99803	99	0	44	-4.871558	-4.247	-52.37016	
00:59:48	47.4626	-122.3087	102.584	102.8344	-46.07331	25.07	25.94683	99	0	45	-4.174552	-3.516795	-54.15805	
00:59:50	47.46281	-122.3092	102.051	102.0991	-27.23929	24.94	25.81984	99	0	45	-3.235198	-2.867944	-55.51831	
00:59:51	47.46301	-122.3096	101.794	101.7226	-22.78625	24.79	25.65279	99	0	46	-3.064971	-2.72904	-56.44394	
00:59:53	47.46323	-122.3101	101.44	101.3709	-44.06001	24.65	25.50666	99	0	47	-19.07693	-2.986543	-60.9524	
00:59:55	47.46339	-122.3106	100.621	100.5465	-72.97852	24.89	25.45737	99	0	55	-36.62003	-3.367457	-80.44015	
00:59:56	47.4634	-122.3111	100.008	100.5825	116.9695	25.21	25.55808	99	0	46	7.018228	-0.3358636	-98.07288	
00:59:58	47.46339	-122.3118	99.999	100.1809	-112.6004	25.09	25.11271	99	0	61	45.15166	-4.368196	-76.46275	
01:00:00	47.46359	-122.3122	98.553	98.89699	-1.979391	26.39	26.57426	99	0	66	46.78047	-1.441707	-32.61822	
01:00:01	47.46401	-122.3124	98.726	98.99463	63.35257	27.17	27.38707	99	0	66	46.90112	0.1364948	9.005062	
01:00:03	47.46434	-122.3121	99.39	99.59506	39.16586	27.26	27.05879	99	0	65	46.41353	-0.1155791	45.90873	
01:00:05	47.46454	-122.3116	98.537	99.14925	-12.28311	27.37	27.22412	99	0	65	45.55106	-0.4476372	82.60263	
01:00:07	47.46453	-122.3112	97.11	97.435	-38.71809	27.49	27.42205	99	0	70	46.03804	0.4202216	120.3603	
01:00:08	47.46417	-122.3105	95.794	96.20935	46.57043	27.27	27.59212	99	0	65	30.0016	4.063292	154.3434	
01:00:10	47.46402	-122.3105	96.356	96.45939	22.53227	26.79	27.1274	99	0	63	17.9307	4.564169	171.5873	
01:00:12	47.46341	-122.3104	97.09	96.73063	-112.3414	26.37	26.46243	99	0	76	44.40684	0.1882956	-162.451	
01:00:13	47.4631	-122.3106	95.787	96.21988	56.89871	27.6	27.67986	99	0	81	47.05744	2.896467	-118.5507	
01:00:15	47.46296	-122.3113	98.093	97.61652	136.402	28.28	28.33652	99	0	78	47.15496	4.015364	-78.46175	
01:00:17	47.46307	-122.3118	101.297	100.8805	112.0456	28.22	28.09512	99	0	69	45.75019	2.248715	-44.63911	
01:00:18	47.46348	-122.3122	104.205	103.3632	38.99211	28.05	28.02596	99	0	62	44.60141	-0.6538824	-11.52598	
01:00:20	47.46393	-122.3122	103.228	103.7187	-55.24036	28.13	28.06161	99	0	60	44.64955	-2.696626	20.83028	
01:00:22	47.46425	-122.3118	99.503	101.0521	-108.827	28.61	28.5306	99	0	64	44.79164	-2.036056	55.38934	
01:00:24	47.46438	-122.3114	96.558	97.47102	-72.22321	29.02	28.90559	99	0	73	44.25192	1.433964	91.41745	
01:00:25	47.46426	-122.3106	94.294	94.99046	-42.43258	29.17	29.18837	99	0	82	45.92399	4.798632	127.1728	
01:00:27	47.46395	-122.3102	95.985	95.05861	23.43518	28.73	28.7171	99	0	84	45.97684	6.8835	160.447	
01:00:29	47.46351	-122.3102	100.669	98.46684	65.63959	27.91	28.09323	99	0	78	45.99511	5.856823	-167.6133	
01:00:30	47.46315	-122.3104	104.795	102.7171	18.0781	27.31	27.62293	99	0	66	44.79191	1.659991	-137.1149	
01:00:32	47.46292	-122.3109	106.06	105.1098	-48.99252	27.1	27.25401	99	0	59	44.45832	-3.288076	-103.9492	
01:00:34	47.46292	-122.3116	103.653	104.3718	-81.94922	27.48	27.65303	99	0	59	44.66101	-5.058851	-67.81065	
01:00:35	47.46321	-122.3121	100.008	101.8184	-43.75799	28.26	27.83154	99	0	62	44.05301	-3.164405	-29.64409	
01:00:37	47.46359	-122.3122	97.485	99.08204	2.405404	28.98	28.95158	99	0	69	45.2655	-0.3535901	8.519444	
01:00:39	47.46398	-122.312	96.601	97.46014	51.34421	29.34	29.23081	99	0	74	45.443	2.255608	45.44398	
01:00:40	47.46421	-122.3114	97.829	97.7468	70.39516	28.96	28.86251	99	0	75	45.84249	3.19371	80.30567	
01:00:42	47.46416	-122.3107	99.798	99.09533	48.36704	28.19	28.21786	99	0	73	45.65713	2.573079	114.4418	
01:00:44	47.46389	-122.3102	100.791	100.3425	5.758102	27.57	27.69709	99	0	69	44.7664	1.101345	148.9831	
01:00:46	47.46353	-122.3101	100.586	100.5326	-26.99264	27.35	27.36275	99	0	68	44.6048	-0.2139967	-174.4606	
01:00:47	47.46312	-122.3103	99.664	99.94202	-11.75777	27.49	27.62481	99	0	70	44.92151	-0.4312133	-135.4378	
01:00:49	47.4629	-122.3108	99.416	99.74571	38.69461	27.86	27.57743	99	0	70	44.58735	0.1233573	-96.10706	
01:00:51	47.46297	-122.3114	99.263	99.84142	49.02098	28.38	28.18457	99	0	70	45.4853	0.125864	-57.60249	
01:00:52	47.46325	-122.3118	98.719	99.54448	49.43866	28.92	29.0312	99	0	71	45.33442	0.7933392	-20.06249	
01:00:54	47.4637	-122.3119	98.638	99.13478	40.66054	29.34	29.1791	99	0	72	45.73005	1.546371	15.34872	
01:00:56	47.46407	-122.3117	99.028	99.20641	38.48598	29.35	29.11088	99	0	72	45.2036	2.150017	49.56927	
01:00:57	47.46427	-122.3112	99.442	99.47238	3.355438	29.07	28.79279	99	0	72	45.25051	1.852587	82.51067	
01:00:59	47.46426	-122.3105	99.263	99.3328	-22.40764	28.72	28.65033	99	0	73	45.32138	1.733385	116.4035	
01:01:01	47.46396	-122.3099	98.785	98.86531	-28.378	28.4	28.49672	99	0	75	45.16273	2.091842	151.807	
01:01:03	47.46365	-122.3098	98.922	98.70085	-15.27982	28.21	28.30243	99	0	76	45.37457	2.179755	-171.8853	
01:01:04	47.46322	-122.31	99.998	99.54851	30.67893	28.07	28.14318	99	0	73	44.7043	2.185733	-134.8864	
01:01:06	47.46296	-122.3105	101.729	101.2183	47.87055	28.04	28.26482	99	0	69	45.36222	0.6132776	-97.87568	
01:01:08	47.46299	-122.3112	102.699	102.5604	29.58378	28.13	28.21696	99	0	65	44.93147	-1.035456	-61.72479	
01:01:09	47.46328	-122.3117	102.06	102.5354	-6.440715	28.39	28.58086	99	0	64	44.81083	-1.75494	-25.93834	
01:01:11	47.46365	-122.3118	100.882	101.4507	-26.47303	28.71	28.7417	99	0	66	45.13011	-1.377964	9.397221	
01:01:13	47.46407	-122.3116	99.077	99.8513	-23.21	29.04	28.88196	99	0	69	45.21771	0.06086907	45.15886	
01:01:14	47.4643	-122.311	97.907	98.43691	-11.01173	29.1	28.85414	99	0	73	45.35799	1.740262	80.34358	
01:01:16	47.46428	-122.3104	97.774	97.8321	2.065324	28.82	28.77586	99	0	76	45.1794	2.961009	115.7483	
01:01:18	47.46398	-122.3098	98.889	98.27265	11.91916	28.25	28.19645	99	0	76	45.8392	3.345285	151.2667	
01:01:20	47.46361	-122.3097	100.328	99.50397	9.650139	27.84	27.62172	99	0	73	44.73562	2.491029	-173.4884	
01:01:21	47.4632	-122.3099	101.382	100.6644	2.058974	27.7	27.74606	99	0	71	45.32972	0.5742595	-136.3199	
01:01:23	47.46297	-122.3105	101.851	101.591	11.55992	27.83	27.9284	99	0	67	45.36034	-0.7045231	-98.5704	
01:01:25	47.463	-122.311	101.841	101.9234	8.18868	28.01	28.19522	99	0	66	45.31715	-1.332385	-61.59572	
01:01:26	47.46327	-122.3115	101.307	101.6858	3.945998	28.34	28.43866	99	0	65	45.07531	-1.365466	-25.27438	
01:01:28	47.46369	-122.3116	100.536	101.0285	-1.779302	28.66	28.70726	99	0	66	44.96791	-0.8819735	10.5268	
01:01:30	47.46405	-122.3114	99.671	100.112	-6.95318	28.82	28.8576	99	0	68	45.16165	-0.1028359	45.86408	
01:01:31	47.4643	-122.3108	98.629	99.08703	-8.583233	28.8	28.89376	99	0	71	45.43632	1.265446	81.56689	
01:01:33	47.46426	-122.3102	98.344	98.38528	-22.72071	28.47	28.28834	99	0	74	45.33307	2.405256	116.8912	
01:01:35	47.46402	-122.3097	98.372	98.19788	-26.79662	28.2	27.87635	99	0	75	45.17344	2.693414	151.9486	
01:01:36	47.46356	-122.3096	98.596	98.28078	-10.43153	28.12	27.7062	99	0	76	45.77891	2.350223	-170.7019	
01:01:38	47.46321	-122.3098	99.63	99.02062	25.68556	28.12	28.22926	99	0	75	45.57716	2.562395	-132.7425	
01:01:40	47.46298	-122.3104	101.395	100.4826	22.70666	28.13	28.22577	99	0	71	45.05258	1.396553	-96.64116	
01:01:42	47.46302	-122.311	102.726	102.1343	22.15388	28.11	27.96823	99	0	63	42.56778	-0.2036026	-63.11129	
01:01:43	47.46329	-122.3114	102.197	102.4003	-22.91761	28.32	28.46747	99	0	64	44.54855	-1.731999	-28.47666	
01:01:45	47.46369	-122.3116	100.794	101.4257	-21.90205	28.76	28.90339	99	0	65	44.89768	-1.038929	7.110987	
01:01:47	47.46409	-122.3114	99.289	99.9348	-28.31112	29.04	29.09431	99	0	69	45.20535	0.1069745	42.42564	
01:01:48	47.46435	-122.3109	98.123	98.61256	6.30323	29.09	28.96473	99	0	69	39.9086	2.27343	76.78024	
01:01:50	47.46438	-122.3102	98.817	98.66421	20.47356	28.02	28.15675	99	0	60	14.25004	3.198423	96.24823	
01:01:52	47.46433	-122.3097	99.463	98.87449	-41.44299	26.93	26.87892	99	0	60	-0.7318494	2.08362	100.5568	
01:01:53	47.46424	-122.3091	99.698	99.21091	-35.37161	26.17	26.19427	99	0	60	-3.189054	1.955977	100.7914	
01:01:55	47.46423	-122.3089	99.776	99.49108	-10.85796	26.08	26.02967	99	0	59	-2.864333	2.530079	100.8602	
01:01:57	47.46408	-122.3078	99.965	99.73331	-34.03039	25.44	25.41306	99	0	59	-2.949416	1.733063	100.8224	
01:01:59	47.46402	-122.3074	99.803	99.61734	-18.84031	25.31	25.27717	99	0	59	-3.702581	2.012869	100.7683	
01:02:00	47.46394	-122.3068	99.734	99.58483	-20.82546	25.08	25.17724	99	0	60	-3.623609	2.170076	100.5138	
01:02:02	47.46386	-122.3062	100.162	99.67995	-4.960614	24.82	24.95831	99	0	60	-4.247181	2.723362	100.373	
01:02:04	47.46379	-122.3057	100.624	100.2153	-9.643042	24.65	24.62902	100	0	58	-3.392264	2.214635	100.382	
01:02:05	47.46372	-122.3051	100.813	100.535	-24.99695	24.5	24.45012	100	0	57	-3.654421	1.548671	100.3424	
01:02:07	47.46365	-122.3046	101.112	100.6744	-18.69461	24.43	24.39069	100	0	57	-3.740496	1.364403	99.97819	
01:02:09	47.46359	-122.3041	101.496	101.1429	-8.466067	24.35	24.30926	100	0	55	-3.58359	0.9834613	99.46541	
01:02:10	47.46354	-122.3035	101.478	101.3084	-18.84381	24.27	24.23325	100	0	53	-3.259439	0.4485107	98.96474	
01:02:12	47.46348	-122.3029	101.591	101.2439	-19.05224	24.22	24.18085	100	0	53	-3.088833	0.2436823	98.51389	
01:02:14	47.46343	-122.3025	101.823	101.5242	-10.55948	24.2	24.15574	100	0	52	-3.115964	-0.1392991	97.97757	
01:02:16	47.46339	-122.3019	101.76	101.6439	-21.89697	24.16	24.11752	100	0	51	-3.287527	-0.7817321	97.29385	
01:02:17	47.46336	-122.3013	101.325	101.3439	-38.86228	24.18	24.13716	100	0	52	-19.14442	-0.9200693	92.50093	
01:02:19	47.46339	-122.3008	100.427	100.4388	-75.00487	24.6	24.45201	100	0	61	-37.74608	-1.109962	72.09911	
01:02:21	47.46357	-122.3003	100.744	100.7521	116.6556	24.89	24.86937	100	0	51	6.493432	2.026459	53.35287	
01:02:22	47.46376	-122.2998	101.17	100.7945	-100.7378	24.9	24.57765	100	0	66	45.37281	-2.452295	76.33257	
01:02:24	47.46376	-122.2993	99.075	99.80662	7.458813	26.26	25.82617	100	0	70	47.87317	-0.1360694	119.6273	
01:02:26	47.46351	-122.2989	98.514	99.15257	47.0979	26.93	26.67913	100	0	71	46.952	1.63098	161.2153	
01:02:27	47.46308	-122.2988	98.49	98.94606	38.30073	27.21	27.37253	100	0	72	46.70858	1.850999	-159.8205	
01:02:29	47.46276	-122.2991	99	99.10277	27.83602	27.22	27.57653	100	0	71	46.28327	1.914621	-122.1257	
01:02:31	47.4626	-122.2997	100.137	99.77327	26.57694	27.2	27.43871	100	0	68	43.36287	1.437889	-85.66273	
01:02:33	47.46273	-122.3003	102.16	101.465	71.83899	26.63	27.0528	100	0	55	27.1911	1.243464	-58.61597	
01:02:34	47.46299	-122.3008	102.892	102.3708	-92.64695	26.01	26.52396	100	0	58	40.14185	-2.949168	-38.39148	
01:02:36	47.46333	-122.301	100.735	101.0964	-66.77997	26.79	26.76181	100	0	62	42.80296	-1.863848	-2.42386	
01:02:38	47.46372	-122.3009	98.599	99.43874	-24.67852	27.64	27.32639	100	0	67	45.16473	-0.2950814	35.08071	
01:02:39	47.464	-122.3004	97.328	98.09688	30.34152	28.29	27.92092	100	0	72	45.93581	1.789855	72.74803	
01:02:41	47.46402	-122.2998	98.036	98.04559	53.2418	28.26	28.08414	100	0	72	44.94736	3.024601	108.6026	
01:02:43	47.46381	-122.2993	99.666	99.22324	40.37779	27.88	27.54259	100	0	70	45.24624	2.332731	142.7984	
01:02:44	47.46338	-122.299	101.861	100.9373	24.92172	27.39	27.56793	100	0	66	45.40039	0.9410488	177.0997	
01:02:46	47.46303	-122.2991	101.842	101.685	-44.55809	27.18	27.23702	100	0	63	44.25481	-1.643129	-148.5443	
01:02:48	47.46269	-122.2996	99.112	100.2757	-44.0183	27.47	27.34874	100	0	66	45.08524	-1.881295	-110.0607	
01:02:49	47.46266	-122.3001	97.592	98.35841	9.656997	27.85	27.99537	100	0	70	43.85538	0.5286379	-70.48705	
01:02:51	47.46289	-122.3007	98.801	98.65362	82.17315	27.78	28.03848	100	0	67	40.44865	2.128417	-37.53901	
01:02:53	47.46324	-122.301	100.638	100.1571	42.51418	27.61	27.80863	100	0	68	45.05505	0.8974702	-4.970535	
01:02:55	47.4637	-122.3008	101.923	101.5467	14.94087	27.62	27.49699	100	0	65	45.70155	-0.5495531	28.72841	
01:02:56	47.46399	-122.3005	101.526	101.7061	-17.01949	27.73	27.77035	100	0	63	44.57049	-1.16045	63.53688	
01:02:58	47.46407	-122.2999	100.189	100.6934	-51.82018	27.85	27.83777	100	0	65	44.97651	-1.03509	98.08022	
01:03:00	47.46394	-122.2993	98.641	99.12422	-44.81639	27.99	27.69739	100	0	69	44.77218	0.171222	133.6238	
01:03:01	47.46354	-122.299	98.042	98.06004	-0.2155707	28.08	27.96685	100	0	73	45.21474	1.770015	169.9442	
01:03:03	47.46312	-122.299	99.158	98.67567	34.47671	27.83	27.78757	100	0	72	45.27164	2.496114	-154.7571	
01:03:05	47.46284	-122.2994	100.292	99.79416	9.082727	27.56	27.69236	100	0	69	45.22136	1.58506	-120.484	
01:03:06	47.46271	-122.3	101.106	100.6271	-11.42209	27.41	27.66477	100	0	66	43.72096	0.5013318	-85.73499	
01:03:08	47.46283	-122.3006	101.498	101.119	-27.2664	27.34	27.38046	100	0	63	42.96786	-0.7758391	-53.19315	
01:03:10	47.4631	-122.3009	100.827	100.8951	-16.44353	27.59	27.68344	100	0	65	44.50905	-0.760776	-17.17183	
01:03:12	47.46355	-122.301	99.921	100.2428	-8.888783	27.98	27.92884	100	0	67	45.31347	-0.5385229	18.55216	
01:03:13	47.46389	-122.3007	99.36	99.69875	17.66572	28.22	28.20117	100	0	68	45.3611	0.2183271	54.51125	
01:03:15	47.46407	-122.3	99.661	99.73517	25.38126	28.12	27.98737	100	0	68	45.75946	0.5536385	89.52235	
01:03:17	47.46399	-122.2995	99.817	99.91868	-2.570592	27.92	27.99327	100	0	68	45.3034	0.3443845	124.4842	
01:03:18	47.46368	-122.2991	99.34	99.47663	-23.11176	27.87	27.60255	100	0	69	45.06208	0.1703465	160.0871	
01:03:20	47.46326	-122.299	98.948	99.19915	15.05371	27.92	27.89116	100	0	70	45.03519	0.8160769	-162.9413	
01:03:22	47.46289	-122.2993	98.741	98.98912	16.03125	27.83	27.95356	100	0	71	45.43078	1.120797	-126.1906	
01:03:23	47.46273	-122.2999	99.398	99.15211	18.98403	27.74	27.8758	100	0	71	44.48228	1.454693	-89.74964	
01:03:25	47.46281	-122.3005	100.965	100.3683	38.79005	27.5	27.81273	100	0	65	41.8031	1.345693	-57.24031	
01:03:27	47.46312	-122.3009	102.199	101.6191	-6.675241	27.39	27.58713	100	0	64	44.77333	-0.4896176	-24.37175	
01:03:29	47.46354	-122.301	101.899	101.8719	-28.72147	27.6	27.5425	100	0	63	44.8864	-1.320469	10.28857	
01:03:30	47.46388	-122.3008	100.723	101.054	-46.24485	27.88	27.61042	100	0	64	44.73601	-1.103099	45.12151	
01:03:32	47.46412	-122.3002	98.472	99.33931	-44.49649	28.34	28.0592	100	0	68	44.93097	-0.1814386	80.43081	
01:03:34	47.46407	-122.2996	97.317	97.77442	-3.363884	28.6	28.59559	100	0	73	45.40884	2.052471	116.3837	
01:03:35	47.46381	-122.2992	98.213	97.88773	32.06431	28.33	28.19252	100	0	74	45.14538	3.308851	151.0608	
01:03:37	47.4634	-122.299	100.849	99.78703	42.59982	27.82	27.73022	100	0	71	45.68935	2.478659	-175.4745	
01:03:39	47.463	-122.2992	102.341	101.6769	-7.920833	27.35	27.27745	100	0	64	44.59083	0.1033641	-142.6809	
01:03:40	47.46273	-122.2997	101.513	101.5804	-54.78278	27.26	27.38317	100	0	64	44.78777	-1.457961	-107.6335	
01:03:42	47.46272	-122.3003	100.191	100.4959	-42.544	27.49	27.57639	100	0	66	44.435	-1.079808	-70.59877	
01:03:44	47.46296	-122.3008	99.982	99.98301	-1.68814	27.67	27.85838	100	0	67	44.862	-0.1397952	-34.43148	
01:03:45	47.46331	-122.301	100.342	100.2619	29.47724	27.81	27.82326	100	0	67	45.09546	0.2451586	1.696663	
01:03:47	47.46374	-122.3008	101.153	101.0065	29.80577	27.76	27.75821	100	0	64	44.98674	-0.06027148	36.84293	
01:03:49	47.46399	-122.3004	101.154	101.2476	1.149667	27.73	27.46602	100	0	63	44.31423	-0.752718	70.99008	
01:03:51	47.46405	-122.2998	100.132	100.5811	-29.17883	27.76	27.48665	100	0	65	44.98846	-1.212886	105.3865	
01:03:52	47.46384	-122.2992	98.469	99.1815	-16.7419	27.86	27.83785	100	0	68	44.62564	0.0713935	141.9759	
01:03:54	47.46344	-122.299	98.403	98.43573	17.45513	27.82	27.98365	100	0	70	44.86755	1.552959	178.718	
01:03:56	47.46308	-122.2991	98.822	98.81225	26.81758	27.7	27.85918	100	0	70	45.15727	1.634348	-145.4768	
01:03:57	47.46278	-122.2995	99.439	99.26852	12.39299	27.55	27.65594	100	0	70	44.87706	1.055463	-110.3044	
01:03:59	47.46273	-122.3002	100.032	99.783	30.46407	27.54	27.74692	100	0	67	43.11209	0.8767533	-74.42873	
01:04:01	47.46293	-122.3007	101.313	100.8474	-0.4103793	27.25	27.36553	100	0	65	43.82065	-0.3458582	-43.40566	
01:04:02	47.46326	-122.301	101.095	101.0744	-18.34991	27.48	27.62249	100	0	65	44.69059	-0.9929588	-8.410695	
01:04:04	47.46368	-122.301	100.314	100.6814	-9.154041	27.83	27.73268	100	0	65	44.55028	-0.6827271	27.12141	
01:04:06	47.46397	-122.3006	99.606	100.3826	209.5743	28.06	27.88731	100	0	78	14.40947	4.39773	59.75421	
01:04:08	47.46424	-122.3	106.854	106.0521	461.1123	27.28	26.9692	100	0	115	-49.67981	12.54461	45.56815	
01:04:09	47.46458	-122.2997	115.747	114.6183	588.9547	27.17	26.79151	100	0	121	-54.29403	16.01132	-3.743939	
01:04:11	47.46494	-122.2999	125.795	125.7153	632.4008	26.48	26.56185	100	0	113	-51.45773	16.04658	-47.18908	
01:04:13	47.46514	-122.3005	134.85	133.4323	428.5588	26.15	26.56764	100	0	109	-48.97677	13.97837	-83.84055	
01:04:14	47.46509	-122.301	147.929	144.1534	560.4391	25.87	26.35512	100	0	93	-38.46467	14.4037	-117.617	
01:04:16	47.46487	-122.3015	158.183	157.5854	399.5819	25.51	26.10283	100	0	61	-6.990482	4.70785	-128.4395	
01:04:18	47.46463	-122.3019	158.977	159.2158	-227.5369	24.75	25.11297	100	0	30	-0.4891582	-9.947625	-129.2793	
01:04:19	47.46435	-122.3024	149.371	151.5696	-436.1176	25	24.41023	100	0	34	-1.324092	-12.20157	-129.5243	
01:04:21	47.46412	-122.3028	142.123	143.7465	-245.3992	25.95	25.48089	100	0	48	-2.672929	-5.264242	-130.8039	
01:04:23	47.46389	-122.3032	139.315	139.8269	-38.11755	25.99	25.51824	100	0	59	-2.253464	1.297668	-132.3139	
01:04:24	47.46358	-122.3037	141.233	140.3848	88.26467	25.34	24.23269	100	0	62	-1.38262	4.314664	-132.8893	
01:04:26	47.46334	-122.3041	143.689	143.0625	76.95123	24.87	23.65955	100	0	58	-0.9485949	2.849226	-132.7915	
01:04:28	47.46309	-122.3045	145.302	144.8895	41.41504	24.6	23.38732	100	0	55	-1.255287	1.17774	-132.5456	
01:04:30	47.46282	-122.3049	145.916	145.8369	24.40524	24.51	23.30383	100	0	54	-1.315971	0.3842843	-132.4592	
01:04:31	47.46256	-122.3053	146.447	146.3148	34.64882	24.54	23.33273	100	0	55	-1.458581	0.6450934	-132.3751	
01:04:33	47.46236	-122.3056	147.158	147.1408	42.85236	24.54	23.33273	100	0	54	-1.317329	0.6007194	-132.3442	
01:04:35	47.46211	-122.3061	147.491	147.6318	22.8275	24.51	23.2984	100	0	54	-1.632999	0.2690668	-132.3021	
01:04:36	47.46183	-122.3065	147.765	147.8485	26.33366	24.51	23.29708	100	0	54	-1.458682	0.6421077	-132.2946	
01:04:38	47.46157	-122.3069	148.245	148.1527	30.10916	24.5	23.2897	100	0	54	-1.468752	0.8829591	-132.3035	
01:04:40	47.46134	-122.3073	148.988	148.8576	24.07955	24.45	23.23929	100	0	53	-1.308603	0.4677726	-132.313	
01:04:41	47.46106	-122.3078	149.464	149.3925	13.40637	24.42	23.20493	100	0	52	-1.2602	-0.02744381	-132.243	
01:04:43	47.46082	-122.3082	149.213	149.4064	-3.803462	24.42	23.19146	100	0	52	-1.493589	-0.2714893	-132.3199	
01:04:45	47.46056	-122.3086	148.919	149.0679	4.554152	24.46	23.25279	100	0	53	-1.340466	0.3720365	-132.4751	
01:04:47	47.4603	-122.309	149.029	149.0396	11.9143	24.48	23.26568	100	0	54	-1.325825	0.7293085	-132.5299	
01:04:48	47.46003	-122.3094	149.428	149.3317	17.31362	24.43	23.22269	100	0	54	-1.273346	0.8238225	-132.5822	
01:04:50	47.45982	-122.3098	150.063	149.7493	10.96129	24.38	23.17294	100	0	53	-1.281621	0.4266779	-132.6056	
01:04:52	47.45959	-122.3102	150.548	150.3141	8.60785	24.36	23.15265	100	0	51	-0.9272307	-0.08470269	-132.513	
01:04:53	47.45929	-122.3107	150.778	150.6701	-9.991936	24.42	23.18234	100	0	51	13.54124	-1.116228	-128.4724	
01:04:55	47.45913	-122.311	150.457	150.4656	-9.319598	24.66	23.43922	100	0	53	22.69385	-1.153577	-114.245	
01:04:57	47.45899	-122.3116	150.56	150.646	30.33763	24.84	23.77232	100	0	51	17.56688	-0.4369198	-98.69401	
01:04:58	47.45896	-122.3121	151.783	151.3635	19.96125	24.72	23.98198	100	0	48	8.116611	-1.205429	-89.41698	
01:05:00	47.45898	-122.3127	152.218	152.0154	-6.612191	24.63	23.93567	100	0	46	-0.007795234	-2.521075	-86.09068	
01:05:02	47.459	-122.3132	151.764	151.8217	-20.56975	24.67	23.97831	100	0	45	-3.402624	-3.065935	-86.59542	
01:05:03	47.45903	-122.3139	151.66	151.5509	-0.701569	24.77	24.04622	100	0	45	-2.994453	-2.78162	-88.17162	
01:05:05	47.45903	-122.3144	151.977	151.7273	-25.64737	24.76	24.04206	100	0	30	15.22498	-4.506453	-87.9107	
01:05:07	47.45908	-122.3149	147.97	147.6155	-552.5117	24.14	23.26139	100	0	14	43.23242	-18.19376	-69.71586	
01:05:09	47.45926	-122.3154	135.917	137.1516	-727.5134	24.78	23.88606	100	0	13	42.46618	-21.27751	-37.43385	
01:05:10	47.4596	-122.3156	119.563	121.7338	-732.5778	26.43	26.33577	100	0	31	42.59701	-17.54828	-0.8986323	
01:05:12	47.46004	-122.3155	104.357	108.4241	-292.9451	28.84	29.16246	100	0	61	27.8792	-4.684781	36.48364	
01:05:14	47.46035	-122.315	105.089	105.7832	292.4023	27.35	27.95577	100	0	88	-25.90417	12.64493	40.86896	
01:05:15	47.46071	-122.3147	114.151	112.2539	415.1447	26.49	26.23753	100	0	89	-28.39857	15.38615	18.56375	
01:05:17	47.46108	-122.3146	122.984	120.9325	256.2119	25.83	25.6827	100	0	67	-11.68233	8.661613	7.922935	
01:05:19	47.46148	-122.3146	127.056	125.7908	43.11765	25.32	24.94721	100	0	53	-6.599749	1.152898	4.066597	
01:05:20	47.46184	-122.3146	126.854	126.6791	-56.02611	25.22	24.85893	100	0	49	-4.928356	-2.406479	1.01434	
01:05:22	47.4622	-122.3146	125.516	125.6657	-49.20071	25.39	25.04164	100	0	49	-3.844362	-2.333562	-1.410235	
01:05:24	47.46265	-122.3146	124.263	124.5218	-32.4493	25.45	25.12075	100	0	50	-1.965292	-1.625582	-3.036255	
01:05:26	47.46303	-122.3147	124.116	124.0456	-13.16696	25.31	24.8042	100	0	49	-1.44135	-1.226894	-3.681323	
01:05:27	47.46338	-122.3147	124.187	124.0033	-19.91986	25.13	24.60663	100	0	48	-1.611848	-1.699879	-4.115259	
01:05:29	47.46378	-122.3148	124.264	124.0724	-26.19113	24.97	24.44912	100	0	46	-1.742359	-2.386114	-4.382205	
01:05:31	47.46414	-122.3148	123.786	123.7731	-35.56397	24.87	24.34511	100	0	45	-1.937501	-2.884775	-4.806853	
01:05:32	47.46451	-122.3148	123.212	123.1651	-35.66188	24.85	24.31697	100	0	46	-2.042774	-2.94183	-5.319449	
01:05:34	47.46491	-122.3149	122.53	122.546	-30.16989	24.82	24.28797	100	0	46	-2.113712	-2.742276	-5.685596	
01:05:36	47.46526	-122.3149	122.124	122.1009	-23.05419	24.76	24.23452	100	0	46	-2.032435	-2.565242	-6.094407	
01:05:37	47.46563	-122.3149	121.537	121.0862	-259.9876	24.57	24.03002	100	0	25	36.12638	-9.486219	-1.885725	
01:05:39	47.46602	-122.3149	112.962	113.3344	-693.7086	24.18	22.79218	100	0	14	42.84033	-19.16906	24.93508	
01:05:41	47.4663	-122.3146	98.068	99.10381	-830.8643	25.21	24.10113	100	0	26	41.74177	-18.71526	58.77159	
01:05:42	47.46642	-122.314	81.645	83.99704	-508.4773	27.98	27.26067	100	0	40	25.43472	-8.150974	90.63411	
01:05:44	47.46635	-122.3133	73.64	75.22036	-331.8433	27.89	28.32397	100	0	45	-16.86089	-1.954449	94.26586	
01:05:46	47.46634	-122.3127	69.047	68.79916	-334.1545	27.37	26.9115	100	0	49	-25.33686	-1.932846	78.57606	
01:05:48	47.46643	-122.3121	65.093	64.76077	-251.1931	26.82	26.64013	100	0	44	-14.24414	-2.229278	65.82674	
01:05:49	47.46658	-122.3116	62.148	61.31374	-309.6531	26.07	25.81215	100	0	37	-5.134822	-5.348412	61.607	
01:05:51	47.46675	-122.311	58.234	58.42163	23.81038	25.99	25.6303	100	0	68	-2.892125	2.180573	60.26508	
01:05:53	47.46691	-122.3106	61.118	61.48312	310.0255	25.54	25.17356	100	0	72	-1.641478	8.721796	59.98271	
01:05:54	47.4671	-122.31	67.763	67.03263	211.7282	24.75	24.43991	100	0	62	-1.14651	5.777594	60.95762	
01:05:56	47.46726	-122.3095	70.591	70.07283	20.62004	24.3	23.9712	100	0	52	-1.801747	0.3681587	62.05896	
01:05:58	47.46743	-122.309	69.663	69.81817	-77.20117	24.25	23.87026	100	0	49	-3.031084	-1.965372	62.62849	
01:05:59	47.46757	-122.3085	67.847	68.13795	-93.80035	24.41	24.03556	100	0	50	-3.728095	-1.833023	62.25802	
01:06:01	47.46774	-122.308	66.094	66.29899	-74.96184	24.46	24.09716	100	0	51	-3.431453	-0.665495	61.74752	
01:06:03	47.46788	-122.3076	65.456	65.19585	-75.8793	24.38	24.004	100	0	54	25.41616	-0.6724079	64.40031	
01:06:05	47.46798	-122.307	60.331	61.36914	-188.1936	25.26	24.40871	100	0	76	45.69436	-0.1246966	99.07815	
01:06:06	47.4678	-122.3065	57.326	58.03693	-5.813152	27.07	26.74311	100	0	86	48.08147	5.665743	146.2695	
01:06:08	47.46744	-122.3063	61.65	60.19047	147.5694	27.46	27.59027	100	0	80	47.45269	8.044844	-173.3669	
01:06:10	47.46704	-122.3065	66.683	65.08635	70.93382	26.96	27.3993	100	0	55	28.33582	3.696987	-148.3492	
01:06:11	47.46672	-122.3069	67.698	66.81656	-97.87495	25.92	26.45362	100	0	45	-0.764262	-2.704463	-138.3039	
01:06:13	47.46644	-122.3073	65.212	65.31039	-150.4344	25.6	26.11336	100	0	48	-22.4861	-4.390361	-145.624	
01:06:15	47.46604	-122.3076	61.157	62.39961	-78.5423	25.92	26.14478	100	0	53	-24.64546	-2.049363	-162.1762	
01:06:16	47.46569	-122.3077	59.645	60.40554	-8.938652	25.67	25.88598	100	0	55	-15.75209	0.6682869	-174.6687	
01:06:18	47.46534	-122.3078	58.947	58.55374	-291.6908	25	25.32733	100	0	27	-5.738004	-6.275419	-178.2618	
01:06:20	47.46493	-122.3078	50.083	50.80835	-668.0471	24.14	23.83671	100	0	14	-2.070527	-16.06774	-177.026	
01:06:21	47.46458	-122.3078	37.745	38.91068	-713.5219	24.76	24.45698	100	0	22	-2.539346	-16.03101	-175.5616	
01:06:23	47.46422	-122.3078	26.674	27.29914	-534.1634	25.78	25.47898	100	0	32	-3.647993	-10.39604	-175.0702	
01:06:25	47.46383	-122.3078	19.507	20.43507	3.92572	26.2	25.10453	100	0	74	-5.71523	3.778373	-176.6587	
01:06:27	47.46338	-122.3078	25.116	23.86168	391.1279	24.83	23.17403	100	0	63	-2.966218	13.04311	-178.4443	
01:06:28	47.46305	-122.3078	29.325	26.8522	-373.4579	23.77	21.96478	100	0	26	2.317663	-8.361733	-176.3422	
01:06:30	47.46267	-122.3078	21.23	20.98393	-633.434	23.23	20.7735	100	0	11	1.562447	-17.92339	-172.9681	
01:06:32	47.4623	-122.3078	7.65	9.674273	-587.077	24.31	21.59237	100	0	41	-2.166221	-14.70504	-171.0048	
01:06:33	47.4619	-122.3079	2.583	3.980788	223.7757	25.63	22.9175	100	0	77	-6.478733	6.797547	-173.6016	
01:06:35	47.46157	-122.3079	9.229	8.292086	79.55581	24.77	21.03938	100	0	99	-8.888285	3.231713	179.5493	
01:06:37	47.46117	-122.3078	10.509	9.460936	-125.8373	25.16	21.57992	100	0	35	-2.987082	-2.306144	172.9436	
01:06:38	47.46079	-122.3078	7.7	7.888041	-167.7448	22.78	19.16234	100	0	5	6.447191	-4.161186	178.1233	
01:06:40	47.46046	-122.3077	4.584	5.070921	-152.4686	20.52	16.80543	100	0	4	3.334723	-3.108359	-175.9473	
01:06:42	47.46016	-122.3077	1.408	1.795164	-122.2749	18.99	15.21846	100	0	4	-0.9696853	-0.6026726	-176.5182	
01:06:44	47.4599	-122.3077	0.787	0.5006469	-131.8955	16.91	13.14842	100	0	4	-0.2285483	-1.45796	-176.8517	
01:06:45	47.45967	-122.3078	0.273	0.2372821	-47.08091	15.38	11.42304	100	0	5	0.1051937	0.1431516	-175.7405	
01:06:47	47.45943	-122.3078	0.414	2.146179	167.3115	13.48	9.525658	100	0	4	-1.771841	1.253716	-174.0318	
01:06:49	47.45925	-122.3078	0.107	-0.01573976	-93.09337	12.39	7.661815	100	0	4	-0.9948932	-1.365191	-171.1621	
01:06:50	47.45906	-122.3078	0.024	0.05005395	-1.813503	11.35	6.658499	100	0	13	-2.069731	0.9794943	-168.4675	
01:06:52	47.45889	-122.3079	0.023	-0.03881972	-12.46382	11.1	6.43865	100	0	4	-0.5454198	0.686105	-172.8793	
01:06:54	47.45872	-122.3079	0.023	-0.1423481	-20.24222	10.16	5.697723	100	0	6	-0.9454329	0.6280732	175.0474	
01:06:55	47.45856	-122.3078	0.023	-0.1370117	-13.53579	9.56	5.139238	100	0	5	-0.3295586	0.5643767	175.0168	
01:06:57	47.45842	-122.3078	0.023	-0.08929554	-9.110823	9.1	4.597327	100	0	4	-0.1305119	0.5266966	175.1675	
01:06:59	47.45831	-122.3078	0.023	-0.07592637	-9.228067	8.74	4.209422	100	0	4	0.05476065	0.3546169	175.5701	
01:07:01	47.45816	-122.3078	0.022	-0.06745197	-8.930698	8.41	3.842038	100	0	4	0.3192499	0.3456555	175.9517	
01:07:02	47.45804	-122.3077	0.023	-0.05384592	-7.975882	8.18	3.581781	100	0	5	0.4054605	0.2167843	176.2216	
01:07:04	47.45791	-122.3077	0.023	-0.04206633	-4.993043	7.96	3.371598	100	0	5	0.3985367	0.1755195	176.1199	
01:07:06	47.45778	-122.3077	0.022	-0.02340761	-2.959215	7.77	3.183382	100	0	5	0.3856172	0.3230247	175.419	
01:07:07	47.45768	-122.3077	0.022	-0.04737814	-7.456836	7.67	3.073618	100	0	4	0.7963444	0.04691076	174.3603	
01:07:09	47.45755	-122.3077	0.022	-0.04298111	-4.852595	7.58	3.014074	100	0	5	0.7224538	0.06029842	173.1125	
01:07:11	47.45744	-122.3077	0.022	-0.02133616	-2.251003	7.5	3	100	0	4	1.742809	0.4196064	171.7211	
01:07:12	47.45732	-122.3077	0.022	-0.002855648	-0.9377125	7.44	3	100	0	4	1.441954	0.3413848	173.5909	
01:07:14	47.45721	-122.3077	0.021	0.003699492	-1.241731	7.39	3	100	0	4	1.428372	0.3476678	175.3927	
01:07:16	47.4571	-122.3077	0.021	-0.002273874	-2.281946	7.36	3	100	0	4	1.356948	0.2867571	177.0674	
01:07:17	47.45699	-122.3077	0.022	-0.0168919	-3.553742	7.33	3	100	0	4	1.306471	0.2357328	178.642	
01:07:19	47.45688	-122.3077	0.022	-0.01282051	-2.04145	7.32	3	100	0	4	1.239437	0.1292312	-179.8609	
01:07:21	47.45678	-122.3077	0.022	-0.001723885	-0.9673277	7.3	3	100	0	4	1.124603	0.09991599	-178.4047	
01:07:23	47.45666	-122.3077	0.022	0.007081739	-1.747863	7.3	3	100	0	4	1.076755	-0.3347633	-177.0478	
01:07:24	47.45655	-122.3077	0.022	0.003699665	-1.80474	7.37	3	100	0	5	1.059053	-0.2988618	-175.6364	
01:07:26	47.45645	-122.3078	0.022	0.0006443516	-1.558818	7.43	3	100	0	4	1.032086	-0.3685618	-174.0925	
01:07:28	47.45633	-122.3078	0.023	0.004383369	-0.9005578	7.49	3	100	0	4	0.9157746	-0.4099199	-172.5732	
01:07:29	47.45631	-122.3078	0.022	0.05046523	6.009426	7.51	3	100	0	4	0.9574748	0.3605636	-171.3348	
01:07:31	47.45631	-122.3078	0.022	0.1200007	83.35426	7.51	3	100	0	4	1.142546	0.9523572	-170.6663	
01:07:33	47.46363	-122.3078	0.02	1.520711	131.4379	0	4.760864	100	0	5	1.710284	3.193431	-174.0869	
01:07:34	47.46363	-122.3078	0.021	0.6668977	5.197439	0	4.760864	100	0	4	1.109848	2.150025	-176.0534	
01:07:36	47.46363	-122.3078	0.021	-0.1292925	-43.63541	0	4.760864	100	0	4	0.7089329	1.46527	-177.1758	
01:07:38	47.46363	-122.3078	0.021	-0.373368	-42.51076	0	4.760864	100	0	5	0.3859529	1.012938	-177.9549	
01:07:39	47.46363	-122.3078	0.021	-0.3330459	-29.93884	0	4.760864	100	0	4	0.1701441	0.6993935	-178.2924	
01:07:41	47.46363	-122.3078	0.021	-0.2389867	-21.34479	0	4.760864	100	0	4	0.01435776	0.4546869	-178.3766	
01:07:43	47.46363	-122.3078	0.021	-0.179674	-17.70017	0	4.760864	100	0	5	-0.10886	0.238268	-178.2934	
01:07:45	47.46363	-122.3078	0.021	-0.1496506	-15.83787	0	4.760864	100	0	5	-0.1938435	0.09194063	-178.1516	
01:07:46	47.46363	-122.3078	0.021	-0.1338441	-14.71642	0	4.760864	100	0	4	-0.2505659	-0.01131336	-177.9229	
01:07:48	47.46363	-122.3078	0.021	-0.1193577	-13.18315	0	4.760864	100	0	4	-0.2871243	-0.07433186	-177.6231	
01:07:50	47.46363	-122.3078	0.021	-0.1060745	-11.99325	0	4.760864	100	0	4	-0.3100567	-0.1353968	-177.3793	
01:07:51	47.46363	-122.3078	0.021	-0.09395704	-10.81533	0	4.760864	100	0	4	-0.3211703	-0.1578828	-177.1296	
01:07:53	47.46363	-122.3078	0.021	-0.0839187	-9.943037	0	4.760864	100	0	4	-0.3153405	-0.1709882	-176.8408	
01:07:55	47.46363	-122.3078	0.02	-0.07346013	-8.746617	0	4.760864	100	0	5	-0.3114059	-0.1808521	-176.6386	
01:07:56	47.46363	-122.3078	0.02	-0.0628405	-7.700722	0	4.760864	100	0	4	-0.3032165	-0.1886169	-176.4552	
01:07:58	47.46363	-122.3078	0.02	-0.05439863	-6.972167	0	4.760864	100	0	5	-0.2807135	-0.1748393	-176.2493	
01:08:00	47.46363	-122.3078	0.02	-0.0476601	-6.398115	0	4.760864	100	0	5	-0.2639936	-0.1774469	-176.108	
01:08:02	47.46363	-122.3078	0.02	-0.04215964	-5.916147	0	4.760864	100	0	5	-0.2491895	-0.1721426	-175.9982	
01:08:03	47.46363	-122.3078	0.02	-0.03567567	-5.213971	0	4.760864	100	0	4	-0.22265	-0.1117382	-175.8786	
01:08:05	47.46363	-122.3078	0.02	-0.03030511	-4.737487	0	4.760864	100	0	4	-0.2049991	-0.1374632	-175.806	
01:08:07	47.46363	-122.3078	0.02	-0.02531324	-4.249425	0	4.760864	100	0	4	-0.1897734	-0.1334876	-175.7514	
01:08:08	47.46363	-122.3078	0.02	-0.02114032	-3.846591	0	4.760864	100	0	4	-0.1672009	-0.1215726	-175.7012	
01:08:10	47.46363	-122.3078	0.02	-0.01688297	-3.460064	0	4.760864	100	0	5	-0.1239591	-0.1205229	-175.6739	
01:08:12	47.46363	-122.3078	0.02	-0.01547358	-3.366578	0	4.760864	100	0	5	-0.1077436	-0.1331583	-175.6609	
01:08:13	47.46363	-122.3078	0.02	-0.01070467	-2.801315	0	4.760864	100	0	4	-0.1012477	-0.1153453	-175.6476	
01:08:15	47.46363	-122.3078	0.02	-0.005912947	-2.324413	0	4.760864	100	0	5	-0.09507471	-0.110384	-175.64	
01:08:17	47.46363	-122.3078	0.02	-0.002451751	-2.156728	0	4.760864	100	0	4	-0.08880726	-0.1072193	-175.6348	
01:08:19	47.46363	-122.3078	0.02	-0.001000261	-2.085463	0	4.760864	100	0	4	-0.08042497	-0.09438408	-175.6335	
01:08:20	47.46363	-122.3078	0.02	0.0008316118	-1.918904	0	4.760864	100	0	4	-0.07296547	-0.09022682	-175.6359	
01:08:22	47.46363	-122.3078	0.02	0.0008276333	-1.77671	0	4.760864	100	0	4	-0.06626527	-0.08069594	-175.6402	
01:08:24	47.46363	-122.3078	0.02	0.003879227	-1.403221	0	4.760864	100	0	5	-0.05971768	-0.07576532	-175.6477	
01:08:25	47.46363	-122.3078	0.02	0.006571247	-1.411945	0	4.760864	100	0	4	-0.05340379	-0.05474881	-175.6549	
01:08:27	47.46363	-122.3078	0.02	0.005810078	-1.409372	0	4.760864	100	0	5	-0.04889716	-0.05975962	-175.6611	
01:08:29	47.46363	-122.3078	0.02	0.005851348	-1.278352	0	4.760864	100	0	4	-0.04250051	-0.05723937	-175.67	
01:08:30	47.46363	-122.3078	0.018	0.01080378	0.7996403	1.47	4.244316	100	0	100	0.1771051	6.35724	176.6178	
01:08:32	47.46356	-122.3077	0.15	0.8274372	198.8907	9.62	5.5883	100	0	100	9.22614	15.0635	157.1298	
01:08:34	47.46336	-122.3077	5.821	4.942332	306.7763	13.17	7.633715	100	0	105	33.99682	20.04833	-165.3629	
01:08:35	47.46319	-122.3078	14.028	13.28506	453.7477	15.08	12.79667	100	0	106	36.53374	20.61122	-122.1624	
01:08:37	47.4631	-122.3082	22.464	21.71951	414.9168	18.7	18.64017	100	0	96	40.98997	12.9297	-84.25773	
01:08:39	47.4632	-122.3086	28.57	28.67261	372.3008	22.68	23.56226	100	0	99	45.95638	8.346311	-43.24873	
01:08:41	47.46347	-122.3089	32.772	34.38133	479.7266	25.5	27.13	100	0	106	48.2227	10.06417	3.098063	
01:08:42	47.46387	-122.3087	39.972	41.24831	576.7993	26.89	28.0562	100	0	111	48.61512	12.48417	47.51188	
01:08:44	47.46408	-122.3081	50.906	50.42924	662.0521	26.14	26.2419	100	0	113	47.01655	14.84154	90.08411	
01:08:46	47.46399	-122.3076	63.512	61.76105	673.4429	24.74	24.07614	100	0	108	46.30791	15.35884	127.417	
01:08:47	47.46373	-122.3073	74.108	73.65417	604.4803	24.46	23.71749	100	0	101	47.78645	13.16392	166.2795	
01:08:49	47.46335	-122.3073	83.807	83.46272	492.1686	25.38	24.79988	100	0	94	47.18828	8.918492	-154.8742	
01:08:51	47.46304	-122.3076	90.036	90.5311	421.3844	26.69	26.21238	100	0	93	46.38792	6.707392	-113.1754	
01:08:52	47.46296	-122.3082	94.359	95.07007	195.6318	27.82	27.80652	100	0	63	45.55647	1.628722	-76.72749	
01:08:54	47.46308	-122.3087	92.764	93.23048	-201.6532	27.87	27.8159	100	0	57	43.49996	-5.456848	-45.9203	
01:08:56	47.46341	-122.3091	86.194	87.60085	-190.5183	28.97	29.22347	100	0	67	44.77512	-3.57324	-9.329528	
01:08:58	47.46386	-122.3091	82.298	83.52431	11.63573	30.25	30.38334	100	0	80	45.57996	2.157519	29.619	
01:08:59	47.46422	-122.3087	84.971	84.44867	190.8409	29.8	29.8202	100	0	85	46.39437	5.603328	66.6834	
01:09:01	47.46433	-122.3081	91.715	90.00174	247.0169	28.13	28.34677	100	0	76	45.7732	4.682947	100.8587	
01:09:03	47.46418	-122.3075	97.731	96.04569	151.5266	26.57	26.85289	100	0	63	44.65838	-0.1493092	134.0034	
01:09:04	47.46384	-122.3071	98.535	98.64392	6.727797	25.88	26.16423	100	0	58	44.08377	-5.310945	170.8107	
01:09:06	47.46349	-122.3071	95.626	97.2133	-47.29592	26.15	26.31118	100	0	61	43.26401	-5.745215	-146.1396	
01:09:08	47.46319	-122.3075	91.196	93.55127	7.932211	27.28	27.06846	100	0	73	44.94301	-2.260286	-100.3338	
01:09:09	47.46319	-122.3081	89.391	91.36655	126.8728	28.75	28.47823	100	0	83	46.51139	2.849911	-56.29501	
01:09:11	47.46346	-122.3086	91.018	91.78909	202.1172	29.5	29.54643	100	0	85	46.86108	6.03314	-15.65944	
01:09:13	47.46387	-122.3087	96.126	95.44531	193.3318	29.31	29.01813	100	0	78	45.53843	5.797578	17.95868	
01:09:14	47.46428	-122.3084	101.178	99.92435	93.02806	28.63	28.71922	100	0	68	44.92445	2.238487	48.48226	
01:09:16	47.46453	-122.3079	102.635	102.07	-44.32765	28.02	28.12321	100	0	63	44.6926	-1.285506	79.06816	
01:09:18	47.46455	-122.3072	99.698	100.4972	-135.0426	27.97	27.9768	100	0	64	43.71189	-1.819869	112.7819	
01:09:20	47.46435	-122.3068	95.884	96.64607	-126.5893	28.33	28.29983	100	0	76	45.21417	0.443772	150.137	
01:09:21	47.46391	-122.3065	94.198	94.39729	3.312106	28.74	28.61928	100	0	85	46.15238	4.563804	-169.9726	
01:09:23	47.4635	-122.3068	98.089	96.35876	126.3729	28.31	28.48182	100	0	78	41.49615	6.655452	-133.7902	
01:09:25	47.46326	-122.3074	104.179	101.1622	46.34092	27.16	27.69574	100	0	66	40.89243	2.90074	-109.4176	
01:09:26	47.46321	-122.3079	106.12	104.473	-50.26146	27.01	27.25409	100	0	61	44.23886	-1.955884	-79.26273	
01:09:28	47.46335	-122.3084	105.202	104.7852	-112.0675	27.26	27.48866	100	0	58	44.23405	-4.433671	-44.81856	
01:09:30	47.46375	-122.3088	101.017	102.2663	-127.3197	28.18	28.07426	100	0	62	44.58649	-3.662687	-8.196571	
01:09:31	47.46416	-122.3087	97.158	98.71769	-66.62905	29.17	28.85187	100	0	70	45.5261	-0.3960155	29.32337	
01:09:33	47.46448	-122.3082	95.54	96.30728	-6.178659	29.18	29.34399	100	0	4	27.97102	1.990507	65.14479	
01:09:35	47.46462	-122.3077	94.04	93.52068	-293.5715	24.84	24.61942	100	0	70	15.78018	-3.605814	68.82101	
01:09:37	47.46468	-122.3072	92.986	93.30122	292.7142	26.67	26.19184	100	0	97	48.29532	9.386589	108.5846	
01:09:38	47.46444	-122.3066	100.397	98.73098	278.1047	26.21	26.31853	100	0	80	48.66718	9.039412	150.0164	
01:09:40	47.46414	-122.3065	104.913	103.4519	14.49174	25.84	25.88586	100	0	64	45.88782	0.904977	-177.0039	
01:09:42	47.46372	-122.3066	104.712	104.5508	-70.96136	25.92	25.98992	100	0	51	35.05059	-4.320197	-141.5404	
01:09:43	47.46342	-122.3071	101.18	102.5945	-75.6184	26.02	26.268	100	0	48	22.53295	-4.887835	-115.4292	
01:09:45	47.46329	-122.3076	98.578	99.44626	-121.9708	26.22	26.48074	100	0	63	41.37275	-4.026671	-89.29301	
01:09:47	47.46335	-122.3081	96.572	97.2178	17.80247	27.36	27.53946	100	0	73	45.36555	0.0429866	-47.2597	
01:09:48	47.4637	-122.3085	97.493	97.78905	123.5948	28.2	27.86348	100	0	73	46.238	2.343962	-7.360142	
01:09:50	47.46413	-122.3085	99.406	99.33039	95.99493	28.36	28.55844	100	0	69	45.38855	2.092577	28.53567	
01:09:52	47.46447	-122.3081	99.88	100.042	-4.527088	28.24	28.19239	100	0	67	45.05143	0.7200645	61.71279	
01:09:53	47.46457	-122.3075	98.404	98.97218	-72.55534	28.29	28.07471	100	0	70	45.21682	0.8147771	95.95341	
01:09:55	47.46441	-122.3069	95.833	96.64766	-83.84816	28.51	28.49692	100	0	77	45.52813	2.582622	132.0065	
01:09:57	47.46408	-122.3065	95.675	95.32774	-26.134	28.57	28.38016	100	0	83	46.08092	5.115784	168.9271	
01:09:59	47.46365	-122.3066	98.465	96.9097	38.22176	28.31	28.21772	100	0	81	45.98986	5.948701	-155.338	
01:10:00	47.46333	-122.3069	102.346	100.5505	46.42409	27.92	27.78737	100	0	71	43.89989	3.496957	-122.9186	
01:10:02	47.46317	-122.3076	105.452	103.8407	-5.013062	27.49	27.5398	100	0	62	44.20056	-0.7474082	-91.27906	
01:10:04	47.46324	-122.3081	105.374	104.9831	-58.34464	27.49	27.40483	100	0	58	44.12017	-4.062893	-57.53194	
01:10:05	47.46355	-122.3086	102.646	103.4995	-74.89445	27.96	27.9807	100	0	60	44.60585	-4.436381	-21.24768	
01:10:07	47.46395	-122.3086	99.448	100.6899	-47.82951	28.63	28.94272	100	0	64	44.64722	-2.167874	16.43803	
01:10:09	47.46435	-122.3083	96.996	98.24864	-10.19451	29.08	29.19561	100	0	71	45.10227	0.3547948	53.01487	
01:10:10	47.4645	-122.3078	96.298	96.9389	28.8637	29.05	28.9474	100	0	75	45.2628	2.755258	89.66445	
01:10:12	47.46439	-122.3071	96.81	96.84771	34.00315	28.57	28.45769	100	0	77	45.41612	3.641979	125.6713	
01:10:14	47.46407	-122.3067	98.343	97.84073	47.82666	28.08	27.86155	100	0	76	45.37348	3.536281	162.5598	
01:10:16	47.46368	-122.3066	100.251	99.5862	38.87144	27.73	27.72667	100	0	73	45.55456	1.813726	-160.5218	
01:10:17	47.4633	-122.307	101.661	101.2222	34.67189	27.6	27.76882	100	0	68	45.06223	0.008858216	-122.8513	
01:10:19	47.46316	-122.3076	102.222	102.2335	63.05274	27.61	27.82019	100	0	56	32.30347	-0.5126749	-88.30601	
01:10:21	47.46321	-122.3082	102.672	102.7799	6.203813	26.89	27.51888	100	0	49	4.643082	-1.739579	-72.2365	
01:10:22	47.46333	-122.3088	102.366	102.3458	-42.06499	26.19	26.87269	100	0	49	-6.496313	-2.156891	-70.01772	
01:10:24	47.46344	-122.3093	102.314	101.986	-36.67007	25.82	26.34678	100	0	49	-7.296795	-1.869236	-71.98177	
01:10:26	47.46355	-122.3099	102.603	102.1228	-29.89379	25.4	25.96788	100	0	48	-5.070258	-2.071878	-73.51301	
01:10:27	47.46363	-122.3104	102.728	102.3271	-34.52336	25.11	25.63832	100	0	46	-4.063159	-2.566186	-74.34143	
01:10:29	47.46374	-122.311	102.589	102.3161	-39.73124	24.85	25.39279	100	0	45	-3.974974	-2.937082	-75.05281	
01:10:31	47.46384	-122.3116	102.19	102.0339	-43.48262	24.69	25.23288	100	0	45	-3.906251	-3.090386	-75.89433	
01:10:32	47.46391	-122.312	101.846	101.686	-40.07474	24.58	25.12302	100	0	45	-3.579843	-3.011729	-76.87223	
01:10:34	47.46399	-122.3125	101.596	101.3232	-34.92902	24.51	25.04048	100	0	45	-3.600978	-2.932822	-77.84814	
01:10:36	47.46407	-122.3131	101.287	101.126	-23.46296	24.4	24.94415	100	0	45	-3.147822	-2.600449	-78.65438	
01:10:38	47.46414	-122.3136	101.181	101.0075	-27.51894	24.3	24.82626	100	0	45	-3.015332	-2.722611	-79.33972	
01:10:39	47.46422	-122.3141	100.93	100.7742	-29.89877	24.26	24.78202	100	0	45	-3.009118	-2.760756	-80.05506	
01:10:41	47.46429	-122.3147	100.835	100.6504	-17.55801	24.26	24.77333	100	0	45	-3.080812	-2.595927	-80.81201	
01:10:43	47.46437	-122.3153	100.824	100.7041	-14.48912	24.23	24.74509	100	0	45	-2.884607	-2.653794	-81.66524	
01:10:44	47.46442	-122.3158	100.686	100.5968	-21.50597	24.23	24.75061	100	0	45	-2.763463	-2.862088	-82.52969	
01:10:46	47.46447	-122.3163	100.608	100.4052	-22.1786	24.27	24.78419	100	0	45	-8.978775	-2.819689	-84.0517	
01:10:48	47.46451	-122.3168	100.41	100.2527	-51.52982	24.38	24.65566	100	0	50	-30.09058	-3.446411	-96.10104	
01:10:49	47.46442	-122.3174	98.679	99.06564	-14.97527	25.03	24.95493	100	0	52	-26.64622	-1.976091	-122.6193	
01:10:51	47.4642	-122.3179	99.758	99.55965	-25.91004	24.52	24.54324	100	0	54	36.94024	-2.743117	-119.2319	
01:10:53	47.46411	-122.3185	98.497	98.60815	-44.96453	25.58	25.15898	100	0	66	47.60546	-2.980948	-79.01923	
01:10:55	47.46431	-122.319	97.794	98.40356	65.22199	26.63	26.52585	100	0	67	47.7664	-0.0210465	-34.32471	
01:10:56	47.46465	-122.3191	98.167	98.60754	52.27512	27.01	27.04606	100	0	66	46.61412	0.5240706	5.186402	
01:10:58	47.46505	-122.3189	98.362	98.64603	20.29491	27.17	27.47252	100	0	66	45.93927	0.5684799	42.42421	
01:11:00	47.46528	-122.3184	97.865	98.09399	-24.60563	27.3	27.52938	100	0	68	45.79241	0.5763402	78.65456	
01:11:01	47.46527	-122.3179	96.81	97.335	7.892032	27.38	27.64715	100	0	65	38.03934	1.977237	113.102	
01:11:03	47.46502	-122.3173	96.592	96.77872	-8.598115	26.73	27.10236	100	0	63	30.28276	2.804662	135.6755	
01:11:05	47.46471	-122.317	96.478	96.03914	-68.2653	26.75	26.5337	100	0	76	44.0559	2.301535	164.8698	
01:11:06	47.46427	-122.317	97.262	96.64243	45.57598	27.41	27.09075	100	0	78	46.7848	3.42384	-156.3053	
01:11:08	47.46398	-122.3174	99.673	98.89732	98.28159	27.62	27.30672	100	0	73	46.03223	3.131862	-119.0357	
01:11:10	47.46386	-122.318	102.913	101.8134	74.74655	27.59	27.77357	100	0	65	45.38623	0.5997944	-84.67357	
01:11:12	47.46401	-122.3186	103.973	103.7462	-3.082998	27.55	27.60656	100	0	60	45.0104	-2.44629	-51.46758	
01:11:13	47.46431	-122.3189	101.999	102.6622	-84.28913	27.77	27.86829	100	0	60	44.11512	-3.60428	-17.5892	
01:11:15	47.46474	-122.319	98.392	99.67711	-72.21519	28.38	28.34592	100	0	66	44.78802	-1.590452	18.97463	
01:11:17	47.46509	-122.3186	96.233	97.06076	-18.71375	28.76	28.66988	100	0	74	45.51561	1.332907	55.75009	
01:11:18	47.46524	-122.318	96.595	96.63171	51.13957	28.54	28.23061	100	0	77	46.3168	3.308443	91.86259	
01:11:20	47.46515	-122.3175	98.533	98.13406	73.54503	27.89	27.75303	100	0	72	43.25402	3.373711	125.8682	
01:11:22	47.46484	-122.317	100.732	100.0326	22.15991	27.22	27.27235	100	0	69	44.8489	0.9134584	159.7342	
01:11:23	47.46443	-122.3169	101.594	101.2372	16.81031	27.02	27.30116	100	0	65	44.52567	-0.7295719	-163.14	
01:11:25	47.46411	-122.3172	101.459	101.5311	9.412764	27.07	27.2281	100	0	64	44.27938	-1.993176	-124.7532	
01:11:27	47.46391	-122.3178	100.793	101.2459	26.14809	27.55	27.79384	100	0	64	44.9809	-1.915976	-85.56189	
01:11:29	47.46402	-122.3184	100.39	101.0341	30.55903	27.95	28.04329	100	0	65	45.11443	-1.280495	-48.26563	
01:11:30	47.46436	-122.3188	99.208	100.0621	3.341828	28.3	28.27325	100	0	66	45.0006	-0.8330058	-12.49686	
01:11:32	47.46477	-122.3188	98.356	98.93175	12.29985	28.47	28.35641	100	0	70	45.59052	0.498818	23.38279	
01:11:34	47.4651	-122.3184	98.536	98.71431	31.39592	28.39	28.2592	100	0	71	45.06755	1.557827	59.17791	
01:11:35	47.46526	-122.3178	99.175	99.13419	14.84849	27.98	27.82068	100	0	70	45.29915	1.271147	94.2131	
01:11:37	47.46515	-122.3172	99.42	99.35396	-2.821245	27.61	27.72174	100	0	70	44.85488	1.099861	130.7065	
01:11:39	47.46478	-122.3168	99.575	99.40471	-14.03836	27.39	27.48952	100	0	70	44.92102	1.002059	167.853	
01:11:40	47.46441	-122.3168	99.94	99.63986	-2.34783	27.41	27.42245	100	0	70	45.00611	0.6767149	-154.2546	
01:11:42	47.46406	-122.3172	100.677	100.2801	21.85509	27.57	27.69045	100	0	69	45.35241	0.4750557	-116.5477	
01:11:44	47.46396	-122.3178	102.009	101.4605	25.33592	27.7	27.64841	100	0	65	44.64651	-0.3215035	-80.46368	
01:11:45	47.46411	-122.3184	102.445	102.3981	-1.462997	27.88	27.65623	100	0	63	45.30679	-1.951092	-45.79678	
01:11:47	47.46449	-122.3187	100.544	101.519	-40.70759	28.21	28.255	100	0	63	44.82579	-1.929561	-10.55157	
01:11:49	47.46493	-122.3187	98.558	99.49093	-47.71836	28.5	28.34789	100	0	68	45.05565	-0.5042365	25.44195	
01:11:51	47.46523	-122.3183	97.841	98.10299	-13.843	28.52	28.43274	100	0	72	45.1879	1.41985	61.577	
01:11:52	47.46534	-122.3177	98.363	98.11423	7.98905	28.18	27.97434	100	0	73	45.20918	2.368693	96.5096	
01:11:54	47.46523	-122.3172	99.128	98.73997	6.931731	27.8	27.4844	100	0	72	44.95644	2.064674	131.6073	
01:11:56	47.46484	-122.3168	100.059	99.51659	4.5439	27.47	27.63127	100	0	71	45.60004	1.238154	168.1313	
01:11:57	47.46447	-122.3168	100.829	100.3422	-4.712663	27.32	27.59465	100	0	68	45.03462	0.4098094	-155.2687	
01:11:59	47.46413	-122.3171	101.423	101.0577	2.635293	27.4	27.60764	100	0	66	44.98498	-0.4737401	-118.3611	
01:12:01	47.46401	-122.3177	101.883	101.611	9.085486	27.64	27.73516	100	0	64	44.72232	-1.237315	-81.54996	
01:12:02	47.46415	-122.3183	101.856	101.9673	7.098725	27.92	27.80784	100	0	63	44.64068	-1.739429	-45.64319	
01:12:04	47.46445	-122.3186	100.543	101.1055	-21.34316	28.19	28.11125	100	0	64	44.73669	-1.744741	-10.49577	
01:12:06	47.46493	-122.3186	98.583	99.4055	-22.86174	28.46	28.19955	100	0	68	44.94523	-0.4936405	25.32551	
01:12:08	47.46526	-122.3182	97.886	98.26488	12.93786	28.46	28.4798	100	0	71	45.148	1.450994	62.10811	
01:12:09	47.46537	-122.3177	98.313	98.33921	25.30505	28.11	28.14211	100	0	72	45.23168	1.972595	97.48008	
01:12:11	47.46523	-122.3171	99.387	99.04459	17.00126	27.57	27.77685	100	0	71	44.84508	1.686546	133.3992	
01:12:13	47.46493	-122.3167	100.34	100.006	15.34261	27.22	27.24998	100	0	5	27.92856	-0.1355265	169.3921	
01:12:14	47.4645	-122.3166	97.924	97.60716	-520.7666	22.96	23.64835	100	0	4	41.31798	-15.34535	-173.4078	
