Date	Latitude(deg) 	Longitude(deg)	hamsl(m)	hafl(m)	climbrate(cm/s)	GroundSpeed(m/s)	Airspeed(m/s)	Mav_Link(%)	Rssi_Link(%)	Throttle	Roll(deg)	Pitch(deg)	Yaw(deg)
08:49:47	0	0	0	0	0	0	0	100	0	0	6.284493	1.404306	-118.1594	
08:49:47	0	0	0	-0.6338515	0.3111258	0	3	100	0	50	6.295303	1.396442	-118.0978	
08:49:48	0	0	0	-0.6326867	0.8094101	0	3	100	0	50	6.306013	1.392719	-118.1019	
08:49:48	0	0	0	-0.9874119	-17.05481	0	3	100	0	50	6.314965	1.401357	-118.1166	
08:49:48	0	0	0	-1.274888	-30.73943	0	3	100	0	50	6.320351	1.424263	-118.1205	
08:49:48	0	0	0	-1.3431	-30.62733	0	3	100	0	50	6.320264	1.41866	-118.1002	
08:49:48	0	0	0	-1.398672	-30.5396	0	3	100	0	50	6.332928	1.422607	-118.0333	
08:49:49	0	0	0	-1.266037	-20.07806	0	3	100	0	50	6.349936	1.436357	-118.0298	
08:49:49	0	0	0	-1.153126	-12.25383	0	3	100	0	50	6.348351	1.420879	-118.0328	
08:49:49	0	0	0	-1.014198	-3.500565	0	3	100	0	50	6.353636	1.422998	-118.0293	
08:49:49	0	0	0	-0.8877842	3.409693	0	3	100	0	50	6.351245	1.405444	-117.9482	
08:49:50	0	0	0	-0.8397664	6.02733	0	3	100	0	50	6.346491	1.426386	-117.9361	
08:49:50	0	0	0	-0.7441798	10.55959	0	3	100	0	50	6.345788	1.409638	-117.9483	
08:49:50	0	0	0	-0.7013971	12.59467	0	3	100	0	50	6.34976	1.42064	-117.9517	
08:49:50	0	0	0	-0.7128513	11.26226	0	3	100	0	50	6.35093	1.415979	-117.9137	
08:49:50	0	0	0	-0.7248837	9.761132	0	3	100	0	50	6.352293	1.42998	-117.9216	
08:49:51	0	0	0	-0.7374108	8.298985	0	3	100	0	50	6.362466	1.427843	-117.9396	
08:49:51	0	0	0	-0.7487136	7.415196	0	3	100	0	50	6.365276	1.423643	-117.9444	
08:49:51	0	0	0	-0.7673739	6.135968	0	3	100	0	50	6.363788	1.42014	-117.8593	
08:49:51	0	0	0	-0.7940738	4.807885	0	3	100	0	50	6.367011	1.400319	-117.825	
08:49:51	0	0	0	-0.8152555	3.891668	0	3	100	0	50	6.379182	1.381891	-117.8382	
08:49:52	0	0	0	-0.8284077	3.592837	0	3	100	0	50	6.366032	1.369999	-117.8387	
08:49:52	0	0	0	-0.8044547	4.776712	0	3	100	0	50	6.366455	1.347356	-117.8179	
08:49:52	0	0	0	-0.7574771	7.375266	0	3	100	0	50	6.366419	1.341774	-117.7747	
08:49:52	0	0	0	-0.7683132	6.426274	0	3	100	0	50	6.353676	1.330151	-117.7851	
08:49:52	0	0	0	-0.8120098	4.307177	0	3	100	0	50	6.349144	1.335742	-117.7896	
08:49:53	0	0	0	-0.8361008	2.882138	0	3	99	0	50	6.373999	1.325176	-117.7949	
08:49:53	0	0	0	-0.8471083	2.832858	0	3	99	0	50	6.387547	1.34084	-117.6937	
08:49:53	0	0	0	-0.8517925	2.402096	0	3	99	0	50	6.381052	1.322305	-117.6554	
08:49:53	0	0	0	-0.8514127	2.222378	0	3	99	0	50	6.371713	1.320928	-117.6274	
08:49:53	0	0	0	-0.8192039	4.057103	0	3	99	0	50	6.38968	1.32245	-117.6087	
08:49:54	0	0	0	-0.7645046	6.504826	0	3	99	0	50	6.402357	1.31934	-117.5502	
08:49:54	0	0	0	-0.7200996	8.408618	0	3	99	0	50	6.401339	1.31614	-117.5007	
08:49:54	0	0	0	-0.6865197	9.684663	0	3	99	0	50	6.39924	1.313166	-117.4733	
08:49:54	0	0	0	-0.6684349	9.362513	0	3	99	0	50	6.402361	1.296956	-117.4666	
08:49:55	0	0	0	-0.6585705	9.353927	0	3	98	0	50	6.393059	1.30483	-117.3812	
08:49:55	0	0	0	-0.6199521	10.10638	0	3	98	0	50	6.377142	1.294462	-117.325	
08:49:55	0	0	0	-0.6111832	9.665089	0	3	98	0	50	6.369581	1.291403	-117.3082	
08:49:55	0	0	0	-0.6197775	8.020166	0	3	98	0	50	6.367435	1.26751	-117.3046	
08:49:55	0	0	0	-0.6446881	5.499526	0	3	98	0	50	6.380611	1.270881	-117.2463	
08:49:56	0	0	0	-0.6943709	2.317504	0	3	98	0	50	6.382618	1.250354	-117.2018	
08:49:56	0	0	0	-0.7359924	-0.3332866	0	3	98	0	50	6.383667	1.261362	-117.1965	
08:49:56	0	0	0	-0.7497479	-0.7496747	0	3	98	0	50	6.375014	1.26862	-117.1753	
08:49:56	0	0	0	-0.7611464	-1.041063	0	3	98	0	50	6.386269	1.288249	-117.1641	
08:49:56	0	0	0	-0.7230685	1.767706	0	3	98	0	50	6.385289	1.278024	-117.0469	
08:49:57	0	0	0	-0.6907541	3.779574	0	3	98	0	50	6.388834	1.30519	-117.028	
08:49:57	0	0	0	-0.6409482	6.088284	0	3	98	0	50	6.401068	1.321535	-117.0172	
08:49:57	0	0	0	-0.5963987	7.87375	0	3	98	0	50	6.398735	1.326905	-117.0213	
08:49:57	0	0	0	-0.5792705	7.605407	0	3	98	0	50	6.390311	1.325076	-116.9385	
08:49:57	0	0	0	-0.5655906	7.450266	0	3	98	0	50	6.382587	1.308471	-116.9215	
08:49:58	0	0	0	-0.4790199	11.69378	0	3	98	0	50	6.384048	1.319705	-116.919	
08:49:58	0	0	0	-0.409193	14.73872	0	3	98	0	50	6.377748	1.302342	-116.935	
08:49:58	0	0	0	-0.4087695	13.77696	0	3	98	0	50	6.366743	1.297528	-116.9153	
08:49:58	0	0	0	-0.4104141	12.70392	0	3	98	0	50	6.362755	1.294984	-116.8268	
08:49:58	0	0	0	-0.4239611	11.18861	0	3	99	0	50	6.350499	1.283008	-116.8009	
08:49:59	0	0	0	-0.4363033	9.972887	0	3	99	0	50	6.350992	1.289657	-116.7809	
08:49:59	0	0	0	-0.4406717	8.930939	0	3	99	0	50	6.355494	1.291729	-116.7636	
08:49:59	0	0	0	-0.4462168	7.822698	0	3	99	0	50	6.360138	1.276155	-116.6816	
08:49:59	0	0	0	-0.4418755	8.026343	0	3	99	0	50	6.363613	1.271152	-116.6147	
08:49:59	0	0	0	-0.4381836	7.847596	0	3	99	0	50	6.357496	1.274999	-116.6118	
08:50:00	0	0	0	-0.4342045	7.643445	0	3	99	0	50	6.351733	1.293015	-116.6043	
08:50:00	0	0	0	-0.4316429	7.411833	0	3	99	0	50	6.348437	1.315771	-116.6025	
08:50:00	0	0	0	-0.4675637	4.982697	0	3	99	0	50	6.360033	1.333925	-116.5296	
08:50:00	-6.795835	38.98538	141.216	-0.5009751	2.750652	0.65	3	98	0	50	6.355544	1.343271	-116.5144	
08:50:00	-6.795844	38.98537	136.105	-0.535853	0.8923112	1.58	3	98	0	50	6.343126	1.354075	-116.5103	
08:50:01	-6.795844	38.98537	136.12	-0.564196	0.04976307	1.79	3	98	0	50	6.338071	1.340311	-116.5159	
08:50:01	-6.795846	38.98537	134.217	-0.5883912	-1.012992	2.58	3	98	0	50	6.332666	1.340458	-116.4676	
08:50:01	-6.795849	38.98537	133.027	-0.6055281	-1.954634	2.13	3	98	0	50	6.328246	1.34176	-116.444	
08:50:01	-6.795852	38.98536	130.935	-0.6265977	-3.15631	2.32	3	98	0	50	6.334278	1.335516	-116.4472	
08:50:01	-6.795856	38.98536	128.718	-0.6524013	-4.169484	2.52	3	98	0	50	6.325831	1.348034	-116.4489	
08:50:02	-6.795857	38.98536	128.026	-0.6664576	-4.930069	2.42	3	98	0	50	6.327719	1.361879	-116.4278	
08:50:02	-6.795859	38.98536	127.317	-0.6690454	-4.373633	1.99	3	98	0	50	6.332692	1.368464	-116.3587	
08:50:02	-6.795862	38.98536	125.856	-0.6267097	-1.709068	2.1	3	98	0	50	6.336249	1.390094	-116.3535	
08:50:02	-6.795865	38.98535	124.459	-0.5599055	2.159699	2.32	3	98	0	50	6.341159	1.418836	-116.3638	
08:50:02	-6.795866	38.98535	123.69	-0.5000083	5.279946	1.83	3	98	0	50	6.334948	1.418067	-116.3847	
08:50:03	-6.795866	38.98535	124.031	-0.4520198	7.049294	1.71	3	98	0	50	6.343643	1.420147	-116.3145	
08:50:03	-6.795866	38.98535	123.967	-0.4129186	8.657206	1.43	3	98	0	50	6.340393	1.427803	-116.3131	
08:50:03	-6.795866	38.98535	124.675	-0.3881788	9.523138	1.33	3	98	0	50	6.336867	1.411814	-116.3375	
08:50:03	-6.795864	38.98536	127.158	-0.3618818	10.31086	1.1	3	98	0	50	6.350414	1.430591	-116.3297	
08:50:03	-6.795863	38.98536	128.834	-0.3327649	10.81235	0.65	3	98	0	50	6.34426	1.437969	-116.2765	
08:50:04	-6.795862	38.98536	130.055	-0.3075831	10.82284	0.5	3	98	0	50	6.34719	1.443665	-116.249	
08:50:04	-6.795863	38.98536	130.01	-0.2861944	10.95796	0.24	3	98	0	50	6.329289	1.461572	-116.2463	
08:50:04	-6.795864	38.98536	129.032	-0.240217	12.50637	0.41	3	98	0	50	6.31803	1.432294	-116.2509	
08:50:04	-6.795864	38.98536	129.12	-0.1832429	13.93353	0.12	3	98	0	50	6.313658	1.438553	-116.2478	
08:50:05	-6.795865	38.98536	127.707	-0.142828	14.88616	0.13	3	98	0	50	6.313683	1.426103	-116.1456	
08:50:05	-6.795866	38.98535	125.718	-0.1047027	15.63477	0.71	3	98	0	50	6.323755	1.427765	-116.1407	
08:50:05	-6.795868	38.98535	123.952	-0.08559994	15.48922	0.58	3	98	0	50	6.323517	1.442728	-116.1502	
08:50:05	-6.79587	38.98534	121.403	-0.07863823	14.31428	0.52	3	98	0	50	6.337598	1.450651	-116.1535	
08:50:05	-6.795872	38.98534	119.676	-0.07656365	12.86127	0.66	3	98	0	50	6.327294	1.427595	-116.1259	
08:50:05	-6.795872	38.98534	119.188	-0.08004655	11.82952	0.38	3	98	0	50	6.343852	1.434046	-116.0592	
08:50:06	-6.795874	38.98534	117.619	-0.08456284	10.69776	0.57	3	98	0	50	6.354631	1.441034	-116.0535	
08:50:06	-6.795875	38.98534	116.382	-0.07307176	10.58916	0.72	3	98	0	50	6.344549	1.430849	-116.0653	
08:50:06	-6.795876	38.98533	114.538	-0.06190981	10.10612	0.39	3	98	0	50	6.32909	1.423315	-116.0604	
08:50:06	-6.795877	38.98533	113.686	-0.02127193	11.30286	0.25	3	98	0	50	6.316035	1.420904	-116.0284	
08:50:06	-6.795877	38.98533	113.36	0.0107345	12.5828	0.64	3	98	0	50	6.301844	1.424127	-116.0353	
08:50:07	-6.795877	38.98533	112.597	0.0326439	12.42584	0.61	3	98	0	50	6.295453	1.419753	-116.0478	
08:50:07	-6.795877	38.98532	111.858	0.04971176	12.06978	0.48	3	98	0	50	6.3	1.415264	-116.0631	
08:50:07	-6.795879	38.98532	110.426	-0.003904436	8.450074	0.5	3	98	0	50	6.319081	1.410834	-115.9891	
08:50:07	-6.795881	38.98532	109.128	-0.05424653	5.271244	0.72	3	99	0	50	6.315536	1.416555	-115.9821	
08:50:07	-6.795882	38.98532	107.995	-0.1047066	1.729655	0.57	3	99	0	50	6.321716	1.420488	-115.9912	
08:50:08	-6.795884	38.98532	106.724	-0.1470978	-0.7451044	0.53	3	99	0	50	6.333869	1.435498	-116.0092	
08:50:08	-6.795886	38.98532	105.329	-0.2140435	-3.925462	0.57	3	99	0	50	6.334879	1.440378	-116.0037	
08:50:08	-6.795886	38.98532	106.599	-0.2728005	-6.39187	0.5	3	99	0	50	6.335118	1.438366	-115.9254	
08:50:08	-6.795885	38.98532	107.84	-0.3280731	-8.768056	0.09	3	99	0	50	6.351683	1.426808	-115.9154	
08:50:08	-6.795887	38.98532	106.576	-0.3725759	-10.37022	0.14	3	99	0	50	6.347392	1.430975	-115.9146	
08:50:09	-6.795886	38.98532	106.877	-0.3838018	-9.080531	0.22	3	99	0	50	6.342062	1.422731	-115.92	
08:50:09	-6.795887	38.98532	106.513	-0.3906097	-9.146963	0.38	3	99	0	50	6.331655	1.428107	-115.8831	
08:50:09	-6.795887	38.98532	105.184	-0.4560809	-11.57038	0.44	3	99	0	50	6.330273	1.431777	-115.8418	
08:50:09	-6.795888	38.98532	104.438	-0.5031189	-12.89886	0.22	3	99	0	50	6.327028	1.417359	-115.8547	
08:50:09	-6.795889	38.98531	103.263	-0.554338	-13.69471	0.35	3	99	0	50	6.319081	1.402633	-115.8635	
08:50:10	-6.795889	38.98531	102.733	-0.5924761	-13.96854	0.36	3	99	0	50	6.303113	1.400523	-115.8767	
08:50:10	-6.795889	38.98531	102.18	-0.6267827	-14.01063	0.18	3	99	0	50	6.302458	1.41724	-115.7919	
08:50:10	-6.795891	38.98531	100.239	-0.6550974	-14.01029	0.14	3	99	0	50	6.301662	1.447472	-115.7958	
08:50:10	-6.795893	38.98531	99.316	-0.6359623	-11.91023	0.17	3	99	0	50	6.300214	1.451064	-115.8055	
08:50:10	-6.795895	38.9853	98.016	-0.618602	-9.969254	0.38	3	99	0	50	6.295943	1.46767	-115.8214	
08:50:11	-6.795896	38.9853	96.343	-0.6067381	-8.415481	0.36	3	99	0	50	6.313659	1.471847	-115.7508	
08:50:11	-6.795899	38.9853	94.011	-0.6064386	-8.170147	0.58	3	99	0	50	6.306865	1.48595	-115.7468	
08:50:11	-6.795902	38.98529	92.644	-0.5995551	-6.927811	0.69	3	99	0	50	6.299619	1.48156	-115.7693	
08:50:11	-6.795903	38.98529	91.295	-0.5843095	-5.734721	0.44	3	99	0	50	6.306324	1.48695	-115.79	
08:50:11	-6.795904	38.98529	90.175	-0.5639241	-4.164926	0.72	3	99	0	50	6.318367	1.46697	-115.803	
08:50:12	-6.795906	38.98529	88.093	-0.5422821	-2.774658	0.55	3	99	0	50	6.336416	1.459495	-115.7848	
08:50:12	-6.795908	38.98528	86.623	-0.5374578	-2.476205	0.78	3	99	0	50	6.346521	1.460627	-115.7993	
08:50:12	-6.795909	38.98528	85.93	-0.5468664	-2.015939	0.83	3	99	0	50	6.346544	1.480491	-115.8003	
08:50:12	-6.795909	38.98528	85.932	-0.5339978	-1.047938	0.59	3	99	0	50	6.336011	1.489636	-115.806	
08:50:12	-6.79591	38.98528	85.573	-0.5115278	0.3350219	0.75	3	99	0	50	6.330791	1.472954	-115.761	
08:50:13	-6.795912	38.98528	83.948	-0.5111098	0.437794	0.93	3	99	0	50	6.32735	1.460602	-115.7434	
08:50:13	-6.795913	38.98528	83.761	-0.5323557	-0.7918864	0.68	3	99	0	50	6.31706	1.456818	-115.7512	
08:50:13	-6.795913	38.98528	83.797	-0.5445606	-1.136814	0.98	3	99	0	50	6.320511	1.465028	-115.7627	
08:50:13	-6.795914	38.98528	83.925	-0.5455134	-1.048506	0.63	3	99	0	50	6.328026	1.456234	-115.7408	
08:50:13	-6.795914	38.98528	84.446	-0.531088	0.1980287	0.74	3	99	0	50	6.332826	1.467138	-115.6623	
08:50:14	-6.795915	38.98528	84.106	-0.5036312	1.757846	0.34	3	99	0	50	6.342112	1.469515	-115.6584	
08:50:14	-6.795914	38.98528	85.161	-0.4717425	3.698881	0.55	3	99	0	50	6.33101	1.478414	-115.6569	
08:50:14	-6.795916	38.98528	84.121	-0.4362679	5.286139	0.61	3	99	0	50	6.325506	1.476269	-115.6611	
08:50:14	-6.795917	38.98528	84.739	-0.3895898	7.480416	0.72	3	99	0	50	6.333548	1.499207	-115.5729	
08:50:14	-6.795917	38.98528	85.088	-0.3382201	8.942777	0.22	3	99	0	50	6.328342	1.504798	-115.5706	
08:50:15	-6.795918	38.98528	84.852	-0.3346117	8.088996	0.26	3	99	0	50	6.323073	1.486383	-115.5948	
08:50:15	-6.795918	38.98528	85.239	-0.4009251	3.536211	0.47	3	99	0	50	6.318522	1.476901	-115.6047	
08:50:15	-6.79592	38.98528	84.777	-0.4581304	-0.04064552	0.79	3	99	0	50	6.30369	1.48123	-115.5829	
08:50:15	-6.795922	38.98528	84.095	-0.5071348	-2.920901	0.48	3	99	0	50	6.30526	1.50006	-115.5291	
08:50:15	-6.795922	38.98528	83.327	-0.5475894	-4.845874	0.39	3	99	0	50	6.297152	1.514785	-115.5421	
08:50:16	-6.795923	38.98528	82.349	-0.587141	-6.499218	0.45	3	99	0	50	6.295647	1.513518	-115.5788	
08:50:16	-6.795924	38.98528	80.835	-0.6220145	-8.220409	0.29	3	99	0	50	6.288352	1.519386	-115.5992	
