Date	Latitude(deg) 	Longitude(deg)	hamsl(m)	hafl(m)	climbrate(cm/s)	GroundSpeed(m/s)	Airspeed(m/s)	Mav_Link(%)	Rssi_Link(%)	Throttle	Roll(deg)	Pitch(deg)	Yaw(deg)
20:32:41	0	0	0	0	0	0	0	100	0	0	4.887743	-0.5238411	-51.33714	
20:32:41	0	0	0	0.06844925	-0.2304418	0	3	100	0	50	4.901514	-0.5153443	-51.3638	
20:32:41	0	0	0	0.06739706	-0.9115085	0	3	100	0	50	4.919097	-0.5089341	-51.37044	
20:32:42	0	0	0	-0.2667066	-18.51012	0	3	100	0	50	4.926816	-0.5092694	-51.38437	
20:32:42	0	0	0	-0.5960571	-34.35735	0	3	100	0	50	4.921541	-0.4983336	-51.39895	
20:32:42	0	0	0	-0.7438853	-39.88348	0	3	100	0	50	4.917687	-0.5269898	-51.43864	
20:32:42	0	0	0	-0.8723009	-43.27099	0	3	100	0	50	4.917765	-0.5099894	-51.44448	
20:32:42	0	0	0	-0.7252074	-32.16817	0	3	100	0	50	4.920471	-0.5093742	-51.44672	
20:32:43	0	0	0	-0.5858625	-22.40375	0	3	100	0	50	4.918435	-0.5071191	-51.45863	
20:32:43	0	0	0	-0.4275835	-12.78674	0	3	100	0	50	4.927481	-0.4996815	-51.55059	
20:32:43	0	0	0	-0.2638685	-3.598771	0	3	100	0	50	4.930797	-0.4771867	-51.57634	
20:32:43	0	0	0	-0.1287071	2.842407	0	3	100	0	50	4.940641	-0.4690594	-51.58469	
20:32:43	0	0	0	-0.006756652	8.431484	0	3	100	0	50	4.934481	-0.4680878	-51.58833	
20:32:44	0	0	0	0.1178209	13.79574	0	3	100	0	50	4.944142	-0.4717569	-51.60614	
20:32:44	0	0	0	0.2276114	17.942	0	3	100	0	50	4.945804	-0.5022717	-51.64874	
20:32:44	0	0	0	0.2979404	18.95397	0	3	100	0	50	4.938466	-0.4941468	-51.67419	
20:32:44	0	0	0	0.3506536	19.43501	0	3	100	0	50	4.950514	-0.498838	-51.68111	
20:32:44	0	0	0	0.3738275	18.2497	0	3	100	0	50	4.945577	-0.5010884	-51.67765	
20:32:45	0	0	0	0.3904409	17.01287	0	3	100	0	50	4.938796	-0.5096499	-51.7429	
20:32:45	0	0	0	0.4087508	15.74071	0	3	100	0	50	4.941328	-0.5228757	-51.76966	
20:32:45	0	0	0	0.4246341	14.78858	0	3	100	0	50	4.954173	-0.527022	-51.76329	
20:32:45	0	0	0	0.4229361	12.75633	0	3	100	0	50	4.9506	-0.5310705	-51.75765	
20:32:45	0	0	0	0.4060321	9.35679	0	3	100	0	50	4.949592	-0.5301363	-51.77652	
20:32:46	0	0	0	0.397214	6.978229	0	3	100	0	50	4.9453	-0.5368513	-51.8224	
20:32:46	0	0	0	0.3962601	5.534761	0	3	100	0	50	4.960001	-0.5217355	-51.80834	
20:32:46	0	0	0	0.394552	4.558289	0	3	100	0	50	4.957817	-0.5329993	-51.79005	
20:32:46	0	0	0	0.3919291	3.306511	0	3	100	0	50	4.941016	-0.5384046	-51.78307	
20:32:46	0	0	0	0.3839647	2.003229	0	3	100	0	50	4.932361	-0.5155674	-51.85786	
20:32:47	0	0	0	0.3737053	0.7189521	0	3	100	0	50	4.925408	-0.4993066	-51.85392	
20:32:47	0	0	0	0.3686395	-0.2549848	0	3	100	0	50	4.938958	-0.5037794	-51.83868	
20:32:47	0	0	0	0.3687651	-0.9616207	0	3	100	0	50	4.940886	-0.4885113	-51.82697	
20:32:47	0	0	0	0.3624555	-1.758748	0	3	100	0	50	4.941269	-0.4936996	-51.85155	
20:32:47	0	0	0	0.3492934	-2.219266	0	3	100	0	50	4.955432	-0.4877118	-51.84877	
20:32:48	0	0	0	0.3573323	-2.350009	0	3	100	0	50	4.945897	-0.4780869	-51.84465	
20:32:48	0	0	0	0.3852595	-1.115703	0	3	100	0	50	4.938933	-0.4721349	-51.8341	
20:32:48	0	0	0	0.3840889	-1.754512	0	3	100	0	50	4.943449	-0.4826849	-51.82088	
20:32:48	0	0	0	0.3659485	-2.913647	0	3	100	0	50	4.936995	-0.4839873	-51.85241	
20:32:48	0	0	0	0.388802	-2.460766	0	3	100	0	50	4.928205	-0.4868433	-51.86675	
20:32:49	0	0	0	0.4303503	-0.4249683	0	3	100	0	50	4.926097	-0.4920571	-51.84914	
20:32:49	0	0	0	0.4225776	-0.9971145	0	3	100	0	50	4.920159	-0.4908037	-51.82995	
20:32:49	0	0	0	0.3678518	-4.200997	0	3	100	0	50	4.903153	-0.5115896	-51.85912	
20:32:49	0	0	0	0.3221166	-6.288741	0	3	100	0	50	4.908151	-0.5080497	-51.91559	
20:32:49	0	0	0	0.2866549	-7.73614	0	3	100	0	50	4.913064	-0.5032008	-51.91101	
20:32:50	0	0	0	0.2743741	-8.482532	0	3	100	0	50	4.909322	-0.5021828	-51.89507	
20:32:50	0	0	0	0.2880385	-7.448158	0	3	100	0	50	4.907493	-0.5035918	-51.88136	
20:32:50	0	0	0	0.3008327	-6.87463	0	3	100	0	50	4.902788	-0.5052738	-51.91618	
20:32:50	0	0	0	0.2863253	-7.540658	0	3	100	0	50	4.907157	-0.512166	-51.89965	
20:32:50	0	0	0	0.2741551	-7.617332	0	3	100	0	50	4.903708	-0.5028079	-51.87604	
20:32:51	0	0	0	0.2800519	-7.07898	0	3	100	0	50	4.899528	-0.5070862	-51.84679	
20:32:51	0	0	0	0.2855656	-6.414525	0	3	100	0	50	4.898545	-0.5029861	-51.85658	
20:32:51	0	0	0	0.2904133	-5.869628	0	3	100	0	50	4.900342	-0.4877473	-51.85482	
20:32:51	0	0	0	0.2951802	-5.503104	0	3	100	0	50	4.898025	-0.5017484	-51.83757	
20:32:51	0	0	0	0.3254391	-4.027962	0	3	100	0	50	4.897243	-0.5052983	-51.8115	
20:32:52	0	0	0	0.3520301	-3.463817	0	3	100	0	50	4.895528	-0.5042817	-51.79214	
20:32:52	0	0	0	0.3952313	-1.623426	0	3	100	0	50	4.896589	-0.4645171	-51.79218	
20:32:52	0	0	0	0.4295103	-0.2906164	0	3	100	0	50	4.909194	-0.4457313	-51.77903	
20:32:52	0	0	0	0.431228	-0.1647177	0	3	100	0	50	4.90571	-0.4266643	-51.75092	
20:32:52	0	0	0	0.4325351	-0.7908373	0	3	100	0	50	4.909138	-0.4156029	-51.73683	
20:32:53	0	0	0	0.3994491	-3.069452	0	3	100	0	50	4.915703	-0.4117194	-51.76631	
20:32:53	0	0	0	0.3651978	-5.278769	0	3	100	0	50	4.913104	-0.3947888	-51.76995	
20:32:53	0	0	0	0.270532	-10.11321	0	3	100	0	50	4.916649	-0.4004591	-51.77015	
20:32:53	0	0	0	0.1850842	-14.31675	0	3	100	0	50	4.910534	-0.4180526	-51.75154	
20:32:53	0	0	0	0.1313965	-15.88855	0	3	100	0	50	4.890983	-0.4261394	-51.73629	
20:32:54	0	0	0	0.08105586	-17.30994	0	3	100	0	50	4.884933	-0.425664	-51.77398	
20:32:54	0	0	0	0.08807661	-15.52851	0	3	100	0	50	4.872755	-0.4442998	-51.75486	
20:32:54	0	0	0	0.09691191	-13.86548	0	3	100	0	50	4.870487	-0.4288624	-51.73202	
20:32:54	0	0	0	0.1624033	-9.577026	0	3	100	0	50	4.853985	-0.4315546	-51.72212	
20:32:54	0	0	0	0.2234716	-5.733386	0	3	100	0	50	4.84711	-0.4347886	-51.7631	
20:32:55	0	0	0	0.2717973	-3.165104	0	3	100	0	50	4.843964	-0.4443236	-51.777	
20:32:55	0	0	0	0.3208428	-0.5955139	0	3	100	0	50	4.84026	-0.4615918	-51.75453	
20:32:55	0	0	0	0.3092116	-1.819123	0	3	100	0	50	4.849023	-0.4603678	-51.71844	
20:32:55	0	0	0	0.2359523	-5.969256	0	3	100	0	50	4.836479	-0.4508198	-51.69765	
20:32:55	0	0	0	0.1712648	-9.203261	0	3	100	0	50	4.839675	-0.4496716	-51.72331	
20:32:56	0	0	0	0.1211075	-10.99746	0	3	100	0	50	4.852911	-0.4241644	-51.70597	
20:32:56	0	0	0	0.09165002	-11.14573	0	3	100	0	50	4.846602	-0.44513	-51.66518	
20:32:56	0	0	0	0.08522994	-10.85003	0	3	100	0	50	4.855249	-0.431071	-51.63385	
20:32:56	0	0	0	0.08661884	-9.960843	0	3	100	0	50	4.858712	-0.4180964	-51.71605	
20:32:56	0	0	0	0.09834976	-8.21001	0	3	100	0	50	4.850341	-0.4296784	-51.72186	
20:32:57	0	0	0	0.102897	-7.716111	0	3	100	0	50	4.849015	-0.4348341	-51.70226	
20:32:57	0	0	0	0.09784584	-7.833361	0	3	100	0	50	4.858201	-0.4251841	-51.67665	
20:32:57	0	0	0	0.09588183	-7.311185	0	3	100	0	50	4.858974	-0.4310312	-51.67432	
20:32:57	0	0	0	0.09626668	-6.795366	0	3	100	0	50	4.862487	-0.4166658	-51.71595	
20:32:57	0	0	0	0.1349423	-4.537068	0	3	100	0	50	4.853757	-0.4365087	-51.70259	
20:32:58	0	0	0	0.2051717	-0.317795	0	3	100	0	50	4.858812	-0.4484036	-51.67455	
20:32:58	0	0	0	0.2390517	1.618715	0	3	100	0	50	4.854729	-0.4549967	-51.65645	
20:32:58	0	0	0	0.2491936	2.149192	0	3	100	0	50	4.842614	-0.4574648	-51.70165	
20:32:58	0	0	0	0.2415652	1.492195	0	3	100	0	50	4.836283	-0.4670491	-51.6993	
20:32:58	0	0	0	0.2256732	0.405993	0	3	100	0	50	4.839135	-0.463393	-51.67031	
20:32:59	0	0	0	0.2243888	0.05103936	0	3	100	0	50	4.836933	-0.4776548	-51.64484	
20:32:59	0	0	0	0.2454202	0.9781276	0	3	100	0	50	4.829192	-0.4657846	-51.61032	
20:32:59	0	0	0	0.290053	3.21576	0	3	100	0	50	4.8353	-0.4608181	-51.62231	
20:32:59	0	0	0	0.3673256	6.717164	0	3	100	0	50	4.827996	-0.4729453	-51.59575	
20:32:59	0	0	0	0.4314272	9.167454	0	3	100	0	50	4.841305	-0.4565566	-51.55866	
20:33:00	0	0	0	0.4705995	9.948501	0	3	100	0	50	4.837468	-0.4621201	-51.53613	
20:33:00	0	0	0	0.5037053	10.54816	0	3	100	0	50	4.839142	-0.45317	-51.55356	
20:33:00	0	0	0	0.4515781	6.988375	0	3	100	0	50	4.84128	-0.4629209	-51.57179	
20:33:00	0	0	0	0.402494	3.597487	0	3	100	0	50	4.824894	-0.4553596	-51.54745	
20:33:01	0	0	0	0.379391	1.673302	0	3	100	0	50	4.827592	-0.4462794	-51.5193	
20:33:01	0	0	0	0.3548957	0.09034975	0	3	100	0	50	4.833556	-0.45987	-51.53304	
20:33:01	0	0	0	0.2900245	-3.530459	0	3	100	0	50	4.830744	-0.4581434	-51.55341	
20:33:01	0	0	0	0.2314682	-6.294193	0	3	100	0	50	4.830332	-0.4696046	-51.52432	
20:33:01	0	0	0	0.2094033	-7.44891	0	3	100	0	50	4.836126	-0.4538189	-51.49352	
20:33:01	0	0	0	0.1873322	-8.244811	0	3	100	0	50	4.825318	-0.4468752	-51.46035	
20:33:02	0	0	0	0.1836724	-8.406281	0	3	100	0	50	4.823033	-0.4216164	-51.46954	
20:33:02	0	0	0	0.1813947	-7.317752	0	3	100	0	50	4.822508	-0.4304639	-51.45499	
20:33:02	0	0	0	0.2602114	-2.693	0	3	100	0	50	4.826872	-0.4286862	-51.4356	
20:33:02	0	0	0	0.3323291	1.692492	0	3	100	0	50	4.826926	-0.4350962	-51.40793	
20:33:02	0	0	0	0.3924248	4.519348	0	3	100	0	50	4.815395	-0.4209228	-51.42174	
20:33:03	0	0	0	0.45166	7.270947	0	3	100	0	50	4.816491	-0.4188159	-51.42434	
20:33:03	0	0	0	0.5255738	10.41429	0	3	100	0	50	4.808917	-0.410284	-51.39471	
20:33:03	0	0	0	0.5909768	13.22731	0	3	100	0	50	4.813847	-0.4098732	-51.37411	
20:33:03	0	0	0	0.6204788	13.13261	0	3	100	0	50	4.812596	-0.4382594	-51.38879	
20:33:03	0	0	0	0.6426507	13.22217	0	3	100	0	50	4.815763	-0.4268764	-51.4272	
20:33:04	0	0	0	0.6358982	11.46772	0	3	100	0	50	4.816551	-0.4304374	-51.40619	
20:33:04	0	0	0	0.6276598	9.902335	0	3	100	0	50	4.819272	-0.4201311	-51.37161	
20:33:04	0	0	0	0.58189	6.864789	0	3	100	0	50	4.818006	-0.4139284	-51.34229	
20:33:04	0	0	0	0.5393416	3.929528	0	3	100	0	50	4.813618	-0.4106081	-51.38086	
20:33:04	0	0	0	0.533188	3.173983	0	3	100	0	50	4.817006	-0.3889914	-51.39102	
20:33:05	0	0	0	0.527054	3.183746	0	3	100	0	50	4.812039	-0.3864827	-51.37183	
20:33:05	0	0	0	0.5116587	1.403172	0	3	100	0	50	4.814255	-0.3742377	-51.35263	
20:33:05	0	0	0	0.4802756	-0.9738566	0	3	100	0	50	4.818958	-0.3725109	-51.34768	
20:33:05	0	0	0	0.4633833	-2.163402	0	3	100	0	50	4.826693	-0.3641736	-51.39014	
20:33:05	0	0	0	0.456305	-2.877163	0	3	100	0	50	4.82197	-0.3509426	-51.37464	
20:33:06	0	0	0	0.4716638	-1.878931	0	3	100	0	50	4.82359	-0.335515	-51.34721	
20:33:06	0	0	0	0.4995759	-0.5735312	0	3	100	0	50	4.831599	-0.3375776	-51.33923	
20:33:06	0	0	0	0.5208601	0.3863614	0	3	100	0	50	4.824295	-0.3316583	-51.38822	
20:33:06	0	0	0	0.5370956	1.009225	0	3	100	0	50	4.833699	-0.3032454	-51.40366	
20:33:06	0	0	0	0.5794848	2.834759	0	3	100	0	50	4.830499	-0.3212613	-51.38738	
20:33:07	0	0	0	0.6362128	5.411238	0	3	100	0	50	4.825173	-0.3091254	-51.36346	
20:33:07	0	0	0	0.6857218	7.202321	0	3	100	0	50	4.820075	-0.3248608	-51.36055	
20:33:07	0	0	0	0.7173447	7.917065	0	3	100	0	50	4.821706	-0.3212549	-51.40177	
20:33:07	0	0	0	0.7583779	9.492596	0	3	100	0	50	4.829158	-0.3137531	-51.38732	
20:33:08	0	0	0	0.8018119	10.82651	0	3	100	0	50	4.83148	-0.3028877	-51.37553	
20:33:08	0	0	0	0.7928413	8.939669	0	3	100	0	50	4.829839	-0.303048	-51.3673	
20:33:08	0	0	0	0.7531306	5.832457	0	3	100	0	50	4.823269	-0.2954975	-51.4038	
20:33:08	0	0	0	0.7032585	2.458255	0	3	100	0	50	4.820206	-0.3013499	-51.39184	
20:33:08	0	0	0	0.6499887	-1.337038	0	3	100	0	50	4.808383	-0.2793151	-51.37128	
20:33:09	0	0	0	0.5922589	-4.467017	0	3	100	0	50	4.801748	-0.2874115	-51.37667	
20:33:09	0	0	0	0.5374129	-7.045608	0	3	100	0	50	4.796114	-0.2838875	-51.36263	
20:33:09	0	0	0	0.4941353	-9.056169	0	3	100	0	50	5.116627	-0.328551	-51.34293	
20:33:09	0	0	0	0.461326	-10.69885	0	3	100	0	50	8.972277	-0.4248211	-51.30603	
20:33:09	0	0	0	0.4480013	-9.901393	0	3	100	0	50	13.38	-0.6151681	-51.35453	
20:33:10	0	0	0	0.4529293	-8.31341	0	3	100	0	50	11.4845	-0.5042198	-51.59052	
20:33:10	0	0	0	0.4583366	-7.837903	0	3	100	0	50	3.950045	-0.1960396	-51.80463	
20:33:10	0	0	0	0.4697984	-6.801061	0	3	100	0	50	2.397942	-0.1568619	-51.77148	
20:33:10	0	0	0	0.4805289	-5.901984	0	3	100	0	50	1.556471	-0.132392	-51.65753	
20:33:10	0	0	0	0.4930876	-5.668356	0	3	100	0	50	1.611175	-0.1496643	-51.50116	
20:33:11	0	0	0	0.5054127	-4.915457	0	3	100	0	50	1.210524	-0.1604275	-51.39562	
20:33:11	0	0	0	0.5587767	-2.29046	0	3	100	0	50	-0.7102321	-0.1167404	-51.28978	
20:33:11	0	0	0	0.6069527	-0.2318109	0	3	100	0	50	-2.776245	-0.04844207	-51.08876	
20:33:11	0	0	0	0.6398746	-0.07044685	0	3	100	0	50	-2.121576	-0.05324323	-50.74553	
20:33:11	0	0	0	0.6683484	-0.4711322	0	3	100	0	50	-1.67631	-0.05993905	-50.45367	
20:33:11	0	0	0	0.6965029	-0.6921644	0	3	100	0	50	-0.4503683	-0.1158281	-50.30301	
20:33:12	0	0	0	0.7188707	-1.148228	0	3	100	0	50	1.082814	-0.1506339	-50.1274	
20:33:12	0	0	0	0.7378702	-0.1612929	0	3	100	0	50	0.7913483	-0.1330576	-50.00105	
20:33:12	0	0	0	0.7549046	-0.4086063	0	3	100	0	50	2.861767	-0.1979239	-49.85325	
20:33:12	0	0	0	0.7450173	-1.196823	0	3	100	0	50	3.614982	-0.2137951	-49.82575	
20:33:13	0	0	0	0.734974	-1.574667	0	3	100	0	50	3.650904	-0.2182591	-49.84864	
20:33:13	0	0	0	0.692075	-3.670582	0	3	100	0	50	3.688913	-0.2275382	-49.83295	
20:33:13	0	0	0	0.6531395	-5.939179	0	3	100	0	50	3.714298	-0.2357487	-49.84171	
20:33:13	0	0	0	0.6485218	-5.669278	0	3	100	0	50	3.791321	-0.2458759	-49.84643	
20:33:13	0	0	0	0.6453785	-5.164973	0	3	100	0	50	3.882201	-0.2677751	-49.94047	
20:33:14	0	0	0	0.6386089	-5.125658	0	3	100	0	50	3.930278	-0.2822537	-49.97288	
20:33:14	0	0	0	0.6340264	-4.338526	0	3	100	0	50	3.952709	-0.2836783	-49.95252	
20:33:14	0	0	0	0.5971567	-5.607737	0	3	100	0	50	3.970173	-0.2952609	-49.94056	
20:33:14	0	0	0	0.5654282	-6.711123	0	3	100	0	50	3.988705	-0.3055406	-49.98942	
20:33:14	0	0	0	0.5452279	-7.450362	0	3	100	0	50	4.000885	-0.3047318	-50.03165	
20:33:15	0	0	0	0.5250549	-8.246393	0	3	100	0	50	4.010355	-0.3115197	-50.01436	
20:33:15	0	0	0	0.4825202	-10.05515	0	3	100	0	50	4.011814	-0.288963	-50.00587	
20:33:15	0	0	0	0.4092028	-13.2505	0	3	100	0	50	4.029378	-0.283483	-49.99144	
20:33:15	0	0	0	0.3406889	-15.93006	0	3	100	0	50	4.04997	-0.2514804	-50.06447	
20:33:15	0	0	0	0.2890712	-17.08811	0	3	100	0	50	4.052289	-0.2518166	-50.07201	
20:33:16	0	0	0	0.270406	-16.3108	0	3	100	0	50	4.054744	-0.2629079	-50.07718	
20:33:16	0	0	0	0.2721968	-15.02679	0	3	100	0	50	4.059986	-0.2500595	-50.08162	
20:33:16	0	0	0	0.2929809	-12.75716	0	3	100	0	50	4.069701	-0.2604142	-50.16044	
20:33:16	0	0	0	0.3245486	-10.13961	0	3	100	0	50	4.08415	-0.2506527	-50.17419	
20:33:16	0	0	0	0.3428963	-8.274053	0	3	100	0	50	4.097071	-0.255305	-50.16419	
20:33:17	0	0	0	0.3489412	-6.992148	0	3	100	0	50	4.105117	-0.2714364	-50.15046	
20:33:17	0	0	0	0.356704	-6.072474	0	3	100	0	50	4.11039	-0.2606122	-50.14513	
20:33:17	0	0	0	0.3684345	-4.919247	0	3	100	0	50	4.120229	-0.2748622	-50.17268	
20:33:17	0	0	0	0.388619	-3.567053	0	3	100	0	50	4.127934	-0.2873886	-50.17143	
20:33:17	0	0	0	0.4154807	-2.26454	0	3	100	0	50	4.132234	-0.2893545	-50.16535	
20:33:18	0	0	0	0.3696673	-4.738239	0	3	100	0	50	4.131153	-0.2805184	-50.15467	
20:33:18	0	0	0	0.2835228	-8.845689	0	3	100	0	50	4.128307	-0.284931	-50.18426	
20:33:18	0	0	0	0.2288587	-10.84565	0	3	100	0	50	4.128296	-0.2636857	-50.19986	
20:33:18	0	0	0	0.1979764	-11.28562	0	3	100	0	50	4.13323	-0.2587973	-50.19203	
20:33:18	0	0	0	0.1709172	-11.77899	0	3	100	0	50	4.127941	-0.2555662	-50.18703	
20:33:19	0	0	0	0.151377	-11.42286	0	3	100	0	50	4.114988	-0.2706101	-50.19496	
20:33:19	0	0	0	0.1305465	-11.72887	0	3	100	0	50	4.113015	-0.28006	-50.2141	
20:33:19	0	0	0	0.1061843	-11.63854	0	3	100	0	50	4.101345	-0.2961781	-50.2054	
20:33:19	0	0	0	0.08020535	-11.62897	0	3	100	0	50	4.099106	-0.2956484	-50.19415	
20:33:19	0	0	0	0.05565175	-12.18721	0	3	100	0	50	4.117631	-0.3080283	-50.17546	
20:33:20	0	0	0	0.03532351	-11.96235	0	3	100	0	50	4.106406	-0.3275556	-50.21981	
20:33:20	0	0	0	0.01853464	-11.82562	0	3	100	0	50	4.110219	-0.3223275	-50.23482	
20:33:20	0	0	0	0.005326711	-11.35862	0	3	100	0	50	4.117167	-0.3418696	-50.2153	
20:33:20	0	0	0	0.02654764	-9.171876	0	3	100	0	50	4.120132	-0.3461817	-50.19965	
20:33:20	0	0	0	0.04926952	-7.611921	0	3	100	0	50	4.112767	-0.3382632	-50.17623	
20:33:21	0	0	0	0.1326885	-2.605407	0	3	100	0	50	4.113105	-0.3346579	-50.21485	
20:33:21	0	0	0	0.2097145	2.111004	0	3	100	0	50	4.10965	-0.3220673	-50.20005	
20:33:21	0	0	0	0.2808938	5.380081	0	3	100	0	50	4.115394	-0.3155791	-50.17941	
20:33:21	0	0	0	0.3502321	8.370083	0	3	100	0	50	4.097411	-0.3096889	-50.15939	
20:33:21	0	0	0	0.3984476	10.28755	0	3	100	0	50	4.114188	-0.2939555	-50.20178	
20:33:22	0	0	0	0.4407355	11.41565	0	3	100	0	50	4.116437	-0.3024579	-50.21382	
20:33:22	0	0	0	0.4302394	9.687003	0	3	100	0	50	4.129058	-0.305287	-50.19356	
20:33:22	0	0	0	0.4188457	8.103053	0	3	100	0	50	4.138227	-0.3155215	-50.17979	
20:33:22	0	0	0	0.4159279	7.165382	0	3	100	0	50	4.138159	-0.3303223	-50.19249	
20:33:22	0	0	0	0.4114752	6.371071	0	3	100	0	50	4.137178	-0.3255603	-50.20511	
20:33:23	0	0	0	0.3146747	0.631278	0	3	100	0	50	4.125525	-0.3264934	-50.19837	
20:33:23	0	0	0	0.2252499	-4.129799	0	3	100	0	50	4.11533	-0.3126948	-50.18758	
20:33:23	0	0	0	0.1626558	-7.366089	0	3	100	0	50	4.117938	-0.3334707	-50.18467	
20:33:23	0	0	0	0.1022438	-9.665962	0	3	100	0	50	4.109811	-0.3290698	-50.22194	
20:33:23	0	0	0	0.04833437	-11.24208	0	3	100	0	50	4.11355	-0.3335074	-50.24905	
20:33:24	0	0	0	0.001517597	-12.91451	0	3	100	0	50	4.121814	-0.344633	-50.23329	
20:33:24	0	0	0	0.0008062988	-11.94301	0	3	100	0	50	4.128053	-0.3541353	-50.21718	
20:33:24	0	0	0	0.00238015	-10.49911	0	3	100	0	50	4.146639	-0.3369664	-50.25938	
20:33:24	0	0	0	-0.01254491	-10.52709	0	3	100	0	50	4.151304	-0.3222912	-50.27092	
20:33:24	0	0	0	-0.02582322	-10.20159	0	3	100	0	50	4.148256	-0.3232291	-50.25239	
20:33:25	0	0	0	-0.01984312	-8.503906	0	3	100	0	50	4.15588	-0.3226673	-50.24349	
20:33:25	0	0	0	0.009966461	-6.430669	0	3	100	0	50	4.15688	-0.3273626	-50.24598	
20:33:25	0	0	0	0.04676586	-4.007704	0	3	100	0	50	4.156476	-0.319564	-50.3123	
20:33:25	0	0	0	0.09762421	-0.956662	0	3	100	0	50	4.144323	-0.3131945	-50.30286	
20:33:25	0	0	0	0.1393043	1.448556	0	3	100	0	50	4.133775	-0.3234859	-50.2886	
20:33:26	0	0	0	0.1774922	3.402946	0	3	100	0	50	4.131575	-0.3104039	-50.2658	
20:33:26	0	0	0	0.2051472	4.3338	0	3	100	0	50	4.123724	-0.3061359	-50.32133	
20:33:26	0	0	0	0.2236834	5.038501	0	3	100	0	50	4.116773	-0.3117096	-50.32032	
20:33:26	0	0	0	0.251864	6.085573	0	3	100	0	50	4.13195	-0.3034629	-50.30159	
20:33:26	0	0	0	0.2961294	7.585194	0	3	100	0	50	4.126761	-0.3301646	-50.2923	
20:33:27	0	0	0	0.325488	8.264434	0	3	100	0	50	4.117788	-0.3417968	-50.28624	
20:33:27	0	0	0	0.3386415	8.398823	0	3	100	0	50	4.113633	-0.3550892	-50.30924	
20:33:27	0	0	0	0.356368	8.489583	0	3	100	0	50	4.108099	-0.3714425	-50.2877	
20:33:27	0	0	0	0.3796642	8.899231	0	3	100	0	50	4.093961	-0.3784724	-50.27147	
20:33:27	0	0	0	0.4083925	9.009284	0	3	100	0	50	4.086197	-0.3731999	-50.26271	
20:33:28	0	0	0	0.439236	10.3886	0	3	100	0	50	4.08173	-0.3624935	-50.32479	
20:33:28	0	0	0	0.4654791	10.84676	0	3	100	0	50	4.070369	-0.3698855	-50.32867	
20:33:28	0	0	0	0.4848677	10.85651	0	3	100	0	50	4.070596	-0.3591487	-50.29981	
20:33:28	0	0	0	0.5142806	11.74929	0	3	100	0	50	4.05627	-0.3546701	-50.2758	
20:33:28	0	0	0	0.554564	13.09088	0	3	100	0	50	4.055402	-0.3381263	-50.26523	
20:33:29	0	0	0	0.5976404	14.28298	0	3	100	0	50	4.05823	-0.3395677	-50.25545	
20:33:29	0	0	0	0.631597	14.46534	0	3	100	0	50	4.058945	-0.343877	-50.24854	
20:33:29	0	0	0	0.6802025	15.62813	0	3	100	0	50	4.06284	-0.3218822	-50.22	
20:33:29	0	0	0	0.7320226	16.96093	0	3	100	0	50	4.061777	-0.3321001	-50.19846	
20:33:29	0	0	0	0.7767255	17.78713	0	3	100	0	50	4.072835	-0.3275149	-50.25842	
20:33:30	0	0	0	0.7571768	14.983	0	3	100	0	50	4.070314	-0.3027807	-50.2632	
20:33:30	0	0	0	0.7362164	12.41193	0	3	100	0	50	4.056139	-0.3014235	-50.2427	
20:33:30	0	0	0	0.7251167	11.49407	0	3	100	0	50	4.062548	-0.290183	-50.22351	
20:33:30	0	0	0	0.7149943	10.17856	0	3	100	0	50	4.062562	-0.2980112	-50.212	
20:33:30	0	0	0	0.7154192	9.116658	0	3	100	0	50	4.067975	-0.3018035	-50.2281	
20:33:31	0	0	0	0.7127507	7.539822	0	3	100	0	50	4.070549	-0.2949745	-50.21013	
20:33:31	0	0	0	0.6687244	4.321319	0	3	100	0	50	4.064535	-0.3036315	-50.20771	
20:33:31	0	0	0	0.6273786	1.899707	0	3	100	0	50	4.070196	-0.2851519	-50.18258	
20:33:31	0	0	0	0.571578	-2.07809	0	3	100	0	50	4.058217	-0.2867706	-50.25242	
20:33:31	0	0	0	0.5198388	-4.886765	0	3	100	0	50	4.066613	-0.2781765	-50.24826	
20:33:32	0	0	0	0.4179265	-9.570807	0	3	100	0	50	4.061425	-0.2800102	-50.23174	
20:33:32	0	0	0	0.3271521	-13.33261	0	3	100	0	50	4.05884	-0.2828882	-50.21918	
20:33:32	0	0	0	0.2759258	-15.21564	0	3	100	0	50	4.064499	-0.3004464	-50.24311	
20:33:32	0	0	0	0.2263644	-16.72432	0	3	100	0	50	4.060714	-0.3004285	-50.2515	
20:33:32	0	0	0	0.2142804	-15.61414	0	3	100	0	50	4.048451	-0.2816169	-50.23839	
20:33:33	0	0	0	0.2068618	-14.16138	0	3	100	0	50	4.045641	-0.2845682	-50.22849	
20:33:33	0	0	0	0.2163539	-12.81949	0	3	100	0	50	4.047395	-0.2812755	-50.19763	
20:33:33	0	0	0	0.2282274	-10.75266	0	3	100	0	50	4.049706	-0.2787605	-50.22934	
20:33:33	0	0	0	0.2459942	-8.678235	0	3	100	0	50	4.058702	-0.2815388	-50.23935	
20:33:33	0	0	0	0.2634617	-7.248827	0	3	100	0	50	4.056429	-0.2744784	-50.22029	
20:33:34	0	0	0	0.3273906	-3.722207	0	3	100	0	50	4.074307	-0.2946876	-50.2158	
20:33:34	0	0	0	0.3858944	-0.3182933	0	3	100	0	50	4.083951	-0.2993564	-50.2509	
20:33:34	0	0	0	0.429671	1.819529	0	3	100	0	50	4.090177	-0.3102187	-50.2784	
20:33:34	0	0	0	0.4726923	3.32123	0	3	100	0	50	4.081078	-0.3231424	-50.27269	
20:33:34	0	0	0	0.4818462	3.052061	0	3	100	0	50	4.073928	-0.3292923	-50.25332	
20:33:35	0	0	0	0.44824	0.7989888	0	3	100	0	50	4.072188	-0.3051631	-50.24068	
20:33:35	0	0	0	0.4185691	-1.044549	0	3	100	0	50	4.06138	-0.2819238	-50.31821	
20:33:35	0	0	0	0.399123	-2.13724	0	3	100	0	50	4.059389	-0.2866264	-50.32084	
20:33:35	0	0	0	0.3777183	-3.401417	0	3	100	0	50	4.06498	-0.2896537	-50.30181	
20:33:35	0	0	0	0.3557059	-4.358642	0	3	100	0	50	4.076218	-0.2856011	-50.28715	
20:33:36	0	0	0	0.3164207	-5.980207	0	3	100	0	50	4.077209	-0.2694124	-50.35105	
20:33:36	0	0	0	0.2740271	-7.615337	0	3	100	0	50	4.079529	-0.2816617	-50.34842	
20:33:36	0	0	0	0.2295617	-9.162073	0	3	100	0	50	4.076304	-0.2918913	-50.33939	
20:33:36	0	0	0	0.1878524	-10.59511	0	3	100	0	50	4.063126	-0.2964236	-50.33433	
20:33:36	0	0	0	0.1260741	-13.03869	0	3	100	0	50	4.06578	-0.2824416	-50.34526	
20:33:37	0	0	0	0.03532283	-16.63507	0	3	100	0	50	4.0735	-0.2674966	-50.39603	
20:33:37	0	0	0	-0.03695722	-18.86474	0	3	100	0	50	4.075629	-0.2911818	-50.37382	
20:33:37	0	0	0	-0.0816722	-18.9454	0	3	100	0	50	4.06944	-0.2989884	-50.34872	
20:33:37	0	0	0	-0.1065671	-17.88831	0	3	100	0	50	4.073051	-0.304202	-50.32367	
20:33:37	0	0	0	-0.1145507	-16.29985	0	3	100	0	50	4.086038	-0.3253388	-50.385	
20:33:38	0	0	0	-0.08863313	-13.26385	0	3	100	0	50	4.10451	-0.3175934	-50.40993	
20:33:38	0	0	0	-0.04839224	-10.65634	0	3	100	0	50	4.09858	-0.3174233	-50.38582	
20:33:38	0	0	0	-0.003528035	-7.067776	0	3	100	0	50	4.104093	-0.3399582	-50.36266	
20:33:38	0	0	0	0.04262161	-3.969204	0	3	100	0	50	4.101648	-0.336056	-50.33582	
20:33:38	0	0	0	0.05965001	-2.053716	0	3	100	0	50	4.100111	-0.3303522	-50.38404	
20:33:39	0	0	0	0.04362807	-2.773195	0	3	100	0	50	4.100543	-0.3394406	-50.37058	
20:33:39	0	0	0	0.03599794	-2.79965	0	3	100	0	50	4.095468	-0.3654823	-50.3556	
20:33:39	0	0	0	0.03989042	-2.854278	0	3	100	0	50	4.097417	-0.3611605	-50.32917	
20:33:39	0	0	0	0.04349023	-2.28739	0	3	100	0	50	4.101359	-0.3772438	-50.34408	
20:33:39	0	0	0	0.04517291	-1.726862	0	3	100	0	50	4.114747	-0.3551326	-50.33631	
20:33:40	0	0	0	0.04675876	-1.769552	0	3	100	0	50	4.120444	-0.3455793	-50.30729	
20:33:40	0	0	0	0.03888715	-2.230008	0	3	100	0	50	4.127023	-0.3419341	-50.28862	
20:33:40	0	0	0	0.03251543	-2.559706	0	3	100	0	50	4.12141	-0.3236935	-50.31953	
20:33:40	0	0	0	0.03064909	-2.804493	0	3	100	0	50	4.132545	-0.3300655	-50.36352	
20:33:40	0	0	0	0.0299085	-1.871178	0	3	100	0	50	4.154886	-0.3161768	-50.34814	
20:33:41	0	0	0	0.0486556	0.04631756	0	3	100	0	50	4.162695	-0.2868461	-50.33155	
20:33:41	0	0	0	0.06811031	0.8810409	0	3	100	0	50	4.150434	-0.2904225	-50.32437	
20:33:41	0	0	0	0.1021126	2.420662	0	3	100	0	50	4.15491	-0.2988667	-50.38041	
20:33:41	0	0	0	0.1331722	4.563477	0	3	100	0	50	4.147242	-0.3099161	-50.38132	
20:33:41	0	0	0	0.1506048	4.726992	0	3	100	0	50	4.147671	-0.3224667	-50.36031	
20:33:42	0	0	0	0.1649491	5.053677	0	3	100	0	50	4.156492	-0.3004778	-50.34137	
20:33:42	0	0	0	0.1895813	5.800999	0	3	100	0	50	4.149958	-0.3048088	-50.35991	
20:33:42	0	0	0	0.2128178	6.16167	0	3	100	0	50	4.152272	-0.2949167	-50.37143	
20:33:42	0	0	0	0.1927808	4.249856	0	3	100	0	50	4.164041	-0.2911273	-50.36362	
20:33:42	0	0	0	0.1728199	2.637625	0	3	100	0	50	4.16189	-0.3107079	-50.35557	
20:33:43	0	0	0	0.1555498	1.595953	0	3	100	0	50	4.154737	-0.3125902	-50.3471	
20:33:43	0	0	0	0.1383406	1.046324	0	3	100	0	50	4.150351	-0.3157815	-50.37759	
20:33:43	0	0	0	0.108751	-0.2242328	0	3	100	0	50	4.143374	-0.3323205	-50.38153	
20:33:43	0	0	0	0.08174063	-1.784471	0	3	100	0	50	4.148969	-0.3298494	-50.36457	
20:33:43	0	0	0	0.01879064	-5.251212	0	3	100	0	50	4.146576	-0.3378947	-50.34912	
20:33:44	0	0	0	-0.03751794	-7.228602	0	3	100	0	50	4.152246	-0.3193392	-50.36222	
20:33:44	0	0	0	-0.05297922	-7.036774	0	3	100	0	50	4.152617	-0.3120297	-50.37911	
20:33:44	0	0	0	-0.06699746	-6.844722	0	3	100	0	50	4.157749	-0.3110541	-50.35822	
20:33:44	0	0	0	-0.01801744	-3.484168	0	3	100	0	50	4.153755	-0.3290972	-50.36061	
20:33:44	0	0	0	0.08675735	2.425354	0	3	100	0	50	4.158808	-0.3178771	-50.34746	
20:33:45	0	0	0	0.2008429	7.55327	0	3	100	0	50	4.160732	-0.3326088	-50.40653	
20:33:45	0	0	0	0.302062	12.8074	0	3	100	0	50	4.15774	-0.3548235	-50.40782	
20:33:45	0	0	0	0.3849232	15.97956	0	3	100	0	50	4.151043	-0.3700885	-50.37933	
20:33:45	0	0	0	0.4519541	18.0985	0	3	100	0	50	4.157803	-0.3610562	-50.35798	
20:33:45	0	0	0	0.5046997	19.46474	0	3	100	0	50	4.165058	-0.3674547	-50.39089	
20:33:46	0	0	0	0.5414236	19.37951	0	3	100	0	50	4.160551	-0.3667031	-50.40321	
20:33:46	0	0	0	0.5508236	18.27543	0	3	100	0	50	4.16765	-0.3654675	-50.3927	
20:33:46	0	0	0	0.5204314	15.18215	0	3	100	0	50	4.158396	-0.3820372	-50.35934	
20:33:46	0	0	0	0.4591568	10.65508	0	3	100	0	50	4.18538	-0.3697418	-50.33718	
20:33:46	0	0	0	0.3541799	3.885775	0	3	100	0	50	3.512752	-0.3413328	-50.27532	
20:33:47	0	0	0	0.2562993	-2.568584	0	3	100	0	50	4.246608	-0.3488701	-50.17635	
20:33:47	0	0	0	0.1836283	-6.078722	0	3	100	0	50	4.229381	-0.3068899	-50.16636	
20:33:47	0	0	0	0.1230228	-8.624065	0	3	100	0	50	4.284762	-0.3343046	-50.14761	
20:33:47	0	0	0	0.07291014	-10.28344	0	3	100	0	50	4.288439	-0.3439867	-50.20952	
20:33:47	0	0	0	0.0492161	-10.56913	0	3	100	0	50	4.407054	-0.4791175	-50.12626	
20:33:48	0	0	0	0.0425225	-10.80228	0	3	100	0	50	3.597531	-0.5582718	-49.94324	
20:33:48	0	0	0	0.02479943	-10.05536	0	3	100	0	50	4.927091	-0.4344834	-49.70495	
20:33:48	0	0	0	0.002697599	-8.916265	0	3	100	0	50	-1.85775	0.621393	-50.50632	
20:33:48	0	0	0	-0.02672775	3.927959	0	3	100	0	50	-8.644283	1.104768	-51.6419	
20:33:48	0	0	0	-0.05793484	9.802416	0	3	100	0	50	-14.10717	0.8943794	-51.56597	
20:33:49	0	0	0	-0.03708733	11.85565	0	3	100	0	50	-2.156246	0.5740151	-51.63384	
20:33:49	0	0	0	0.005923813	15.93629	0	3	100	0	50	4.23052	0.5088215	-53.53575	
20:33:49	0	0	0	0.05269631	24.74795	0	3	100	0	50	9.375724	-0.7354929	-54.82939	
20:33:49	0	0	0	0.188984	38.21424	0	3	100	0	50	4.873278	-3.252063	-55.2562	
20:33:49	0	0	0	0.2839122	18.33562	0	3	100	0	50	3.618451	-2.443026	-56.05013	
20:33:50	0	0	0	0.3744868	7.531375	0	3	100	0	50	3.131294	-0.7219782	-56.4157	
20:33:50	0	0	0	0.4435197	11.26394	0	3	100	0	50	2.648303	0.4378467	-57.75591	
20:33:50	0	0	0	0.4899373	15.12241	0	3	100	0	50	1.727077	0.2748925	-61.92801	
20:33:50	0	0	0	0.5275362	13.34876	0	3	100	0	50	4.41836	0.2636508	-65.71767	
20:33:50	0	0	0	0.5293666	11.1113	0	3	100	0	50	9.446015	-2.993214	-68.67517	
20:33:51	0	0	0	0.5272399	5.824539	0	3	100	0	50	11.80073	-3.227525	-74.61295	
20:33:51	0	0	0	0.5465146	-0.1953864	0	3	100	0	50	9.337333	-3.15132	-78.43002	
20:33:51	0	0	0	0.5552447	-3.194496	0	3	100	0	50	10.71954	-4.380882	-80.62181	
20:33:51	0	0	0	0.5983824	-2.348111	0	3	100	0	50	9.955804	-3.61814	-82.28065	
20:33:51	0	0	0	0.6278404	-1.835809	0	3	100	0	50	8.652023	-3.274374	-86.12504	
20:33:52	0	0	0	0.6900725	5.622984	0	3	100	0	50	9.614848	-4.108649	-92.53039	
20:33:52	0	0	0	0.7531574	13.09483	0	3	100	0	50	8.558825	-5.275856	-98.17783	
20:33:52	0	0	0	0.810411	12.25152	0	3	100	0	50	7.642563	-3.40443	-101.9873	
20:33:52	0	0	0	0.8550648	11.42633	0	3	100	0	50	7.43639	-2.128943	-105.2948	
20:33:52	0	0	0	0.8697667	11.26827	0	3	100	0	50	9.61916	-3.913673	-108.1839	
20:33:53	0	0	0	0.8782582	4.539898	0	3	100	0	50	12.28344	-6.6885	-107.6883	
20:33:53	0	0	0	0.893914	8.357607	0	3	100	0	50	11.8579	-6.718265	-101.9016	
20:33:53	0	0	0	0.9145827	6.201051	0	3	100	0	50	12.00009	-8.043851	-97.05818	
20:33:53	0	0	0	0.9312397	13.76447	0	3	100	0	50	9.716252	-9.336351	-96.27957	
20:33:53	0	0	0	0.9569404	18.87259	0	3	100	0	50	4.277556	-8.469878	-92.31834	
20:33:54	0	0	0	1.015325	12.33916	0	3	100	0	50	1.060751	-5.463638	-89.70573	
20:33:54	0	0	0	1.066158	16.64731	0	3	100	0	50	0.2238899	-6.366591	-87.69355	
20:33:54	0	0	0	1.070029	13.31045	0	3	100	0	50	3.235892	-6.846157	-81.66618	
20:33:54	0	0	0	1.002155	0.5854052	0	3	100	0	50	4.59203	-2.448971	-75.54823	
20:33:54	0	0	0	0.9410384	9.951532	0	3	100	0	50	2.593203	-4.298387	-70.60058	
20:33:55	0	0	0	0.9016576	-2.480807	0	3	100	0	50	0.06353217	-3.188986	-67.70917	
20:33:55	0	0	0	0.8671066	-5.15106	0	3	100	0	50	5.492026	-2.963816	-66.17989	
20:33:55	0	0	0	0.856089	-2.423529	0	3	100	0	50	-0.9206855	-2.838371	-66.24143	
20:33:55	0	0	0	0.8727479	-3.554879	0	3	100	0	50	2.875446	-4.466112	-63.48821	
20:33:55	0	0	0	0.9069621	-4.480026	0	3	100	0	50	0.8582141	-3.110706	-60.12102	
20:33:56	0	0	0	0.9451521	1.17546	0	3	100	0	50	-0.05363891	-3.270797	-57.82679	
20:33:56	0	0	0	0.9995245	0.1155988	0	3	100	0	50	1.554517	-3.362058	-57.77374	
20:33:56	0	0	0	1.052086	-1.410879	0	3	100	0	50	4.215291	-1.898985	-60.41705	
20:33:56	0	0	0	1.107957	0.7340831	0	3	100	0	50	2.28226	0.6496111	-61.26639	
20:33:56	0	0	0	1.173428	5.182959	0	3	100	0	50	3.705344	-0.5994484	-61.33002	
20:33:57	0	0	0	1.229835	5.897116	0	3	100	0	50	7.373099	-1.450761	-63.06902	
20:33:57	0	0	0	1.25104	8.531515	0	3	100	0	50	1.580816	-1.507526	-64.32693	
20:33:57	0	0	0	1.238665	8.717033	0	3	100	0	50	3.474671	-2.403879	-64.05027	
20:33:57	0	0	0	1.217567	2.61741	0	3	100	0	50	5.31954	-3.415819	-63.75871	
20:33:58	0	0	0	1.198777	3.499666	0	3	100	0	50	4.054521	-3.85386	-63.89401	
20:33:58	0	0	0	1.191966	5.483046	0	3	100	0	50	2.889747	-4.267682	-63.43691	
20:33:58	0	0	0	1.198164	6.448664	0	3	100	0	50	1.177508	-4.3421	-61.11533	
20:33:58	0	0	0	1.207432	2.76186	0	3	100	0	50	0.9387657	-4.609737	-59.03259	
20:33:58	0	0	0	1.212558	1.650466	0	3	100	0	50	1.784552	-4.942603	-58.45011	
20:33:59	0	0	0	1.221295	2.339833	0	3	100	0	50	2.037194	-5.137015	-58.86698	
20:33:59	0	0	0	1.228558	3.917627	0	3	100	0	50	3.629514	-4.926134	-59.85969	
20:33:59	0	0	0	1.167237	0.658855	0	3	100	0	50	3.464831	-4.890748	-60.42347	
20:33:59	0	0	0	1.105313	-6.200538	0	3	100	0	50	4.618057	-5.67917	-60.34612	
20:33:59	0	0	0	1.058548	-10.13315	0	3	100	0	50	5.236418	-5.326205	-61.40985	
20:34:00	0	0	0	1.008535	-13.06912	0	3	100	0	50	4.194109	-4.795282	-63.04393	
20:34:00	0	0	0	0.9516303	-14.23703	0	3	100	0	50	-1.570011	-3.115948	-64.59904	
20:34:00	0	0	0	0.9011247	-16.10638	0	3	100	0	50	0.1923394	-3.172875	-65.24834	
20:34:00	0	0	0	0.8528449	-20.4498	0	3	100	0	50	-1.61726	-4.723154	-65.32568	
20:34:00	0	0	0	0.8069916	-19.88013	0	3	100	0	50	0.1720985	-4.694061	-65.60726	
20:34:01	0	0	0	0.7743118	-22.29484	0	3	100	0	50	8.164007	-3.23361	-66.35001	
20:34:01	0	0	0	0.7464711	-24.34385	0	3	100	0	50	12.73515	-1.103088	-68.36422	
20:34:01	0	0	0	0.7155508	-18.70063	0	3	100	0	50	9.625016	-2.472627	-67.87038	
20:34:01	0	0	0	0.7067333	-12.13376	0	3	100	0	50	8.02443	-1.974502	-67.94763	
20:34:01	0	0	0	0.7104066	-11.90717	0	3	100	0	50	8.845509	-1.496966	-67.99563	
20:34:02	0	0	0	0.717594	-7.485028	0	3	100	0	50	8.230132	-1.378304	-68.11899	
20:34:02	0	0	0	0.7092711	-1.076614	0	3	100	0	50	6.563442	-1.68401	-67.24845	
20:34:02	0	0	0	0.7015486	-4.80663	0	3	100	0	50	2.41868	-0.8223973	-66.99409	
20:34:02	0	0	0	0.7130072	-5.783516	0	3	100	0	50	4.418691	-0.6211182	-66.57092	
20:34:02	0	0	0	0.7153784	-10.79976	0	3	100	0	50	5.897648	-1.089888	-67.93835	
20:34:03	0	0	0	0.665584	-5.188277	0	3	100	0	50	6.293012	-2.814843	-67.22446	
20:34:03	0	0	0	0.6349511	-1.01238	0	3	100	0	50	3.227746	-3.35808	-65.83443	
20:34:03	0	0	0	0.6456553	6.431288	0	3	100	0	50	2.986646	-4.172936	-62.38196	
20:34:03	0	0	0	0.6634644	10.88935	0	3	100	0	50	0.8802589	-6.248287	-60.69041	
20:34:03	0	0	0	0.6746539	3.131387	0	3	100	0	50	1.590693	-7.211349	-60.42892	
20:34:04	0	0	0	0.6688485	-2.966733	0	3	100	0	50	1.954467	-7.258396	-60.7999	
20:34:04	0	0	0	0.6867661	-11.45666	0	3	100	0	50	4.783808	-6.902249	-61.27926	
20:34:04	0	0	0	0.7266474	-8.853173	0	3	100	0	50	5.505362	-5.703439	-57.86633	
20:34:04	0	0	0	0.7947404	-1.315163	0	3	100	0	50	6.851936	-4.796619	-56.82467	
20:34:05	0	0	0	0.8864728	4.112647	0	3	100	0	50	6.500122	-8.412325	-62.44459	
20:34:05	0	0	0	0.9415336	7.9877	0	3	100	0	50	5.924853	-10.06592	-65.5752	
20:34:05	0	0	0	0.9592516	2.128345	0	3	100	0	50	9.460695	-10.20884	-72.56783	
20:34:05	0	0	0	0.9520925	4.868264	0	3	100	0	50	9.101147	-10.76894	-84.23751	
20:34:05	0	0	0	0.9353623	5.27112	0	3	100	0	50	9.100273	-11.87952	-92.42101	
20:34:06	0	0	0	0.9343818	4.432367	0	3	100	0	50	4.511496	-11.21258	-96.4723	
20:34:06	0	0	0	0.9525585	9.598516	0	3	100	0	50	5.64776	-11.05052	-100.4805	
20:34:06	0	0	0	0.9888016	7.373702	0	3	100	0	50	6.404578	-12.2313	-98.54177	
20:34:06	0	0	0	1.0329	5.136246	0	3	100	0	50	8.48597	-12.4087	-88.58144	
20:34:06	0	0	0	1.092264	14.77649	0	3	100	0	50	6.904857	-11.80022	-80.70822	
20:34:07	0	0	0	1.158025	4.558206	0	3	100	0	50	4.70296	-8.702641	-76.94167	
20:34:07	0	0	0	1.193023	16.72489	0	3	100	0	50	6.592125	-9.174294	-70.56836	
20:34:07	0	0	0	1.227658	12.5575	0	3	100	0	50	7.64183	-8.390605	-59.78762	
20:34:07	0	0	0	1.246875	13.04511	0	3	100	0	50	6.154363	-6.765401	-51.45037	
20:34:07	0	0	0	1.278161	18.11937	0	3	100	0	50	6.696694	-5.852819	-44.14923	
20:34:07	0	0	0	1.286797	14.30816	0	3	100	0	50	9.018317	-4.413797	-40.81695	
20:34:08	0	0	0	1.288292	19.01787	0	3	100	0	50	6.596012	-4.974157	-34.66103	
20:34:08	0	0	0	1.28071	11.44358	0	3	100	0	50	7.512903	-4.776998	-27.3241	
20:34:08	0	0	0	1.263816	14.25458	0	3	100	0	50	8.043759	-4.83934	-19.98549	
20:34:08	0	0	0	1.25909	7.32395	0	3	100	0	50	8.196314	-5.334404	-13.57581	
20:34:08	0	0	0	1.253545	9.265244	0	3	100	0	50	5.69831	-5.97802	-6.696381	
20:34:09	0	0	0	1.256627	13.72476	0	3	100	0	50	1.516285	-5.821975	1.010226	
20:34:09	0	0	0	1.206191	5.092733	0	3	100	0	50	2.101755	-6.28606	9.82398	
20:34:09	0	0	0	1.151763	-0.8842477	0	3	100	0	50	2.519598	-6.421713	18.57273	
20:34:09	0	0	0	1.129348	1.579417	0	3	99	0	50	1.354494	-7.553579	26.499	
20:34:10	0	0	0	1.120521	-7.444071	0	3	99	0	50	4.136568	-7.718757	27.59162	
20:34:10	0	0	0	1.123512	-3.192048	0	3	99	0	50	3.89699	-6.799406	29.21855	
20:34:10	0	0	0	1.166083	1.132481	0	3	99	0	50	4.310752	-4.814011	31.80147	
20:34:10	0	0	0	1.215811	5.709816	0	3	99	0	50	5.317053	-4.706953	33.61057	
20:34:11	0	0	0	1.22124	5.455515	0	3	99	0	50	2.890515	-4.375177	33.84869	
20:34:11	0	0	0	1.220633	1.159794	0	3	99	0	50	2.957028	-4.865777	33.31934	
20:34:11	0	0	0	1.178823	-2.608605	0	3	99	0	50	3.216988	-4.945602	32.68967	
20:34:11	0	0	0	1.137039	-6.874358	0	3	99	0	50	2.173278	-6.387743	33.80464	
20:34:11	0	0	0	1.118558	-9.160259	0	3	99	0	50	3.440058	-6.038138	34.81911	
20:34:12	0	0	0	1.100592	-6.155951	0	3	99	0	50	2.968685	-4.64253	36.61248	
20:34:12	0	0	0	1.092406	-2.629238	0	3	99	0	50	3.315737	-4.436037	36.43961	
20:34:12	0	0	0	1.087284	-5.948075	0	3	99	0	50	2.432619	-5.130893	34.8176	
20:34:12	0	0	0	1.070583	-9.082123	0	3	99	0	50	2.063494	-5.231946	33.73397	
20:34:12	0	0	0	1.053381	-12.23702	0	3	99	0	50	1.433329	-7.755714	34.59573	
20:34:13	0	0	0	1.052025	-12.70889	0	3	99	0	50	1.653551	-9.030321	36.70176	
20:34:13	0	0	0	1.053964	-9.084661	0	3	99	0	50	1.494821	-7.906049	37.9362	
20:34:13	0	0	0	1.10578	2.365698	0	3	99	0	50	4.731627	-7.118817	35.37123	
20:34:13	0	0	0	1.169397	2.51758	0	3	99	0	50	2.704795	-7.672275	26.71902	
20:34:13	0	0	0	1.188612	-1.254553	0	3	99	0	50	1.200437	-8.912923	13.50513	
20:34:14	0	0	0	1.207544	1.666931	0	3	99	0	50	0.5963165	-10.85767	-2.3802	
20:34:14	0	0	0	1.201772	-1.980926	0	3	99	0	50	0.8476645	-12.86766	-19.38008	
20:34:14	0	0	0	1.160789	-6.648684	0	3	99	0	50	2.7785	-14.19174	-36.99702	
20:34:14	0	0	0	1.112735	-9.758815	0	3	99	0	50	7.64194	-13.53943	-52.16596	
20:34:14	0	0	0	1.047241	-14.71012	0	3	99	0	50	4.556963	-10.2395	-64.88999	
20:34:15	0	0	0	0.9988923	-9.618651	0	3	99	0	50	2.534458	-6.902741	-69.76253	
20:34:15	0	0	0	0.964736	-6.979648	0	3	99	0	50	3.97148	-4.523844	-71.63332	
20:34:15	0	0	0	0.9301723	-15.58644	0	3	99	0	50	6.870287	-5.688497	-71.49455	
20:34:15	0	0	0	0.9013533	-10.51015	0	3	99	0	50	5.299931	-7.487953	-70.1663	
20:34:15	0	0	0	0.8984521	-12.9353	0	3	99	0	50	5.800483	-8.345592	-69.97603	
20:34:16	0	0	0	0.9186535	-11.988	0	3	99	0	50	7.291941	-7.773846	-69.30139	
20:34:16	0	0	0	0.9695261	-2.339212	0	3	99	0	50	6.747365	-5.81336	-66.85284	
20:34:16	0	0	0	1.043501	3.293262	0	3	99	0	50	4.847732	-5.849869	-64.42235	
20:34:16	0	0	0	1.109158	6.244936	0	3	99	0	50	4.129374	-6.269011	-64.05398	
20:34:16	0	0	0	1.155828	5.542801	0	3	99	0	50	2.66117	-5.858377	-63.43101	
20:34:17	0	0	0	1.164337	5.038924	0	3	99	0	50	3.419614	-6.185836	-62.59913	
20:34:17	0	0	0	1.140581	2.337877	0	3	99	0	50	3.340933	-4.63625	-63.23118	
20:34:17	0	0	0	1.094373	-3.556281	0	3	99	0	50	5.114944	-4.629285	-62.36468	
20:34:17	0	0	0	1.027941	-3.320426	0	3	99	0	50	3.407614	-4.311109	-60.77657	
20:34:17	0	0	0	0.9761323	-10.85009	0	3	99	0	50	4.472163	-4.689738	-58.33222	
20:34:18	0	0	0	0.9503268	0.0736475	0	3	99	0	50	0.1955499	-5.116075	-56.18582	
20:34:18	0	0	0	0.9422336	-1.104508	0	3	99	0	50	1.692248	-6.010832	-53.39422	
20:34:18	0	0	0	0.9193945	-8.942864	0	3	99	0	50	4.18136	-7.779303	-54.65697	
20:34:18	0	0	0	0.89345	-9.955358	0	3	99	0	50	3.844143	-8.35146	-58.92735	
20:34:18	0	0	0	0.8766871	-8.01791	0	3	99	0	50	4.747748	-6.905402	-58.50006	
20:34:19	0	0	0	0.8624232	-7.326823	0	3	99	0	50	6.773357	-8.198923	-55.12481	
20:34:19	0	0	0	0.8275712	-8.226064	0	3	99	0	50	7.090183	-8.102176	-48.86707	
20:34:19	0	0	0	0.797426	-10.61818	0	3	99	0	50	6.018284	-9.140511	-41.28749	
20:34:19	0	0	0	0.7434461	-13.56989	0	3	99	0	50	2.912356	-10.15868	-32.28824	
20:34:19	0	0	0	0.6925502	-7.54074	0	3	99	0	50	2.946987	-10.04968	-22.90792	
20:34:20	0	0	0	0.6908798	0.8252488	0	3	99	0	50	4.255355	-6.706034	-15.83937	
20:34:20	0	0	0	0.6889967	-4.833091	0	3	99	0	50	3.892712	-4.276402	-10.87223	
20:34:20	0	0	0	0.7209262	-7.107635	0	3	99	0	50	-1.326551	-4.222633	-7.994627	
20:34:20	0	0	0	0.7551921	4.362489	0	3	99	0	50	-1.490531	-4.392464	-7.406887	
20:34:20	0	0	0	0.8293163	1.475685	0	3	99	0	50	0.6845012	-6.010901	-7.94741	
20:34:21	0	0	0	0.8823993	-2.726363	0	3	99	0	50	1.502652	-6.297569	-5.476797	
20:34:21	0	0	0	0.8996708	7.927161	0	3	99	0	50	1.721653	-7.107163	-4.735305	
20:34:21	0	0	0	0.9271874	-2.088645	0	3	99	0	50	0.7594931	-6.702	-5.363445	
20:34:21	0	0	0	0.9174782	-5.455685	0	3	99	0	50	0.5953033	-5.744924	-6.727823	
20:34:21	0	0	0	0.9271173	15.4247	0	3	99	0	50	-0.645442	-6.373983	-8.382764	
20:34:22	0	0	0	0.9254222	1.981287	0	3	99	0	50	-1.322718	-6.634353	-8.693988	
20:34:22	0	0	0	0.8955054	-12.543	0	3	99	0	50	-1.790051	-6.194811	-6.004788	
20:34:22	0	0	0	0.8854874	-2.348743	0	3	99	0	50	0.8078115	-7.916946	-4.694993	
20:34:22	0	0	0	0.9059954	-0.2867132	0	3	99	0	50	2.904349	-8.024138	0.6501252	
20:34:22	0	0	0	0.8911094	-3.168936	0	3	99	0	50	-1.202202	-5.145412	9.896496	
20:34:23	0	0	0	0.8792428	-3.697478	0	3	99	0	50	1.923968	-2.608388	19.71358	
20:34:23	0	0	0	0.8875624	-4.006011	0	3	99	0	50	4.962993	-5.075782	28.58637	
20:34:23	0	0	0	0.8939845	-5.613587	0	3	99	0	50	6.318392	-5.730895	38.66098	
20:34:23	0	0	0	0.8899502	6.678991	0	3	99	0	50	3.267434	-3.963954	51.95934	
20:34:23	0	0	0	0.9216129	23.41176	0	3	99	0	50	1.088256	-3.431293	65.35488	
20:34:24	0	0	0	0.9550036	4.178578	0	3	99	0	50	-1.885237	-0.9762261	75.9457	
20:34:24	0	0	0	0.9728623	-0.55391	0	3	99	0	50	-2.638456	-0.6617436	86.76179	
20:34:24	0	0	0	0.9970019	1.80319	0	3	99	0	50	-2.369329	-0.1205701	98.55148	
20:34:24	0	0	0	1.023921	4.030357	0	3	99	0	50	-1.739146	1.076423	110.563	
20:34:24	0	0	0	1.027513	8.138518	0	3	99	0	50	-0.09490488	-1.59189	119.6929	
20:34:25	0	0	0	1.002364	-3.13899	0	3	99	0	50	1.027874	-2.093111	126.8918	
20:34:25	0	0	0	0.9846113	3.162409	0	3	99	0	50	2.339224	-2.365461	134.471	
20:34:25	0	0	0	0.9831783	-1.222214	0	3	99	0	50	0.636281	-3.178814	142.6903	
20:34:25	0	0	0	0.9742213	-3.89991	0	3	99	0	50	-1.262294	-3.334509	150.0318	
20:34:25	0	0	0	0.9572384	-14.7639	0	3	99	0	50	-4.491239	-2.583931	156.6811	
20:34:26	0	0	0	0.9513516	2.307678	0	3	99	0	50	-5.906558	0.07115693	164.6328	
20:34:26	0	0	0	0.9738642	0.04078764	0	3	99	0	50	-9.96279	0.4365645	175.7497	
20:34:26	0	0	0	0.987937	-3.278601	0	3	99	0	50	-8.048088	-0.3866011	-171.4947	
20:34:26	0	0	0	1.001431	-0.784638	0	3	99	0	50	-9.336287	-1.447323	-153.5024	
20:34:26	0	0	0	1.002155	-2.748436	0	3	99	0	50	-7.558045	-3.321851	-137.3529	
20:34:27	0	0	0	0.9861455	-5.164791	0	3	99	0	50	-6.964707	-3.53038	-128.4888	
20:34:27	0	0	0	0.9605331	-3.878989	0	3	99	0	50	-0.3587384	-2.60709	-125.016	
20:34:27	0	0	0	0.9387988	-11.02288	0	3	99	0	50	2.46745	-1.976012	-116.0524	
20:34:27	0	0	0	0.9067539	-11.68958	0	3	99	0	50	1.053777	-2.34695	-110.6071	
20:34:27	0	0	0	0.8920204	-12.53698	0	3	99	0	50	-3.326834	0.02091583	-107.8359	
20:34:28	0	0	0	0.8634738	-10.07759	0	3	99	0	50	-5.355075	1.149602	-104.3918	
20:34:28	0	0	0	0.8319833	-11.05653	0	3	99	0	50	-6.565907	1.374143	-100.2747	
20:34:28	0	0	0	0.8066584	-14.11176	0	3	99	0	50	-7.912242	0.9137073	-94.77956	
20:34:28	0	0	0	0.7955343	-16.55111	0	3	99	0	50	-4.916693	-0.0854208	-88.01619	
20:34:28	0	0	0	0.7890806	-10.56219	0	3	99	0	50	-1.319039	-0.1141712	-82.29237	
20:34:29	0	0	0	0.8487691	-6.055394	0	3	99	0	50	1.261879	0.2242037	-77.44003	
20:34:29	0	0	0	0.8955256	-7.882884	0	3	99	0	50	6.149328	-0.4910914	-73.49356	
20:34:29	0	0	0	0.9234221	-10.59894	0	3	99	0	50	4.699663	0.6915208	-72.10331	
20:34:29	0	0	0	0.9551174	-1.261099	0	3	99	0	50	3.200822	3.577856	-71.44976	
20:34:29	0	0	0	0.9569783	1.715307	0	3	99	0	50	2.924261	3.253834	-70.24139	
20:34:30	0	0	0	0.9556749	-2.612614	0	3	99	0	50	4.64478	1.427529	-67.23543	
20:34:30	0	0	0	0.8743695	-14.68219	0	3	99	0	50	-1.529531	0.577387	-64.92366	
20:34:30	0	0	0	0.7958667	-8.575836	0	3	99	0	50	-17.86538	0.6553422	-61.94164	
20:34:30	0	0	0	0.7546494	-4.459671	0	3	99	0	50	-29.4524	3.070494	-59.43779	
20:34:30	0	0	0	0.7226261	-4.72005	0	3	99	0	50	-29.95036	5.568215	-57.77138	
20:34:31	0	0	0	0.7676064	-7.374768	0	3	99	0	50	-25.03362	6.776148	-56.93314	
20:34:31	0	0	0	0.7821102	-21.00672	0	3	99	0	50	-16.71127	6.393031	-58.15371	
20:34:31	0	0	0	0.7881506	-15.33353	0	3	99	0	50	-10.75067	6.036614	-62.11738	
20:34:31	0	0	0	0.8228982	0.8418093	0	3	99	0	50	-2.76603	5.379995	-66.7595	
20:34:32	0	0	0	0.8059629	-7.664845	0	3	99	0	50	13.22305	6.236626	-65.29957	
20:34:32	0	0	0	0.7507659	-9.506843	0	3	99	0	50	21.90071	4.841261	-65.32003	
20:34:32	0	0	0	0.6886057	-16.77831	0	3	99	0	50	24.11695	3.981766	-66.19455	
20:34:32	0	0	0	0.6803264	-3.311506	0	3	99	0	50	28.47275	3.598628	-67.54743	
20:34:32	0	0	0	0.6977966	6.985085	0	3	99	0	50	24.03974	2.566076	-69.89407	
20:34:33	0	0	0	0.6984597	0.5007357	0	3	99	0	50	10.17056	0.8038504	-70.80174	
20:34:33	0	0	0	0.6940269	1.630525	0	3	99	0	50	-3.205292	0.1309679	-68.52954	
20:34:33	0	0	0	0.7290516	8.730147	0	3	99	0	50	-16.73812	0.3336083	-66.3744	
20:34:33	0	0	0	0.758554	0.6031422	0	3	99	0	50	-22.95764	1.454565	-65.47516	
20:34:33	0	0	0	0.7735091	-5.642807	0	3	99	0	50	-28.03895	2.754668	-64.52574	
20:34:34	0	0	0	0.7878927	-3.56421	0	3	99	0	50	-32.67966	5.675582	-64.21166	
20:34:34	0	0	0	0.825385	5.946651	0	3	99	0	50	-32.51196	7.764291	-65.20431	
20:34:34	0	0	0	0.8856944	11.31013	0	3	99	0	50	-21.17468	6.415633	-67.27381	
20:34:34	0	0	0	0.9350407	2.666383	0	3	99	0	50	-3.596856	4.121159	-70.60258	
20:34:34	0	0	0	0.9410676	-17.88129	0	3	99	0	50	9.441101	2.466966	-70.70324	
20:34:35	0	0	0	0.9528828	-12.06064	0	3	99	0	50	16.75103	1.694558	-70.6519	
20:34:35	0	0	0	0.9823638	-10.39465	0	3	98	0	50	23.76313	1.033569	-69.99507	
20:34:35	0	0	0	1.010449	-8.564888	0	3	98	0	50	29.38299	1.843047	-70.10989	
20:34:35	0	0	0	1.035579	7.441734	0	3	98	0	50	24.3183	2.566307	-71.17718	
20:34:35	0	0	0	1.080828	23.91512	0	3	98	0	50	6.554883	1.298818	-73.89654	
20:34:36	0	0	0	1.105274	18.5525	0	3	98	0	50	-9.8477	1.425931	-73.57957	
20:34:36	0	0	0	1.130547	9.489677	0	3	98	0	50	-24.977	1.852412	-71.31497	
20:34:36	0	0	0	1.166068	18.10541	0	3	98	0	50	-30.24331	3.344485	-68.37675	
20:34:36	0	0	0	1.16873	1.570016	0	3	98	0	50	-33.29454	3.936164	-66.92652	
20:34:36	0	0	0	1.137158	-5.804096	0	3	98	0	50	-38.98202	5.677873	-66.62564	
20:34:37	0	0	0	1.106345	-6.18247	0	3	98	0	50	-37.59518	7.04477	-68.53194	
20:34:37	0	0	0	1.115157	11.59422	0	3	98	0	50	-27.98601	6.627917	-73.00769	
20:34:37	0	0	0	1.10233	-3.9717	0	3	98	0	50	-20.48039	4.591645	-75.61207	
20:34:37	0	0	0	1.0439	-19.92517	0	3	98	0	50	-2.981413	0.9385218	-78.11932	
20:34:38	0	0	0	0.9661487	-12.71721	0	3	98	0	50	17.3568	2.056855	-78.4429	
20:34:38	0	0	0	0.7724065	-31.14543	0	3	98	0	50	26.73444	0.3845155	-76.78146	
20:34:38	0	0	0	0.6876853	-28.70203	0	3	98	0	50	26.85246	0.67932	-75.58643	
20:34:38	0	0	0	0.6378648	-11.10557	0	3	98	0	50	24.60927	0.8631026	-75.53654	
20:34:38	0	0	0	0.5856106	-18.60353	0	3	98	0	50	15.62897	-1.763171	-74.97301	
20:34:39	0	0	0	0.5359376	-16.24208	0	3	98	0	50	-3.238792	-2.614787	-71.99362	
20:34:39	0	0	0	0.5385034	-12.70446	0	3	98	0	50	-15.35509	-2.467222	-68.69711	
20:34:39	0	0	0	0.5442687	-15.21262	0	3	98	0	50	-22.5404	-1.310629	-67.19614	
20:34:39	0	0	0	0.5765098	-20.37892	0	3	98	0	50	-25.97911	0.1672297	-67.56847	
20:34:39	0	0	0	0.5971654	-20.90707	0	3	98	0	50	-27.65324	2.159971	-70.46786	
20:34:40	0	0	0	0.6907262	4.350201	0	3	98	0	50	-14.65037	2.051541	-74.97748	
20:34:40	0	0	0	0.7947703	-4.245498	0	3	98	0	50	1.529982	0.6365128	-76.20958	
20:34:40	0	0	0	0.8538053	-6.229627	0	3	98	0	50	11.68397	-0.01226062	-73.1518	
20:34:40	0	0	0	0.9235783	8.720094	0	3	98	0	50	19.1102	-0.002004954	-71.84145	
20:34:40	0	0	0	0.9917758	-5.17539	0	3	98	0	50	25.13349	-0.5731476	-71.6343	
20:34:41	0	0	0	1.027208	-9.941413	0	3	98	0	50	28.86296	-1.042685	-73.7727	
20:34:41	0	0	0	1.080653	10.51798	0	3	98	0	50	31.32719	-1.033657	-76.7375	
20:34:41	0	0	0	1.157056	12.80345	0	3	98	0	50	27.40234	-3.528841	-76.6569	
20:34:41	0	0	0	1.142445	18.69839	0	3	98	0	50	2.082255	-2.66713	-73.04026	
20:34:41	0	0	0	1.150213	28.24975	0	3	98	0	50	-16.49729	-1.882149	-68.53018	
20:34:42	0	0	0	1.121996	11.2818	0	3	98	0	50	-26.71749	-2.901157	-62.82491	
20:34:42	0	0	0	1.051713	-8.525424	0	3	98	0	50	-31.43969	-2.367273	-60.03266	
20:34:42	0	0	0	1.014234	-1.770961	0	3	98	0	50	-28.76739	-0.07330457	-60.04553	
20:34:42	0	0	0	1.010907	7.344356	0	3	98	0	50	-16.96179	1.51484	-60.6818	
20:34:42	0	0	0	0.9768344	-12.1918	0	3	98	0	50	0.235439	2.310408	-62.04549	
20:34:43	0	0	0	0.9194925	-18.14332	0	3	98	0	50	21.13008	2.055074	-62.57766	
20:34:43	0	0	0	0.8471012	-33.07232	0	3	98	0	50	27.69328	1.487107	-64.0833	
20:34:43	0	0	0	0.8051488	-26.28266	0	3	98	0	50	29.21881	1.667958	-65.24145	
20:34:43	0	0	0	0.8312951	7.034993	0	3	98	0	50	23.80038	2.395452	-66.74634	
20:34:44	0	0	0	0.8876668	12.40409	0	3	98	0	50	2.019873	3.618548	-67.3083	
20:34:44	0	0	0	0.9291954	7.983468	0	3	98	0	50	-11.35299	4.368879	-67.07291	
20:34:44	0	0	0	0.9736751	2.933236	0	3	97	0	50	-26.54709	3.926044	-72.54948	
20:34:44	0	0	0	0.995196	-11.21759	0	3	97	0	50	-31.16608	4.783702	-75.74396	
20:34:45	0	0	0	1.029581	10.8953	0	3	97	0	50	-22.36891	1.944799	-80.94606	
20:34:45	0	0	0	1.04738	-3.846682	0	3	97	0	50	-2.663551	-1.641864	-81.22527	
20:34:45	0	0	0	1.024051	-17.08008	0	3	97	0	50	12.91523	-2.638899	-76.30301	
20:34:45	0	0	0	0.9983889	-11.10621	0	3	97	0	50	22.46305	-4.017989	-73.73945	
20:34:45	0	0	0	0.9726497	-18.06551	0	3	97	0	50	26.01151	-4.709227	-72.816	
20:34:46	0	0	0	0.9530634	-10.81091	0	3	97	0	50	25.2658	-3.177747	-73.09373	
20:34:46	0	0	0	0.9903327	18.24272	0	3	97	0	50	22.75802	-3.058079	-74.40598	
20:34:46	0	0	0	1.016846	15.57898	0	3	98	0	50	-4.062318	-5.823988	-76.86099	
20:34:46	0	0	0	1.000037	5.417637	0	3	98	0	50	-14.04736	-5.03769	-74.32862	
20:34:47	0	0	0	0.9878036	12.41177	0	3	97	0	50	-26.65545	-2.95055	-70.41216	
20:34:47	0	0	0	0.9514421	-17.15433	0	3	97	0	50	-32.59416	-1.067217	-73.21935	
20:34:47	0	0	0	0.969826	11.58082	0	3	97	0	50	-30.29255	0.799425	-75.20192	
20:34:47	0	0	0	1.039872	9.56214	0	3	97	0	50	-28.94627	0.3443515	-75.77171	
20:34:47	0	0	0	1.083165	0.9560773	0	3	97	0	50	-6.621138	1.549749	-74.76437	
20:34:48	0	0	0	1.117277	5.289576	0	3	97	0	50	5.009206	1.30114	-74.48597	
20:34:48	0	0	0	1.137228	0.3004985	0	3	97	0	50	13.50267	-0.6827679	-72.8933	
20:34:48	0	0	0	1.137492	-6.96673	0	3	97	0	50	21.17939	-1.819851	-72.57598	
20:34:48	0	0	0	1.11838	2.904068	0	3	97	0	50	26.39621	-2.658309	-74.37873	
20:34:48	0	0	0	1.12685	11.53524	0	3	97	0	50	23.7917	-5.847198	-75.40679	
20:34:49	0	0	0	1.157235	8.186356	0	3	97	0	50	21.97335	-6.272739	-72.5981	
20:34:49	0	0	0	1.181683	13.11252	0	3	97	0	50	17.41179	-4.346006	-67.77364	
20:34:49	0	0	0	1.192373	21.46893	0	3	97	0	50	5.248987	-3.806558	-65.38843	
20:34:49	0	0	0	1.185411	2.030205	0	3	97	0	50	-5.349701	-3.889745	-64.12166	
20:34:49	0	0	0	1.170738	-0.5856398	0	3	97	0	50	-10.97124	-4.3949	-65.60006	
20:34:50	0	0	0	1.176049	8.992578	0	3	97	0	50	-17.18817	-5.767638	-65.6543	
20:34:50	0	0	0	1.157031	-5.755594	0	3	97	0	50	-21.28786	-6.354754	-64.18014	
20:34:50	0	0	0	1.116208	-4.724656	0	3	97	0	50	-22.29046	-5.441681	-61.29222	
20:34:50	0	0	0	1.049491	-5.54706	0	3	97	0	50	-23.31105	-5.977825	-60.99796	
20:34:50	0	0	0	0.977866	-18.11978	0	3	97	0	50	-23.75271	-5.231375	-63.09081	
20:34:51	0	0	0	0.9070615	-16.82098	0	3	97	0	50	-23.16627	-2.305487	-65.80678	
20:34:51	0	0	0	0.876492	1.442129	0	3	97	0	50	-25.00647	-1.425967	-70.55838	
20:34:51	0	0	0	0.8626826	-10.27371	0	3	97	0	50	-24.38288	-3.217983	-70.29101	
20:34:51	0	0	0	0.8299607	-20.10237	0	3	97	0	50	-12.21386	-2.774957	-68.08176	
20:34:51	0	0	0	0.8494127	-5.086626	0	3	97	0	50	4.723618	-3.679054	-67.8555	
20:34:52	0	0	0	0.8635021	-22.57503	0	3	97	0	50	15.82878	-5.473094	-69.07525	
20:34:52	0	0	0	0.8749332	-20.96339	0	3	97	0	50	18.91698	-5.460674	-70.89306	
20:34:52	0	0	0	0.9036006	-2.598113	0	3	97	0	50	20.47348	-2.453551	-74.11713	
20:34:52	0	0	0	0.9622184	4.398336	0	3	97	0	50	20.95293	-4.581909	-76.20076	
20:34:52	0	0	0	1.001367	-5.954639	0	3	97	0	50	16.32838	-5.079484	-75.78603	
20:34:53	0	0	0	1.039693	10.08939	0	3	97	0	50	9.250092	-4.845998	-74.38665	
20:34:53	0	0	0	1.106484	14.37003	0	3	97	0	50	1.613802	-5.320659	-73.13711	
20:34:53	0	0	0	1.094687	-0.002246164	0	3	97	0	50	-8.305548	-4.867654	-73.44764	
20:34:53	0	0	0	1.032018	4.670887	0	3	97	0	50	-24.32788	-6.387153	-71.22657	
20:34:54	0	0	0	0.9355929	-11.26214	0	3	97	0	50	-27.77864	-4.988033	-63.95848	
20:34:54	0	0	0	0.8939582	-6.770335	0	3	97	0	50	-26.58212	-3.554309	-60.58991	
20:34:54	0	0	0	0.8850768	-6.194622	0	3	97	0	50	-17.71535	-4.325595	-60.4434	
20:34:54	0	0	0	0.8812185	-18.99605	0	3	97	0	50	-4.843497	-3.747134	-62.23502	
20:34:54	0	0	0	0.8796956	-16.35816	0	3	97	0	50	1.872179	-2.809803	-64.88485	
20:34:55	0	0	0	0.8984521	0.4617869	0	3	97	0	50	1.328278	-4.970976	-66.9486	
20:34:55	0	0	0	0.904871	-9.432313	0	3	97	0	50	8.726446	-6.406473	-65.80701	
20:34:55	0	0	0	0.8769495	-15.04445	0	3	97	0	50	18.23095	-6.203427	-62.23315	
20:34:55	0	0	0	0.8544938	-2.483165	0	3	97	0	50	12.88818	-7.174886	-57.47453	
20:34:56	0	0	0	0.8541148	-8.572941	0	3	97	0	50	5.746294	-6.029166	-58.14516	
20:34:56	0	0	0	0.8762214	7.699594	0	3	97	0	50	-0.2235321	-5.911009	-60.75634	
20:34:56	0	0	0	0.9116406	4.855267	0	3	97	0	50	-10.46298	-6.220072	-60.57696	
20:34:56	0	0	0	0.9166419	-3.487119	0	3	97	0	50	-14.89903	-5.189812	-58.23091	
20:34:56	0	0	0	0.9259622	12.42109	0	3	97	0	50	-18.93787	-4.959908	-58.04341	
20:34:57	0	0	0	0.9280543	-1.311427	0	3	96	0	50	-15.28756	-4.346426	-60.99621	
20:34:57	0	0	0	0.8892532	14.53543	0	3	96	0	50	-4.221314	-4.376986	-61.1747	
20:34:57	0	0	0	0.9413295	15.82039	0	3	96	0	50	0.2899327	-5.673711	-62.75079	
20:34:57	0	0	0	0.9669006	-3.840371	0	3	97	0	50	10.35985	-5.744757	-61.8417	
20:34:58	0	0	0	0.9736195	2.992399	0	3	97	0	50	17.03835	-6.421349	-60.26342	
20:34:58	0	0	0	0.9912887	-1.960084	0	3	97	0	50	18.70016	-8.013476	-61.39391	
20:34:58	0	0	0	1.00219	-17.0847	0	3	97	0	50	15.92825	-8.497628	-64.09953	
20:34:58	0	0	0	1.013901	5.312406	0	3	97	0	50	12.56194	-6.011381	-67.46097	
20:34:58	0	0	0	1.07398	22.08806	0	3	97	0	50	4.87671	-5.766296	-68.51773	
20:34:59	0	0	0	1.128027	5.154949	0	3	96	0	50	-13.21286	-5.905733	-66.38976	
20:34:59	0	0	0	1.128329	4.054297	0	3	96	0	50	-17.43607	-5.677001	-63.87055	
20:34:59	0	0	0	1.143048	9.439399	0	3	96	0	50	-18.04902	-6.269495	-61.91172	
20:34:59	0	0	0	1.116558	-1.966126	0	3	96	0	50	-21.40065	-5.418082	-62.568	
20:34:59	0	0	0	1.07997	2.296765	0	3	96	0	50	-23.12711	-4.737275	-63.30637	
20:35:00	0	0	0	1.09771	11.97819	0	3	96	0	50	-24.84269	-6.283385	-65.93607	
20:35:00	0	0	0	1.108417	5.66118	0	3	96	0	50	-24.26981	-6.901679	-66.04539	
20:35:00	0	0	0	1.108327	-1.068287	0	3	96	0	50	-24.24709	-5.267921	-61.63235	
20:35:00	0	0	0	1.124956	14.57938	0	3	96	0	50	-21.86092	-5.02691	-59.46711	
20:35:00	0	0	0	1.164097	-1.659353	0	3	96	0	50	-20.11059	-5.647791	-58.82151	
20:35:01	0	0	0	1.17749	-0.9811118	0	3	96	0	50	-15.79975	-4.860227	-59.44773	
20:35:01	0	0	0	1.193386	21.58637	0	3	96	0	50	-4.84091	-6.31035	-61.3543	
20:35:01	-6.795751	38.98514	128.227	1.214307	11.60584	0.97	3	96	0	50	2.732294	-9.068379	-61.1091	
20:35:01	-6.795751	38.98514	128.694	1.158389	-1.005563	0.83	3	96	0	50	6.821273	-9.338845	-57.74085	
20:35:01	-6.79575	38.98514	128.841	1.097559	1.795387	0.97	3	96	0	50	10.37262	-8.575759	-55.4165	
20:35:02	-6.795748	38.98514	128.89	1.056436	-6.484935	1.02	3	96	0	50	12.58368	-9.103573	-54.83239	
20:35:02	-6.795747	38.98514	128.894	1.004811	-16.64876	0.75	3	96	0	50	10.17141	-8.497545	-56.321	
20:35:02	-6.795745	38.98514	128.847	0.9363461	5.146484	0.79	3	96	0	50	6.466878	-7.069289	-58.47556	
20:35:02	-6.795745	38.98514	128.648	0.9072077	1.031036	0.65	3	96	0	50	-2.018459	-7.807731	-58.70274	
20:35:02	-6.795744	38.98513	128.663	0.8888556	-14.03157	0.72	3	96	0	50	-5.798521	-7.360379	-56.17218	
20:35:03	-6.795744	38.98513	128.773	0.8650386	-5.842773	0.75	3	96	0	50	-10.04579	-7.377922	-53.49574	
20:35:03	-6.795745	38.98513	128.861	0.8305733	-12.15689	0.61	3	96	0	50	-10.73505	-8.110896	-51.7676	
20:35:03	-6.795745	38.98513	128.916	0.752472	-26.29939	0.59	3	96	0	50	-17.20567	-7.10921	-50.31337	
20:35:03	-6.795745	38.98513	128.954	0.6789665	-14.70733	0.97	3	96	0	50	-20.11806	-5.675385	-50.11776	
20:35:03	-6.795745	38.98513	128.935	0.637689	-13.76792	0.85	3	96	0	50	-25.53497	-6.064727	-49.35981	
20:35:04	-6.795745	38.98512	128.92	0.5916765	-24.30474	0.58	3	96	0	50	-28.21602	-4.135496	-45.6337	
20:35:04	-6.795745	38.98512	128.961	0.5519342	-11.02398	0.85	3	96	0	50	-19.97934	-1.565447	-40.84151	
20:35:04	-6.795745	38.98512	128.966	0.5900962	-6.639236	0.84	3	96	0	50	-0.2638759	-4.216629	-39.6133	
20:35:04	-6.795745	38.98512	129.066	0.6110408	-28.9239	0.79	3	96	0	50	14.51562	-6.684331	-40.80548	
20:35:04	-6.795744	38.98512	129.051	0.6215969	-23.45999	0.91	3	96	0	50	17.37952	-6.7779	-41.92487	
20:35:05	-6.795744	38.98512	129.217	0.6735913	-0.5687154	0.93	3	96	0	50	16.53066	-7.728956	-43.10964	
20:35:05	-6.795743	38.98512	129.394	0.6978633	-2.616974	0.91	3	96	0	50	12.72449	-8.008971	-42.98041	
20:35:05	-6.795742	38.98512	129.634	0.68025	-1.68605	0.82	3	96	0	50	12.54105	-5.633782	-41.1026	
20:35:05	-6.795742	38.98512	129.745	0.7136056	15.21076	0.85	3	96	0	50	5.390399	-4.385899	-39.09197	
20:35:05	-6.795742	38.98512	129.827	0.7579055	0.4399907	0.74	3	96	0	50	-7.12619	-2.713759	-37.72854	
20:35:06	-6.795741	38.98511	129.919	0.7732306	-4.327141	0.79	3	96	0	50	-18.29188	-0.7277709	-38.42163	
20:35:06	-6.79574	38.98511	130.046	0.8002067	13.50749	0.85	3	96	0	50	-21.3312	0.3160357	-39.1909	
20:35:06	-6.795738	38.98511	130.127	0.8563824	3.28029	0.89	3	96	0	50	-35.31893	1.39155	-36.34723	
20:35:06	-6.795737	38.98511	130.206	0.9337077	16.0874	0.91	3	96	0	50	-22.85186	2.301744	-34.50638	
20:35:07	-6.795736	38.9851	130.386	0.9827909	2.467804	0.79	3	96	0	50	-4.417531	-0.1394456	-35.78301	
20:35:07	-6.795734	38.9851	130.401	0.9854223	-8.549454	0.89	3	96	0	50	4.388718	-2.972541	-37.6969	
20:35:07	-6.795733	38.9851	130.647	0.9923177	5.696678	1.06	3	96	0	50	14.03922	-4.218219	-42.16662	
20:35:07	-6.795732	38.9851	130.727	1.011863	-2.055718	0.82	3	96	0	50	20.62059	-5.35307	-44.5402	
20:35:07	-6.795731	38.9851	130.706	1.014821	-0.8468782	0.98	3	96	0	50	16.63444	-4.401212	-42.88469	
20:35:08	-6.795731	38.9851	130.835	1.038834	17.12453	0.82	3	96	0	50	7.945356	-2.576316	-41.35329	
20:35:08	-6.795731	38.9851	131.189	1.077627	8.32476	0.52	3	96	0	50	-13.27119	0.3578519	-41.70349	
20:35:08	-6.79573	38.9851	131.278	1.081578	7.702423	0.66	3	96	0	50	-20.34579	1.884133	-43.74434	
20:35:08	-6.79573	38.9851	131.355	1.103541	11.2952	0.97	3	96	0	50	-27.90529	0.4430446	-43.77829	
20:35:09	-6.795729	38.98509	131.4	1.0857	-3.215928	0.77	3	96	0	50	-32.15237	0.4502876	-40.82076	
20:35:09	-6.795728	38.98509	131.361	1.061977	6.362127	0.95	3	96	0	50	-26.83502	1.401498	-38.84053	
20:35:09	-6.795728	38.98509	131.544	1.034989	2.535599	0.98	3	96	0	50	-17.07742	0.018433	-39.34303	
20:35:09	-6.795727	38.98508	131.392	0.9881564	1.718991	1.04	3	96	0	50	-9.416892	0.7814274	-42.88426	
20:35:10	-6.795726	38.98508	131.49	1.018594	9.349365	0.91	3	96	0	50	1.692611	-2.803014	-44.94984	
20:35:10	-6.795725	38.98508	131.528	1.008648	-6.05599	0.78	3	96	0	50	12.08005	-4.859138	-44.98007	
20:35:10	-6.795725	38.98508	131.41	0.9747943	-15.32491	0.97	3	96	0	50	20.70758	-5.65236	-43.86386	
20:35:10	-6.795724	38.98508	131.338	0.9916031	-3.024829	0.79	3	96	0	50	23.83678	-6.818571	-44.33781	
20:35:11	-6.795724	38.98508	131.527	1.00929	-10.63881	0.74	3	96	0	50	23.10046	-6.525441	-45.72402	
20:35:11	-6.795723	38.98508	131.588	0.9871758	-3.889731	0.77	3	96	0	50	15.7941	-4.340117	-47.29541	
20:35:11	-6.795723	38.98508	131.635	1.003146	19.01957	0.83	3	96	0	50	5.929135	-2.439655	-48.27773	
20:35:11	-6.795723	38.98508	131.703	1.082663	13.0294	0.74	3	96	0	50	-3.643352	-0.3928818	-47.52713	
20:35:11	-6.795722	38.98507	131.706	1.125512	-0.2455902	0.89	3	96	0	50	-6.630775	1.300746	-46.38947	
20:35:11	-6.795722	38.98507	131.829	1.131704	5.998559	0.66	3	96	0	50	-13.53996	-1.5653	-46.06463	
20:35:12	-6.795722	38.98507	131.82	1.133281	-1.238087	0.82	3	96	0	50	-15.93324	-2.739419	-46.96176	
20:35:12	-6.795722	38.98507	131.839	1.093013	-4.175395	0.76	3	96	0	50	-16.36127	-1.296872	-51.59655	
20:35:12	-6.795722	38.98507	131.949	1.067817	10.90739	0.91	3	95	0	50	-13.36408	-2.440004	-59.23517	
20:35:12	-6.795721	38.98507	131.847	1.079094	1.911807	0.79	3	95	0	50	-1.749098	-2.812062	-60.14089	
20:35:13	-6.79572	38.98506	131.77	1.071131	7.7933	0.58	3	95	0	50	2.146396	-4.879002	-61.83208	
20:35:13	-6.79572	38.98506	131.698	1.066737	-1.307433	0.72	3	95	0	50	6.960094	-6.380667	-63.6688	
20:35:13	-6.79572	38.98506	131.561	1.042206	-6.905219	0.78	3	95	0	50	10.02673	-4.785162	-65.34813	
20:35:13	-6.795718	38.98506	131.489	1.03194	6.422859	1.48	3	95	0	50	10.30809	-3.749674	-67.38095	
20:35:13	-6.795718	38.98506	131.557	1.034101	-0.4302436	0.26	3	95	0	50	11.38016	-6.573872	-68.4966	
20:35:14	-6.795719	38.98506	131.602	1.016399	-9.596702	0.34	3	95	0	50	12.49274	-8.098407	-66.81909	
20:35:14	-6.795719	38.98505	131.636	1.024157	12.18294	1.17	3	95	0	50	8.215091	-8.269647	-67.76101	
20:35:14	-6.795719	38.98505	131.564	1.066718	9.879673	0.87	3	95	0	50	5.533633	-6.585187	-71.37041	
20:35:14	-6.79572	38.98505	131.69	1.075233	-4.173083	0.47	3	95	0	50	1.664206	-6.028557	-73.58889	
20:35:14	-6.795719	38.98505	131.805	1.07599	8.457397	0.69	3	95	0	50	-0.615896	-5.845988	-75.55928	
20:35:15	-6.795718	38.98505	131.855	1.095255	12.43752	0.52	3	95	0	50	-4.426129	-8.545728	-79.3768	
20:35:15	-6.795718	38.98505	131.844	1.092835	0.3772797	0.56	3	95	0	50	-6.005659	-8.437253	-79.6073	
20:35:15	-6.795718	38.98505	131.729	1.081507	3.767975	0.62	3	95	0	50	-8.864061	-6.68853	-79.72733	
