Date	Latitude(deg) 	Longitude(deg)	hamsl(m)	hafl(m)	climbrate(cm/s)	GroundSpeed(m/s)	Airspeed(m/s)	Mav_Link(%)	Rssi_Link(%)	Throttle	Roll(deg)	Pitch(deg)	Yaw(deg)
20:17:18	0	0	0	0.3655377	46.13671	0	3	31	0	50	3.864033	-16.91741	3.638246	
20:17:20	0	0	0	0.9464449	36.1006	0	3	39	0	50	3.872254	-16.88065	3.62036	
20:17:22	0	0	0	0.3791673	-3.130068	0	3	45	0	50	3.876607	-16.92612	3.601727	
20:17:23	0	0	0	0.02590025	-13.02174	0	3	50	0	50	3.892917	-16.92003	3.577726	
20:17:25	0	0	0	-0.1040838	-10.00171	0	3	55	0	50	3.873824	-16.84922	3.546229	
20:17:27	0	0	0	-0.01686764	3.367698	0	3	60	0	50	3.852758	-16.79693	3.547728	
20:17:28	0	0	0	0.08001164	6.568523	0	3	63	0	50	3.797098	-16.79629	3.544425	
20:17:30	0	0	0	0.2386634	11.66018	0	3	67	0	50	3.759262	-16.83525	3.544621	
20:17:32	0	0	0	0.2243541	4.728519	0	3	70	0	50	3.742582	-16.86683	3.540516	
20:17:33	0	0	0	-0.0998763	-6.480224	0	3	72	0	50	3.714016	-16.85982	3.581928	
20:17:35	0	0	0	0.1136253	8.845127	0	3	75	0	50	3.715305	-16.88228	3.579553	
20:17:37	0	0	0	-0.3314003	-12.73874	0	3	77	0	50	3.670585	-16.8915	3.602567	
20:17:38	0	0	0	-0.4374691	-7.620147	0	3	79	0	50	3.713026	-16.88486	3.626002	
20:17:40	0	0	0	-0.02141003	11.97375	0	3	80	0	50	3.680871	-16.84668	3.665763	
20:17:42	0	0	0	0.06709003	6.168069	0	3	82	0	50	3.667532	-16.83926	3.691363	
20:17:43	0	0	0	-0.3696828	-13.50041	0	3	83	0	50	3.660167	-16.87981	3.724892	
20:17:45	0	0	0	-0.374551	-5.23625	0	3	85	0	50	3.62789	-16.81195	3.735738	
20:17:47	0	0	0	-0.2942692	2.137797	0	3	86	0	50	3.59375	-16.87946	3.781047	
20:17:49	0	0	0	-0.2875938	4.218149	0	3	87	0	50	3.637019	-16.85109	3.824307	
20:17:50	0	0	0	-0.235184	3.137792	0	3	88	0	50	3.64043	-16.8406	3.84432	
20:17:52	0	0	0	-0.3881368	-5.864457	0	3	89	0	50	3.674511	-16.80456	3.817546	
20:17:54	0	0	0	-0.2303781	3.748599	0	3	90	0	50	3.686638	-16.84832	3.804913	
20:17:55	0	0	0	-0.0600769	7.516538	0	3	90	0	50	3.705697	-16.85354	3.788336	
20:17:57	0	0	0	-0.2566607	-4.636377	0	3	91	0	50	3.762737	-16.79011	3.749786	
20:17:59	0	0	0	-0.5351053	-9.976906	0	3	92	0	50	3.750457	-16.83232	3.753783	
20:18:00	0	0	0	-0.7256795	-10.75694	0	3	92	0	50	3.72277	-16.77756	3.752397	
20:18:02	0	0	0	-0.4640718	7.515461	0	3	93	0	50	3.754809	-16.7599	3.719615	
20:18:04	0	0	0	-0.1275721	14.02116	0	3	93	0	50	3.770541	-16.71123	3.712342	
20:18:05	0	0	0	-0.1756166	5.583379	0	3	94	0	50	3.785519	-16.66178	3.703931	
20:18:07	0	0	0	-0.3931552	-6.619341	0	3	94	0	50	3.80878	-16.65338	3.688367	
20:18:09	0	0	0	-0.3332282	-1.150332	0	3	95	0	50	3.794537	-16.65681	3.658123	
20:18:10	0	0	0	-0.3835789	0.1726299	0	3	95	0	50	3.785564	-16.72518	3.654363	
20:18:12	0	0	0	-0.3089105	4.137712	0	3	95	0	50	3.787771	-16.76846	3.6428	
20:18:14	0	0	0	-0.3353449	0.6763346	0	3	96	0	50	3.760934	-16.75336	3.617775	
20:18:15	0	0	0	-0.5079636	-4.535727	0	3	96	0	50	3.742892	-16.77773	3.608172	
20:18:17	0	0	0	-0.5016738	-2.531942	0	3	96	0	50	3.74092	-16.67002	3.645875	
20:18:19	0	0	0	-0.4791564	0.2470659	0	3	96	0	50	3.749261	-16.6285	3.662884	
20:18:21	0	0	0	-0.288886	6.882133	0	3	97	0	50	3.747723	-16.62168	3.664373	
20:18:22	0	0	0	-0.07028916	8.825941	0	3	97	0	50	3.754517	-16.67489	3.630685	
20:18:24	0	0	0	-0.1246698	2.719625	0	3	97	0	50	3.774109	-16.64742	3.648105	
20:18:26	0	0	0	-0.2279119	-3.562377	0	3	97	0	50	3.736209	-16.71163	3.678503	
20:18:27	0	0	0	-0.1501708	2.32601	0	3	97	0	50	3.710423	-16.66501	3.702775	
20:18:29	0	0	0	0.1998933	12.61447	0	3	98	0	50	3.743401	-16.72098	3.67352	
20:18:31	0	0	0	-0.04270214	-5.438015	0	3	98	0	50	3.71417	-16.70939	3.685921	
20:18:32	0	0	0	-0.3798661	-15.73709	0	3	98	0	50	3.710172	-16.71544	3.686768	
20:18:34	0	0	0	-0.4876435	-10.27677	0	3	98	0	50	3.713156	-16.74414	3.702235	
20:18:36	0	0	0	-0.4892928	-3.845142	0	3	98	0	50	3.705448	-16.72761	3.718786	
20:18:37	0	0	0	-0.4246743	0.7417476	0	3	98	0	50	3.719653	-16.6596	3.75837	
20:18:39	0	0	0	-0.658725	-7.840043	0	3	98	0	50	3.734226	-16.63472	3.748403	
20:18:41	0	0	0	-0.4876973	3.091024	0	3	98	0	50	3.754463	-16.70602	3.718493	
20:18:42	0	0	0	0.01680097	19.37238	0	3	98	0	50	3.797293	-16.71193	3.68394	
20:18:44	0	0	0	-0.113656	1.135494	0	3	99	0	50	3.792322	-16.73967	3.672514	
20:18:46	0	0	0	-0.190832	-1.100519	0	3	99	0	50	3.757059	-16.74381	3.695621	
20:18:47	0	0	0	-0.3165705	-4.461062	0	3	99	0	50	3.730261	-16.79836	3.69819	
20:18:49	0	0	0	-0.2092231	2.625944	0	3	99	0	50	3.726001	-16.87321	3.655374	
20:18:51	0	0	0	-0.2878409	-2.913528	0	3	99	0	50	3.708838	-16.82096	3.671724	
20:18:53	0	0	0	-0.03864181	8.576117	0	3	99	0	50	3.692641	-16.78946	3.688238	
20:18:54	0	0	0	-0.2104664	-4.023539	0	3	99	0	50	3.710367	-16.80194	3.661945	
20:18:56	0	0	0	-0.02844455	6.326212	0	3	99	0	50	3.713286	-16.76723	3.679224	
20:18:58	0	0	0	0.1333813	6.649314	0	3	99	0	50	3.701203	-16.77185	3.711657	
20:18:59	0	0	0	0.08305001	3.730237	0	3	99	0	50	3.688052	-16.69146	3.744541	
20:19:01	0	0	0	0.1164799	1.23968	0	3	99	0	50	3.716547	-16.69316	3.735808	
20:19:03	0	0	0	-0.07242405	-7.271735	0	3	99	0	50	3.714368	-16.76817	3.724462	
20:19:04	0	0	0	-0.3669892	-8.45771	0	3	99	0	50	3.701231	-16.74012	3.735296	
20:19:06	0	0	0	-0.3374558	-1.979278	0	3	99	0	50	3.732061	-16.74361	3.752265	
20:19:08	0	0	0	-0.1278702	5.668466	0	3	99	0	50	3.734565	-16.64568	3.779733	
20:19:09	0	0	0	-0.3595558	-5.766999	0	3	99	0	50	3.745783	-16.63338	3.799149	
20:19:11	0	0	0	-0.1611018	3.413596	0	3	99	0	50	3.763212	-16.62147	3.756536	
20:19:13	0	0	0	-0.3928506	-5.648424	0	3	99	0	50	3.767907	-16.63803	3.72418	
20:19:14	0	0	0	-0.3529679	0.835143	0	3	99	0	50	3.757447	-16.62552	3.732307	
20:19:16	0	0	0	-0.1365296	11.37957	0	3	99	0	50	3.770091	-16.65329	3.709607	
20:19:18	0	0	0	-0.1377295	1.425997	0	3	99	0	50	3.772671	-16.64993	3.698771	
20:19:19	0	0	0	-0.06916942	6.18809	0	3	99	0	50	3.773722	-16.72431	3.661041	
20:19:21	0	0	0	-0.07892609	0.6135137	0	3	99	0	50	3.795923	-16.72886	3.65758	
20:19:23	0	0	0	-0.1578716	-2.895712	0	3	99	0	50	3.791438	-16.75352	3.641078	
20:19:25	0	0	0	-0.2454838	-6.690757	0	3	99	0	50	3.761455	-16.74225	3.619838	
20:19:26	0	0	0	-0.3305335	-3.414353	0	3	99	0	50	3.745748	-16.72139	3.636434	
20:19:28	0	0	0	0.0316996	12.66156	0	3	99	0	50	3.762247	-16.66205	3.64385	
20:19:30	0	0	0	-0.1196052	-2.273326	0	3	99	0	50	3.793981	-16.69073	3.615627	
20:19:31	0	0	0	-0.169861	-4.628734	0	3	99	0	50	3.744509	-16.66466	3.610775	
20:19:33	0	0	0	-0.04095997	2.767928	0	3	99	0	50	3.723312	-16.65371	3.635267	
20:19:35	0	0	0	-0.1689419	-4.408028	0	3	99	0	50	3.737243	-16.65774	3.659349	
20:19:36	0	0	0	0.05820455	7.444192	0	3	99	0	50	3.717219	-16.73347	3.642213	
20:19:38	0	0	0	0.0567513	2.625739	0	3	99	0	50	3.67272	-16.76587	3.667638	
20:19:40	0	0	0	-0.3380898	-14.45493	0	3	99	0	50	3.655269	-16.84945	3.678974	
20:19:41	0	0	0	-0.2468749	-2.740963	0	3	99	0	50	3.644219	-16.84611	3.685785	
20:19:43	0	0	0	-0.3225864	-4.452188	0	3	99	0	50	3.671358	-16.7864	3.683666	
20:19:45	0	0	0	-0.07830267	5.280128	0	3	99	0	50	3.680833	-16.69914	3.703784	
20:19:46	0	0	0	-0.4096128	-8.38102	0	3	99	0	50	3.65907	-16.73325	3.703165	
20:19:48	0	0	0	-0.2760224	0.4442135	0	3	99	0	50	3.662915	-16.79837	3.695839	
20:19:50	0	0	0	-0.2851002	1.142117	0	3	99	0	50	3.651829	-16.84503	3.711614	
20:19:51	0	0	0	-0.2706972	1.178067	0	3	99	0	50	3.625199	-16.86438	3.726918	
20:19:53	0	0	0	-0.04843345	7.215543	0	3	99	0	50	3.651538	-16.86464	3.749257	
20:19:55	0	0	0	-0.0593672	3.573137	0	3	99	0	50	3.662382	-16.85776	3.712263	
20:19:57	0	0	0	-0.1971736	-4.039886	0	3	99	0	50	3.675301	-16.82787	3.72941	
20:19:58	0	0	0	-0.1721953	-1.373334	0	3	99	0	50	3.670137	-16.85342	3.735276	
20:20:00	0	0	0	-0.3576009	-7.015046	0	3	99	0	50	3.724225	-16.82795	3.751532	
20:20:02	0	0	0	-0.2488819	2.912586	0	3	99	0	50	3.736997	-16.84151	3.706227	
20:20:03	0	0	0	-0.1612207	3.919043	0	3	99	0	50	3.720338	-16.85865	3.689853	
20:20:05	0	0	0	-0.007555981	7.778831	0	3	99	0	50	3.704903	-16.81014	3.703125	
20:20:07	0	0	0	0.1029047	5.354742	0	3	99	0	50	3.694778	-16.75892	3.719626	
20:20:08	0	0	0	-0.4147255	-18.3612	0	3	99	0	50	3.725243	-16.66714	3.751313	
20:20:10	0	0	0	-0.3378948	-3.427446	0	3	99	0	50	3.726211	-16.65976	3.738954	
20:20:12	0	0	0	-0.1275111	4.670559	0	3	99	0	50	3.764849	-16.62197	3.749471	
20:20:13	0	0	0	-0.2113377	-0.8927097	0	3	99	0	50	3.77797	-16.57415	3.745782	
20:20:15	0	0	0	-0.03518787	3.518601	0	3	99	0	50	3.780687	-16.62026	3.706304	
20:20:17	0	0	0	-0.1167343	-0.983319	0	3	99	0	50	3.815361	-16.62397	3.669265	
20:20:18	0	0	0	0.02110335	3.981474	0	3	99	0	50	3.842747	-16.63213	3.645429	
20:20:20	0	0	0	-0.3659143	-10.37095	0	3	99	0	50	3.853169	-16.67266	3.620816	
20:20:22	0	0	0	-0.07033406	4.854954	0	3	99	0	50	3.793537	-16.71688	3.603497	
20:20:23	0	0	0	-0.01580523	6.866246	0	3	99	0	50	3.792885	-16.75776	3.594083	
20:20:25	0	0	0	0.1584614	7.551135	0	3	99	0	50	3.762575	-16.698	3.611163	
20:20:27	0	0	0	0.05158268	-2.106829	0	3	99	0	50	3.764366	-16.65559	3.614252	
20:20:29	0	0	0	-0.1507592	-9.169712	0	3	99	0	50	3.767299	-16.68772	3.614351	
20:20:30	0	0	0	-0.02858352	2.115063	0	3	99	0	50	3.726733	-16.76155	3.609126	
20:20:32	0	0	0	-0.1297913	-2.922884	0	3	99	0	50	3.717127	-16.79042	3.613869	
20:20:34	0	0	0	-0.4064801	-9.202991	0	3	99	0	50	3.714967	-16.78638	3.630431	
20:20:35	0	0	0	-0.0515113	7.548908	0	3	99	0	50	3.655391	-16.77514	3.654186	
20:20:37	0	0	0	-0.03909016	4.058208	0	3	99	0	50	3.645283	-16.78714	3.696439	
20:20:39	0	0	0	0.02488214	5.415503	0	3	99	0	50	3.596932	-16.85547	3.748814	
20:20:40	0	0	0	-0.2708743	-8.657104	0	3	99	0	50	3.644007	-16.8093	3.761022	
20:20:42	0	0	0	-0.3308643	-6.334335	0	3	99	0	50	3.666626	-16.80679	3.757788	
20:20:44	0	0	0	-0.2625154	0.1744869	0	3	99	0	50	3.685585	-16.78479	3.731178	
20:20:45	0	0	0	-0.05375789	6.604867	0	3	99	0	50	3.662694	-16.80967	3.742325	
20:20:47	0	0	0	-0.06550662	1.56065	0	3	99	0	50	3.658816	-16.75998	3.788507	
20:20:49	0	0	0	-0.2692543	-5.561227	0	3	99	0	50	3.670561	-16.73603	3.804504	
20:20:50	0	0	0	-0.1559333	-0.6994296	0	3	99	0	50	3.692473	-16.72498	3.804173	
20:20:52	0	0	0	-0.4199722	-11.34379	0	3	99	0	50	3.70877	-16.62743	3.819003	
20:20:54	0	0	0	-0.2007732	5.761953	0	3	99	0	50	3.751524	-16.66589	3.79843	
20:20:56	0	0	0	-0.1077761	3.164571	0	3	99	0	50	3.777645	-16.70811	3.761757	
20:20:57	0	0	0	-0.328782	-2.633713	0	3	99	0	50	3.795596	-16.65989	3.75855	
20:20:59	0	0	0	-0.1466919	4.275025	0	3	99	0	50	3.775147	-16.62517	3.766258	
20:21:01	0	0	0	0.3164546	18.12003	0	3	99	0	50	3.783561	-16.60764	3.750037	
20:21:02	0	0	0	-0.185677	-8.05319	0	3	99	0	50	3.823886	-16.62246	3.686639	
20:21:04	0	0	0	-0.1129609	-1.403708	0	3	99	0	50	3.823148	-16.62791	3.661229	
20:21:06	0	0	0	-0.2049034	-4.72159	0	3	99	0	50	3.825016	-16.61714	3.645958	
20:21:07	0	0	0	0.05434135	7.709847	0	3	99	0	50	3.798633	-16.66749	3.634621	
20:21:09	0	0	0	-0.1609394	-4.018413	0	3	99	0	50	3.800057	-16.55646	3.667941	
20:21:11	0	0	0	-0.3221079	-7.952756	0	3	99	0	50	3.840059	-16.59093	3.63747	
20:21:12	0	0	0	-0.2040275	0.1361466	0	3	99	0	50	3.852666	-16.58539	3.607421	
20:21:14	0	0	0	-0.03096647	5.367935	0	3	99	0	50	3.821066	-16.49292	3.61866	
20:21:16	0	0	0	-0.2625841	-6.637222	0	3	99	0	50	3.784554	-16.53839	3.603748	
20:21:17	0	0	0	-0.4436808	-8.79824	0	3	99	0	50	3.79551	-16.55593	3.588743	
20:21:19	0	0	0	-0.5161312	-5.952683	0	3	99	0	50	3.778978	-16.6128	3.618857	
20:21:21	0	0	0	0.003215399	16.84336	0	3	99	0	50	3.784117	-16.62166	3.612722	
20:21:22	0	0	0	-0.1269249	-0.9893419	0	3	99	0	50	3.799169	-16.59388	3.612613	
20:21:24	0	0	0	-0.3934874	-9.468045	0	3	99	0	50	3.749027	-16.68891	3.597662	
20:21:26	0	0	0	-0.1466241	5.202538	0	3	99	0	50	3.686436	-16.73272	3.648254	
20:21:28	0	0	0	-0.0006400598	5.410667	0	3	99	0	50	3.697193	-16.71885	3.67204	
20:21:29	0	0	0	-0.1620201	-2.188497	0	3	99	0	50	3.728818	-16.75468	3.688892	
20:21:31	0	0	0	-0.07021417	-0.08345935	0	3	99	0	50	3.743818	-16.71325	3.715215	
20:21:33	0	0	0	0.03574482	4.472946	0	3	99	0	50	3.749542	-16.7049	3.6775	
20:21:34	0	0	0	-0.09290778	-4.095846	0	3	99	0	50	3.745786	-16.65145	3.70418	
20:21:36	0	0	0	0.1318564	7.719284	0	3	99	0	50	3.731704	-16.64431	3.693984	
20:21:38	0	0	0	-0.1634969	-6.619566	0	3	99	0	50	3.715252	-16.68861	3.720019	
20:21:39	0	0	0	-0.1042041	-2.071139	0	3	99	0	50	3.685313	-16.6647	3.718503	
20:21:41	0	0	0	-0.3473582	-12.23763	0	3	99	0	50	3.715572	-16.75552	3.721172	
20:21:43	0	0	0	-0.2965384	-1.671061	0	3	99	0	50	3.732771	-16.7214	3.736297	
20:21:44	0	0	0	-0.14315	5.862964	0	3	99	0	50	3.757479	-16.71794	3.737526	
20:21:46	0	0	0	0.07144994	10.21936	0	3	99	0	50	3.789662	-16.7386	3.711083	
20:21:48	0	0	0	0.1586341	6.850851	0	3	99	0	50	3.823159	-16.73356	3.68927	
20:21:49	0	0	0	0.01258983	-5.673271	0	3	99	0	50	3.792037	-16.70531	3.676388	
20:21:51	0	0	0	-0.08133489	-3.570882	0	3	99	0	50	3.79006	-16.75598	3.647285	
20:21:53	0	0	0	0.1153973	3.416157	0	3	99	0	50	3.752134	-16.78439	3.649203	
20:21:54	0	0	0	0.04671941	0.5536355	0	3	99	0	50	3.810354	-16.67676	3.665475	
20:21:56	0	0	0	0.09166542	0.6526855	0	3	99	0	50	3.853266	-16.69625	3.637663	
20:21:58	0	0	0	-0.04046123	-4.611788	0	3	99	0	50	3.833307	-16.69927	3.633905	
20:22:00	0	0	0	0.09936902	4.19721	0	3	99	0	50	3.788541	-16.81442	3.647245	
20:22:01	0	0	0	0.1640094	6.608119	0	3	99	0	50	3.775325	-16.7781	3.638838	
20:22:03	0	0	0	-0.03913425	-6.307215	0	3	99	0	50	3.742291	-16.82103	3.671864	
20:22:05	0	0	0	-0.1805732	-8.395094	0	3	99	0	50	3.707289	-16.80046	3.656839	
20:22:06	0	0	0	-0.206903	-0.9991366	0	3	99	0	50	3.688633	-16.80868	3.702252	
20:22:08	0	0	0	-0.03846001	3.725117	0	3	99	0	50	3.720762	-16.80036	3.681962	
20:22:10	0	0	0	-0.1508328	-2.834561	0	3	99	0	50	3.714944	-16.80822	3.678939	
20:22:11	0	0	0	-0.1635427	-2.99469	0	3	99	0	50	3.724425	-16.76593	3.671538	
20:22:13	0	0	0	-0.03722686	2.804856	0	3	99	0	50	3.739826	-16.79686	3.650286	
20:22:15	0	0	0	0.06567618	5.328879	0	3	99	0	50	3.709903	-16.82803	3.675634	
20:22:16	0	0	0	-0.0008887302	0.6640825	0	3	99	0	50	3.711346	-16.75231	3.686342	
20:22:18	0	0	0	0.06070009	5.045263	0	3	99	0	50	3.721642	-16.74089	3.695248	
20:22:20	0	0	0	0.1674618	4.930038	0	3	99	0	50	3.714664	-16.6867	3.701379	
20:22:21	0	0	0	-0.0003683036	-2.398085	0	3	99	0	50	3.700742	-16.75751	3.710344	
20:22:23	0	0	0	0.237444	5.478412	0	3	99	0	50	3.667338	-16.8047	3.696489	
20:22:25	0	0	0	-0.1088871	-12.26622	0	3	99	0	50	3.694724	-16.82285	3.712158	
20:22:26	0	0	0	0.09347931	3.16016	0	3	99	0	50	3.693077	-16.82881	3.687059	
20:22:28	0	0	0	0.08264321	-1.562569	0	3	99	0	50	3.729104	-16.77069	3.722776	
20:22:30	0	0	0	0.2358558	9.487538	0	3	99	0	50	3.731792	-16.71119	3.7308	
20:22:32	0	0	0	0.2382039	2.872385	0	3	99	0	50	3.717752	-16.64565	3.737032	
20:22:33	0	0	0	0.1150006	-3.585366	0	3	99	0	50	3.689448	-16.65505	3.731995	
20:22:35	0	0	0	-0.2163955	-12.91988	0	3	99	0	50	3.713082	-16.67262	3.733451	
20:22:37	0	0	0	0.006577579	7.413065	0	3	99	0	50	3.70212	-16.67176	3.761269	
20:22:38	0	0	0	0.3643762	14.77326	0	3	99	0	50	3.703262	-16.66918	3.77754	
20:22:40	0	0	0	0.2642685	1.028128	0	3	99	0	50	3.703397	-16.61894	3.789471	
20:22:42	0	0	0	0.10691	-5.234406	0	3	99	0	50	3.732423	-16.59419	3.788603	
20:22:43	0	0	0	0.0798362	-2.741391	0	3	99	0	50	3.726271	-16.58432	3.773134	
20:22:45	0	0	0	-0.1303464	-11.67268	0	3	99	0	50	3.703166	-16.63116	3.743956	
20:22:47	0	0	0	-0.06623162	-0.7954803	0	3	99	0	50	3.688471	-16.66084	3.73009	
20:22:48	0	0	0	0.2258227	9.938245	0	3	99	0	50	3.689675	-16.70568	3.74551	
20:22:50	0	0	0	-0.09849995	-10.38508	0	3	99	0	50	3.686674	-16.70777	3.778057	
20:22:52	0	0	0	-0.05325939	1.328788	0	3	99	0	50	3.693367	-16.75143	3.788333	
20:22:53	0	0	0	0.1487018	9.298322	0	3	99	0	50	3.715431	-16.70264	3.791193	
20:22:55	0	0	0	0.09647766	5.453695	0	3	99	0	50	3.697866	-16.70811	3.788071	
20:22:57	0	0	0	0.1435155	1.781203	0	3	99	0	50	3.734771	-16.68664	3.767499	
20:22:58	0	0	0	0.1408504	1.566312	0	3	99	0	50	3.737549	-16.6869	3.746047	
20:23:00	0	0	0	0.06829797	-0.8317716	0	3	99	0	50	3.72966	-16.6013	3.731182	
20:23:02	0	0	0	0.2434939	5.36723	0	3	99	0	50	3.731906	-16.61139	3.750188	
20:23:04	0	0	0	-0.04464536	-9.769045	0	3	99	0	50	3.70873	-16.58157	3.757954	
20:23:05	0	0	0	0.04269888	-4.071417	0	3	99	0	50	3.687809	-16.63909	3.750412	
20:23:07	0	0	0	0.005086702	-3.003526	0	3	99	0	50	3.69106	-16.67059	3.771792	
20:23:09	0	0	0	-0.08364978	-5.7198	0	3	99	0	50	3.687454	-16.63154	3.794462	
20:23:10	0	0	0	-0.1378626	-4.482647	0	3	99	0	50	3.71148	-16.62975	3.764056	
20:23:12	0	0	0	-0.1979675	-4.302465	0	3	99	0	50	3.728748	-16.64973	3.773471	
20:23:14	0	0	0	-0.05658343	2.634969	0	3	99	0	50	3.761058	-16.63343	3.770543	
20:23:15	0	0	0	0.1127038	8.455479	0	3	99	0	50	3.746661	-16.68708	3.743153	
20:23:17	0	0	0	0.2921588	10.50682	0	3	99	0	50	3.733806	-16.6433	3.752242	
20:23:19	0	0	0	-0.01178488	-6.463894	0	3	99	0	50	3.725569	-16.77015	3.726861	
20:23:20	0	0	0	0.1241947	0.1399408	0	3	99	0	50	3.746711	-16.7523	3.721635	
20:23:22	0	0	0	0.05029288	-2.837053	0	3	99	0	50	3.776269	-16.69587	3.690709	
20:23:24	0	0	0	-0.4046017	-19.4742	0	3	99	0	50	3.784469	-16.68228	3.688472	
20:23:25	0	0	0	-0.3286466	-4.794446	0	3	99	0	50	3.766977	-16.65337	3.698771	
20:23:27	0	0	0	-0.01500976	9.584798	0	3	99	0	50	3.762511	-16.65962	3.683726	
20:23:29	0	0	0	0.02971941	5.173432	0	3	100	0	50	3.747235	-16.66843	3.692	
20:23:30	0	0	0	0.1962352	8.122967	0	3	100	0	50	3.691693	-16.67323	3.740145	
20:23:32	0	0	0	0.1937971	3.649147	0	3	100	0	50	3.724119	-16.6209	3.762684	
20:23:34	0	0	0	0.4073368	10.2656	0	3	100	0	50	3.756687	-16.63311	3.742386	
20:23:36	0	0	0	0.2566037	-5.065981	0	3	100	0	50	3.757801	-16.57939	3.760465	
20:23:37	0	0	0	0.2787216	-0.2391801	0	3	100	0	50	3.750213	-16.63595	3.693213	
20:23:39	0	0	0	0.01377759	-11.54441	0	3	100	0	50	3.745688	-16.64632	3.675307	
20:23:41	0	0	0	0.02276453	-4.88538	0	3	100	0	50	3.724423	-16.73551	3.674548	
20:23:42	0	0	0	-0.1294144	-9.25052	0	3	100	0	50	3.707549	-16.74343	3.706124	
20:23:44	0	0	0	-0.1190152	-0.6189554	0	3	100	0	50	3.700276	-16.74798	3.704757	
20:23:46	0	0	0	0.1460073	4.236717	0	3	100	0	50	3.702335	-16.70839	3.697708	
20:23:47	0	0	0	-0.1115351	-7.479256	0	3	100	0	50	3.682359	-16.71736	3.713064	
20:23:49	0	0	0	0.0007618004	1.743376	0	3	100	0	50	3.693343	-16.71392	3.717627	
20:23:51	0	0	0	-0.08453529	-2.078651	0	3	100	0	50	3.706722	-16.70402	3.690051	
20:23:52	0	0	0	0.1730003	7.685407	0	3	100	0	50	3.712674	-16.70642	3.703646	
20:23:54	0	0	0	0.08738161	1.918451	0	3	100	0	50	3.697635	-16.72517	3.711181	
20:23:56	0	0	0	0.2446299	3.031669	0	3	100	0	50	3.68438	-16.82094	3.732817	
20:23:57	0	0	0	0.1667238	-1.929344	0	3	100	0	50	3.714821	-16.7875	3.707921	
20:23:59	0	0	0	0.418378	11.79526	0	3	100	0	50	3.737532	-16.69783	3.719467	
20:24:01	0	0	0	0.3297527	1.287352	0	3	100	0	50	3.718269	-16.67349	3.738377	
20:24:02	0	0	0	0.4606127	4.080577	0	3	100	0	50	3.730811	-16.65592	3.775542	
20:24:04	0	0	0	0.3140042	-2.041977	0	3	100	0	50	3.738828	-16.65775	3.766249	
20:24:06	0	0	0	-0.06496415	-15.2644	0	3	100	0	50	3.747618	-16.63394	3.723224	
20:24:08	0	0	0	0.1627057	1.204226	0	3	100	0	50	3.773427	-16.63399	3.717115	
20:24:09	0	0	0	0.2641161	1.827476	0	3	100	0	50	3.782896	-16.61042	3.677834	
20:24:11	0	0	0	0.07655332	-4.725183	0	3	100	0	50	3.766082	-16.6393	3.66504	
20:24:13	0	0	0	-0.1281465	-9.041338	0	3	100	0	50	3.753631	-16.6848	3.65305	
20:24:14	0	0	0	-0.3831823	-12.15139	0	3	100	0	50	3.732271	-16.65529	3.671946	
20:24:16	0	0	0	-0.3402168	-5.130702	0	3	100	0	50	3.717983	-16.65725	3.678372	
20:24:18	0	0	0	0.1117127	16.04473	0	3	100	0	50	3.703709	-16.67433	3.693489	
20:24:19	0	0	0	-0.08644827	-3.522309	0	3	100	0	50	3.671641	-16.66639	3.716002	
20:24:21	0	0	0	-0.6430099	-20.08951	0	3	100	0	50	3.72478	-16.68585	3.718175	
20:24:23	0	0	0	-0.4430596	1.323072	0	3	100	0	50	3.693928	-16.70436	3.77249	
20:24:24	0	0	0	-0.1346326	10.50649	0	3	100	0	50	3.710451	-16.69458	3.757088	
20:24:26	0	0	0	0.2241544	16.12267	0	3	100	0	50	3.700714	-16.70864	3.752492	
20:24:28	0	0	0	0.2013329	3.794217	0	3	100	0	50	3.704747	-16.73936	3.730317	
20:24:29	0	0	0	-0.3358987	-20.83549	0	3	100	0	50	3.725477	-16.76068	3.707703	
20:24:31	0	0	0	-0.1751945	1.880355	0	3	100	0	50	3.703913	-16.75174	3.726605	
20:24:33	0	0	0	0.2115974	12.55155	0	3	100	0	50	3.693023	-16.77607	3.766593	
20:24:34	0	0	0	-0.09768544	-8.029616	0	3	100	0	50	3.646041	-16.7944	3.796062	
20:24:36	0	0	0	-0.1961372	-5.327646	0	3	100	0	50	3.648473	-16.77602	3.827247	
20:24:38	0	0	0	-0.07617673	2.401244	0	3	100	0	50	3.666851	-16.81951	3.831569	
20:24:40	0	0	0	0.07558608	8.814577	0	3	100	0	50	3.669796	-16.81399	3.806485	
20:24:41	0	0	0	0.1567994	6.729749	0	3	100	0	50	3.68599	-16.76911	3.793604	
20:24:43	0	0	0	0.08225761	-0.7405034	0	3	100	0	50	3.678027	-16.74413	3.785564	
20:24:45	0	0	0	-0.006574607	-2.64559	0	3	100	0	50	3.713108	-16.73586	3.770795	
20:24:46	0	0	0	0.03384038	-0.05539933	0	3	100	0	50	3.716512	-16.69985	3.783951	
20:24:48	0	0	0	0.1403254	3.568105	0	3	100	0	50	3.737452	-16.63694	3.779592	
20:24:50	0	0	0	0.1758386	2.081955	0	3	100	0	50	3.729681	-16.63885	3.741281	
20:24:51	0	0	0	0.02370392	-5.097029	0	3	100	0	50	3.749887	-16.53817	3.764367	
20:24:53	0	0	0	-0.1140278	-5.496433	0	3	100	0	50	3.733019	-16.48098	3.758346	
20:24:55	0	0	0	-0.2940902	-11.96305	0	3	100	0	50	3.758515	-16.5606	3.775937	
20:24:56	0	0	0	-0.2016059	0.3642576	0	3	100	0	50	3.772307	-16.56367	3.763953	
20:24:58	0	0	0	0.06781504	11.30678	0	3	100	0	50	3.720722	-16.52328	3.778837	
20:25:00	0	0	0	0.4555101	16.0733	0	3	100	0	50	3.206489	-16.44335	6.46477	
20:25:01	0	0	0	0.1146401	-5.458498	0	3	100	0	50	3.224451	-16.50535	6.355901	
20:25:03	0	0	0	0.03972385	-6.325935	0	3	100	0	50	3.263363	-16.5648	6.232573	
20:25:05	0	0	0	-0.219721	-11.33585	0	3	100	0	50	3.251574	-16.57029	6.165096	
20:25:07	0	0	0	-0.1670152	-4.049439	0	3	100	0	50	2.548126	-16.32655	11.6886	
20:25:08	0	0	0	-0.3026501	-7.015065	0	3	100	0	50	2.431384	-16.37969	11.40346	
20:25:10	0	0	0	-0.1233521	2.104121	0	3	100	0	50	2.352176	-16.42206	11.20055	
20:25:12	0	0	0	-0.1789613	-3.531285	0	3	100	0	50	2.29387	-16.49673	11.05321	
20:25:13	0	0	0	0.02388923	5.455804	0	3	100	0	50	2.221797	-16.59993	10.94803	
20:25:15	0	0	0	-0.06537583	0.3232857	0	3	100	0	50	2.159485	-16.62716	10.89789	
20:25:17	0	0	0	-0.04172142	1.762639	0	3	100	0	50	2.096189	-16.61744	10.89456	
20:25:18	0	0	0	0.003988674	1.103763	0	3	100	0	50	2.02386	-16.56618	10.95352	
20:25:20	0	0	0	-0.04182106	-0.210442	0	3	100	0	50	2.003402	-16.55468	10.97192	
20:25:22	0	0	0	-0.2998059	-11.13919	0	3	100	0	50	1.951218	-16.5082	11.03645	
20:25:23	0	0	0	-0.07719211	3.75309	0	3	100	0	50	1.935507	-16.51063	11.08152	
20:25:25	0	0	0	-0.003042303	4.223617	0	3	100	0	50	1.922396	-16.47942	11.17007	
20:25:27	0	0	0	0.1587937	9.251378	0	3	100	0	50	1.915583	-16.34056	11.21593	
20:25:28	0	0	0	0.2939345	8.342749	0	3	100	0	50	1.904207	-16.37938	11.25055	
20:25:30	0	0	0	0.05097254	-4.756949	0	3	100	0	50	1.909454	-16.36283	11.31827	
20:25:32	0	0	0	0.2721335	7.453487	0	3	100	0	50	1.908419	-16.31804	11.3913	
20:25:33	0	0	0	0.2369145	2.096164	0	3	100	0	50	1.910565	-16.32699	11.4368	
20:25:35	0	0	0	0.009236041	-10.48202	0	3	100	0	50	1.945153	-16.33697	11.45492	
20:25:37	0	0	0	-0.09736427	-6.695195	0	3	100	0	50	1.913576	-16.40006	11.45873	
20:25:39	0	0	0	-0.1334592	-3.388429	0	3	100	0	50	1.978121	-16.44665	11.45698	
20:25:40	0	0	0	-0.1648668	-2.393296	0	3	100	0	50	1.948263	-16.44628	11.44226	
20:25:42	0	0	0	-0.1229935	0.6207932	0	3	100	0	50	1.955641	-16.39787	11.44253	
20:25:44	0	0	0	-0.1488533	-0.1338755	0	3	100	0	50	1.973962	-16.4677	11.45052	
20:25:45	0	0	0	-0.3223645	-9.215587	0	3	100	0	50	1.993342	-16.41989	11.42437	
20:25:47	0	0	0	-0.06809555	6.292593	0	3	100	0	50	1.986253	-16.43286	11.40546	
20:25:49	0	0	0	0.04745497	5.911978	0	3	100	0	50	1.980887	-16.38878	11.39023	
20:25:50	0	0	0	0.1042327	5.278102	0	3	100	0	50	1.975655	-16.43504	11.38539	
20:25:52	0	0	0	0.04133207	0.3239143	0	3	100	0	50	1.960098	-16.52749	11.36771	
20:25:54	0	0	0	-0.1436242	-7.290689	0	3	100	0	50	1.980901	-16.47822	11.37745	
20:25:55	0	0	0	-0.2220385	-3.45081	0	3	100	0	50	1.947966	-16.41808	11.41871	
20:25:57	0	0	0	-0.3190644	-6.792267	0	3	100	0	50	1.942648	-16.41654	11.43036	
20:25:59	0	0	0	-0.03409819	6.04072	0	3	100	0	50	1.956877	-16.43798	11.39533	
20:26:00	0	0	0	-0.04370594	3.983931	0	3	100	0	50	1.93911	-16.42532	11.39072	
20:26:02	0	0	0	0.2376497	12.34428	0	3	100	0	50	1.908587	-16.43544	11.42097	
20:26:04	0	0	0	-0.07713789	-7.83952	0	3	100	0	50	1.900184	-16.48049	11.44873	
20:26:05	0	0	0	-0.1239744	-4.077734	0	3	100	0	50	1.931779	-16.47778	11.46441	
20:26:07	0	0	0	-0.1768799	-5.669264	0	3	100	0	50	1.951224	-16.48464	11.44429	
20:26:09	0	0	0	-0.2865256	-3.02301	0	3	100	0	50	1.933501	-16.42927	11.49339	
20:26:11	0	0	0	-0.1307794	2.042551	0	3	100	0	50	1.904832	-16.43834	11.48951	
20:26:12	0	0	0	-0.2121397	-2.574087	0	3	100	0	50	1.909063	-16.39059	11.50451	
20:26:14	0	0	0	-0.2995593	-3.571021	0	3	100	0	50	1.925537	-16.36667	11.51046	
20:26:16	0	0	0	-0.02968109	10.30726	0	3	100	0	50	1.887845	-16.33576	11.5067	
20:26:17	0	0	0	-0.201253	-2.878829	0	3	100	0	50	1.886583	-16.3436	11.52728	
20:26:19	0	0	0	-0.1987351	0.105055	0	3	100	0	50	1.868464	-16.33508	11.52007	
20:26:21	0	0	0	-0.289175	-4.791819	0	3	100	0	50	1.886373	-16.30052	11.52268	
20:26:22	0	0	0	-0.4788995	-8.567078	0	3	100	0	50	1.890877	-16.32384	11.53167	
20:26:24	0	0	0	-0.1521005	10.78871	0	3	100	0	50	1.878156	-16.34603	11.53006	
20:26:26	0	0	0	0.1200939	14.19574	0	3	100	0	50	1.920139	-16.29115	11.52446	
20:26:27	0	0	0	0.01039951	1.536546	0	3	100	0	50	1.885249	-16.32791	11.50372	
20:26:29	0	0	0	-0.5069889	-19.76736	0	3	100	0	50	1.902385	-16.31767	11.4753	
20:26:31	0	0	0	-0.2255495	0.6491435	0	3	100	0	50	2.610543	-16.17339	18.94053	
20:26:32	0	0	0	-0.2126559	-13.77256	0	3	100	0	50	4.811099	-15.79977	14.68315	
20:26:34	0	0	0	-0.6705739	-20.67509	0	3	100	0	50	3.390631	-15.96287	14.33771	
20:26:36	0	0	0	-0.5271056	-3.075501	0	3	100	0	50	3.187667	-16.06453	14.05435	
20:26:37	0	0	0	-0.5775677	-2.222914	0	3	100	0	50	2.981986	-16.12197	13.88956	
20:26:39	0	0	0	-0.1901147	11.57259	0	3	100	0	50	2.776694	-16.22892	13.87967	
20:26:41	0	0	0	-0.101093	9.076779	0	3	100	0	50	2.608549	-16.30414	13.889	
20:26:43	0	0	0	0.04656142	9.446632	0	3	100	0	50	2.473663	-16.32561	13.95791	
20:26:44	0	0	0	-0.1736939	-1.664432	0	3	100	0	50	2.365169	-16.32504	14.06764	
20:26:46	0	0	0	-0.08098331	1.841473	0	3	100	0	50	2.25566	-16.29782	14.1938	
20:26:48	0	0	0	-0.1143827	0.4377002	0	3	100	0	50	2.176952	-16.27818	14.32372	
20:26:49	0	0	0	-0.04457088	1.640258	0	3	100	0	50	2.10715	-16.30141	14.41366	
20:26:51	0	0	0	-0.07260734	-0.6522098	0	3	100	0	50	2.057259	-16.22883	14.59475	
20:26:53	0	0	0	-0.02835928	-0.4274319	0	3	100	0	50	1.984797	-16.18782	14.51104	
20:26:54	0	0	0	-0.03986141	-1.632253	0	3	100	0	50	1.9607	-16.20297	14.69782	
20:26:56	0	0	0	-0.01997838	0.2202412	0	3	100	0	50	2.006526	-16.19016	14.83489	
20:26:58	0	0	0	-0.06706746	-2.484315	0	3	100	0	50	2.026379	-16.17545	14.95331	
20:26:59	0	0	0	-0.4157737	-13.60389	0	3	100	0	50	2.023604	-16.25021	15.01561	
20:27:01	0	0	0	-0.5298125	-9.13934	0	3	100	0	50	2.095827	-16.18444	15.03997	
20:27:03	0	0	0	-0.4657777	-1.798502	0	3	100	0	50	2.102015	-16.21645	15.03297	
20:27:04	0	0	0	-0.1678147	11.35297	0	3	100	0	50	2.118005	-16.20327	15.04933	
20:27:06	0	0	0	-0.01467323	8.901072	0	3	100	0	50	2.162424	-16.21755	15.04456	
20:27:08	0	0	0	-0.2260488	-4.281183	0	3	100	0	50	2.209706	-16.16662	15.022	
20:27:10	0	0	0	-0.3236732	-3.424849	0	3	100	0	50	2.231806	-16.10756	14.99789	
20:27:11	0	0	0	-0.3581566	-5.050239	0	3	100	0	50	2.265133	-16.12416	14.97987	
20:27:13	0	0	0	-0.4030691	-4.958552	0	3	100	0	50	2.275046	-16.05087	14.96123	
20:27:15	0	0	0	-0.2405282	3.706393	0	3	100	0	50	2.290863	-16.06656	14.92406	
20:27:16	0	0	0	-0.1522286	4.268119	0	3	100	0	50	2.28533	-16.07162	14.8839	
20:27:18	0	0	0	-0.0236348	6.840957	0	3	100	0	50	2.277456	-16.1025	14.87008	
20:27:20	0	0	0	-0.04044908	3.442182	0	3	100	0	50	2.246053	-16.12898	14.87141	
20:27:21	0	0	0	-0.163	-4.976514	0	3	100	0	50	2.25873	-16.0783	14.85486	
20:27:23	0	0	0	-0.3246714	-7.492772	0	3	100	0	50	2.273489	-16.0437	14.86996	
20:27:25	0	0	0	-0.1232578	3.396769	0	3	100	0	50	2.263355	-16.00705	14.86074	
20:27:26	0	0	0	-0.1209638	-0.8967664	0	3	100	0	50	2.248066	-15.99758	14.85393	
20:27:28	0	0	0	-0.2240559	-4.347788	0	3	100	0	50	2.251387	-16.03756	14.86653	
20:27:30	0	0	0	-0.5149868	-10.5077	0	3	100	0	50	2.244688	-16.04511	14.87697	
20:27:31	0	0	0	-0.2284523	7.028424	0	3	100	0	50	2.226646	-16.0675	14.87586	
20:27:33	0	0	0	-0.1046354	9.294395	0	3	100	0	50	2.265527	-16.06578	14.84388	
20:27:35	0	0	0	-0.01087174	5.300732	0	3	100	0	50	2.255051	-16.05033	14.86325	
20:27:36	0	0	0	-0.01994104	-0.3360998	0	3	100	0	50	2.22024	-16.042	14.87335	
20:27:38	0	0	0	-0.1929442	-5.595984	0	3	100	0	50	2.247551	-16.05698	14.89205	
20:27:40	0	0	0	-0.256364	-5.626403	0	3	100	0	50	2.268476	-16.12486	14.90312	
20:27:41	0	0	0	-0.07447867	5.528219	0	3	100	0	50	2.287639	-16.11503	14.88666	
20:27:43	0	0	0	-0.2708315	-7.199449	0	3	100	0	50	2.276567	-16.11041	14.87383	
20:27:45	0	0	0	-0.2034389	-1.541974	0	3	100	0	50	2.27272	-16.10193	14.85495	
20:27:47	0	0	0	-0.3314118	-6.335545	0	3	100	0	50	2.30038	-16.09271	14.82148	
20:27:48	0	0	0	-0.1723015	6.134914	0	3	100	0	50	2.308405	-16.12009	14.80933	
20:27:50	0	0	0	-0.05819006	6.434278	0	3	100	0	50	2.295611	-16.14774	14.78678	
20:27:52	0	0	0	0.05772943	6.358741	0	3	100	0	50	2.284676	-16.19496	14.75403	
20:27:53	0	0	0	-0.09280281	-5.203951	0	3	100	0	50	2.269346	-16.15984	14.7576	
20:27:55	0	0	0	-0.1434725	-3.527123	0	3	100	0	50	2.25056	-16.16695	14.78113	
20:27:57	0	0	0	-0.1822372	-3.277941	0	3	100	0	50	2.21683	-16.24075	14.76191	
20:27:58	0	0	0	-0.3959823	-11.43307	0	3	100	0	50	2.181361	-16.19716	14.79494	
20:28:00	0	0	0	-0.1893072	1.27184	0	3	100	0	50	2.17344	-16.24936	14.77953	
20:28:02	0	0	0	-0.2399383	-1.276309	0	3	100	0	50	2.173651	-16.22186	14.80353	
20:28:03	0	0	0	-0.3296028	-3.995729	0	3	100	0	50	2.152431	-16.16832	14.85924	
20:28:05	0	0	0	-0.3341021	-2.20142	0	3	100	0	50	2.185794	-16.14058	14.85291	
20:28:07	0	0	0	-0.4902397	-5.065648	0	3	100	0	50	2.548686	-16.13762	15.35475	
20:28:08	0	0	0	-0.4927624	-2.20578	0	3	100	0	50	2.251183	-16.06446	15.91005	
20:28:10	0	0	0	-0.4164995	0.5826219	0	3	100	0	50	2.291215	-16.06059	15.78137	
20:28:12	0	0	0	-0.5767051	-7.394878	0	3	100	0	50	2.303061	-16.10362	15.64255	
20:28:14	0	0	0	-0.2802632	8.914888	0	3	100	0	50	2.35296	-16.10087	15.71883	
20:28:15	0	0	0	-0.4155518	-3.673277	0	3	100	0	50	2.058579	-15.9915	15.71028	
20:28:17	0	0	0	-0.8249826	-17.61838	0	3	100	0	50	2.05121	-16.05014	15.70876	
20:28:19	0	0	0	-0.5455379	1.63625	0	3	100	0	50	2.081734	-16.08231	15.69664	
20:28:20	0	0	0	-0.3485376	9.878879	0	3	100	0	50	2.109783	-16.17664	15.70327	
20:28:22	0	0	0	-0.434278	-2.193729	0	3	100	0	50	2.020686	-16.12151	16.37624	
20:28:24	0	0	0	-0.2612333	5.194786	0	3	100	0	50	1.933589	-16.10279	16.71951	
20:28:25	0	0	0	-0.2338888	3.141694	0	3	100	0	50	1.72725	-16.18295	17.49431	
20:28:27	0	0	0	-0.3174062	-3.310117	0	3	100	0	50	1.734174	-16.22141	17.38567	
20:28:29	0	0	0	-0.7618881	-19.55188	0	3	100	0	50	1.687885	-16.19081	17.30691	
20:28:30	0	0	0	-0.9054104	-13.82547	0	3	100	0	50	1.68133	-16.17441	17.32263	
20:28:32	0	0	0	-0.9412084	-6.274364	0	3	100	0	50	1.641597	-16.15339	17.32776	
20:28:34	0	0	0	-0.756259	2.096983	0	3	100	0	50	1.642713	-16.12853	17.33427	
20:28:35	0	0	0	-0.9149922	-7.232376	0	3	100	0	50	1.611061	-16.15935	17.34171	
20:28:37	0	0	0	-0.7882633	3.234573	0	3	100	0	50	1.647068	-16.14351	17.34356	
20:28:39	0	0	0	-1.050768	-10.19367	0	3	100	0	50	1.614925	-16.12584	17.38166	
20:28:40	0	0	0	-0.825976	3.20076	0	3	100	0	50	1.759717	-16.08755	16.62727	
20:28:42	0	0	0	-0.6759266	5.682217	0	3	100	0	50	1.71313	-16.11194	16.72514	
20:28:44	0	0	0	-0.8357309	-4.019038	0	3	100	0	50	1.710421	-16.12057	16.79311	
20:28:45	0	0	0	-0.6571189	6.396206	0	3	100	0	50	1.719507	-16.05485	16.83153	
20:28:47	0	0	0	-0.6212418	3.601343	0	3	100	0	50	1.686674	-16.09144	16.89732	
20:28:49	0	0	0	-0.8077686	-4.565825	0	3	100	0	50	1.661386	-16.07497	16.97514	
20:28:51	0	0	0	-0.6358116	4.172029	0	3	100	0	50	1.678084	-16.05049	17.04015	
20:28:52	0	0	0	-0.6419923	1.607665	0	3	100	0	50	1.659101	-16.05377	17.10099	
20:28:54	0	0	0	-0.7957305	-4.822609	0	3	100	0	50	1.668895	-16.10073	17.10207	
20:28:56	0	0	0	-0.8021227	-1.00238	0	3	100	0	50	1.647256	-16.1675	17.088	
20:28:57	0	0	0	-0.6123378	7.04106	0	3	100	0	50	1.636336	-16.21703	17.08059	
20:28:59	0	0	0	-0.2635269	14.50796	0	3	100	0	50	1.669423	-16.13498	17.054	
20:29:01	0	0	0	-0.5630915	-5.571592	0	3	100	0	50	1.68515	-16.18944	17.05446	
20:29:02	0	0	0	-0.7288557	-8.724949	0	3	100	0	50	1.719775	-16.23068	17.05065	
20:29:04	0	0	0	-0.7965512	-5.127361	0	3	100	0	50	1.697639	-16.2254	17.03906	
20:29:06	0	0	0	-0.4252665	10.80988	0	3	100	0	50	1.666608	-16.16578	17.05841	
20:29:07	0	0	0	-0.5786858	-3.37646	0	3	100	0	50	1.708943	-16.10581	17.06186	
20:29:09	0	0	0	-0.6337184	-3.119637	0	3	100	0	50	1.729846	-16.08732	17.05846	
20:29:11	0	0	0	-0.7364371	-6.156693	0	3	100	0	50	1.737631	-15.99679	17.08402	
20:29:12	0	0	0	-0.7898575	-2.521319	0	3	100	0	50	1.755669	-16.03624	17.09474	
20:29:14	0	0	0	-0.7461771	1.183795	0	3	100	0	50	1.757417	-15.98684	17.06326	
20:29:16	0	0	0	-0.6905729	1.780795	0	3	100	0	50	1.745292	-15.99396	17.03609	
20:29:18	0	0	0	-0.2639883	18.70645	0	3	100	0	50	1.728155	-15.96873	17.06104	
20:29:19	0	0	0	-0.3730426	0.4825714	0	3	100	0	50	1.725985	-15.98656	17.07357	
20:29:21	0	0	0	-0.6552103	-9.206437	0	3	100	0	50	1.711162	-15.99609	17.07235	
20:29:23	0	0	0	-0.8752751	-11.45484	0	3	100	0	50	1.687477	-16.0464	17.07504	
20:29:24	0	0	0	-0.8856802	-5.362534	0	3	100	0	50	1.693835	-16.04341	17.07532	
20:29:26	0	0	0	-0.7090176	2.498373	0	3	100	0	50	1.661791	-16.11647	17.07344	
20:29:28	0	0	0	-0.9022312	-5.707198	0	3	100	0	50	1.721212	-16.06673	17.07694	
20:29:29	0	0	0	-0.8896147	-3.370914	0	3	100	0	50	1.711614	-16.04776	17.06695	
20:29:31	0	0	0	-0.9345243	-2.819471	0	3	100	0	50	1.67311	-16.03444	17.06088	
20:29:33	0	0	0	-0.9927155	-2.225561	0	3	100	0	50	1.642406	-16.02847	17.10232	
20:29:34	0	0	0	-1.090588	-7.346119	0	3	100	0	50	1.665136	-16.00418	17.13244	
20:29:36	0	0	0	-0.5023901	16.33161	0	3	100	0	50	1.677825	-16.0105	17.12914	
20:29:38	0	0	0	-0.4006208	12.11231	0	3	100	0	50	1.735067	-16.06212	17.10814	
20:29:39	0	0	0	-0.7349852	-8.875772	0	3	100	0	50	1.702422	-16.13731	17.0898	
20:29:41	0	0	0	-0.677608	1.036626	0	3	100	0	50	1.714828	-16.08746	17.06339	
20:29:43	0	0	0	-0.8648975	-6.877133	0	3	100	0	50	1.738653	-16.07321	17.04709	
20:29:44	0	0	0	-0.5947366	6.238556	0	3	100	0	50	1.719404	-16.12893	17.01979	
20:29:46	0	0	0	-0.835811	-3.6815	0	3	100	0	50	1.677257	-16.1715	16.99743	
20:29:48	0	0	0	-0.8312166	-0.5098306	0	3	100	0	50	1.67346	-16.12502	17.01136	
20:29:49	0	0	0	-0.6634862	5.898456	0	3	100	0	50	1.671634	-16.1461	16.98204	
20:29:51	0	0	0	-0.6144682	3.02235	0	3	100	0	50	1.640752	-16.07393	17.02201	
20:29:53	0	0	0	-0.3831975	9.448694	0	3	100	0	50	1.616015	-16.15289	17.02349	
20:29:55	0	0	0	-0.7661664	-10.98029	0	3	100	0	50	1.653677	-16.09832	17.03414	
20:29:56	0	0	0	-0.8711179	-6.24542	0	3	100	0	50	1.647251	-16.1052	17.05393	
20:29:58	0	0	0	-0.8039963	0.1386512	0	3	100	0	50	1.663993	-16.10639	17.02776	
20:30:00	0	0	0	-0.3879459	16.8192	0	3	100	0	50	1.648762	-16.12234	17.07585	
20:30:01	0	0	0	-0.2425291	10.43796	0	3	100	0	50	1.657121	-16.10205	17.12075	
20:30:03	0	0	0	-0.5643033	-8.943081	0	3	100	0	50	1.670787	-16.03078	17.12255	
20:30:05	0	0	0	-0.7291328	-11.30679	0	3	100	0	50	1.61577	-16.10833	17.10989	
20:30:06	0	0	0	-0.9212326	-12.33119	0	3	100	0	50	1.615265	-16.11228	17.14271	
20:30:08	0	0	0	-1.347934	-21.15441	0	3	100	0	50	1.622131	-16.17183	17.1424	
20:30:10	0	0	0	-1.408619	-12.36268	0	3	100	0	50	1.631574	-16.12058	17.12205	
20:30:11	0	0	0	-1.341085	-2.674256	0	3	100	0	50	1.601393	-16.16232	17.12499	
20:30:13	0	0	0	-1.276688	-0.3270525	0	3	100	0	50	1.591052	-16.21118	17.16227	
20:30:15	0	0	0	-1.361244	-5.785689	0	3	100	0	50	1.59295	-16.19289	17.18433	
20:30:16	0	0	0	-1.168009	4.05949	0	3	100	0	50	1.616955	-16.16415	17.19519	
20:30:18	0	0	0	-0.9020725	11.47532	0	3	100	0	50	1.678939	-16.09535	17.18232	
20:30:20	0	0	0	-0.6323195	16.68174	0	3	100	0	50	1.6688	-16.08879	17.18771	
20:30:21	0	0	0	-0.7524412	3.766991	0	3	100	0	50	1.677831	-16.06844	17.19995	
20:30:23	0	0	0	-0.3993441	13.93024	0	3	100	0	50	1.6959	-16.01961	17.18993	
20:30:25	0	0	0	-0.3638303	7.531477	0	3	100	0	50	1.699056	-15.99548	17.17488	
20:30:27	0	0	0	-0.6729819	-7.711349	0	3	100	0	50	1.724774	-16.02214	17.13296	
20:30:28	0	0	0	-0.3467303	5.526501	0	3	100	0	50	1.729695	-15.98854	17.13502	
