Date	Latitude(deg) 	Longitude(deg)	hamsl(m)	hafl(m)	climbrate(cm/s)	GroundSpeed(m/s)	Airspeed(m/s)	Mav_Link(%)	Rssi_Link(%)	Throttle	Roll(deg)	Pitch(deg)	Yaw(deg)
18:22:35	0	0	0	0	0	0	0	100	0	0	0	0	0	
18:22:35	0	0	0	0.605009	-0.2052447	0	3	100	0	50	0	0	0	
18:22:35	0	0	0	0.5947267	-1.170052	0	3	100	0	50	0	0	0	
18:22:35	0	0	0	0.5486027	-4.248504	0	3	100	0	50	0	0	0	
18:22:35	0	0	0	0.5360587	-5.508465	0	3	100	0	50	4.703044	1.096951	-78.19905	
18:22:36	0	0	0	0.6401994	0.1910767	0	3	100	0	50	4.703044	1.096951	-78.19905	
18:22:36	0	0	0	0.7660722	6.253679	0	3	100	0	50	4.703044	1.096951	-78.19905	
18:22:36	0	0	0	0.9968241	17.13617	0	3	100	0	50	4.703044	1.096951	-78.19905	
18:22:36	0	0	0	1.138365	21.98141	0	3	100	0	50	4.703044	1.096951	-78.19905	
18:22:36	0	0	0	1.120122	18.28929	0	3	100	0	50	4.710127	1.107017	-78.37631	
18:22:37	0	0	0	1.069708	13.56841	0	3	100	0	50	4.710127	1.107017	-78.37631	
18:22:37	0	0	0	0.9857084	7.494495	0	3	100	0	50	4.710127	1.107017	-78.37631	
18:22:37	0	0	0	0.9080544	2.171941	0	3	100	0	50	4.710127	1.107017	-78.37631	
18:22:37	0	0	0	0.8409753	-2.238285	0	3	100	0	50	4.710127	1.107017	-78.37631	
18:22:38	0	0	0	0.7720482	-6.0984	0	3	100	0	50	4.7082	1.071111	-78.51763	
18:22:38	0	0	0	0.7007528	-9.685791	0	3	100	0	50	4.7082	1.071111	-78.51763	
18:22:38	0	0	0	0.6354125	-12.8721	0	3	100	0	50	4.7082	1.071111	-78.51763	
18:22:38	0	0	0	0.6112872	-14.23291	0	3	100	0	50	4.7082	1.071111	-78.51763	
18:22:38	0	0	0	0.5014137	-18.38496	0	3	100	0	50	4.710053	1.037493	-78.62757	
18:22:39	0	0	0	0.4141595	-21.59806	0	3	100	0	50	4.710053	1.037493	-78.62757	
18:22:39	0	0	0	0.363888	-22.79671	0	3	100	0	50	4.710053	1.037493	-78.62757	
18:22:39	0	0	0	0.3184621	-23.3192	0	3	100	0	50	4.710053	1.037493	-78.62757	
18:22:39	0	0	0	0.2841035	-23.49652	0	3	100	0	50	4.710053	1.037493	-78.62757	
18:22:39	0	0	0	0.2564803	-23.34058	0	3	100	0	50	4.711347	1.025716	-78.68282	
18:22:40	0	0	0	0.2749541	-20.46884	0	3	100	0	50	4.711347	1.025716	-78.68282	
18:22:40	0	0	0	0.3082447	-16.93752	0	3	100	0	50	4.711347	1.025716	-78.68282	
18:22:40	0	0	0	0.3185933	-15.41098	0	3	100	0	50	4.711347	1.025716	-78.68282	
18:22:40	0	0	0	0.3241998	-14.38913	0	3	100	0	50	4.711347	1.025716	-78.68282	
18:22:40	0	0	0	0.341108	-12.43171	0	3	100	0	50	4.721231	1.010578	-78.71056	
18:22:41	0	0	0	0.3592794	-10.529	0	3	100	0	50	4.721231	1.010578	-78.71056	
18:22:41	0	0	0	0.3845785	-9.156498	0	3	100	0	50	4.721231	1.010578	-78.71056	
18:22:41	0	0	0	0.4070631	-7.772995	0	3	100	0	50	4.721231	1.010578	-78.71056	
18:22:41	0	0	0	0.3660327	-9.326872	0	3	100	0	50	4.721231	1.010578	-78.71056	
18:22:41	0	0	0	0.3141032	-12.16913	0	3	100	0	50	4.71257	1.016626	-78.6727	
18:22:42	0	0	0	0.2871127	-12.53762	0	3	100	0	50	4.71257	1.016626	-78.6727	
18:22:42	0	0	0	0.2678362	-12.59898	0	3	100	0	50	4.71257	1.016626	-78.6727	
18:22:42	0	0	0	0.2363286	-13.7203	0	3	100	0	50	4.71257	1.016626	-78.6727	
18:22:42	0	0	0	0.2052502	-14.24123	0	3	100	0	50	4.71257	1.016626	-78.6727	
18:22:42	0	0	0	0.149179	-16.27511	0	3	100	0	50	4.703967	1.026153	-78.67339	
18:22:43	0	0	0	0.09621549	-18.20181	0	3	100	0	50	4.703967	1.026153	-78.67339	
18:22:43	0	0	0	0.05969372	-18.45967	0	3	100	0	50	4.703967	1.026153	-78.67339	
18:22:43	0	0	0	0.03393637	-18.65675	0	3	100	0	50	4.703967	1.026153	-78.67339	
18:22:43	0	0	0	0.004665856	-18.0359	0	3	100	0	50	4.703967	1.026153	-78.67339	
18:22:44	0	0	0	-0.02334418	-18.37428	0	3	100	0	50	4.702147	1.016118	-78.68316	
18:22:44	0	0	0	-0.04934425	-18.3718	0	3	100	0	50	4.702147	1.016118	-78.68316	
18:22:44	0	0	0	-0.0731512	-18.29149	0	3	100	0	50	4.702147	1.016118	-78.68316	
18:22:44	0	0	0	-0.08824869	-17.66926	0	3	100	0	50	4.702147	1.016118	-78.68316	
18:22:44	0	0	0	-0.09761613	-17.06226	0	3	100	0	50	4.702147	1.016118	-78.68316	
18:22:45	0	0	0	-0.08345918	-15.79822	0	3	100	0	50	4.693407	0.9959501	-78.61124	
18:22:45	0	0	0	-0.03854495	-11.74771	0	3	100	0	50	4.693407	0.9959501	-78.61124	
18:22:45	0	0	0	-0.002180938	-8.931441	0	3	100	0	50	4.693407	0.9959501	-78.61124	
18:22:45	0	0	0	0.0280553	-6.693203	0	3	100	0	50	4.693407	0.9959501	-78.61124	
18:22:45	0	0	0	0.05467115	-4.997547	0	3	100	0	50	4.693407	0.9959501	-78.61124	
18:22:46	0	0	0	0.0746402	-3.380916	0	3	100	0	50	4.660477	0.9712277	-78.53961	
18:22:46	0	0	0	0.1081207	-1.653386	0	3	100	0	50	4.660477	0.9712277	-78.53961	
18:22:46	0	0	0	0.2033815	3.380453	0	3	100	0	50	4.660477	0.9712277	-78.53961	
18:22:46	0	0	0	0.2605224	5.939467	0	3	100	0	50	4.660477	0.9712277	-78.53961	
18:22:46	0	0	0	0.2791413	6.291639	0	3	100	0	50	4.660477	0.9712277	-78.53961	
18:22:47	0	0	0	0.3043176	6.906436	0	3	100	0	50	4.663865	0.9585844	-78.49899	
18:22:47	0	0	0	0.3456711	7.728615	0	3	100	0	50	4.663865	0.9585844	-78.49899	
18:22:47	0	0	0	0.3828956	8.849775	0	3	100	0	50	4.663865	0.9585844	-78.49899	
18:22:47	0	0	0	0.4394302	10.49273	0	3	100	0	50	4.663865	0.9585844	-78.49899	
18:22:47	0	0	0	0.5005255	11.88742	0	3	100	0	50	4.663865	0.9585844	-78.49899	
18:22:48	0	0	0	0.569163	13.81564	0	3	98	0	50	4.68459	0.979	-78.47123	
18:22:48	0	0	0	0.7011091	16.96579	0	3	98	0	50	4.68459	0.979	-78.47123	
18:22:48	0	0	0	0.7580456	17.86493	0	3	98	0	50	4.68459	0.979	-78.47123	
18:22:48	0	0	0	0.7710198	16.63308	0	3	98	0	50	4.68459	0.979	-78.47123	
18:22:49	0	0	0	0.7713231	14.7577	0	3	98	0	50	4.680092	0.9415075	-78.4251	
18:22:49	0	0	0	0.776291	13.67327	0	3	98	0	50	4.680092	0.9415075	-78.4251	
18:22:49	0	0	0	0.7811525	11.89099	0	3	98	0	50	4.680092	0.9415075	-78.4251	
18:22:49	0	0	0	0.7070763	6.511199	0	3	98	0	50	4.680092	0.9415075	-78.4251	
18:22:49	0	0	0	0.6203336	1.429329	0	3	98	0	50	4.680092	0.9415075	-78.4251	
18:22:49	0	0	0	0.5348532	-3.797657	0	3	98	0	50	4.666085	0.9328806	-78.3348	
18:22:50	0	0	0	0.4553977	-7.994525	0	3	98	0	50	4.666085	0.9328806	-78.3348	
18:22:50	0	0	0	0.3790183	-11.10773	0	3	98	0	50	4.666085	0.9328806	-78.3348	
18:22:50	0	0	0	0.3107214	-14.15282	0	3	98	0	50	4.666085	0.9328806	-78.3348	
18:22:50	0	0	0	0.2241396	-17.21864	0	3	98	0	50	4.666085	0.9328806	-78.3348	
18:22:51	0	0	0	0.1452639	-19.97037	0	3	98	0	50	4.629584	0.9762771	-78.21611	
18:22:51	0	0	0	0.08306376	-21.9292	0	3	98	0	50	4.629584	0.9762771	-78.21611	
18:22:51	0	0	0	0.02290996	-23.58355	0	3	98	0	50	4.629584	0.9762771	-78.21611	
18:22:51	0	0	0	0.009862418	-22.37941	0	3	99	0	50	4.629584	0.9762771	-78.21611	
18:22:51	0	0	0	0.0178702	-20.04998	0	3	99	0	50	4.629584	0.9762771	-78.21611	
18:22:52	0	0	0	0.05775806	-16.45795	0	3	99	0	50	4.626251	0.9296281	-78.17486	
18:22:52	0	0	0	0.1147421	-12.02622	0	3	99	0	50	4.626251	0.9296281	-78.17486	
18:22:52	0	0	0	0.1321771	-10.56284	0	3	99	0	50	4.626251	0.9296281	-78.17486	
18:22:52	0	0	0	0.1420931	-8.912422	0	3	99	0	50	4.626251	0.9296281	-78.17486	
18:22:52	0	0	0	0.1540301	-8.154305	0	3	99	0	50	4.626251	0.9296281	-78.17486	
18:22:53	0	0	0	0.1650567	-7.013797	0	3	99	0	50	4.591598	0.8779184	-78.10673	
18:22:53	0	0	0	0.1681119	-6.684906	0	3	99	0	50	4.591598	0.8779184	-78.10673	
18:22:53	0	0	0	0.1689813	-6.565853	0	3	99	0	50	4.591598	0.8779184	-78.10673	
18:22:53	0	0	0	0.165501	-6.21244	0	3	99	0	50	4.591598	0.8779184	-78.10673	
18:22:53	0	0	0	0.1422871	-6.758267	0	3	99	0	50	4.591598	0.8779184	-78.10673	
18:22:54	0	0	0	0.1315805	-6.70248	0	3	99	0	50	4.555512	0.855386	-78.03693	
18:22:54	0	0	0	0.1439095	-5.766938	0	3	99	0	50	4.555512	0.855386	-78.03693	
18:22:54	0	0	0	0.1521684	-5.111015	0	3	99	0	50	4.555512	0.855386	-78.03693	
18:22:54	0	0	0	0.1578986	-4.316137	0	3	99	0	50	4.555512	0.855386	-78.03693	
18:22:54	0	0	0	0.1644699	-3.579237	0	3	99	0	50	4.555512	0.855386	-78.03693	
18:22:55	0	0	0	0.1719391	-3.019575	0	3	99	0	50	4.563086	0.8494889	-77.91685	
18:22:55	0	0	0	0.179987	-2.880654	0	3	99	0	50	4.563086	0.8494889	-77.91685	
18:22:55	0	0	0	0.1960537	-1.886449	0	3	99	0	50	4.563086	0.8494889	-77.91685	
18:22:55	0	0	0	0.2016705	-1.664435	0	3	99	0	50	4.563086	0.8494889	-77.91685	
18:22:55	0	0	0	0.170074	-3.332755	0	3	99	0	50	4.563086	0.8494889	-77.91685	
18:22:56	0	0	0	0.1454075	-4.394258	0	3	99	0	50	4.600084	0.848021	-77.76072	
18:22:56	0	0	0	0.1354503	-4.395618	0	3	99	0	50	4.600084	0.848021	-77.76072	
18:22:56	0	0	0	0.1367508	-3.838314	0	3	99	0	50	4.600084	0.848021	-77.76072	
18:22:56	0	0	0	0.1512673	-2.868891	0	3	99	0	50	4.600084	0.848021	-77.76072	
18:22:56	0	0	0	0.1742327	-1.950941	0	3	99	0	50	4.600084	0.848021	-77.76072	
18:22:57	0	0	0	0.2122886	0.3061621	0	3	99	0	50	4.605073	0.8726604	-77.65961	
18:22:57	0	0	0	0.248138	2.326359	0	3	99	0	50	4.605073	0.8726604	-77.65961	
18:22:57	0	0	0	0.2656605	3.00018	0	3	99	0	50	4.605073	0.8726604	-77.65961	
18:22:57	0	0	0	0.2769383	3.080554	0	3	99	0	50	4.605073	0.8726604	-77.65961	
18:22:57	0	0	0	0.268006	2.063826	0	3	99	0	50	4.605073	0.8726604	-77.65961	
18:22:58	0	0	0	0.2669621	1.576925	0	3	99	0	50	4.606684	0.9032896	-77.61314	
18:22:58	0	0	0	0.2838082	2.008079	0	3	99	0	50	4.606684	0.9032896	-77.61314	
18:22:58	0	0	0	0.3011234	2.381656	0	3	99	0	50	4.606684	0.9032896	-77.61314	
18:22:58	0	0	0	0.2738981	0.6948521	0	3	99	0	50	4.606684	0.9032896	-77.61314	
18:22:58	0	0	0	0.2389792	-1.531361	0	3	99	0	50	4.606684	0.9032896	-77.61314	
18:22:59	0	0	0	0.2387437	-1.917195	0	3	99	0	50	4.59417	0.8568896	-77.58341	
18:22:59	0	0	0	0.2468312	-1.802847	0	3	99	0	50	4.59417	0.8568896	-77.58341	
18:22:59	0	0	0	0.2193127	-2.402747	0	3	99	0	50	4.59417	0.8568896	-77.58341	
18:22:59	0	0	0	0.1911997	-4.293345	0	3	99	0	50	4.59417	0.8568896	-77.58341	
18:22:59	0	0	0	0.2030106	-3.274348	0	3	99	0	50	4.59417	0.8568896	-77.58341	
18:23:00	0	0	0	0.2187313	-2.401809	0	3	99	0	50	4.575657	0.8502239	-77.50592	
18:23:00	0	0	0	0.2385455	-1.699077	0	3	99	0	50	4.575657	0.8502239	-77.50592	
18:23:00	0	0	0	0.2579016	-0.5599083	0	3	99	0	50	4.575657	0.8502239	-77.50592	
18:23:00	0	0	0	0.3131003	2.48662	0	3	98	0	50	4.575657	0.8502239	-77.50592	
18:23:01	0	0	0	0.4274132	7.668768	0	3	98	0	50	4.574798	0.8769498	-77.41738	
18:23:01	0	0	0	0.4736423	9.484019	0	3	98	0	50	4.574798	0.8769498	-77.41738	
18:23:01	0	0	0	0.4827217	9.180349	0	3	98	0	50	4.574798	0.8769498	-77.41738	
18:23:01	-6.795874	38.98538	118.653	0.4801289	7.821587	0.63	3	98	0	50	4.574798	0.8769498	-77.41738	
18:23:01	-6.795878	38.98537	119.352	0.5164367	9.391734	0.42	3	98	0	50	4.574798	0.8769498	-77.41738	
18:23:02	-6.79588	38.98537	119.975	0.5611351	10.30138	0.37	3	98	0	50	4.586473	0.9033518	-77.34361	
18:23:02	-6.795882	38.98537	120.668	0.5369775	7.760856	0.24	3	98	0	50	4.586473	0.9033518	-77.34361	
18:23:02	-6.795883	38.98536	120.811	0.4991351	4.549077	0.32	3	98	0	50	4.586473	0.9033518	-77.34361	
18:23:02	-6.795886	38.98536	121.622	0.4452359	1.089976	0.22	3	98	0	50	4.586473	0.9033518	-77.34361	
18:23:02	-6.795887	38.98536	122.257	0.3910524	-2.141037	0.19	3	98	0	50	4.586473	0.9033518	-77.34361	
18:23:03	-6.795887	38.98536	122.379	0.3479167	-4.484584	0.55	3	98	0	50	4.600868	0.8761317	-77.3226	
18:23:03	-6.795888	38.98536	122.845	0.3050606	-6.625322	0.74	3	98	0	50	4.600868	0.8761317	-77.3226	
18:23:03	-6.79589	38.98536	123.686	0.2831017	-6.742985	0.26	3	98	0	50	4.600868	0.8761317	-77.3226	
18:23:03	-6.795893	38.98536	124.881	0.3251842	-3.910212	0.38	3	98	0	50	4.600868	0.8761317	-77.3226	
18:23:03	-6.795895	38.98536	125.845	0.3570282	-2.217311	0.18	3	98	0	50	4.600868	0.8761317	-77.3226	
18:23:04	-6.795897	38.98535	126.882	0.3610173	-2.18207	0.39	3	98	0	50	4.598505	0.8695226	-77.27226	
18:23:04	-6.795899	38.98535	127.651	0.3655016	-1.607967	0.19	3	98	0	50	4.598505	0.8695226	-77.27226	
18:23:04	-6.795902	38.98535	128.421	0.3714823	-1.346886	0.26	3	98	0	50	4.598505	0.8695226	-77.27226	
18:23:04	-6.795904	38.98534	129.109	0.350613	-2.085915	0.64	3	98	0	50	4.598505	0.8695226	-77.27226	
18:23:04	-6.795907	38.98534	129.951	0.2935884	-4.753289	0.53	3	98	0	50	4.598505	0.8695226	-77.27226	
18:23:05	-6.795907	38.98534	130.402	0.249512	-6.693483	0.16	3	98	0	50	4.58668	0.8460712	-77.24636	
18:23:05	-6.795909	38.98534	130.959	0.2131206	-8.429124	0.11	3	98	0	50	4.58668	0.8460712	-77.24636	
18:23:05	-6.795909	38.98534	131.473	0.1610068	-10.78008	0.02	3	98	0	50	4.58668	0.8460712	-77.24636	
18:23:05	-6.795909	38.98534	131.792	0.04435265	-16.05527	0.09	3	98	0	50	4.58668	0.8460712	-77.24636	
18:23:05	-6.795911	38.98534	131.903	-0.05152196	-20.19605	0.59	3	98	0	50	4.58668	0.8460712	-77.24636	
18:23:06	-6.795911	38.98534	131.929	-0.105219	-20.78681	0.52	3	98	0	50	4.576015	0.8810078	-77.18551	
18:23:06	-6.795911	38.98534	132.027	-0.144104	-21.21658	0.19	3	99	0	50	4.576015	0.8810078	-77.18551	
18:23:06	-6.795911	38.98534	132.127	-0.1519239	-19.94971	0.47	3	99	0	50	4.576015	0.8810078	-77.18551	
18:23:06	-6.79591	38.98534	131.904	-0.1612121	-18.67693	0.16	3	99	0	50	4.576015	0.8810078	-77.18551	
18:23:06	-6.795911	38.98534	132.018	-0.1785266	-18.53335	0.34	3	99	0	50	4.576015	0.8810078	-77.18551	
18:23:07	-6.795911	38.98534	131.911	-0.1910216	-18.09873	0.14	3	99	0	50	4.576015	0.8810078	-77.18551	
18:23:07	-6.795911	38.98534	131.837	-0.1944839	-16.44792	0.22	3	99	0	50	4.576015	0.8810078	-77.18551	
18:23:07	-6.795911	38.98534	131.695	-0.2057292	-15.3828	0.07	3	99	0	50	4.576015	0.8810078	-77.18551	
18:23:07	-6.795911	38.98534	131.431	-0.2548649	-16.82038	0.14	3	99	0	50	4.576015	0.8810078	-77.18551	
18:23:07	-6.79591	38.98534	131.146	-0.304415	-18.25629	0.22	3	99	0	50	4.576015	0.8810078	-77.18551	
18:23:08	-6.79591	38.98534	130.937	-0.3469504	-19.31704	0.39	3	99	0	50	4.549598	0.9385591	-77.13009	
18:23:08	-6.795909	38.98534	130.705	-0.3831346	-19.28158	0.39	3	99	0	50	4.549598	0.9385591	-77.13009	
18:23:08	-6.795909	38.98534	130.453	-0.3826083	-17.10224	0.44	3	99	0	50	4.549598	0.9385591	-77.13009	
18:23:08	-6.795909	38.98534	130.33	-0.3713066	-14.65591	0.44	3	99	0	50	4.549598	0.9385591	-77.13009	
18:23:08	-6.795909	38.98534	130.197	-0.3486348	-12.30089	0.33	3	99	0	50	4.549598	0.9385591	-77.13009	
18:23:09	-6.795909	38.98534	130.07	-0.320137	-9.995092	1.15	3	99	0	50	4.539029	0.899747	-77.10577	
18:23:09	-6.795908	38.98534	129.938	-0.3484443	-10.72258	1.03	3	99	0	50	4.539029	0.899747	-77.10577	
18:23:09	-6.795908	38.98534	129.889	-0.3851234	-11.77079	0.52	3	99	0	50	4.539029	0.899747	-77.10577	
18:23:09	-6.795907	38.98534	129.915	-0.4110701	-11.66954	0.63	3	99	0	50	4.539029	0.899747	-77.10577	
18:23:09	-6.795907	38.98534	130.04	-0.4327532	-11.80296	0.26	3	99	0	50	4.539029	0.899747	-77.10577	
18:23:10	-6.795907	38.98534	130.299	-0.4128184	-9.561827	0.69	3	99	0	50	4.549562	0.8725314	-77.0867	
18:23:10	-6.795907	38.98534	130.525	-0.3845908	-7.596949	0.36	3	99	0	50	4.549562	0.8725314	-77.0867	
18:23:10	-6.795907	38.98534	130.787	-0.3199069	-3.066814	0.29	3	99	0	50	4.549562	0.8725314	-77.0867	
18:23:10	-6.795907	38.98534	130.97	-0.2507923	0.8577719	0.19	3	99	0	50	4.549562	0.8725314	-77.0867	
18:23:10	-6.795908	38.98534	131.112	-0.178059	4.684964	0.22	3	99	0	50	4.549562	0.8725314	-77.0867	
18:23:11	-6.795908	38.98534	131.298	-0.09922263	8.81152	0.31	3	99	0	50	4.547643	0.8927727	-77.05629	
18:23:11	-6.795908	38.98534	131.368	-0.07311413	9.434548	0.21	3	99	0	50	4.547643	0.8927727	-77.05629	
18:23:11	-6.795908	38.98534	131.512	-0.06205883	9.117934	0.16	3	99	0	50	4.547643	0.8927727	-77.05629	
18:23:11	-6.795909	38.98534	131.683	-0.06372698	8.178218	0.29	3	99	0	50	4.547643	0.8927727	-77.05629	
18:23:11	-6.795908	38.98534	131.618	-0.06994218	6.612273	0.19	3	99	0	50	4.547643	0.8927727	-77.05629	
18:23:12	-6.795908	38.98534	131.569	-0.091101	4.941206	0.26	3	99	0	50	4.546671	0.9066811	-77.03557	
18:23:12	-6.795908	38.98534	131.756	-0.1147174	3.23773	0.11	3	99	0	50	4.546671	0.9066811	-77.03557	
18:23:12	-6.795908	38.98534	131.848	-0.1675235	0.1898352	0.13	3	99	0	50	4.546671	0.9066811	-77.03557	
18:23:12	-6.795908	38.98534	131.806	-0.2187392	-2.244407	0.16	3	99	0	50	4.546671	0.9066811	-77.03557	
18:23:12	-6.795908	38.98534	131.713	-0.2440309	-3.808	0.18	3	99	0	50	4.546671	0.9066811	-77.03557	
18:23:13	-6.795907	38.98534	131.818	-0.2646732	-5.015727	0.32	3	99	0	50	4.553304	0.9061698	-77.00629	
18:23:13	-6.795907	38.98534	132.106	-0.2942258	-5.866811	0.14	3	98	0	50	4.553304	0.9061698	-77.00629	
18:23:13	-6.795907	38.98534	132.189	-0.4262324	-11.37687	0.58	3	98	0	50	4.553304	0.9061698	-77.00629	
18:23:13	-6.795907	38.98534	132.508	-0.4993458	-13.96127	0.06	3	98	0	50	4.553304	0.9061698	-77.00629	
18:23:14	-6.795907	38.98534	132.58	-0.5531278	-15.23975	0.14	3	98	0	50	12.02794	-0.1806678	-76.43018	
18:23:14	-6.795907	38.98534	132.571	-0.5945069	-17.50576	0.52	3	98	0	50	12.02794	-0.1806678	-76.43018	
18:23:14	-6.795906	38.98534	132.608	-0.6322435	-18.78528	0.35	3	98	0	50	12.02794	-0.1806678	-76.43018	
18:23:14	-6.795906	38.98534	132.561	-0.6698994	-17.75517	0.51	3	98	0	50	12.02794	-0.1806678	-76.43018	
18:23:14	-6.795905	38.98534	132.456	-0.6970029	-19.35285	0.47	3	98	0	50	12.02794	-0.1806678	-76.43018	
18:23:15	-6.795905	38.98534	132.609	-0.7136614	-20.62521	0.33	3	98	0	50	5.171221	0.8515037	-76.22389	
18:23:15	-6.795906	38.98534	132.665	-0.7188355	-19.48083	0.26	3	98	0	50	5.171221	0.8515037	-76.22389	
18:23:15	-6.795906	38.98534	132.509	-0.6890503	-16.11867	1.03	3	98	0	50	5.171221	0.8515037	-76.22389	
18:23:15	-6.795906	38.98534	132.148	-0.6551858	-12.82642	0.94	3	98	0	50	5.171221	0.8515037	-76.22389	
18:23:15	-6.795907	38.98534	131.509	-0.603211	-8.824005	1.26	3	98	0	50	5.171221	0.8515037	-76.22389	
18:23:16	-6.795906	38.98534	131.268	-0.573676	-6.138345	0.17	3	98	0	50	5.135492	0.8443006	-76.23942	
18:23:16	-6.795906	38.98534	130.804	-0.5680137	-5.118192	0.42	3	98	0	50	5.135492	0.8443006	-76.23942	
18:23:16	-6.795905	38.98534	130.649	-0.568032	-4.341239	0.41	3	98	0	50	5.135492	0.8443006	-76.23942	
18:23:16	-6.795904	38.98534	130.479	-0.5765952	-4.293643	0.18	3	98	0	50	5.135492	0.8443006	-76.23942	
18:23:16	-6.795902	38.98534	130.12	-0.583387	-3.961044	0.21	3	98	0	50	5.135492	0.8443006	-76.23942	
18:23:17	-6.795902	38.98534	129.729	-0.5923186	-4.014907	0.28	3	98	0	50	5.136404	0.8083305	-76.24959	
18:23:17	-6.795901	38.98534	129.716	-0.6013857	-4.004157	0.39	3	98	0	50	5.136404	0.8083305	-76.24959	
18:23:17	-6.795899	38.98534	129.818	-0.6153313	-4.670725	0.34	3	98	0	50	5.136404	0.8083305	-76.24959	
18:23:17	-6.795898	38.98535	129.691	-0.6145377	-4.010612	0.14	3	98	0	50	5.136404	0.8083305	-76.24959	
18:23:17	-6.795897	38.98535	128.921	-0.5615025	-0.3670515	0.39	3	98	0	50	5.136404	0.8083305	-76.24959	
18:23:18	-6.795897	38.98535	128.63	-0.5084894	1.674561	0.14	3	98	0	50	6.756882	0.5698089	-76.11774	
18:23:18	-6.795896	38.98535	128.326	-0.5678363	-1.325934	0.47	3	98	0	50	6.756882	0.5698089	-76.11774	
18:23:18	-6.795895	38.98535	127.849	-0.6447636	-5.081718	0.18	3	98	0	50	6.756882	0.5698089	-76.11774	
18:23:18	-6.795895	38.98535	126.9	-0.6776128	-7.525078	0.55	3	98	0	50	6.756882	0.5698089	-76.11774	
18:23:18	-6.795895	38.98535	126.36	-0.7034187	-9.284839	0.58	3	98	0	50	6.756882	0.5698089	-76.11774	
18:23:19	-6.795894	38.98535	126.471	-0.7367967	-10.641	0.22	3	98	0	50	1.296901	0.7311364	-76.21333	
18:23:19	-6.795892	38.98536	127.104	-0.7623282	-13.2527	0.52	3	98	0	50	1.296901	0.7311364	-76.21333	
18:23:19	-6.795891	38.98536	127.006	-0.7725874	-12.62993	0.58	3	98	0	50	1.296901	0.7311364	-76.21333	
18:23:19	-6.79589	38.98536	125.812	-0.7776967	-12.51122	0.16	3	98	0	50	1.296901	0.7311364	-76.21333	
18:23:19	-6.795889	38.98536	125.789	-0.7258897	-10.10544	0.88	3	98	0	50	1.296901	0.7311364	-76.21333	
18:23:20	-6.795889	38.98536	125.467	-0.6657152	-8.30775	0.47	3	98	0	50	5.486447	0.7287421	-75.92019	
18:23:20	-6.795888	38.98536	126.028	-0.6002023	-4.047061	0.19	3	98	0	50	5.486447	0.7287421	-75.92019	
18:23:20	-6.795887	38.98536	126.396	-0.5376643	0.06728694	0.03	3	98	0	50	5.486447	0.7287421	-75.92019	
18:23:20	-6.795887	38.98536	126.239	-0.4961817	2.392378	0.18	3	98	0	50	5.486447	0.7287421	-75.92019	
18:23:20	-6.795887	38.98536	126.156	-0.4553927	4.910487	0.26	3	98	0	50	5.486447	0.7287421	-75.92019	
18:23:21	-6.795887	38.98536	125.973	-0.3893826	8.200961	0.29	3	99	0	50	5.090911	0.8431235	-75.94136	
18:23:21	-6.795886	38.98536	125.69	-0.3236888	10.53477	0.41	3	99	0	50	5.090911	0.8431235	-75.94136	
18:23:21	-6.795886	38.98536	124.938	-0.2621118	13.09184	0.58	3	99	0	50	5.090911	0.8431235	-75.94136	
18:23:21	-6.795885	38.98536	124.061	-0.2027006	14.3794	0.39	3	99	0	50	5.090911	0.8431235	-75.94136	
18:23:21	-6.795884	38.98536	122.901	-0.1352947	16.26548	0.85	3	99	0	50	5.090911	0.8431235	-75.94136	
18:23:22	-6.795884	38.98536	122.508	-0.07167398	18.32503	0.21	3	99	0	50	5.069636	0.9041262	-76.00056	
18:23:22	-6.795884	38.98536	122.584	-0.01254168	20.40322	0.18	3	99	0	50	5.069636	0.9041262	-76.00056	
18:23:22	-6.795884	38.98536	122.722	0.03959274	21.44968	0.22	3	99	0	50	5.069636	0.9041262	-76.00056	
18:23:22	-6.795883	38.98536	123.174	0.09356284	22.4125	0.22	3	98	0	50	5.069636	0.9041262	-76.00056	
18:23:23	-6.795883	38.98536	122.72	0.1833429	22.67789	0.64	3	98	0	50	5.066498	0.9378918	-76.07189	
18:23:23	-6.795882	38.98536	122.786	0.1729658	19.82552	0.33	3	98	0	50	5.066498	0.9378918	-76.07189	
18:23:23	-6.795882	38.98536	123.729	0.1676767	17.69538	0.83	3	98	0	50	5.066498	0.9378918	-76.07189	
18:23:23	-6.795882	38.98536	123.672	0.1917087	17.13582	0.13	3	98	0	50	5.066498	0.9378918	-76.07189	
18:23:23	-6.795882	38.98536	123.084	0.196227	15.94251	0.71	3	98	0	50	5.066498	0.9378918	-76.07189	
18:23:24	-6.795882	38.98536	123.102	0.1804752	13.6832	0.58	3	98	0	50	5.074693	0.9886396	-76.11351	
18:23:24	-6.795882	38.98536	123.447	0.1622237	11.42612	0.5	3	98	0	50	5.074693	0.9886396	-76.11351	
18:23:24	-6.795881	38.98536	123.899	0.1412227	9.257319	0.17	3	98	0	50	5.074693	0.9886396	-76.11351	
18:23:24	-6.795881	38.98536	124.394	0.1237158	7.355482	0.47	3	98	0	50	5.074693	0.9886396	-76.11351	
18:23:24	-6.79588	38.98536	124.112	0.1093374	5.998773	0.26	3	98	0	50	5.074693	0.9886396	-76.11351	
18:23:25	-6.79588	38.98536	124.399	0.1025523	5.246039	0.29	3	98	0	50	5.074482	0.9818457	-76.16731	
18:23:25	-6.79588	38.98536	124.108	0.1138705	5.675693	0.04	3	98	0	50	5.074482	0.9818457	-76.16731	
18:23:25	-6.795879	38.98536	124.248	0.1216837	5.49659	0.74	3	98	0	50	5.074482	0.9818457	-76.16731	
18:23:25	-6.795879	38.98536	124.606	0.1284393	5.34274	0.59	3	98	0	50	5.074482	0.9818457	-76.16731	
18:23:25	-6.795879	38.98536	124.359	0.1371716	5.140309	0.58	3	98	0	50	5.074482	0.9818457	-76.16731	
18:23:26	-6.79588	38.98536	124.409	0.1504607	5.553082	0.28	3	98	0	50	5.093768	1.040099	-76.21278	
18:23:26	-6.79588	38.98536	123.716	0.1597939	5.224146	0.89	3	98	0	50	5.093768	1.040099	-76.21278	
18:23:26	-6.795881	38.98536	122.936	0.1626831	4.813459	0.57	3	98	0	50	5.093768	1.040099	-76.21278	
18:23:26	-6.795881	38.98536	122.841	0.1571082	4.749176	0.13	3	98	0	50	5.093768	1.040099	-76.21278	
18:23:26	-6.795881	38.98536	123.776	0.1202445	2.649406	0.21	3	98	0	50	5.093768	1.040099	-76.21278	
18:23:27	-6.79588	38.98536	123.418	0.09181397	1.055747	0.07	3	98	0	50	5.128154	1.081126	-76.30353	
18:23:27	-6.79588	38.98536	122.986	0.08844388	0.5144033	0.36	3	98	0	50	5.128154	1.081126	-76.30353	
18:23:27	-6.79588	38.98536	122.912	0.08353516	0.2016566	0.11	3	98	0	50	5.128154	1.081126	-76.30353	
18:23:27	-6.795878	38.98536	122.177	0.0778448	0.02480787	0.58	3	98	0	50	5.128154	1.081126	-76.30353	
18:23:27	-6.795877	38.98536	122.004	0.0723094	-0.2246274	0.53	3	98	0	50	5.128154	1.081126	-76.30353	
18:23:28	-6.795877	38.98536	122.397	0.001377553	-4.100323	0.17	3	98	0	50	5.130894	1.116364	-76.35145	
18:23:28	-6.795877	38.98536	122.063	-0.07886951	-8.001899	0.14	3	98	0	50	5.130894	1.116364	-76.35145	
18:23:28	-6.795876	38.98536	121.026	-0.1193673	-9.453543	0.14	3	98	0	50	5.130894	1.116364	-76.35145	
18:23:28	-6.795875	38.98536	121.13	-0.1519603	-10.39437	0.37	3	98	0	50	5.130894	1.116364	-76.35145	
18:23:28	-6.795875	38.98537	121.225	-0.1786014	-10.59704	0.03	3	98	0	50	5.130894	1.116364	-76.35145	
18:23:29	-6.795875	38.98537	121.74	-0.202336	-10.49972	0.16	3	98	0	50	5.100861	1.116944	-76.4511	
18:23:29	-6.795874	38.98537	122.587	-0.2457476	-11.56165	0.29	3	98	0	50	5.100861	1.116944	-76.4511	
18:23:29	-6.795873	38.98537	123.323	-0.2841517	-11.53379	0.39	3	98	0	50	5.100861	1.116944	-76.4511	
18:23:29	-6.795872	38.98538	123.954	-0.2984661	-10.4223	0.39	3	98	0	50	5.100861	1.116944	-76.4511	
18:23:29	-6.795872	38.98538	123.773	-0.3049062	-10.0465	0.52	3	98	0	50	5.100861	1.116944	-76.4511	
18:23:30	-6.795872	38.98537	122.697	-0.3038739	-9.123721	0.28	3	98	0	50	5.096244	1.162245	-76.5344	
18:23:30	-6.795872	38.98537	121.543	-0.300348	-7.557224	0.93	3	98	0	50	5.096244	1.162245	-76.5344	
18:23:30	-6.795871	38.98537	121.339	-0.290833	-6.136428	0.25	3	98	0	50	5.096244	1.162245	-76.5344	
18:23:30	-6.795871	38.98537	121.214	-0.2780001	-4.547709	0.09	3	98	0	50	5.096244	1.162245	-76.5344	
18:23:30	-6.79587	38.98537	121.171	-0.2840857	-4.130015	0.16	3	98	0	50	5.096244	1.162245	-76.5344	
18:23:31	-6.79587	38.98537	121.128	-0.2959368	-4.315034	0.29	3	98	0	50	5.116096	1.20057	-76.61425	
18:23:31	-6.795871	38.98537	121.243	-0.2900309	-3.345252	0.55	3	98	0	50	5.116096	1.20057	-76.61425	
18:23:31	-6.795876	38.98537	122.548	-0.2782196	-1.869251	0.82	3	98	0	50	5.116096	1.20057	-76.61425	
18:23:31	-6.79588	38.98536	124.116	-0.2607911	-0.4460371	0.31	3	98	0	50	5.116096	1.20057	-76.61425	
18:23:31	-6.795884	38.98536	125.294	-0.2432898	0.1291878	0.61	3	98	0	50	5.116096	1.20057	-76.61425	
18:23:32	-6.795887	38.98536	125.948	-0.2110754	1.743858	0.45	3	98	0	50	5.115579	1.219742	-76.69895	
18:23:32	-6.795889	38.98536	127.181	-0.1781154	3.429645	0.52	3	98	0	50	5.115579	1.219742	-76.69895	
18:23:32	-6.795891	38.98536	128.994	-0.1462571	4.203366	0.21	3	98	0	50	5.115579	1.219742	-76.69895	
18:23:32	-6.795893	38.98536	129.172	-0.1107456	5.94726	0.24	3	98	0	50	5.115579	1.219742	-76.69895	
18:23:32	-6.795895	38.98536	129.684	-0.1020962	5.951836	0.38	3	98	0	50	5.115579	1.219742	-76.69895	
18:23:33	-6.795895	38.98535	129.882	-0.1578662	2.42078	0.32	3	98	0	50	5.100168	1.184301	-76.75745	
18:23:33	-6.795896	38.98535	130.707	-0.2060372	0.2040656	0.87	3	98	0	50	5.100168	1.184301	-76.75745	
18:23:33	-6.795897	38.98535	130.422	-0.2411432	-1.306495	0.7	3	99	0	50	5.100168	1.184301	-76.75745	
18:23:33	-6.795897	38.98535	130.978	-0.2901424	-3.989385	0.44	3	99	0	50	5.100168	1.184301	-76.75745	
18:23:33	-6.795897	38.98535	131.861	-0.378625	-7.793485	0.34	3	99	0	50	5.100168	1.184301	-76.75745	
18:23:34	-6.795897	38.98535	132.862	-0.4532617	-10.91714	0.19	3	99	0	50	5.084949	1.162088	-76.81334	
18:23:34	-6.795899	38.98535	133.064	-0.5106053	-12.71426	0.22	3	99	0	50	5.084949	1.162088	-76.81334	
18:23:34	-6.795899	38.98535	133.319	-0.5522972	-13.85382	0.24	3	99	0	50	5.084949	1.162088	-76.81334	
18:23:34	-6.7959	38.98535	133.838	-0.5847047	-14.22464	0.19	3	99	0	50	5.084949	1.162088	-76.81334	
18:23:34	-6.795901	38.98535	133.878	-0.6186504	-14.82887	0.36	3	99	0	50	5.084949	1.162088	-76.81334	
18:23:35	-6.795901	38.98535	133.624	-0.6634083	-15.41228	0.32	3	99	0	50	5.102832	1.187282	-76.84077	
18:23:35	-6.795902	38.98535	133.434	-0.6821225	-14.53862	0.13	3	98	0	50	5.102832	1.187282	-76.84077	
18:23:35	-6.795902	38.98535	133.803	-0.6491409	-10.23505	0.11	3	98	0	50	5.102832	1.187282	-76.84077	
18:23:36	-6.795902	38.98535	133.937	-0.6685566	-9.781609	0.83	3	98	0	50	5.102832	1.187282	-76.84077	
18:23:36	-6.795903	38.98535	134.384	-0.6817711	-9.07716	0.32	3	98	0	50	5.076909	1.152575	-76.86164	
18:23:36	-6.795903	38.98535	134.673	-0.6825752	-7.862189	0.25	3	98	0	50	5.076909	1.152575	-76.86164	
18:23:36	-6.795904	38.98534	134.388	-0.6785902	-6.472608	0.77	3	98	0	50	5.076909	1.152575	-76.86164	
18:23:36	-6.795905	38.98534	133.925	-0.6627944	-4.617364	0.38	3	98	0	50	5.076909	1.152575	-76.86164	
18:23:36	-6.795905	38.98535	134.291	-0.641602	-2.547457	0.11	3	98	0	50	5.076909	1.152575	-76.86164	
18:23:37	-6.795904	38.98535	135.339	-0.6035029	0.2149954	0.26	3	98	0	50	5.088402	1.116676	-76.85235	
18:23:37	-6.795904	38.98535	135.488	-0.5543466	2.550516	0.42	3	98	0	50	5.088402	1.116676	-76.85235	
18:23:37	-6.795904	38.98535	135.328	-0.4917269	5.914276	0.16	3	98	0	50	5.088402	1.116676	-76.85235	
18:23:37	-6.795905	38.98535	134.843	-0.4360869	8.043921	1.03	3	98	0	50	5.088402	1.116676	-76.85235	
18:23:37	-6.795906	38.98534	134.185	-0.3208665	13.54078	1.09	3	98	0	50	5.088402	1.116676	-76.85235	
18:23:38	-6.795906	38.98534	134.42	-0.211229	18.07173	0.78	3	98	0	50	5.088735	1.068478	-76.86845	
18:23:38	-6.795906	38.98534	134.689	-0.1114563	21.67871	0.72	3	98	0	50	5.088735	1.068478	-76.86845	
18:23:38	-6.795906	38.98534	134.608	-0.01254195	24.994	0.81	3	98	0	50	5.088735	1.068478	-76.86845	
18:23:38	-6.795907	38.98534	134.545	0.03477599	26.05229	0.34	3	98	0	50	5.088735	1.068478	-76.86845	
18:23:38	-6.795907	38.98534	134.669	0.06472673	25.67108	0.22	3	98	0	50	5.088735	1.068478	-76.86845	
18:23:39	-6.795907	38.98534	134.826	0.06802642	23.07667	0.33	3	98	0	50	5.066744	1.043885	-76.84966	
18:23:39	-6.795907	38.98534	135.159	0.06100211	20.5841	0.12	3	98	0	50	5.066744	1.043885	-76.84966	
18:23:39	-6.795906	38.98535	135.866	0.06465949	19.56317	0.17	3	98	0	50	5.066744	1.043885	-76.84966	
18:23:39	-6.795907	38.98535	135.979	0.06729832	17.71254	0.47	3	98	0	50	5.066744	1.043885	-76.84966	
18:23:39	-6.795907	38.98535	136.652	0.09268329	17.42661	0.08	3	98	0	50	5.066744	1.043885	-76.84966	
18:23:40	-6.795907	38.98535	136.918	0.1187632	16.97417	0.04	3	98	0	50	5.06289	1.009472	-76.84323	
18:23:40	-6.795906	38.98535	137.27	0.1392907	17.11379	0.09	3	98	0	50	5.06289	1.009472	-76.84323	
18:23:40	-6.795906	38.98535	136.936	0.1585071	16.56567	0.64	3	98	0	50	5.06289	1.009472	-76.84323	
18:23:40	-6.795906	38.98535	136.647	0.1364183	14.07564	0.87	3	98	0	50	5.06289	1.009472	-76.84323	
18:23:40	-6.795906	38.98535	136.933	0.1050327	11.21121	0.22	3	98	0	50	5.06289	1.009472	-76.84323	
18:23:41	-6.795906	38.98535	137.025	0.08934684	9.472637	0.17	3	98	0	50	5.074378	1.016788	-76.82421	
18:23:41	-6.795906	38.98535	137.229	0.07644938	8.115664	0.14	3	98	0	50	5.074378	1.016788	-76.82421	
18:23:41	-6.795905	38.98535	137.702	0.03919455	5.254865	0.09	3	98	0	50	5.074378	1.016788	-76.82421	
18:23:41	-6.795906	38.98535	137.862	-0.001772719	2.637839	0.48	3	98	0	50	5.074378	1.016788	-76.82421	
18:23:41	-6.795906	38.98535	138	-0.03050831	0.7312944	0.66	3	98	0	50	5.074378	1.016788	-76.82421	
18:23:42	-6.795906	38.98535	138.318	-0.05639686	-0.931716	0.45	3	98	0	50	5.078421	0.9850911	-76.76931	
18:23:42	-6.795906	38.98535	138.611	-0.06118814	-1.188183	0.29	3	98	0	50	5.078421	0.9850911	-76.76931	
18:23:42	-6.795906	38.98535	138.205	-0.06026497	-0.6592347	0.33	3	98	0	50	5.078421	0.9850911	-76.76931	
18:23:42	-6.795906	38.98535	137.647	-0.05554283	-0.3774781	0.21	3	98	0	50	5.078421	0.9850911	-76.76931	
18:23:43	-6.795907	38.98535	136.887	-0.03737123	0.4093443	0.93	3	98	0	50	5.078421	0.9850911	-76.76931	
18:23:43	-6.795907	38.98535	136.79	-0.00802948	1.914702	0.26	3	98	0	50	5.079716	1.010587	-76.70273	
18:23:43	-6.795907	38.98535	136.739	0.04362477	4.581572	0.16	3	98	0	50	5.079716	1.010587	-76.70273	
18:23:43	-6.795907	38.98534	136.065	0.05782913	5.425463	0.93	3	98	0	50	5.079716	1.010587	-76.70273	
18:23:43	-6.795908	38.98534	135.443	0.006232692	1.908943	0.78	3	98	0	50	5.079716	1.010587	-76.70273	
18:23:44	-6.795908	38.98534	135.793	-0.03340032	-0.4001057	0.62	3	98	0	50	5.079716	1.010587	-76.70273	
18:23:44	-6.795908	38.98534	135.676	-0.06470391	-1.926862	0.62	3	98	0	50	5.053931	0.9605211	-76.69096	
18:23:44	-6.795909	38.98534	135.889	-0.09598674	-3.221017	0.24	3	98	0	50	5.053931	0.9605211	-76.69096	
18:23:44	-6.795909	38.98534	135.898	-0.1502941	-5.889969	0.19	3	98	0	50	5.053931	0.9605211	-76.69096	
18:23:44	-6.795909	38.98534	136.001	-0.2072715	-8.481625	0.03	3	98	0	50	5.053931	0.9605211	-76.69096	
18:23:45	-6.795909	38.98534	135.485	-0.298752	-12.59719	0.29	3	98	0	50	5.053931	0.9605211	-76.69096	
18:23:45	-6.79591	38.98534	135.264	-0.362541	-14.62918	0.58	3	99	0	50	5.067008	0.9978166	-76.65665	
18:23:45	-6.79591	38.98534	135.472	-0.4199381	-16.50165	0.36	3	99	0	50	5.067008	0.9978166	-76.65665	
18:23:45	-6.79591	38.98534	136.001	-0.4548469	-16.66769	0.19	3	99	0	50	5.067008	0.9978166	-76.65665	
18:23:45	-6.79591	38.98534	135.685	-0.4692277	-16.00921	0.5	3	99	0	50	5.067008	0.9978166	-76.65665	
18:23:46	-6.79591	38.98534	135.413	-0.4809613	-15.01166	0.44	3	99	0	50	5.067008	0.9978166	-76.65665	
18:23:46	-6.795911	38.98533	134.75	-0.4925272	-14.61505	1.07	3	99	0	50	5.048303	1.01512	-76.66412	
18:23:46	-6.795911	38.98533	134.869	-0.502295	-14.09217	0.26	3	99	0	50	5.048303	1.01512	-76.66412	
18:23:46	-6.795911	38.98534	135.834	-0.5174577	-13.91781	0.03	3	99	0	50	5.048303	1.01512	-76.66412	
18:23:46	-6.79591	38.98534	136.79	-0.5285493	-13.05354	0.09	3	99	0	50	5.048303	1.01512	-76.66412	
18:23:46	-6.79591	38.98534	136.913	-0.5353788	-12.33179	0.08	3	99	0	50	5.048303	1.01512	-76.66412	
18:23:47	-6.79591	38.98534	137.295	-0.524574	-9.910313	0.31	3	99	0	50	5.078824	0.9852457	-76.65612	
18:23:47	-6.795911	38.98534	137.019	-0.4791229	-6.287434	0.48	3	99	0	50	5.078824	0.9852457	-76.65612	
18:23:47	-6.795912	38.98534	136.595	-0.4369721	-3.807545	1.29	3	99	0	50	5.078824	0.9852457	-76.65612	
18:23:47	-6.795912	38.98534	136.499	-0.4347529	-2.945811	0.21	3	99	0	50	5.078824	0.9852457	-76.65612	
18:23:47	-6.795912	38.98534	136.544	-0.4405844	-2.435828	0.19	3	99	0	50	5.078824	0.9852457	-76.65612	
18:23:48	-6.795913	38.98534	136.102	-0.4076019	0.006321119	0.98	3	99	0	50	5.074392	0.9745056	-76.60619	
18:23:48	-6.795914	38.98533	135.324	-0.3722094	2.021152	0.68	3	99	0	50	5.074392	0.9745056	-76.60619	
18:23:48	-6.795914	38.98533	134.515	-0.3512499	2.5283	1.11	3	99	0	50	5.074392	0.9745056	-76.60619	
18:23:48	-6.795914	38.98532	134.089	-0.336744	2.922509	0.72	3	99	0	50	5.074392	0.9745056	-76.60619	
18:23:48	-6.795914	38.98532	133.823	-0.2904517	5.127612	1.13	3	99	0	50	5.074392	0.9745056	-76.60619	
18:23:49	-6.795914	38.98532	134.17	-0.2364217	7.014925	0.74	3	99	0	50	5.07056	1.002648	-76.58794	
18:23:49	-6.795914	38.98532	134.61	-0.1791824	9.309948	0.41	3	99	0	50	5.07056	1.002648	-76.58794	
18:23:49	-6.795914	38.98533	135.373	-0.1261883	11.29116	0.09	3	99	0	50	5.07056	1.002648	-76.58794	
18:23:49	-6.795914	38.98533	135.337	-0.08610398	12.29711	0.17	3	99	0	50	5.07056	1.002648	-76.58794	
18:23:50	-6.795914	38.98533	135.353	-0.05383984	12.80755	0.16	3	99	0	50	5.07056	1.002648	-76.58794	
18:23:50	-6.795914	38.98533	135.501	0.0008785995	15.17741	0.33	3	99	0	50	5.072026	1.019445	-76.58485	
18:23:50	-6.795914	38.98533	136.198	0.04647817	16.34178	0.42	3	99	0	50	5.072026	1.019445	-76.58485	
18:23:50	-6.795913	38.98533	136.926	0.06292737	15.11465	0.91	3	99	0	50	5.072026	1.019445	-76.58485	
18:23:50	-6.795913	38.98533	137.262	0.06697276	13.49745	0.21	3	99	0	50	5.072026	1.019445	-76.58485	
18:23:51	-6.795913	38.98533	137.103	0.06782	12.37039	0.66	3	99	0	50	5.072026	1.019445	-76.58485	
18:23:51	-6.795913	38.98534	137.563	0.06602613	11.11946	0.22	3	99	0	50	5.072026	1.019445	-76.58485	
18:23:51	-6.795913	38.98534	137.406	0.09273677	10.91446	0.21	3	99	0	50	5.072026	1.019445	-76.58485	
18:23:51	-6.795913	38.98533	136.837	0.1173485	10.95491	0.72	3	99	0	50	5.072026	1.019445	-76.58485	
18:23:51	-6.795914	38.98533	136.334	0.1749217	12.88134	1.01	3	99	0	50	5.072026	1.019445	-76.58485	
18:23:52	-6.795914	38.98533	136.211	0.2341177	14.91323	0.9	3	99	0	50	5.072026	1.019445	-76.58485	
18:23:52	-6.795914	38.98533	136.328	0.2882888	16.34839	0.47	3	99	0	50	5.056662	0.9987463	-76.58768	
18:23:52	-6.795914	38.98533	136.328	0.341778	17.91947	0.47	3	99	0	50	5.056662	0.9987463	-76.58768	
18:23:52	-6.795913	38.98533	137.304	0.3670834	17.60138	0.57	3	99	0	50	5.056662	0.9987463	-76.58768	
18:23:52	-6.795914	38.98533	137.195	0.3110174	13.08321	0.22	3	99	0	50	5.056662	0.9987463	-76.58768	
18:23:53	-6.795914	38.98534	137.822	0.2680721	9.536288	0.38	3	99	0	50	5.056662	0.9987463	-76.58768	
18:23:53	-6.795914	38.98534	137.6	0.2699993	8.466607	0.21	3	99	0	50	5.05595	0.9885351	-76.57607	
18:23:53	-6.795914	38.98533	137.313	0.2621976	6.736592	0.16	3	99	0	50	5.05595	0.9885351	-76.57607	
18:23:53	-6.795914	38.98534	137.707	0.2426836	5.143674	0.29	3	99	0	50	5.05595	0.9885351	-76.57607	
18:23:53	-6.795914	38.98534	137.513	0.2324695	4.377002	0.58	3	99	0	50	5.05595	0.9885351	-76.57607	
18:23:54	-6.795914	38.98534	137.847	0.2346003	3.76121	0.25	3	99	0	50	5.05595	0.9885351	-76.57607	
18:23:54	-6.795914	38.98534	138.044	0.230908	3.265954	0.26	3	99	0	50	5.047198	0.9968524	-76.55304	
18:23:54	-6.795915	38.98534	137.721	0.2086277	1.699377	0.59	3	99	0	50	5.047198	0.9968524	-76.55304	
18:23:54	-6.795915	38.98534	137.423	0.1768871	0.3182996	0.96	3	99	0	50	5.047198	0.9968524	-76.55304	
18:23:54	-6.795917	38.98533	136.627	0.1050305	-3.679051	2.08	3	99	0	50	5.047198	0.9968524	-76.55304	
18:23:55	-6.795917	38.98533	136.635	0.01674544	-7.889718	0.57	3	99	0	50	5.047198	0.9968524	-76.55304	
18:23:55	-6.795917	38.98533	136.671	-0.09337023	-13.05782	0.47	3	99	0	50	5.016881	1.013867	-76.55189	
18:23:55	-6.795917	38.98533	136.903	-0.1781539	-15.86623	0.19	3	99	0	50	5.016881	1.013867	-76.55189	
18:23:55	-6.795918	38.98533	136.463	-0.2248106	-16.41955	0.39	3	99	0	50	5.016881	1.013867	-76.55189	
18:23:55	-6.795918	38.98533	136.598	-0.2623411	-17.2335	0.39	3	99	0	50	5.016881	1.013867	-76.55189	
18:23:56	-6.795918	38.98533	136.407	-0.28699	-17.012	0.66	3	99	0	50	5.016881	1.013867	-76.55189	
18:23:56	-6.795918	38.98533	136.143	-0.3185005	-17.12931	0.97	3	99	0	50	5.010421	0.953206	-76.55304	
18:23:56	-6.795918	38.98533	135.407	-0.3816536	-18.63125	0.95	3	99	0	50	5.010421	0.953206	-76.55304	
18:23:56	-6.795919	38.98533	135.219	-0.4416639	-20.53812	1.17	3	99	0	50	5.010421	0.953206	-76.55304	
18:23:56	-6.795919	38.98533	135.351	-0.5198233	-22.21744	0.82	3	99	0	50	5.010421	0.953206	-76.55304	
18:23:57	-6.795919	38.98533	135.247	-0.5651461	-22.78743	0.75	3	99	0	50	5.010421	0.953206	-76.55304	
18:23:57	-6.795919	38.98533	135.477	-0.5680881	-20.30357	0.82	3	99	0	50	5.036483	0.9839595	-76.55515	
18:23:57	-6.795918	38.98533	136.19	-0.5659119	-18.01432	0.34	3	98	0	50	5.036483	0.9839595	-76.55515	
18:23:57	-6.795918	38.98533	136.51	-0.5585156	-14.15899	0.18	3	98	0	50	5.036483	0.9839595	-76.55515	
18:23:58	-6.795918	38.98534	137.097	-0.5838449	-13.57538	0.16	3	98	0	50	5.036483	0.9839595	-76.55515	
18:23:58	-6.795918	38.98534	137.379	-0.6160283	-13.50397	0.71	3	98	0	50	5.076174	1.020096	-76.55491	
18:23:58	-6.795918	38.98534	137.709	-0.6557293	-14.14585	0.32	3	98	0	50	5.076174	1.020096	-76.55491	
18:23:58	-6.795918	38.98534	137.792	-0.6924877	-15.05545	0.22	3	98	0	50	5.076174	1.020096	-76.55491	
18:23:58	-6.795918	38.98534	138.294	-0.7479666	-16.58417	0.22	3	98	0	50	5.076174	1.020096	-76.55491	
18:23:59	-6.795918	38.98534	138.589	-0.8052256	-17.59248	0.66	3	98	0	50	5.076174	1.020096	-76.55491	
18:23:59	-6.795918	38.98534	138.767	-0.835954	-17.30013	0.11	3	98	0	50	5.092518	1.053412	-76.55663	
18:23:59	-6.795918	38.98534	139.21	-0.8570321	-16.73444	0.21	3	98	0	50	5.092518	1.053412	-76.55663	
18:23:59	-6.795917	38.98535	139.545	-0.8718277	-15.73649	0.29	3	98	0	50	5.092518	1.053412	-76.55663	
18:23:59	-6.795917	38.98535	139.769	-0.8808427	-14.2912	0.14	3	98	0	50	5.092518	1.053412	-76.55663	
18:24:00	-6.795917	38.98535	139.636	-0.8899306	-13.75873	0.88	3	98	0	50	5.092518	1.053412	-76.55663	
18:24:00	-6.795918	38.98534	139.085	-0.8958221	-12.6931	0.77	3	98	0	50	5.083359	1.047808	-76.5555	
18:24:00	-6.795918	38.98534	139.228	-0.8865318	-10.59393	0.75	3	98	0	50	5.083359	1.047808	-76.5555	
18:24:00	-6.795917	38.98534	139.312	-0.8723307	-8.903076	0.53	3	98	0	50	5.083359	1.047808	-76.5555	
18:24:00	-6.795917	38.98534	139.1	-0.8121555	-4.683068	0.35	3	98	0	50	5.083359	1.047808	-76.5555	
18:24:01	-6.795917	38.98534	138.893	-0.7386605	-0.7368455	0.08	3	98	0	50	5.083359	1.047808	-76.5555	
18:24:01	-6.795918	38.98534	138.347	-0.6884115	1.912024	0.29	3	98	0	50	5.084998	1.069732	-76.55511	
18:24:01	-6.795918	38.98534	138.092	-0.6448133	4.118684	0.04	3	98	0	50	5.084998	1.069732	-76.55511	
18:24:01	-6.795918	38.98534	138.369	-0.637296	3.538031	0.14	3	98	0	50	5.084998	1.069732	-76.55511	
18:24:01	-6.795918	38.98535	138.677	-0.6396014	2.992834	0.12	3	98	0	50	5.084998	1.069732	-76.55511	
18:24:02	-6.795918	38.98534	138.26	-0.597824	5.345389	0.64	3	98	0	50	5.084998	1.069732	-76.55511	
18:24:02	-6.795918	38.98534	138.433	-0.5424418	7.933666	0.55	3	98	0	50	5.085522	1.071926	-76.55876	
18:24:02	-6.795918	38.98534	138.212	-0.5106974	8.86314	0.79	3	98	0	50	5.085522	1.071926	-76.55876	
18:24:02	-6.795918	38.98534	138.418	-0.5509942	6.313427	0.36	3	98	0	50	5.085522	1.071926	-76.55876	
18:24:02	-6.795918	38.98534	138.15	-0.5933459	3.94906	0.66	3	98	0	50	5.085522	1.071926	-76.55876	
18:24:03	-6.795918	38.98534	137.7	-0.6579071	0.5000328	0.62	3	98	0	50	5.085522	1.071926	-76.55876	
18:24:03	-6.795918	38.98534	137.643	-0.6877398	-0.9163325	0.55	3	99	0	50	5.095204	1.052944	-76.58395	
18:24:03	-6.795918	38.98534	137.284	-0.6808221	0.08711908	0.39	3	99	0	50	5.095204	1.052944	-76.58395	
18:24:03	-6.795918	38.98534	137.255	-0.6738372	0.6465364	0.62	3	99	0	50	5.095204	1.052944	-76.58395	
18:24:03	-6.795918	38.98534	136.631	-0.6690667	0.772128	0.59	3	99	0	50	5.095204	1.052944	-76.58395	
18:24:04	-6.795918	38.98534	136.601	-0.6704974	1.111846	0.91	3	99	0	50	5.095204	1.052944	-76.58395	
18:24:04	-6.795918	38.98534	136.539	-0.6909078	0.01385529	1.12	3	99	0	50	5.081009	1.062908	-76.58987	
18:24:04	-6.795918	38.98534	136.894	-0.7229315	-1.832803	0.22	3	99	0	50	5.081009	1.062908	-76.58987	
18:24:04	-6.795918	38.98534	137.359	-0.8030173	-5.963342	0.44	3	99	0	50	5.081009	1.062908	-76.58987	
18:24:04	-6.795918	38.98534	137.403	-0.8678088	-9.197996	0.63	3	99	0	50	5.081009	1.062908	-76.58987	
18:24:05	-6.795919	38.98534	136.763	-0.8987508	-9.910918	0.9	3	99	0	50	5.081009	1.062908	-76.58987	
18:24:05	-6.795919	38.98534	136.58	-0.9241748	-10.13209	0.51	3	99	0	50	5.064977	1.09444	-76.60849	
18:24:05	-6.795919	38.98533	136.321	-0.9503239	-10.46043	0.88	3	99	0	50	5.064977	1.09444	-76.60849	
18:24:05	-6.795919	38.98533	136.385	-0.9696728	-10.55141	0.25	3	99	0	50	5.064977	1.09444	-76.60849	
18:24:05	-6.79592	38.98534	136.69	-0.9792804	-10.01108	0.45	3	99	0	50	5.064977	1.09444	-76.60849	
18:24:06	-6.795919	38.98534	137.313	-0.9788558	-8.581476	0.32	3	99	0	50	5.064977	1.09444	-76.60849	
18:24:06	-6.795919	38.98534	138.221	-0.9500897	-6.212123	0.81	3	99	0	50	5.03302	1.103653	-76.60045	
18:24:06	-6.795919	38.98534	138.395	-0.8984773	-2.849489	0.26	3	99	0	50	5.03302	1.103653	-76.60045	
18:24:06	-6.79592	38.98534	138.028	-0.7918522	3.094357	0.24	3	99	0	50	5.03302	1.103653	-76.60045	
18:24:07	-6.79592	38.98534	138.116	-0.6930199	7.59225	0.58	3	98	0	50	5.03302	1.103653	-76.60045	
18:24:07	-6.79592	38.98534	138.648	-0.5202563	14.87593	0.26	3	98	0	50	5.065962	1.104705	-76.60233	
18:24:07	-6.79592	38.98534	138.968	-0.450492	17.26998	0.25	3	98	0	50	5.065962	1.104705	-76.60233	
18:24:07	-6.79592	38.98534	139.114	-0.3896776	19.16392	0.89	3	98	0	50	5.065962	1.104705	-76.60233	
18:24:07	-6.795921	38.98534	139.146	-0.3078306	21.90374	0.74	3	98	0	50	5.065962	1.104705	-76.60233	
18:24:08	-6.795921	38.98534	138.995	-0.2177891	24.85021	0.77	3	98	0	50	5.065962	1.104705	-76.60233	
18:24:08	-6.795921	38.98534	139.244	-0.1160775	28.06548	0.58	3	98	0	50	5.07908	1.146872	-76.61031	
18:24:08	-6.795921	38.98534	139.675	-0.01571719	30.02489	0.44	3	98	0	50	5.07908	1.146872	-76.61031	
18:24:08	-6.795921	38.98534	139.388	0.04623757	30.06822	0.85	3	98	0	50	5.07908	1.146872	-76.61031	
18:24:08	-6.795921	38.98534	139.534	0.09301078	29.23751	0.16	3	98	0	50	5.07908	1.146872	-76.61031	
18:24:09	-6.79592	38.98534	140.574	0.1044635	26.51461	0.52	3	98	0	50	5.07908	1.146872	-76.61031	
18:24:09	-6.79592	38.98534	140.72	0.1032086	23.98201	0.52	3	98	0	50	5.065254	1.166063	-76.64787	
18:24:09	-6.795919	38.98535	141.28	0.07091079	20.174	0.09	3	98	0	50	5.065254	1.166063	-76.64787	
18:24:09	-6.795919	38.98535	141.951	0.03436587	16.25323	0.09	3	98	0	50	5.065254	1.166063	-76.64787	
18:24:09	-6.795919	38.98535	141.825	0.02526047	14.26872	0.28	3	98	0	50	5.065254	1.166063	-76.64787	
18:24:10	-6.79592	38.98535	141.582	0.01769322	12.81691	0.52	3	98	0	50	5.065254	1.166063	-76.64787	
18:24:10	-6.79592	38.98535	141.273	-0.009009948	10.19061	0.45	3	98	0	50	5.069599	1.145442	-76.67599	
18:24:10	-6.79592	38.98535	141.614	-0.03990006	7.709964	0.22	3	98	0	50	5.069599	1.145442	-76.67599	
18:24:10	-6.795921	38.98535	141.887	-0.07699063	4.679372	0.33	3	98	0	50	5.069599	1.145442	-76.67599	
18:24:10	-6.795921	38.98535	141.846	-0.1138257	2.619733	0.13	3	98	0	50	5.069599	1.145442	-76.67599	
18:24:11	-6.795922	38.98535	141.442	-0.1473608	0.5456043	0.44	3	98	0	50	5.069599	1.145442	-76.67599	
18:24:11	-6.795922	38.98534	141.49	-0.1743746	-0.9600926	0.59	3	98	0	50	5.058692	1.143596	-76.72324	
18:24:11	-6.795922	38.98534	141.414	-0.2090867	-2.968959	0.47	3	98	0	50	5.058692	1.143596	-76.72324	
18:24:11	-6.795922	38.98534	141.764	-0.2419721	-4.839119	0.18	3	98	0	50	5.058692	1.143596	-76.72324	
18:24:11	-6.795922	38.98535	142.072	-0.2444208	-4.769354	0.13	3	98	0	50	5.058692	1.143596	-76.72324	
18:24:12	-6.795922	38.98535	142.083	-0.238783	-4.27192	0.22	3	98	0	50	5.058692	1.143596	-76.72324	
18:24:12	-6.795922	38.98535	142.127	-0.2437953	-3.859437	0.04	3	98	0	50	5.035903	1.190075	-76.73804	
18:24:12	-6.795922	38.98535	142.219	-0.2900657	-6.102876	0.14	3	98	0	50	5.035903	1.190075	-76.73804	
18:24:12	-6.795922	38.98535	142.094	-0.3215154	-7.26846	0.63	3	98	0	50	5.035903	1.190075	-76.73804	
18:24:12	-6.795922	38.98535	142.407	-0.311731	-6.13141	0.29	3	98	0	50	5.035903	1.190075	-76.73804	
18:24:13	-6.795922	38.98535	142.422	-0.3121158	-5.685577	0.07	3	98	0	50	5.035903	1.190075	-76.73804	
18:24:13	-6.795922	38.98535	142.389	-0.324532	-5.814798	0.13	3	98	0	50	5.035903	1.190075	-76.73804	
18:24:13	-6.795922	38.98535	142.573	-0.3311455	-6.160289	0.07	3	98	0	50	5.035903	1.190075	-76.73804	
18:24:13	-6.795922	38.98536	142.672	-0.3301195	-5.166172	0.04	3	98	0	50	5.035903	1.190075	-76.73804	
18:24:13	-6.795922	38.98536	143.035	-0.3357173	-5.215922	0.22	3	98	0	50	5.035903	1.190075	-76.73804	
18:24:14	-6.795922	38.98536	143.08	-0.3559974	-5.690795	0.16	3	98	0	50	5.035903	1.190075	-76.73804	
18:24:14	-6.795922	38.98536	143.174	-0.3828518	-6.85614	0.09	3	98	0	50	5.054009	1.155344	-76.76402	
18:24:14	-6.795922	38.98536	143.413	-0.4415015	-9.187606	0.25	3	98	0	50	5.054009	1.155344	-76.76402	
18:24:14	-6.795922	38.98536	143.346	-0.469216	-8.759343	0.13	3	98	0	50	5.054009	1.155344	-76.76402	
18:24:14	-6.795922	38.98536	143.593	-0.4472741	-6.696762	0.41	3	98	0	50	5.054009	1.155344	-76.76402	
18:24:15	-6.795922	38.98536	143.622	-0.4392367	-5.413397	0.06	3	99	0	50	5.054009	1.155344	-76.76402	
18:24:15	-6.795922	38.98536	143.603	-0.4486786	-4.938232	0.06	3	99	0	50	5.048329	1.127671	-76.78384	
18:24:15	-6.795922	38.98536	143.588	-0.4630718	-5.411017	0.29	3	99	0	50	5.048329	1.127671	-76.78384	
18:24:15	-6.795922	38.98536	143.682	-0.4861947	-6.493454	0.22	3	99	0	50	5.048329	1.127671	-76.78384	
18:24:15	-6.795923	38.98536	143.296	-0.4949469	-6.595522	0.47	3	99	0	50	5.048329	1.127671	-76.78384	
18:24:16	-6.795923	38.98536	143.364	-0.4668197	-5.048121	0.16	3	99	0	50	5.048329	1.127671	-76.78384	
18:24:16	-6.795923	38.98536	143.129	-0.4356838	-2.681098	0.06	3	99	0	50	5.071075	1.089623	-76.77539	
18:24:16	-6.795923	38.98536	142.983	-0.387466	0.2944311	0.28	3	99	0	50	5.071075	1.089623	-76.77539	
18:24:16	-6.795923	38.98536	143.142	-0.3354736	2.637956	0.33	3	99	0	50	5.071075	1.089623	-76.77539	
18:24:16	-6.795923	38.98536	142.986	-0.2852024	4.536894	0.45	3	99	0	50	5.071075	1.089623	-76.77539	
18:24:17	-6.795924	38.98536	142.723	-0.2407835	6.511143	0.58	3	99	0	50	5.071075	1.089623	-76.77539	
18:24:17	-6.795924	38.98536	142.213	-0.2721342	4.040349	0.64	3	99	0	50	5.062658	1.137333	-76.73682	
18:24:17	-6.795925	38.98536	141.902	-0.3187523	1.182109	0.47	3	99	0	50	5.062658	1.137333	-76.73682	
18:24:17	-6.795925	38.98535	141.555	-0.3286146	0.7018089	0.45	3	99	0	50	5.062658	1.137333	-76.73682	
18:24:17	-6.795925	38.98536	141.777	-0.3304865	0.01726169	0.39	3	99	0	50	5.062658	1.137333	-76.73682	
18:24:18	-6.795925	38.98536	141.801	-0.3074836	1.043999	0.09	3	99	0	50	5.062658	1.137333	-76.73682	
18:24:18	-6.795925	38.98536	141.828	-0.2859229	2.25536	0.18	3	99	0	50	5.077108	1.129225	-76.73158	
18:24:18	-6.795925	38.98536	141.788	-0.2883591	1.818835	0.16	3	99	0	50	5.077108	1.129225	-76.73158	
18:24:18	-6.795925	38.98536	141.758	-0.297626	1.418948	0.02	3	99	0	50	5.077108	1.129225	-76.73158	
18:24:18	-6.795924	38.98536	142.193	-0.3041815	0.7054023	0.19	3	99	0	50	5.077108	1.129225	-76.73158	
18:24:19	-6.795923	38.98536	142.659	-0.3108391	-0.2096811	0.26	3	99	0	50	5.077108	1.129225	-76.73158	
18:24:19	-6.795923	38.98536	142.474	-0.3398238	-1.453548	0.26	3	99	0	50	5.041255	1.14031	-76.72134	
18:24:19	-6.795924	38.98536	141.57	-0.3720159	-3.818277	0.38	3	98	0	50	5.041255	1.14031	-76.72134	
18:24:19	-6.795924	38.98536	141.38	-0.4269894	-6.547929	0.04	3	98	0	50	5.041255	1.14031	-76.72134	
18:24:20	-6.795924	38.98536	141.259	-0.4076305	-4.689274	0.14	3	98	0	50	5.041255	1.14031	-76.72134	
18:24:20	-6.795924	38.98536	141.656	-0.384444	-3.190777	0.38	3	98	0	50	5.061104	1.147961	-76.7071	
18:24:20	-6.795924	38.98536	141.339	-0.3522615	-1.383123	0.14	3	98	0	50	5.061104	1.147961	-76.7071	
18:24:20	-6.795924	38.98536	141.498	-0.3205599	1.008049	0.07	3	98	0	50	5.061104	1.147961	-76.7071	
18:24:20	-6.795924	38.98536	140.796	-0.2994608	2.61017	0.36	3	98	0	50	5.061104	1.147961	-76.7071	
18:24:21	-6.795924	38.98536	140.893	-0.2799571	2.809842	0.16	3	98	0	50	5.061104	1.147961	-76.7071	
18:24:21	-6.795924	38.98536	140.414	-0.3301708	-0.1781159	0.29	3	98	0	50	5.038309	1.129733	-76.70873	
18:24:21	-6.795924	38.98536	140.505	-0.4099078	-4.799165	0.07	3	98	0	50	5.038309	1.129733	-76.70873	
18:24:21	-6.795924	38.98536	140.891	-0.4802133	-8.653563	0.21	3	98	0	50	5.038309	1.129733	-76.70873	
18:24:21	-6.795924	38.98536	140.761	-0.5534897	-11.48282	0.04	3	98	0	50	5.038309	1.129733	-76.70873	
18:24:22	-6.795924	38.98536	140.124	-0.6122482	-13.76698	0.41	3	98	0	50	5.038309	1.129733	-76.70873	
18:24:22	-6.795924	38.98536	139.838	-0.6400741	-14.19196	0.08	3	98	0	50	5.055332	1.120857	-76.73289	
18:24:22	-6.795924	38.98536	139.485	-0.6644223	-13.68899	0.42	3	98	0	50	5.055332	1.120857	-76.73289	
18:24:22	-6.795924	38.98536	139.829	-0.6907278	-13.44683	0.07	3	98	0	50	5.055332	1.120857	-76.73289	
18:24:22	-6.795924	38.98536	139.597	-0.7215054	-14.08717	0.01	3	98	0	50	5.055332	1.120857	-76.73289	
18:24:23	-6.795924	38.98536	139.455	-0.7642184	-14.63914	0.45	3	98	0	50	5.055332	1.120857	-76.73289	
18:24:23	-6.795924	38.98536	139.569	-0.7906738	-14.06451	0.02	3	98	0	50	5.070899	1.025393	-76.70801	
18:24:23	-6.795924	38.98536	139.33	-0.7985808	-13.17808	0.44	3	98	0	50	5.070899	1.025393	-76.70801	
18:24:23	-6.795924	38.98536	139.506	-0.7969384	-12.3836	0.17	3	98	0	50	5.070899	1.025393	-76.70801	
18:24:23	-6.795923	38.98536	139.679	-0.7694783	-9.324701	0.38	3	98	0	50	5.070899	1.025393	-76.70801	
18:24:24	-6.795923	38.98536	139.125	-0.7460452	-6.990024	0.19	3	98	0	50	5.070899	1.025393	-76.70801	
18:24:24	-6.795924	38.98536	138.073	-0.7326328	-5.213789	0.95	3	98	0	50	5.086823	1.003662	-76.67283	
18:24:24	-6.795924	38.98536	137.83	-0.7049847	-2.89481	0.51	3	98	0	50	5.086823	1.003662	-76.67283	
18:24:24	-6.795924	38.98535	137.626	-0.6509589	0.5199082	0.39	3	98	0	50	5.086823	1.003662	-76.67283	
18:24:24	-6.795924	38.98535	137.113	-0.6144966	2.336468	0.48	3	98	0	50	5.086823	1.003662	-76.67283	
18:24:25	-6.795925	38.98535	136.724	-0.6071965	2.602228	0.53	3	98	0	50	5.086823	1.003662	-76.67283	
18:24:25	-6.795925	38.98535	136.442	-0.5952936	3.751018	0.26	3	98	0	50	5.108399	1.009973	-76.62718	
18:24:25	-6.795925	38.98535	136.224	-0.5708001	4.881206	0.22	3	98	0	50	5.108399	1.009973	-76.62718	
18:24:25	-6.795925	38.98534	135.854	-0.5461802	5.641122	0.25	3	98	0	50	5.108399	1.009973	-76.62718	
18:24:25	-6.795926	38.98534	135.601	-0.5128134	6.784836	0.52	3	98	0	50	5.108399	1.009973	-76.62718	
18:24:26	-6.795926	38.98534	135.472	-0.488122	7.451351	0.31	3	98	0	50	5.108399	1.009973	-76.62718	
18:24:26	-6.795926	38.98534	134.988	-0.4856445	6.657226	0.35	3	98	0	50	5.104609	0.9461712	-76.61465	
18:24:26	-6.795926	38.98534	135.077	-0.4842882	6.122582	0.11	3	98	0	50	5.104609	0.9461712	-76.61465	
18:24:26	-6.795926	38.98534	134.915	-0.483483	5.656828	0.22	3	98	0	50	5.104609	0.9461712	-76.61465	
18:24:26	-6.795927	38.98534	134.403	-0.4835757	5.48322	0.45	3	98	0	50	5.104609	0.9461712	-76.61465	
18:24:27	-6.795927	38.98534	134.208	-0.5212944	2.868144	0.18	3	98	0	50	5.104609	0.9461712	-76.61465	
18:24:27	-6.795927	38.98534	134.08	-0.5648453	-0.2279097	0.26	3	98	0	50	5.082674	0.9720948	-76.5713	
18:24:27	-6.795927	38.98534	133.449	-0.595751	-1.550254	0.53	3	98	0	50	5.082674	0.9720948	-76.5713	
18:24:27	-6.795928	38.98534	133.009	-0.6259155	-3.362871	0.36	3	98	0	50	5.082674	0.9720948	-76.5713	
18:24:27	-6.795928	38.98534	132.53	-0.6317372	-3.411334	0.42	3	98	0	50	5.082674	0.9720948	-76.5713	
18:24:28	-6.795928	38.98534	132.372	-0.6315328	-3.222157	0.24	3	99	0	50	5.082674	0.9720948	-76.5713	
18:24:28	-6.795928	38.98534	131.902	-0.6155198	-1.98659	0.31	3	99	0	50	5.093108	1.004537	-76.54982	
18:24:28	-6.795928	38.98534	131.438	-0.5918593	-0.6706469	0.37	3	99	0	50	5.093108	1.004537	-76.54982	
18:24:28	-6.795928	38.98534	131.397	-0.5906534	-1.368243	0.22	3	99	0	50	5.093108	1.004537	-76.54982	
18:24:28	-6.795929	38.98533	130.966	-0.5945427	-1.594355	0.39	3	99	0	50	5.093108	1.004537	-76.54982	
18:24:29	-6.795929	38.98533	129.74	-0.5283418	1.875744	1.12	3	99	0	50	5.093108	1.004537	-76.54982	
18:24:29	-6.795931	38.98532	128.587	-0.4514129	5.930925	1.14	3	99	0	50	5.096704	1.056038	-76.53659	
18:24:29	-6.795932	38.98532	128.053	-0.3842857	9.336943	0.78	3	99	0	50	5.096704	1.056038	-76.53659	
18:24:29	-6.795932	38.98532	127.547	-0.3165543	12.30242	0.63	3	99	0	50	5.096704	1.056038	-76.53659	
18:24:29	-6.795932	38.98532	127.753	-0.2757918	13.51793	0.08	3	99	0	50	5.096704	1.056038	-76.53659	
18:24:30	-6.795933	38.98532	126.836	-0.2444005	14.38234	0.79	3	99	0	50	5.096704	1.056038	-76.53659	
18:24:30	-6.795933	38.98531	126.444	-0.2388922	12.94956	0.79	3	99	0	50	5.099505	1.060055	-76.51639	
18:24:30	-6.795933	38.98531	125.987	-0.2421057	11.14936	0.62	3	99	0	50	5.099505	1.060055	-76.51639	
18:24:30	-6.795933	38.98531	126.1	-0.2307494	10.65349	0.04	3	99	0	50	5.099505	1.060055	-76.51639	
18:24:30	-6.795933	38.98531	126.279	-0.218229	10.66366	0.18	3	99	0	50	5.099505	1.060055	-76.51639	
18:24:31	-6.795933	38.98531	126.319	-0.1898364	11.34363	0.19	3	99	0	50	5.099505	1.060055	-76.51639	
18:24:31	-6.795933	38.98531	126.05	-0.1620577	11.09164	0.72	3	99	0	50	5.073894	1.060226	-76.50883	
18:24:31	-6.795933	38.98531	126.214	-0.1400023	11.19379	0.28	3	99	0	50	5.073894	1.060226	-76.50883	
18:24:31	-6.795933	38.98531	126.324	-0.1187757	11.35539	0.33	3	99	0	50	5.073894	1.060226	-76.50883	
18:24:31	-6.795933	38.98531	126.339	-0.1262232	9.824107	0.25	3	99	0	50	5.073894	1.060226	-76.50883	
18:24:32	-6.795932	38.98531	126.487	-0.1930353	5.326682	0.19	3	98	0	50	5.054741	1.115404	-76.53339	
18:24:32	-6.795932	38.98532	126.688	-0.2649016	0.3791574	0.26	3	98	0	50	5.054741	1.115404	-76.53339	
