Date	Latitude(deg) 	Longitude(deg)	hamsl(m)	hafl(m)	climbrate(cm/s)	GroundSpeed(m/s)	Airspeed(m/s)	Mav_Link(%)	Rssi_Link(%)	Throttle	Roll(deg)	Pitch(deg)	Yaw(deg)
16:31:10	0	0	0	0	0	0	0	100	0	0	0	0	0	
16:31:11	0	0	0	1.064765	-0.2456072	0	3	100	0	50	0	0	0	
16:31:11	0	0	0	1.044685	-1.882198	0	3	100	0	50	0	0	0	
16:31:11	0	0	0	1.014746	-4.178459	0	3	100	0	50	4.746015	2.198081	-76.69118	
16:31:11	0	0	0	0.6689222	-23.36856	0	3	100	0	50	4.746015	2.198081	-76.69118	
16:31:11	0	0	0	0.2780493	-42.40261	0	3	100	0	50	4.746015	2.198081	-76.69118	
16:31:12	0	0	0	0.1441908	-46.51472	0	3	100	0	50	4.746015	2.198081	-76.69118	
16:31:12	0	0	0	0.02810595	-48.98775	0	3	100	0	50	4.746015	2.198081	-76.69118	
16:31:12	0	0	0	0.1660607	-37.6242	0	3	100	0	50	4.802581	2.199359	-76.92247	
16:31:12	0	0	0	0.3508187	-25.40411	0	3	100	0	50	4.802581	2.199359	-76.92247	
16:31:12	0	0	0	0.5530589	-13.64028	0	3	100	0	50	4.802581	2.199359	-76.92247	
16:31:13	0	0	0	0.7409897	-3.703746	0	3	100	0	50	4.802581	2.199359	-76.92247	
16:31:13	0	0	0	0.8447443	1.276934	0	3	100	0	50	4.802581	2.199359	-76.92247	
16:31:13	0	0	0	0.9216229	4.793669	0	3	100	0	50	4.810545	2.234933	-77.04362	
16:31:13	0	0	0	0.9888548	7.45673	0	3	100	0	50	4.810545	2.234933	-77.04362	
16:31:13	0	0	0	1.04671	9.012445	0	3	100	0	50	4.810545	2.234933	-77.04362	
16:31:14	0	0	0	1.092159	9.577632	0	3	100	0	50	4.810545	2.234933	-77.04362	
16:31:14	0	0	0	1.128832	9.672211	0	3	100	0	50	4.810545	2.234933	-77.04362	
16:31:14	0	0	0	1.212306	12.1328	0	3	100	0	50	4.848608	2.236113	-77.17864	
16:31:14	0	0	0	1.28923	14.00364	0	3	100	0	50	4.848608	2.236113	-77.17864	
16:31:15	0	0	0	1.40601	18.54095	0	3	100	0	50	4.848608	2.236113	-77.17864	
16:31:15	0	0	0	1.513852	21.30505	0	3	100	0	50	4.848608	2.236113	-77.17864	
16:31:15	0	0	0	1.545476	19.71386	0	3	100	0	50	4.848608	2.236113	-77.17864	
16:31:15	0	0	0	1.554207	16.98523	0	3	100	0	50	4.827621	2.257885	-77.27781	
16:31:15	0	0	0	1.580954	15.96959	0	3	100	0	50	4.827621	2.257885	-77.27781	
16:31:16	0	0	0	1.600781	14.91182	0	3	100	0	50	4.827621	2.257885	-77.27781	
16:31:16	0	0	0	1.624918	13.81185	0	3	100	0	50	4.827621	2.257885	-77.27781	
16:31:16	0	0	0	1.677533	14.56442	0	3	100	0	50	4.827621	2.257885	-77.27781	
16:31:16	0	0	0	1.694428	13.70173	0	3	100	0	50	4.906456	2.256697	-77.38762	
16:31:16	0	0	0	1.636793	8.562738	0	3	100	0	50	4.906456	2.256697	-77.38762	
16:31:17	0	0	0	1.595032	5.035426	0	3	100	0	50	4.906456	2.256697	-77.38762	
16:31:17	0	0	0	1.585639	3.950842	0	3	100	0	50	4.906456	2.256697	-77.38762	
16:31:17	0	0	0	1.586847	3.111843	0	3	100	0	50	4.906456	2.256697	-77.38762	
16:31:17	0	0	0	1.60236	3.018804	0	3	100	0	50	4.884511	2.201881	-77.47581	
16:31:17	0	0	0	1.647776	4.335807	0	3	100	0	50	4.884511	2.201881	-77.47581	
16:31:17	0	0	0	1.733947	8.334861	0	3	100	0	50	4.884511	2.201881	-77.47581	
16:31:18	0	0	0	1.80687	10.74224	0	3	100	0	50	4.884511	2.201881	-77.47581	
16:31:18	0	0	0	1.887835	12.8446	0	3	100	0	50	4.884511	2.201881	-77.47581	
16:31:18	0	0	0	1.954497	15.12251	0	3	100	0	50	4.909603	2.168716	-77.50895	
16:31:18	0	0	0	1.99663	14.67527	0	3	100	0	50	4.909603	2.168716	-77.50895	
16:31:18	0	0	0	2.027364	13.90445	0	3	100	0	50	4.909603	2.168716	-77.50895	
16:31:19	0	0	0	2.040584	12.66716	0	3	100	0	50	4.909603	2.168716	-77.50895	
16:31:19	0	0	0	2.02509	10.08043	0	3	100	0	50	4.909603	2.168716	-77.50895	
16:31:19	0	0	0	1.963036	5.517116	0	3	100	0	50	4.914792	2.123128	-77.49664	
16:31:19	0	0	0	1.900678	1.026223	0	3	100	0	50	4.914792	2.123128	-77.49664	
16:31:19	0	0	0	1.87162	-1.601254	0	3	100	0	50	4.914792	2.123128	-77.49664	
16:31:20	0	0	0	1.824347	-4.554413	0	3	100	0	50	4.914792	2.123128	-77.49664	
16:31:20	0	0	0	1.744051	-9.171629	0	3	100	0	50	4.914792	2.123128	-77.49664	
16:31:20	0	0	0	1.66133	-13.29952	0	3	100	0	50	4.898325	2.087124	-77.48551	
16:31:20	0	0	0	1.548915	-18.5365	0	3	100	0	50	4.898325	2.087124	-77.48551	
16:31:21	0	0	0	1.440052	-23.11556	0	3	100	0	50	4.898325	2.087124	-77.48551	
16:31:21	0	0	0	1.37096	-24.67295	0	3	100	0	50	4.898325	2.087124	-77.48551	
16:31:21	0	0	0	1.320999	-25.98593	0	3	100	0	50	4.898325	2.087124	-77.48551	
16:31:21	0	0	0	1.28853	-26.16956	0	3	100	0	50	4.891174	2.058253	-77.4622	
16:31:21	0	0	0	1.265833	-25.54279	0	3	100	0	50	4.891174	2.058253	-77.4622	
16:31:22	0	0	0	1.236244	-25.25854	0	3	100	0	50	4.891174	2.058253	-77.4622	
16:31:22	0	0	0	1.207931	-24.63769	0	3	100	0	50	4.891174	2.058253	-77.4622	
16:31:22	0	0	0	1.169805	-25.00039	0	3	100	0	50	4.891174	2.058253	-77.4622	
16:31:22	0	0	0	1.136175	-25.33268	0	3	100	0	50	4.884667	2.101785	-77.43639	
16:31:22	0	0	0	1.134282	-23.17489	0	3	100	0	50	4.884667	2.101785	-77.43639	
16:31:23	0	0	0	1.141905	-21.29834	0	3	100	0	50	4.884667	2.101785	-77.43639	
16:31:23	0	0	0	1.16532	-18.66819	0	3	100	0	50	4.884667	2.101785	-77.43639	
16:31:23	0	0	0	1.192242	-16.2539	0	3	100	0	50	4.884667	2.101785	-77.43639	
16:31:23	0	0	0	1.238234	-12.89399	0	3	100	0	50	4.885036	2.03368	-77.35628	
16:31:23	0	0	0	1.281094	-9.870672	0	3	100	0	50	4.885036	2.03368	-77.35628	
16:31:24	0	0	0	1.299292	-8.281252	0	3	100	0	50	4.885036	2.03368	-77.35628	
16:31:24	0	0	0	1.310749	-7.394962	0	3	100	0	50	4.885036	2.03368	-77.35628	
16:31:24	0	0	0	1.319171	-7.083039	0	3	100	0	50	4.885036	2.03368	-77.35628	
16:31:24	0	0	0	1.326167	-6.824312	0	3	100	0	50	4.85613	1.942963	-77.26978	
16:31:24	0	0	0	1.344086	-5.26079	0	3	100	0	50	4.85613	1.942963	-77.26978	
16:31:25	0	0	0	1.361833	-3.973158	0	3	100	0	50	4.85613	1.942963	-77.26978	
16:31:25	0	0	0	1.369938	-3.225417	0	3	100	0	50	4.85613	1.942963	-77.26978	
16:31:25	0	0	0	1.375534	-3.088788	0	3	100	0	50	4.85613	1.942963	-77.26978	
16:31:25	0	0	0	1.405804	-1.761316	0	3	100	0	50	4.869483	1.914114	-77.14959	
16:31:25	0	0	0	1.432549	-1.047722	0	3	100	0	50	4.869483	1.914114	-77.14959	
16:31:26	0	0	0	1.454773	-0.8282229	0	3	100	0	50	4.869483	1.914114	-77.14959	
16:31:26	0	0	0	1.462891	-0.5800706	0	3	100	0	50	4.869483	1.914114	-77.14959	
16:31:26	0	0	0	1.474261	-0.08776165	0	3	100	0	50	4.869483	1.914114	-77.14959	
16:31:26	0	0	0	1.502351	1.007322	0	3	100	0	50	4.861015	1.904815	-77.00089	
16:31:26	0	0	0	1.534926	1.984922	0	3	100	0	50	4.861015	1.904815	-77.00089	
16:31:27	0	0	0	1.578978	3.623726	0	3	100	0	50	4.861015	1.904815	-77.00089	
16:31:27	0	0	0	1.634077	5.998423	0	3	100	0	50	4.861015	1.904815	-77.00089	
16:31:27	0	0	0	1.705712	8.291253	0	3	100	0	50	4.861015	1.904815	-77.00089	
16:31:27	0	0	0	1.748542	9.139176	0	3	100	0	50	4.844396	1.890538	-76.93858	
16:31:27	0	0	0	1.7414	7.720575	0	3	100	0	50	4.844396	1.890538	-76.93858	
16:31:28	0	0	0	1.724529	5.681836	0	3	100	0	50	4.844396	1.890538	-76.93858	
16:31:28	0	0	0	1.678352	2.278199	0	3	100	0	50	4.844396	1.890538	-76.93858	
16:31:28	0	0	0	1.63327	-0.9289614	0	3	100	0	50	4.844396	1.890538	-76.93858	
16:31:28	0	0	0	1.583757	-4.129167	0	3	100	0	50	4.846807	1.914075	-76.83239	
16:31:28	0	0	0	1.530864	-7.109641	0	3	100	0	50	4.846807	1.914075	-76.83239	
16:31:29	0	0	0	1.481851	-9.237143	0	3	100	0	50	4.846807	1.914075	-76.83239	
16:31:29	0	0	0	1.447658	-11.0442	0	3	100	0	50	4.846807	1.914075	-76.83239	
16:31:29	0	0	0	1.422384	-11.55373	0	3	100	0	50	4.846807	1.914075	-76.83239	
16:31:29	0	0	0	1.405601	-11.39051	0	3	100	0	50	4.833941	1.91449	-76.67435	
16:31:29	0	0	0	1.393967	-11.72063	0	3	100	0	50	4.833941	1.91449	-76.67435	
16:31:30	0	0	0	1.373253	-12.05578	0	3	100	0	50	4.833941	1.91449	-76.67435	
16:31:30	0	0	0	1.340467	-13.00506	0	3	100	0	50	4.833941	1.91449	-76.67435	
16:31:30	0	0	0	1.319253	-12.52142	0	3	100	0	50	4.833941	1.91449	-76.67435	
16:31:30	0	0	0	1.315891	-12.02866	0	3	100	0	50	4.807452	1.944838	-76.54898	
16:31:30	0	0	0	1.314012	-11.46945	0	3	100	0	50	4.807452	1.944838	-76.54898	
16:31:31	0	0	0	1.326101	-9.806145	0	3	100	0	50	4.807452	1.944838	-76.54898	
16:31:31	0	0	0	1.341766	-7.796045	0	3	100	0	50	4.807452	1.944838	-76.54898	
16:31:31	0	0	0	1.335551	-7.331029	0	3	100	0	50	4.807452	1.944838	-76.54898	
16:31:31	0	0	0	1.32951	-6.586509	0	3	100	0	50	4.81301	1.956581	-76.43032	
16:31:31	0	0	0	1.309081	-7.668202	0	3	100	0	50	4.81301	1.956581	-76.43032	
16:31:32	0	0	0	1.287393	-7.927211	0	3	100	0	50	4.81301	1.956581	-76.43032	
16:31:32	0	0	0	1.300865	-6.924254	0	3	100	0	50	4.81301	1.956581	-76.43032	
16:31:32	0	0	0	1.326929	-5.651173	0	3	100	0	50	4.81301	1.956581	-76.43032	
16:31:32	0	0	0	1.359753	-3.757275	0	3	100	0	50	4.845076	1.956621	-76.35224	
16:31:32	0	0	0	1.389141	-2.043464	0	3	100	0	50	4.845076	1.956621	-76.35224	
16:31:33	0	0	0	1.410629	-0.8187059	0	3	100	0	50	4.845076	1.956621	-76.35224	
16:31:33	0	0	0	1.428009	-0.7788093	0	3	100	0	50	4.845076	1.956621	-76.35224	
16:31:33	0	0	0	1.449031	0.08770979	0	3	100	0	50	4.845076	1.956621	-76.35224	
16:31:33	0	0	0	1.46753	0.8299778	0	3	100	0	50	4.840182	1.95764	-76.28431	
16:31:33	0	0	0	1.535725	4.175408	0	3	100	0	50	4.840182	1.95764	-76.28431	
16:31:34	0	0	0	1.608028	7.055729	0	3	100	0	50	4.840182	1.95764	-76.28431	
16:31:34	0	0	0	1.631238	7.598639	0	3	100	0	50	4.840182	1.95764	-76.28431	
16:31:34	0	0	0	1.640906	6.910628	0	3	100	0	50	4.840182	1.95764	-76.28431	
16:31:34	0	0	0	1.652796	5.973695	0	3	100	0	50	4.808942	1.924997	-76.21159	
16:31:34	0	0	0	1.661059	5.336824	0	3	100	0	50	4.808942	1.924997	-76.21159	
16:31:35	0	0	0	1.601868	1.783625	0	3	100	0	50	4.808942	1.924997	-76.21159	
16:31:35	0	0	0	1.531293	-2.7195	0	3	100	0	50	4.808942	1.924997	-76.21159	
16:31:35	0	0	0	1.47222	-6.076	0	3	100	0	50	4.808942	1.924997	-76.21159	
16:31:35	0	0	0	1.424697	-8.278743	0	3	100	0	50	4.794308	1.934695	-76.12945	
16:31:35	0	0	0	1.380813	-10.01428	0	3	100	0	50	4.794308	1.934695	-76.12945	
16:31:36	0	0	0	1.355065	-10.84249	0	3	100	0	50	4.794308	1.934695	-76.12945	
16:31:36	0	0	0	1.34283	-10.18371	0	3	100	0	50	4.794308	1.934695	-76.12945	
16:31:36	0	0	0	1.371585	-7.864645	0	3	100	0	50	4.794308	1.934695	-76.12945	
16:31:36	0	0	0	1.395552	-6.200351	0	3	100	0	50	4.756869	1.943038	-76.06062	
16:31:36	0	0	0	1.407045	-5.024542	0	3	100	0	50	4.756869	1.943038	-76.06062	
16:31:37	0	0	0	1.379823	-6.452931	0	3	100	0	50	4.756869	1.943038	-76.06062	
16:31:37	0	0	0	1.299874	-10.51458	0	3	100	0	50	4.756869	1.943038	-76.06062	
16:31:37	0	0	0	1.240648	-13.35702	0	3	100	0	50	4.756869	1.943038	-76.06062	
16:31:37	0	0	0	1.20874	-14.50643	0	3	100	0	50	4.761776	1.949917	-76.00888	
16:31:37	0	0	0	1.184008	-14.49088	0	3	100	0	50	4.761776	1.949917	-76.00888	
16:31:38	0	0	0	1.187949	-13.47579	0	3	100	0	50	4.761776	1.949917	-76.00888	
16:31:38	0	0	0	1.194171	-12.05144	0	3	100	0	50	4.761776	1.949917	-76.00888	
16:31:38	0	0	0	1.204513	-10.56516	0	3	100	0	50	4.761776	1.949917	-76.00888	
16:31:38	0	0	0	1.218865	-8.753317	0	3	100	0	50	4.69977	1.96245	-75.97438	
16:31:38	0	0	0	1.234727	-7.337409	0	3	100	0	50	4.69977	1.96245	-75.97438	
16:31:39	0	0	0	1.242487	-6.119436	0	3	100	0	50	4.69977	1.96245	-75.97438	
16:31:39	0	0	0	1.239795	-5.889966	0	3	100	0	50	4.69977	1.96245	-75.97438	
16:31:39	0	0	0	1.234846	-5.570707	0	3	100	0	50	4.69977	1.96245	-75.97438	
16:31:39	0	0	0	1.226012	-5.304932	0	3	100	0	50	4.692582	1.92334	-75.9075	
16:31:39	0	0	0	1.209411	-5.721609	0	3	100	0	50	4.692582	1.92334	-75.9075	
16:31:40	0	0	0	1.161505	-7.231073	0	3	100	0	50	4.692582	1.92334	-75.9075	
16:31:40	0	0	0	1.125257	-7.912498	0	3	100	0	50	4.692582	1.92334	-75.9075	
16:31:40	0	0	0	1.110275	-7.784521	0	3	100	0	50	4.692582	1.92334	-75.9075	
16:31:40	0	0	0	1.099304	-8.281385	0	3	100	0	50	4.695037	1.941004	-75.81382	
16:31:40	0	0	0	1.082036	-9.204424	0	3	100	0	50	4.695037	1.941004	-75.81382	
16:31:41	0	0	0	1.065489	-9.319682	0	3	100	0	50	4.695037	1.941004	-75.81382	
16:31:41	0	0	0	1.076714	-7.50956	0	3	100	0	50	4.695037	1.941004	-75.81382	
16:31:41	0	0	0	1.091053	-6.467323	0	3	100	0	50	4.695037	1.941004	-75.81382	
16:31:41	0	0	0	1.137103	-3.260529	0	3	100	0	50	4.732087	1.984674	-75.76335	
16:31:42	0	0	0	1.189338	-0.6234815	0	3	100	0	50	4.732087	1.984674	-75.76335	
16:31:42	0	0	0	1.33027	6.074096	0	3	100	0	50	4.732087	1.984674	-75.76335	
16:31:42	0	0	0	1.401847	8.736379	0	3	100	0	50	4.732087	1.984674	-75.76335	
16:31:42	0	0	0	1.459143	10.77786	0	3	100	0	50	4.69596	2.004366	-75.77327	
16:31:42	0	0	0	1.466489	9.933037	0	3	100	0	50	4.69596	2.004366	-75.77327	
16:31:43	0	0	0	1.461096	8.560526	0	3	100	0	50	4.69596	2.004366	-75.77327	
16:31:43	0	0	0	1.424652	5.707042	0	3	100	0	50	4.69596	2.004366	-75.77327	
16:31:43	0	0	0	1.383052	2.515329	0	3	100	0	50	4.69596	2.004366	-75.77327	
16:31:43	0	0	0	1.389302	2.327822	0	3	100	0	50	4.694655	1.981973	-75.71478	
16:31:43	0	0	0	1.40059	2.863068	0	3	100	0	50	4.694655	1.981973	-75.71478	
16:31:44	0	0	0	1.40818	2.628882	0	3	100	0	50	4.694655	1.981973	-75.71478	
16:31:44	0	0	0	1.412473	2.376062	0	3	100	0	50	4.694655	1.981973	-75.71478	
16:31:44	0	0	0	1.406343	1.529301	0	3	100	0	50	4.694655	1.981973	-75.71478	
16:31:44	0	0	0	1.398269	0.4284494	0	3	100	0	50	4.61787	1.921118	-75.70001	
16:31:44	0	0	0	1.390708	-0.133594	0	3	100	0	50	4.61787	1.921118	-75.70001	
16:31:45	0	0	0	1.384597	-0.2584289	0	3	100	0	50	4.61787	1.921118	-75.70001	
16:31:45	0	0	0	1.389177	-0.2844061	0	3	100	0	50	4.61787	1.921118	-75.70001	
16:31:45	0	0	0	1.394345	-0.3024801	0	3	100	0	50	4.61787	1.921118	-75.70001	
16:31:45	0	0	0	1.397112	-0.004678085	0	3	100	0	50	4.628375	1.91133	-75.61239	
16:31:45	0	0	0	1.38958	-0.420435	0	3	100	0	50	4.628375	1.91133	-75.61239	
16:31:46	0	0	0	1.374755	-1.529728	0	3	100	0	50	4.628375	1.91133	-75.61239	
16:31:46	0	0	0	1.346361	-2.97017	0	3	100	0	50	4.628375	1.91133	-75.61239	
16:31:46	0	0	0	1.317856	-4.535841	0	3	100	0	50	4.628375	1.91133	-75.61239	
16:31:46	0	0	0	1.301069	-5.278574	0	3	100	0	50	4.623195	1.863686	-75.5847	
16:31:46	0	0	0	1.281788	-5.490624	0	3	100	0	50	4.623195	1.863686	-75.5847	
16:31:47	0	0	0	1.258608	-6.354311	0	3	100	0	50	4.623195	1.863686	-75.5847	
16:31:47	0	0	0	1.245652	-6.39432	0	3	100	0	50	4.623195	1.863686	-75.5847	
16:31:47	0	0	0	1.246376	-5.274124	0	3	100	0	50	4.623195	1.863686	-75.5847	
16:31:47	0	0	0	1.251639	-4.061828	0	3	100	0	50	4.618847	1.852425	-75.5299	
16:31:47	0	0	0	1.269071	-2.275034	0	3	100	0	50	4.618847	1.852425	-75.5299	
16:31:48	0	0	0	1.288308	-1.23464	0	3	100	0	50	4.618847	1.852425	-75.5299	
16:31:48	0	0	0	1.315646	0.2287709	0	3	100	0	50	4.618847	1.852425	-75.5299	
16:31:48	0	0	0	1.351823	1.756607	0	3	99	0	50	4.618847	1.852425	-75.5299	
16:31:48	0	0	0	1.394861	3.966125	0	3	99	0	50	4.559933	1.855487	-75.49874	
16:31:48	0	0	0	1.429797	5.392569	0	3	99	0	50	4.559933	1.855487	-75.49874	
16:31:49	0	0	0	1.454151	6.296356	0	3	99	0	50	4.559933	1.855487	-75.49874	
16:31:49	0	0	0	1.475931	6.882808	0	3	99	0	50	4.559933	1.855487	-75.49874	
16:31:49	0	0	0	1.493172	6.966919	0	3	99	0	50	4.559933	1.855487	-75.49874	
16:31:49	0	0	0	1.508503	7.176786	0	3	99	0	50	4.536716	1.84627	-75.44399	
16:31:49	0	0	0	1.517704	6.459302	0	3	99	0	50	4.536716	1.84627	-75.44399	
16:31:50	0	0	0	1.532296	6.810565	0	3	99	0	50	4.536716	1.84627	-75.44399	
16:31:50	0	0	0	1.574662	8.189513	0	3	99	0	50	4.536716	1.84627	-75.44399	
16:31:50	0	0	0	1.614775	9.30684	0	3	99	0	50	4.536716	1.84627	-75.44399	
16:31:50	0	0	0	1.627922	8.947518	0	3	99	0	50	4.57634	1.852249	-75.3968	
16:31:50	0	0	0	1.63338	8.111969	0	3	99	0	50	4.57634	1.852249	-75.3968	
16:31:51	0	0	0	1.618813	6.180017	0	3	99	0	50	4.57634	1.852249	-75.3968	
16:31:51	0	0	0	1.599851	4.492156	0	3	99	0	50	4.57634	1.852249	-75.3968	
16:31:51	0	0	0	1.612579	4.807572	0	3	99	0	50	4.57634	1.852249	-75.3968	
16:31:51	0	0	0	1.628726	5.456609	0	3	99	0	50	4.542829	1.874172	-75.35677	
16:31:51	0	0	0	1.643251	4.99195	0	3	99	0	50	4.542829	1.874172	-75.35677	
16:31:52	0	0	0	1.65304	5.335131	0	3	99	0	50	4.542829	1.874172	-75.35677	
16:31:52	0	0	0	1.65734	5.225871	0	3	99	0	50	4.542829	1.874172	-75.35677	
16:31:52	0	0	0	1.659444	5.053457	0	3	99	0	50	4.542829	1.874172	-75.35677	
16:31:52	0	0	0	1.649478	3.502336	0	3	99	0	50	4.573023	1.895808	-75.32867	
16:31:52	0	0	0	1.636885	2.855217	0	3	99	0	50	4.573023	1.895808	-75.32867	
16:31:53	0	0	0	1.673898	4.23939	0	3	99	0	50	4.573023	1.895808	-75.32867	
16:31:53	0	0	0	1.713471	5.51024	0	3	99	0	50	4.573023	1.895808	-75.32867	
16:31:53	0	0	0	1.758707	7.346517	0	3	99	0	50	4.573023	1.895808	-75.32867	
16:31:53	0	0	0	1.80031	9.510262	0	3	99	0	50	4.574932	1.930032	-75.32622	
16:31:53	0	0	0	1.793921	7.338681	0	3	99	0	50	4.574932	1.930032	-75.32622	
16:31:54	0	0	0	1.775152	5.410963	0	3	99	0	50	4.574932	1.930032	-75.32622	
16:31:54	0	0	0	1.75298	3.602806	0	3	99	0	50	4.574932	1.930032	-75.32622	
16:31:54	0	0	0	1.733341	1.884148	0	3	99	0	50	4.572267	1.939407	-75.28893	
16:31:54	0	0	0	1.64894	-3.26689	0	3	99	0	50	4.572267	1.939407	-75.28893	
16:31:55	0	0	0	1.613211	-4.72961	0	3	99	0	50	4.572267	1.939407	-75.28893	
16:31:55	0	0	0	1.584956	-5.65233	0	3	99	0	50	4.572267	1.939407	-75.28893	
16:31:55	0	0	0	1.551799	-7.254298	0	3	99	0	50	4.572267	1.939407	-75.28893	
16:31:55	0	0	0	1.498721	-9.578152	0	3	99	0	50	4.612386	1.965168	-75.26384	
16:31:55	0	0	0	1.457576	-10.51382	0	3	99	0	50	4.612386	1.965168	-75.26384	
16:31:56	0	0	0	1.427044	-10.50257	0	3	99	0	50	4.612386	1.965168	-75.26384	
16:31:56	0	0	0	1.401372	-11.10823	0	3	99	0	50	4.612386	1.965168	-75.26384	
16:31:56	0	0	0	1.379869	-11.44281	0	3	99	0	50	4.612386	1.965168	-75.26384	
16:31:56	0	0	0	1.349473	-11.89155	0	3	99	0	50	4.602683	1.919742	-75.25752	
16:31:56	0	0	0	1.304901	-13.34391	0	3	99	0	50	4.602683	1.919742	-75.25752	
16:31:57	0	0	0	1.273259	-13.64984	0	3	99	0	50	4.602683	1.919742	-75.25752	
16:31:57	0	0	0	1.25617	-13.01021	0	3	99	0	50	4.602683	1.919742	-75.25752	
16:31:57	0	0	0	1.25212	-12.10506	0	3	99	0	50	4.602683	1.919742	-75.25752	
16:31:57	0	0	0	1.280187	-9.329465	0	3	99	0	50	4.603263	1.927353	-75.26626	
16:31:57	0	0	0	1.30225	-7.873417	0	3	99	0	50	4.603263	1.927353	-75.26626	
16:31:58	0	0	0	1.324043	-6.264184	0	3	99	0	50	4.603263	1.927353	-75.26626	
16:31:58	0	0	0	1.334307	-5.008558	0	3	99	0	50	4.603263	1.927353	-75.26626	
16:31:58	0	0	0	1.323714	-5.631906	0	3	99	0	50	4.603263	1.927353	-75.26626	
16:31:58	0	0	0	1.295552	-6.717813	0	3	99	0	50	4.627479	1.930465	-75.26932	
16:31:58	0	0	0	1.243836	-8.923849	0	3	99	0	50	4.627479	1.930465	-75.26932	
16:31:59	0	0	0	1.188723	-11.12061	0	3	99	0	50	4.627479	1.930465	-75.26932	
16:31:59	0	0	0	1.133104	-13.35954	0	3	99	0	50	4.627479	1.930465	-75.26932	
16:31:59	0	0	0	1.091103	-14.1689	0	3	99	0	50	4.627479	1.930465	-75.26932	
16:31:59	0	0	0	1.104559	-11.64631	0	3	99	0	50	4.563891	1.956407	-75.2595	
16:31:59	0	0	0	1.121449	-9.535657	0	3	99	0	50	4.563891	1.956407	-75.2595	
16:32:00	0	0	0	1.147682	-6.850614	0	3	99	0	50	4.563891	1.956407	-75.2595	
16:32:00	0	0	0	1.17158	-4.875288	0	3	99	0	50	4.563891	1.956407	-75.2595	
16:32:00	0	0	0	1.219724	-1.421427	0	3	99	0	50	4.563891	1.956407	-75.2595	
16:32:00	0	0	0	1.270347	1.282069	0	3	99	0	50	4.550261	1.872641	-75.25324	
16:32:00	0	0	0	1.296887	2.53328	0	3	99	0	50	4.550261	1.872641	-75.25324	
16:32:01	0	0	0	1.316223	3.587799	0	3	99	0	50	4.550261	1.872641	-75.25324	
16:32:01	0	0	0	1.348914	5.670955	0	3	99	0	50	4.550261	1.872641	-75.25324	
16:32:01	0	0	0	1.383224	6.342568	0	3	99	0	50	4.550261	1.872641	-75.25324	
16:32:01	0	0	0	1.419824	7.579535	0	3	99	0	50	4.524127	1.854913	-75.26638	
16:32:01	0	0	0	1.452673	8.273168	0	3	99	0	50	4.524127	1.854913	-75.26638	
16:32:02	0	0	0	1.496686	9.710818	0	3	99	0	50	4.524127	1.854913	-75.26638	
16:32:02	0	0	0	1.533285	10.54249	0	3	99	0	50	4.524127	1.854913	-75.26638	
16:32:02	0	0	0	1.563343	11.20438	0	3	99	0	50	4.524127	1.854913	-75.26638	
16:32:02	0	0	0	1.588322	11.06109	0	3	99	0	50	4.532425	1.887495	-75.25149	
16:32:02	0	0	0	1.587264	9.648709	0	3	99	0	50	4.532425	1.887495	-75.25149	
16:32:03	0	0	0	1.579527	8.165902	0	3	99	0	50	4.532425	1.887495	-75.25149	
16:32:03	0	0	0	1.579282	7.668562	0	3	99	0	50	4.532425	1.887495	-75.25149	
16:32:03	0	0	0	1.579251	6.538876	0	3	99	0	50	4.532425	1.887495	-75.25149	
16:32:03	0	0	0	1.517511	2.337236	0	3	99	0	50	4.534904	1.888149	-75.25637	
16:32:04	0	0	0	1.446088	-1.500619	0	3	98	0	50	4.534904	1.888149	-75.25637	
16:32:04	0	0	0	1.311087	-8.231933	0	3	98	0	50	4.534904	1.888149	-75.25637	
16:32:04	0	0	0	1.259073	-10.10394	0	3	98	0	50	4.534904	1.888149	-75.25637	
16:32:04	0	0	0	1.21419	-11.41415	0	3	98	0	50	4.545815	1.818828	-75.23805	
16:32:04	0	0	0	1.157207	-13.47518	0	3	98	0	50	4.545815	1.818828	-75.23805	
16:32:05	0	0	0	1.108265	-14.95429	0	3	98	0	50	4.545815	1.818828	-75.23805	
16:32:05	0	0	0	1.066996	-15.73062	0	3	98	0	50	4.545815	1.818828	-75.23805	
16:32:05	0	0	0	1.044847	-15.73795	0	3	98	0	50	4.545815	1.818828	-75.23805	
16:32:05	0	0	0	1.030114	-15.29509	0	3	98	0	50	4.546859	1.864031	-75.22794	
16:32:05	0	0	0	1.026478	-14.28893	0	3	98	0	50	4.546859	1.864031	-75.22794	
16:32:06	0	0	0	1.021759	-13.12935	0	3	98	0	50	4.546859	1.864031	-75.22794	
16:32:06	0	0	0	1.014944	-11.95967	0	3	98	0	50	4.546859	1.864031	-75.22794	
16:32:06	0	0	0	0.9971848	-11.25036	0	3	98	0	50	4.546859	1.864031	-75.22794	
16:32:06	0	0	0	0.9638935	-11.40923	0	3	98	0	50	4.545271	1.856359	-75.2213	
16:32:06	0	0	0	0.9540767	-10.82274	0	3	98	0	50	4.545271	1.856359	-75.2213	
16:32:07	0	0	0	0.971219	-8.97274	0	3	98	0	50	4.545271	1.856359	-75.2213	
16:32:07	0	0	0	0.9745227	-7.515248	0	3	98	0	50	4.545271	1.856359	-75.2213	
16:32:07	0	0	0	0.9528758	-8.529552	0	3	98	0	50	4.545271	1.856359	-75.2213	
16:32:07	0	0	0	0.9355065	-9.04532	0	3	98	0	50	4.543769	1.855543	-75.23296	
16:32:07	0	0	0	0.9319755	-10.76753	0	3	98	0	50	4.543769	1.855543	-75.23296	
16:32:08	0	0	0	0.9456336	-9.48027	0	3	98	0	50	4.543769	1.855543	-75.23296	
16:32:08	0	0	0	0.9801666	-7.099407	0	3	98	0	50	4.543769	1.855543	-75.23296	
16:32:08	0	0	0	1.013973	-4.632554	0	3	98	0	50	4.543769	1.855543	-75.23296	
16:32:08	0	0	0	1.046541	-2.263244	0	3	98	0	50	4.530081	1.847488	-75.21643	
16:32:08	0	0	0	1.06936	-0.5263425	0	3	98	0	50	4.530081	1.847488	-75.21643	
16:32:09	0	0	0	1.077967	0.01746853	0	3	98	0	50	4.530081	1.847488	-75.21643	
16:32:09	0	0	0	1.094819	1.072705	0	3	98	0	50	4.530081	1.847488	-75.21643	
16:32:09	0	0	0	1.139361	3.135869	0	3	98	0	50	4.530081	1.847488	-75.21643	
16:32:09	0	0	0	1.184859	5.265924	0	3	98	0	50	4.538102	1.852702	-75.1996	
16:32:09	0	0	0	1.253061	8.315208	0	3	98	0	50	4.538102	1.852702	-75.1996	
16:32:10	0	0	0	1.30778	10.62797	0	3	98	0	50	4.538102	1.852702	-75.1996	
16:32:10	0	0	0	1.340137	11.24028	0	3	98	0	50	4.538102	1.852702	-75.1996	
16:32:10	0	0	0	1.363585	11.60068	0	3	98	0	50	4.538102	1.852702	-75.1996	
16:32:10	0	0	0	1.363966	10.50748	0	3	98	0	50	4.542563	1.816569	-75.18787	
16:32:10	0	0	0	1.358412	9.425629	0	3	98	0	50	4.542563	1.816569	-75.18787	
16:32:11	0	0	0	1.370024	9.269406	0	3	98	0	50	4.542563	1.816569	-75.18787	
16:32:11	0	0	0	1.380871	9.008462	0	3	98	0	50	4.542563	1.816569	-75.18787	
16:32:11	0	0	0	1.419063	10.41292	0	3	98	0	50	4.542563	1.816569	-75.18787	
16:32:11	0	0	0	1.458354	11.18726	0	3	98	0	50	4.535812	1.83455	-75.1575	
16:32:11	0	0	0	1.491815	11.80856	0	3	98	0	50	4.535812	1.83455	-75.1575	
16:32:12	0	0	0	1.516235	11.74724	0	3	98	0	50	4.535812	1.83455	-75.1575	
16:32:12	0	0	0	1.550566	12.13121	0	3	98	0	50	4.535812	1.83455	-75.1575	
16:32:12	0	0	0	1.580902	12.62553	0	3	98	0	50	4.535812	1.83455	-75.1575	
16:32:12	0	0	0	1.61574	12.82379	0	3	98	0	50	4.465281	1.862506	-75.12798	
16:32:13	0	0	0	1.643742	12.94575	0	3	98	0	50	4.465281	1.862506	-75.12798	
16:32:13	0	0	0	1.636983	11.25323	0	3	98	0	50	4.465281	1.862506	-75.12798	
16:32:13	0	0	0	1.624174	9.792229	0	3	99	0	50	4.465281	1.862506	-75.12798	
16:32:13	0	0	0	1.60014	7.485408	0	3	99	0	50	4.465281	1.862506	-75.12798	
16:32:13	0	0	0	1.574443	5.246918	0	3	99	0	50	4.444331	1.897386	-75.11223	
16:32:14	0	0	0	1.572151	4.557496	0	3	99	0	50	4.444331	1.897386	-75.11223	
16:32:14	0	0	0	1.573857	4.184742	0	3	99	0	50	4.444331	1.897386	-75.11223	
16:32:14	0	0	0	1.567778	3.462144	0	3	99	0	50	4.444331	1.897386	-75.11223	
16:32:14	0	0	0	1.559942	2.665853	0	3	99	0	50	4.444331	1.897386	-75.11223	
16:32:14	0	0	0	1.562438	2.674103	0	3	99	0	50	4.469033	1.942902	-75.12686	
16:32:14	0	0	0	1.566104	2.509351	0	3	99	0	50	4.469033	1.942902	-75.12686	
16:32:15	0	0	0	1.560129	2.064722	0	3	99	0	50	4.469033	1.942902	-75.12686	
16:32:15	0	0	0	1.519118	-0.6660267	0	3	99	0	50	4.469033	1.942902	-75.12686	
16:32:15	0	0	0	1.480563	-2.675505	0	3	99	0	50	4.469033	1.942902	-75.12686	
16:32:15	0	0	0	1.445012	-4.095309	0	3	99	0	50	4.51929	2.012362	-75.14043	
16:32:15	0	0	0	1.428591	-4.764716	0	3	99	0	50	4.51929	2.012362	-75.14043	
16:32:16	0	0	0	1.446646	-3.575143	0	3	99	0	50	4.51929	2.012362	-75.14043	
16:32:16	0	0	0	1.436934	-3.563552	0	3	99	0	50	4.51929	2.012362	-75.14043	
16:32:16	0	0	0	1.364989	-6.656626	0	3	98	0	50	4.51053	1.994864	-75.20461	
16:32:16	0	0	0	1.291865	-9.481905	0	3	98	0	50	4.51053	1.994864	-75.20461	
16:32:17	0	0	0	1.26622	-9.974194	0	3	98	0	50	4.51053	1.994864	-75.20461	
16:32:17	0	0	0	1.239339	-10.45743	0	3	98	0	50	4.51053	1.994864	-75.20461	
16:32:17	0	0	0	1.215311	-10.62227	0	3	98	0	50	4.51053	1.994864	-75.20461	
16:32:17	0	0	0	1.190644	-10.8595	0	3	98	0	50	4.528853	2.028113	-75.24195	
16:32:17	0	0	0	1.142817	-12.73292	0	3	98	0	50	4.528853	2.028113	-75.24195	
16:32:18	0	0	0	1.039195	-17.00028	0	3	98	0	50	4.528853	2.028113	-75.24195	
16:32:18	0	0	0	0.9548982	-19.61915	0	3	98	0	50	4.528853	2.028113	-75.24195	
16:32:18	0	0	0	0.888173	-21.24192	0	3	98	0	50	4.528853	2.028113	-75.24195	
16:32:18	0	0	0	0.8663342	-20.40786	0	3	98	0	50	4.517257	2.066811	-75.25484	
16:32:19	0	0	0	0.8916025	-17.01225	0	3	98	0	50	4.517257	2.066811	-75.25484	
16:32:19	0	0	0	0.9223331	-13.89963	0	3	98	0	50	4.517257	2.066811	-75.25484	
16:32:19	0	0	0	0.9815984	-9.677738	0	3	98	0	50	4.517257	2.066811	-75.25484	
16:32:19	0	0	0	1.032158	-6.264025	0	3	98	0	50	4.517257	2.066811	-75.25484	
16:32:19	0	0	0	1.059971	-4.331275	0	3	98	0	50	4.502826	2.108734	-75.31699	
16:32:20	0	0	0	1.083702	-2.695614	0	3	98	0	50	4.502826	2.108734	-75.31699	
16:32:20	0	0	0	1.121997	0.3237135	0	3	98	0	50	4.502826	2.108734	-75.31699	
16:32:20	0	0	0	1.159544	2.444226	0	3	98	0	50	4.502826	2.108734	-75.31699	
16:32:20	0	0	0	1.185354	3.029871	0	3	98	0	50	4.502826	2.108734	-75.31699	
16:32:20	0	0	0	1.206844	3.536712	0	3	98	0	50	4.533535	2.101771	-75.37499	
16:32:21	0	0	0	1.224918	3.97537	0	3	98	0	50	4.533535	2.101771	-75.37499	
16:32:21	0	0	0	1.242879	4.849453	0	3	98	0	50	4.533535	2.101771	-75.37499	
16:32:21	0	0	0	1.250679	4.980424	0	3	98	0	50	4.533535	2.101771	-75.37499	
16:32:21	0	0	0	1.253616	4.951716	0	3	98	0	50	4.533535	2.101771	-75.37499	
16:32:21	0	0	0	1.272737	5.450867	0	3	98	0	50	4.533593	2.072599	-75.41909	
16:32:22	0	0	0	1.291085	6.315486	0	3	98	0	50	4.533593	2.072599	-75.41909	
16:32:22	0	0	0	1.322143	7.839441	0	3	98	0	50	4.533593	2.072599	-75.41909	
16:32:22	0	0	0	1.353051	9.09863	0	3	98	0	50	4.533593	2.072599	-75.41909	
16:32:22	0	0	0	1.404929	10.97287	0	3	98	0	50	4.533593	2.072599	-75.41909	
16:32:22	0	0	0	1.451285	12.87792	0	3	98	0	50	4.513503	2.043264	-75.47108	
16:32:23	0	0	0	1.46258	12.37495	0	3	98	0	50	4.513503	2.043264	-75.47108	
16:32:23	0	0	0	1.462461	10.96435	0	3	98	0	50	4.513503	2.043264	-75.47108	
16:32:23	0	0	0	1.500377	11.36908	0	3	98	0	50	4.513503	2.043264	-75.47108	
16:32:23	0	0	0	1.541946	12.39398	0	3	98	0	50	4.513503	2.043264	-75.47108	
16:32:23	0	0	0	1.597203	13.50432	0	3	98	0	50	4.487529	1.998496	-75.48328	
16:32:23	0	0	0	1.643164	15.09153	0	3	98	0	50	4.487529	1.998496	-75.48328	
16:32:24	0	0	0	1.665112	15.04537	0	3	98	0	50	4.487529	1.998496	-75.48328	
16:32:24	0	0	0	1.679127	14.78978	0	3	98	0	50	4.487529	1.998496	-75.48328	
16:32:24	0	0	0	1.658807	12.07024	0	3	98	0	50	4.487529	1.998496	-75.48328	
16:32:24	0	0	0	1.632946	9.584805	0	3	98	0	50	4.476939	1.942506	-75.44753	
16:32:24	0	0	0	1.605151	6.504223	0	3	98	0	50	4.476939	1.942506	-75.44753	
16:32:25	0	0	0	1.589125	5.047895	0	3	98	0	50	4.476939	1.942506	-75.44753	
16:32:25	0	0	0	1.567807	4.145206	0	3	99	0	50	4.476939	1.942506	-75.44753	
16:32:25	0	0	0	1.534005	2.434447	0	3	99	0	50	4.476939	1.942506	-75.44753	
16:32:25	0	0	0	1.502023	-0.01424737	0	3	99	0	50	4.477355	1.957737	-75.41808	
16:32:26	0	0	0	1.469718	-1.57346	0	3	99	0	50	4.477355	1.957737	-75.41808	
16:32:26	0	0	0	1.417704	-3.620414	0	3	99	0	50	4.477355	1.957737	-75.41808	
16:32:26	0	0	0	1.338447	-7.434755	0	3	99	0	50	4.477355	1.957737	-75.41808	
16:32:26	0	0	0	1.271741	-10.28906	0	3	99	0	50	4.477355	1.957737	-75.41808	
16:32:26	0	0	0	1.224194	-11.92717	0	3	99	0	50	4.494623	1.955575	-75.41802	
16:32:27	0	0	0	1.192935	-12.52725	0	3	99	0	50	4.494623	1.955575	-75.41802	
16:32:27	0	0	0	1.219461	-10.1797	0	3	99	0	50	4.494623	1.955575	-75.41802	
16:32:27	0	0	0	1.253813	-7.660262	0	3	99	0	50	4.494623	1.955575	-75.41802	
16:32:27	0	0	0	1.322924	-3.235785	0	3	99	0	50	4.494623	1.955575	-75.41802	
16:32:27	0	0	0	1.391731	0.6539363	0	3	99	0	50	4.504543	1.907946	-75.4029	
16:32:28	0	0	0	1.468833	4.380379	0	3	99	0	50	4.504543	1.907946	-75.4029	
16:32:28	0	0	0	1.520532	6.463295	0	3	99	0	50	4.504543	1.907946	-75.4029	
16:32:28	0	0	0	1.540537	6.462113	0	3	99	0	50	4.504543	1.907946	-75.4029	
16:32:28	0	0	0	1.553732	6.179069	0	3	99	0	50	4.504543	1.907946	-75.4029	
16:32:28	0	0	0	1.558242	5.158858	0	3	99	0	50	4.518239	1.883146	-75.36507	
16:32:29	0	0	0	1.561964	4.624858	0	3	99	0	50	4.518239	1.883146	-75.36507	
16:32:29	0	0	0	1.567603	4.134066	0	3	99	0	50	4.518239	1.883146	-75.36507	
16:32:29	0	0	0	1.574468	3.788901	0	3	99	0	50	4.518239	1.883146	-75.36507	
16:32:29	0	0	0	1.592299	4.452091	0	3	99	0	50	4.518239	1.883146	-75.36507	
16:32:29	0	0	0	1.609249	4.758296	0	3	99	0	50	4.521731	1.855193	-75.35912	
16:32:30	0	0	0	1.585644	2.616255	0	3	99	0	50	4.521731	1.855193	-75.35912	
16:32:30	0	0	0	1.554088	1.012828	0	3	99	0	50	4.521731	1.855193	-75.35912	
16:32:30	0	0	0	1.511288	-1.513173	0	3	99	0	50	4.521731	1.855193	-75.35912	
16:32:30	0	0	0	1.468884	-3.288017	0	3	99	0	50	4.521731	1.855193	-75.35912	
16:32:30	0	0	0	1.432627	-4.957363	0	3	99	0	50	4.547034	1.844573	-75.32047	
16:32:31	0	0	0	1.397008	-5.878603	0	3	99	0	50	4.547034	1.844573	-75.32047	
16:32:31	0	0	0	1.363769	-7.201105	0	3	99	0	50	4.547034	1.844573	-75.32047	
16:32:31	0	0	0	1.334497	-7.837032	0	3	99	0	50	4.547034	1.844573	-75.32047	
16:32:31	0	0	0	1.333565	-7.461379	0	3	99	0	50	4.547034	1.844573	-75.32047	
16:32:31	0	0	0	1.338923	-6.390162	0	3	99	0	50	4.573356	1.833347	-75.26395	
16:32:32	0	0	0	1.284522	-8.660908	0	3	99	0	50	4.573356	1.833347	-75.26395	
16:32:32	0	0	0	1.221106	-11.81201	0	3	99	0	50	4.573356	1.833347	-75.26395	
16:32:32	0	0	0	1.150785	-14.44371	0	3	99	0	50	4.573356	1.833347	-75.26395	
16:32:32	0	0	0	1.093192	-16.71002	0	3	99	0	50	4.573356	1.833347	-75.26395	
16:32:32	0	0	0	1.063203	-16.69071	0	3	99	0	50	4.569701	1.84438	-75.22839	
16:32:33	0	0	0	1.04568	-15.83921	0	3	99	0	50	4.569701	1.84438	-75.22839	
16:32:33	0	0	0	1.049944	-14.53005	0	3	99	0	50	4.569701	1.84438	-75.22839	
16:32:33	0	0	0	1.060503	-12.57757	0	3	99	0	50	4.569701	1.84438	-75.22839	
16:32:33	0	0	0	1.06898	-10.77946	0	3	99	0	50	4.569701	1.84438	-75.22839	
16:32:33	0	0	0	1.079044	-8.906608	0	3	99	0	50	4.580046	1.879552	-75.20921	
16:32:34	0	0	0	1.040559	-9.796689	0	3	99	0	50	4.580046	1.879552	-75.20921	
16:32:34	0	0	0	0.9998257	-11.29678	0	3	99	0	50	4.580046	1.879552	-75.20921	
16:32:34	0	0	0	0.9646702	-11.56868	0	3	99	0	50	4.580046	1.879552	-75.20921	
16:32:34	0	0	0	0.9434527	-11.65952	0	3	99	0	50	4.580046	1.879552	-75.20921	
16:32:34	0	0	0	0.9276926	-11.51336	0	3	99	0	50	4.594588	1.869813	-75.23179	
16:32:35	0	0	0	0.9316571	-10.19203	0	3	99	0	50	4.594588	1.869813	-75.23179	
16:32:35	0	0	0	0.9571807	-8.214904	0	3	99	0	50	4.594588	1.869813	-75.23179	
16:32:35	0	0	0	1.06171	-1.817305	0	3	99	0	50	4.594588	1.869813	-75.23179	
16:32:35	0	0	0	1.178811	4.385345	0	3	99	0	50	4.594588	1.869813	-75.23179	
16:32:35	0	0	0	1.294884	10.5256	0	3	99	0	50	4.601273	1.869707	-75.2335	
16:32:36	0	0	0	1.3688	13.6609	0	3	99	0	50	4.601273	1.869707	-75.2335	
16:32:36	0	0	0	1.3904	13.25579	0	3	99	0	50	4.601273	1.869707	-75.2335	
16:32:36	0	0	0	1.412227	12.8181	0	3	99	0	50	4.601273	1.869707	-75.2335	
16:32:36	0	0	0	1.434714	12.8606	0	3	99	0	50	4.601273	1.869707	-75.2335	
16:32:36	0	0	0	1.457184	12.53137	0	3	99	0	50	4.593808	1.86916	-75.25539	
16:32:37	0	0	0	1.484561	12.52648	0	3	99	0	50	4.593808	1.86916	-75.25539	
16:32:37	0	0	0	1.503551	12.0651	0	3	99	0	50	4.593808	1.86916	-75.25539	
16:32:37	0	0	0	1.51488	10.87833	0	3	99	0	50	4.593808	1.86916	-75.25539	
16:32:37	0	0	0	1.54112	11.19354	0	3	99	0	50	4.593808	1.86916	-75.25539	
16:32:37	0	0	0	1.589513	12.66015	0	3	99	0	50	4.570504	1.896941	-75.2646	
16:32:38	0	0	0	1.599256	11.50035	0	3	99	0	50	4.570504	1.896941	-75.2646	
16:32:38	0	0	0	1.56103	8.361503	0	3	99	0	50	4.570504	1.896941	-75.2646	
16:32:38	0	0	0	1.533867	6.206323	0	3	99	0	50	4.570504	1.896941	-75.2646	
16:32:38	0	0	0	1.528629	5.369698	0	3	98	0	50	4.561182	1.868383	-75.24853	
16:32:39	0	0	0	1.501592	2.494836	0	3	98	0	50	4.561182	1.868383	-75.24853	
16:32:39	0	0	0	1.489009	1.948578	0	3	98	0	50	4.561182	1.868383	-75.24853	
16:32:39	0	0	0	1.492138	1.806392	0	3	98	0	50	4.561182	1.868383	-75.24853	
16:32:39	0	0	0	1.494104	1.707607	0	3	98	0	50	4.561182	1.868383	-75.24853	
16:32:39	0	0	0	1.47343	0.3431865	0	3	98	0	50	4.574336	1.874519	-75.25141	
16:32:40	0	0	0	1.44888	-0.7686093	0	3	98	0	50	4.574336	1.874519	-75.25141	
16:32:40	0	0	0	1.430145	-1.21525	0	3	98	0	50	4.574336	1.874519	-75.25141	
16:32:40	0	0	0	1.416071	-1.827165	0	3	98	0	50	4.574336	1.874519	-75.25141	
16:32:40	0	0	0	1.424676	-1.844945	0	3	98	0	50	4.574336	1.874519	-75.25141	
16:32:40	0	0	0	1.437944	-0.5743013	0	3	98	0	50	4.59165	1.884093	-75.22755	
16:32:41	0	0	0	1.458379	0.7857206	0	3	98	0	50	4.59165	1.884093	-75.22755	
16:32:41	0	0	0	1.479517	2.130527	0	3	98	0	50	4.59165	1.884093	-75.22755	
16:32:41	0	0	0	1.514151	4.137512	0	3	98	0	50	4.59165	1.884093	-75.22755	
16:32:41	0	0	0	1.544698	4.929995	0	3	98	0	50	4.59165	1.884093	-75.22755	
16:32:41	0	0	0	1.590461	7.046204	0	3	98	0	50	4.575298	1.880758	-75.24621	
16:32:42	0	0	0	1.636215	8.927569	0	3	98	0	50	4.575298	1.880758	-75.24621	
16:32:42	0	0	0	1.678875	10.26954	0	3	98	0	50	4.575298	1.880758	-75.24621	
16:32:42	0	0	0	1.712741	11.17951	0	3	98	0	50	4.575298	1.880758	-75.24621	
16:32:42	0	0	0	1.734109	11.66283	0	3	98	0	50	4.575298	1.880758	-75.24621	
16:32:42	0	0	0	1.749145	11.6774	0	3	98	0	50	4.54465	1.916444	-75.24074	
16:32:43	0	0	0	1.788146	12.75028	0	3	98	0	50	4.54465	1.916444	-75.24074	
16:32:43	0	0	0	1.826504	13.1913	0	3	98	0	50	4.54465	1.916444	-75.24074	
16:32:43	0	0	0	1.844894	13.50231	0	3	98	0	50	4.54465	1.916444	-75.24074	
16:32:43	0	0	0	1.854303	12.77093	0	3	98	0	50	4.54465	1.916444	-75.24074	
16:32:43	0	0	0	1.833402	10.83442	0	3	99	0	50	4.552962	1.849529	-75.25974	
16:32:44	0	0	0	1.809766	8.596981	0	3	99	0	50	4.552962	1.849529	-75.25974	
16:32:44	0	0	0	1.777264	5.95292	0	3	99	0	50	4.552962	1.849529	-75.25974	
16:32:44	0	0	0	1.747621	4.090475	0	3	99	0	50	4.552962	1.849529	-75.25974	
16:32:44	0	0	0	1.718835	2.25714	0	3	99	0	50	4.552962	1.849529	-75.25974	
16:32:44	0	0	0	1.698869	0.3312697	0	3	99	0	50	4.547178	1.841688	-75.23018	
16:32:45	0	0	0	1.666978	-1.595724	0	3	99	0	50	4.547178	1.841688	-75.23018	
16:32:45	0	0	0	1.590191	-5.328	0	3	99	0	50	4.547178	1.841688	-75.23018	
16:32:45	0	0	0	1.518544	-8.639503	0	3	99	0	50	4.547178	1.841688	-75.23018	
16:32:45	0	0	0	1.467302	-10.15118	0	3	99	0	50	4.547178	1.841688	-75.23018	
16:32:45	0	0	0	1.441899	-10.75118	0	3	99	0	50	4.550622	1.797209	-75.19841	
16:32:46	0	0	0	1.449487	-9.400199	0	3	99	0	50	4.550622	1.797209	-75.19841	
16:32:46	0	0	0	1.452581	-8.30127	0	3	99	0	50	4.550622	1.797209	-75.19841	
16:32:46	0	0	0	1.44903	-8.295074	0	3	99	0	50	4.550622	1.797209	-75.19841	
16:32:46	0	0	0	1.437173	-8.032709	0	3	99	0	50	4.550622	1.797209	-75.19841	
16:32:46	0	0	0	1.407544	-8.317979	0	3	99	0	50	4.552567	1.85076	-75.17514	
16:32:47	0	0	0	1.381095	-8.643033	0	3	99	0	50	4.552567	1.85076	-75.17514	
16:32:47	0	0	0	1.350657	-9.345543	0	3	99	0	50	4.552567	1.85076	-75.17514	
16:32:47	0	0	0	1.33865	-8.934504	0	3	99	0	50	4.552567	1.85076	-75.17514	
16:32:47	0	0	0	1.347046	-7.321823	0	3	99	0	50	4.552567	1.85076	-75.17514	
16:32:47	0	0	0	1.383247	-5.107837	0	3	99	0	50	4.563335	1.850026	-75.17812	
16:32:48	0	0	0	1.457895	-0.5448059	0	3	99	0	50	4.563335	1.850026	-75.17812	
16:32:48	0	0	0	1.527662	2.748802	0	3	99	0	50	4.563335	1.850026	-75.17812	
16:32:48	0	0	0	1.592812	5.782756	0	3	99	0	50	4.563335	1.850026	-75.17812	
16:32:48	0	0	0	1.629099	6.313385	0	3	99	0	50	4.563335	1.850026	-75.17812	
16:32:48	0	0	0	1.613722	4.704265	0	3	99	0	50	4.540648	1.834702	-75.16068	
16:32:49	0	0	0	1.591533	2.671019	0	3	99	0	50	4.540648	1.834702	-75.16068	
16:32:49	0	0	0	1.553211	-0.1055222	0	3	99	0	50	4.540648	1.834702	-75.16068	
16:32:49	0	0	0	1.516966	-2.480962	0	3	99	0	50	4.540648	1.834702	-75.16068	
16:32:49	0	0	0	1.453815	-5.580932	0	3	99	0	50	4.540648	1.834702	-75.16068	
16:32:49	-6.795889	38.9854	128.485	1.393991	-8.132359	0.39	3	99	0	50	4.583997	1.838221	-75.145	
16:32:50	-6.79587	38.9854	127.504	1.35278	-9.346819	1.16	3	99	0	50	4.583997	1.838221	-75.145	
16:32:50	-6.795861	38.98539	127.285	1.320105	-10.30762	0.51	3	99	0	50	4.583997	1.838221	-75.145	
16:32:50	-6.795858	38.98539	127.626	1.276649	-11.78129	0.07	3	99	0	50	4.583997	1.838221	-75.145	
16:32:50	-6.795856	38.98538	127.723	1.232423	-13.36581	0.06	3	99	0	50	4.583997	1.838221	-75.145	
16:32:50	-6.795855	38.98538	127.687	1.191494	-14.42772	0.09	3	99	0	50	4.607486	1.841412	-75.1366	
16:32:51	-6.795856	38.98538	127.685	1.163342	-14.57743	0.56	3	99	0	50	4.607486	1.841412	-75.1366	
16:32:51	-6.795859	38.98537	127.743	1.173037	-12.48554	0.36	3	99	0	50	4.607486	1.841412	-75.1366	
16:32:51	-6.795861	38.98537	127.678	1.190673	-10.73413	0.09	3	99	0	50	4.607486	1.841412	-75.1366	
16:32:51	-6.795863	38.98537	127.493	1.218624	-7.812774	0.85	3	99	0	50	4.607486	1.841412	-75.1366	
16:32:51	-6.795866	38.98537	127.385	1.248285	-5.59073	0.38	3	99	0	50	4.620447	1.823485	-75.1223	
16:32:52	-6.795866	38.98537	126.986	1.284413	-3.001895	0.72	3	99	0	50	4.620447	1.823485	-75.1223	
16:32:52	-6.795866	38.98538	126.431	1.314649	-1.426186	0.87	3	99	0	50	4.620447	1.823485	-75.1223	
16:32:52	-6.795868	38.98538	126.24	1.372695	1.886267	0.26	3	99	0	50	4.620447	1.823485	-75.1223	
16:32:52	-6.79587	38.98538	126.113	1.431007	4.590542	0.28	3	99	0	50	4.620447	1.823485	-75.1223	
16:32:52	-6.79587	38.98538	125.943	1.452707	4.947386	0.31	3	99	0	50	4.598472	1.830707	-75.11386	
16:32:53	-6.795872	38.98538	125.746	1.463489	5.219019	0.11	3	99	0	50	4.598472	1.830707	-75.11386	
16:32:53	-6.795874	38.98539	125.67	1.486197	5.935895	0.63	3	99	0	50	4.598472	1.830707	-75.11386	
16:32:53	-6.795875	38.98539	125.78	1.506554	6.311484	0.91	3	99	0	50	4.598472	1.830707	-75.11386	
16:32:53	-6.795877	38.98539	125.643	1.527749	6.835088	0.48	3	99	0	50	4.598472	1.830707	-75.11386	
16:32:53	-6.795877	38.98539	125.491	1.546887	7.248271	0.58	3	99	0	50	4.566837	1.788184	-75.12193	
16:32:54	-6.795876	38.98539	125.279	1.589945	8.665505	1	3	99	0	50	4.566837	1.788184	-75.12193	
16:32:54	-6.795875	38.98539	125.088	1.628645	9.281725	0.29	3	99	0	50	4.566837	1.788184	-75.12193	
16:32:54	-6.795875	38.98539	124.885	1.666841	10.12957	0.66	3	99	0	50	4.566837	1.788184	-75.12193	
16:32:54	-6.795875	38.98539	124.575	1.70144	10.59752	0.59	3	99	0	50	4.566837	1.788184	-75.12193	
16:32:54	-6.795875	38.98539	124.277	1.732789	10.76002	0.72	3	99	0	50	4.523953	1.784185	-75.1125	
16:32:55	-6.795874	38.98539	123.964	1.7687	12.15946	0.03	3	99	0	50	4.523953	1.784185	-75.1125	
16:32:55	-6.795874	38.98539	123.841	1.796527	12.34883	0.25	3	99	0	50	4.523953	1.784185	-75.1125	
16:32:55	-6.795875	38.98539	123.813	1.807734	11.6842	0.29	3	99	0	50	4.523953	1.784185	-75.1125	
16:32:55	-6.795874	38.98539	123.643	1.812741	10.74434	0.28	3	99	0	50	4.523953	1.784185	-75.1125	
16:32:55	-6.795874	38.98539	123.5	1.811525	9.696923	0.72	3	99	0	50	4.489593	1.762469	-75.10452	
16:32:56	-6.795874	38.9854	123.026	1.81687	9.209121	0.82	3	99	0	50	4.489593	1.762469	-75.10452	
16:32:56	-6.795873	38.9854	122.791	1.831025	9.099956	0.38	3	99	0	50	4.489593	1.762469	-75.10452	
16:32:56	-6.795872	38.9854	122.573	1.840002	9.278723	0.16	3	99	0	50	4.489593	1.762469	-75.10452	
16:32:56	-6.79587	38.98539	122.287	1.840915	7.851062	0.29	3	99	0	50	4.489593	1.762469	-75.10452	
16:32:56	-6.79587	38.98539	122.287	1.846826	7.372405	0.29	3	99	0	50	4.482643	1.779179	-75.06956	
16:32:57	-6.79587	38.98539	122.071	1.867042	7.86996	0.35	3	99	0	50	4.482643	1.779179	-75.06956	
16:32:57	-6.79587	38.98539	121.905	1.873272	7.568997	0.18	3	99	0	50	4.482643	1.779179	-75.06956	
16:32:57	-6.79587	38.98539	121.848	1.858538	5.910188	0.19	3	99	0	50	4.482643	1.779179	-75.06956	
16:32:57	-6.79587	38.98539	121.903	1.814041	2.595243	0.17	3	99	0	50	4.482643	1.779179	-75.06956	
16:32:57	-6.79587	38.98539	121.836	1.73022	-2.288441	0.24	3	99	0	50	4.467367	1.805058	-75.06329	
16:32:58	-6.795871	38.98539	121.704	1.68205	-5.157709	0.13	3	99	0	50	4.467367	1.805058	-75.06329	
16:32:58	-6.79587	38.98539	121.572	1.67972	-5.168963	0.34	3	99	0	50	4.467367	1.805058	-75.06329	
16:32:58	-6.79587	38.98539	121.376	1.660409	-5.535432	0.38	3	99	0	50	4.467367	1.805058	-75.06329	
16:32:58	-6.79587	38.98539	121.417	1.575753	-9.69451	0.29	3	99	0	50	4.467367	1.805058	-75.06329	
16:32:58	-6.79587	38.98539	121.439	1.491641	-12.96248	0.36	3	99	0	50	4.458081	1.735821	-75.04358	
16:32:59	-6.79587	38.98539	121.351	1.384879	-17.12334	0.42	3	99	0	50	4.458081	1.735821	-75.04358	
16:32:59	-6.79587	38.98539	121.562	1.283681	-20.4392	0.45	3	99	0	50	4.458081	1.735821	-75.04358	
16:32:59	-6.79587	38.98539	121.9	1.193662	-23.21406	0.69	3	99	0	50	4.458081	1.735821	-75.04358	
16:32:59	-6.79587	38.98539	121.914	1.113922	-25.03742	0.25	3	99	0	50	4.458081	1.735821	-75.04358	
16:32:59	-6.79587	38.98538	121.925	1.088009	-24.27668	0.39	3	99	0	50	4.491138	1.761844	-75.01157	
16:33:00	-6.79587	38.98538	122.039	1.079217	-22.26504	0.51	3	99	0	50	4.491138	1.761844	-75.01157	
16:33:00	-6.795871	38.98538	122.025	1.07138	-20.562	0.19	3	99	0	50	4.491138	1.761844	-75.01157	
16:33:00	-6.795871	38.98538	122.498	1.066356	-18.411	0.63	3	99	0	50	4.491138	1.761844	-75.01157	
16:33:00	-6.795872	38.98538	122.536	1.081416	-15.62295	0.31	3	99	0	50	4.491138	1.761844	-75.01157	
16:33:00	-6.795871	38.98538	122.592	1.101933	-12.9448	0.62	3	99	0	50	4.479125	1.802562	-74.99034	
16:33:01	-6.795872	38.98538	122.607	1.142338	-9.484218	0.5	3	99	0	50	4.479125	1.802562	-74.99034	
16:33:01	-6.795873	38.98538	122.783	1.180246	-7.195577	0.19	3	99	0	50	4.479125	1.802562	-74.99034	
16:33:01	-6.795872	38.98539	122.549	1.250467	-2.536939	0.53	3	99	0	50	4.479125	1.802562	-74.99034	
16:33:01	-6.795873	38.98539	122.572	1.323474	1.668113	0.39	3	99	0	50	4.479125	1.802562	-74.99034	
16:33:01	-6.795875	38.98539	122.571	1.389816	5.006466	0.29	3	99	0	50	4.506998	1.783881	-74.97317	
16:33:02	-6.795876	38.9854	122.687	1.456835	7.617728	0.34	3	99	0	50	4.506998	1.783881	-74.97317	
16:33:02	-6.795877	38.9854	122.222	1.469601	7.277716	0.83	3	99	0	50	4.506998	1.783881	-74.97317	
16:33:02	-6.795878	38.98541	122.246	1.467688	6.211156	0.63	3	99	0	50	4.506998	1.783881	-74.97317	
16:33:02	-6.79588	38.98541	122.292	1.434397	4.496539	0.42	3	99	0	50	4.506998	1.783881	-74.97317	
16:33:02	-6.795882	38.98541	122.745	1.395708	1.968219	0.63	3	99	0	50	4.524933	1.805776	-74.98888	
16:33:03	-6.795883	38.98541	122.957	1.391581	2.325745	0.57	3	99	0	50	4.524933	1.805776	-74.98888	
16:33:03	-6.795884	38.98541	123.198	1.395243	2.57441	0.53	3	99	0	50	4.524933	1.805776	-74.98888	
16:33:03	-6.795886	38.98541	123.64	1.34656	-0.6543171	0.93	3	99	0	50	4.524933	1.805776	-74.98888	
16:33:03	-6.795887	38.98541	123.727	1.289973	-3.147855	0.14	3	99	0	50	4.524933	1.805776	-74.98888	
16:33:03	-6.795887	38.98541	123.907	1.243077	-5.631204	0.14	3	99	0	50	4.512798	1.812627	-74.96382	
16:33:04	-6.795888	38.98542	123.626	1.205853	-7.072543	0.11	3	99	0	50	4.512798	1.812627	-74.96382	
16:33:04	-6.795887	38.98542	123.239	1.172305	-7.616824	0.19	3	99	0	50	4.512798	1.812627	-74.96382	
16:33:04	-6.795888	38.98542	123.207	1.154884	-7.170572	0.19	3	99	0	50	4.512798	1.812627	-74.96382	
16:33:04	-6.795889	38.98542	123.532	1.14363	-7.499506	0.09	3	99	0	50	4.512798	1.812627	-74.96382	
16:33:04	-6.795889	38.98542	123.824	1.144508	-6.743665	0.51	3	99	0	50	4.525516	1.847886	-74.99706	
16:33:05	-6.79589	38.98542	123.682	1.155882	-5.807292	0.11	3	99	0	50	4.525516	1.847886	-74.99706	
16:33:05	-6.795891	38.98542	123.667	1.180506	-3.736797	0.06	3	99	0	50	4.525516	1.847886	-74.99706	
16:33:05	-6.79589	38.98543	123.023	1.190111	-2.682022	0.42	3	99	0	50	4.525516	1.847886	-74.99706	
16:33:05	-6.795891	38.98543	123.018	1.16845	-3.583339	0.09	3	99	0	50	4.525516	1.847886	-74.99706	
16:33:05	-6.795892	38.98544	122.96	1.146128	-4.155751	0.37	3	99	0	50	4.502753	1.883064	-75.01971	
16:33:06	-6.795892	38.98544	122.93	1.121531	-5.342631	0.22	3	99	0	50	4.502753	1.883064	-75.01971	
16:33:06	-6.795892	38.98544	122.778	1.111712	-5.368344	0.07	3	99	0	50	4.502753	1.883064	-75.01971	
16:33:06	-6.795893	38.98544	123.096	1.140218	-3.474071	0.38	3	99	0	50	4.502753	1.883064	-75.01971	
16:33:06	-6.795892	38.98544	123.017	1.177866	-1.513167	0.25	3	99	0	50	4.502753	1.883064	-75.01971	
16:33:06	-6.795892	38.98545	122.833	1.231566	1.573522	0.19	3	99	0	50	4.503378	1.89355	-75.03603	
16:33:07	-6.795892	38.98545	122.703	1.272766	3.223045	0.21	3	99	0	50	4.503378	1.89355	-75.03603	
16:33:07	-6.795892	38.98545	122.733	1.298137	3.814008	0.14	3	99	0	50	4.503378	1.89355	-75.03603	
16:33:07	-6.795892	38.98545	122.646	1.309373	3.720629	0.09	3	99	0	50	4.503378	1.89355	-75.03603	
16:33:07	-6.795892	38.98545	122.691	1.302624	3.199453	0.19	3	99	0	50	4.503378	1.89355	-75.03603	
16:33:07	-6.795893	38.98545	123.312	1.308803	3.058877	0.66	3	99	0	50	4.476788	1.901953	-75.06137	
16:33:08	-6.795894	38.98544	123.652	1.329347	4.197075	0.62	3	99	0	50	4.476788	1.901953	-75.06137	
16:33:08	-6.795894	38.98545	123.665	1.346581	4.056364	0.19	3	99	0	50	4.476788	1.901953	-75.06137	
16:33:08	-6.795894	38.98545	123.521	1.351081	3.959315	0.19	3	99	0	50	4.476788	1.901953	-75.06137	
16:33:08	-6.795893	38.98545	123.32	1.357203	3.694129	0.35	3	99	0	50	4.476788	1.901953	-75.06137	
16:33:08	-6.795892	38.98545	123.291	1.372653	3.763231	0.58	3	99	0	50	4.473454	1.888641	-75.13096	
16:33:09	-6.795892	38.98545	123.311	1.384268	3.781615	0.34	3	99	0	50	4.473454	1.888641	-75.13096	
16:33:09	-6.795892	38.98545	123.365	1.336027	0.9460494	0.29	3	99	0	50	4.473454	1.888641	-75.13096	
16:33:09	-6.795892	38.98545	123.201	1.285245	-1.704984	0.19	3	99	0	50	4.473454	1.888641	-75.13096	
16:33:09	-6.795892	38.98545	123.049	1.259285	-2.878887	0.09	3	99	0	50	4.473454	1.888641	-75.13096	
16:33:10	-6.795892	38.98545	122.888	1.240697	-3.575634	0.26	3	99	0	50	4.513196	1.917911	-75.1709	
16:33:10	-6.795893	38.98546	122.842	1.243318	-3.131642	0.22	3	99	0	50	4.513196	1.917911	-75.1709	
16:33:10	-6.795893	38.98546	123.007	1.251831	-1.988689	0.28	3	99	0	50	4.513196	1.917911	-75.1709	
16:33:10	-6.795893	38.98546	122.857	1.235773	-2.81373	0.25	3	99	0	50	4.513196	1.917911	-75.1709	
16:33:10	-6.795893	38.98547	122.761	1.215746	-3.426869	0.42	3	99	0	50	4.513196	1.917911	-75.1709	
16:33:10	-6.795894	38.98547	122.635	1.252643	-0.9227157	0.36	3	99	0	50	4.497852	1.925261	-75.20302	
16:33:11	-6.795894	38.98547	122.684	1.294431	1.444039	0.24	3	99	0	50	4.497852	1.925261	-75.20302	
16:33:11	-6.795894	38.98547	122.513	1.284523	1.312964	0.17	3	99	0	50	4.497852	1.925261	-75.20302	
16:33:11	-6.795893	38.98548	122.131	1.264253	0.4281255	0.35	3	99	0	50	4.497852	1.925261	-75.20302	
16:33:11	-6.795894	38.98548	122.071	1.234184	-1.348026	0.09	3	99	0	50	4.497852	1.925261	-75.20302	
16:33:12	-6.795894	38.98548	121.736	1.206785	-2.833119	0.14	3	99	0	50	4.516139	1.930319	-75.17969	
16:33:12	-6.795894	38.98548	121.844	1.196946	-2.763376	0.26	3	99	0	50	4.516139	1.930319	-75.17969	
16:33:12	-6.795894	38.98549	121.539	1.193163	-2.967	0.35	3	99	0	50	4.516139	1.930319	-75.17969	
16:33:12	-6.795895	38.98549	121.742	1.210159	-1.917989	0.19	3	99	0	50	4.516139	1.930319	-75.17969	
16:33:12	-6.795895	38.98549	121.608	1.230483	-0.7687023	0.07	3	99	0	50	4.516139	1.930319	-75.17969	
16:33:13	-6.795895	38.98549	121.446	1.291059	2.723848	0.47	3	99	0	50	4.500891	1.947937	-75.20945	
16:33:13	-6.795895	38.9855	121.263	1.34892	5.181903	0.72	3	99	0	50	4.500891	1.947937	-75.20945	
16:33:13	-6.795896	38.9855	121.559	1.370035	5.674704	0.75	3	98	0	50	4.500891	1.947937	-75.20945	
16:33:13	-6.795896	38.9855	121.54	1.391646	5.621367	0.56	3	98	0	50	4.500891	1.947937	-75.20945	
16:33:14	-6.795897	38.9855	121.905	1.395571	5.635422	0.53	3	98	0	50	4.505175	1.979706	-75.24574	
16:33:14	-6.795897	38.9855	121.72	1.393602	4.581927	0.33	3	98	0	50	4.505175	1.979706	-75.24574	
16:33:14	-6.795897	38.9855	121.852	1.372914	2.927069	0.04	3	98	0	50	4.505175	1.979706	-75.24574	
16:33:14	-6.795898	38.9855	122.348	1.349038	1.292553	0.22	3	98	0	50	4.505175	1.979706	-75.24574	
16:33:14	-6.795898	38.9855	122.364	1.318351	-0.3883983	0.36	3	98	0	50	4.505175	1.979706	-75.24574	
16:33:15	-6.795898	38.9855	121.963	1.282019	-2.484112	0.28	3	98	0	50	4.513308	2.021221	-75.30879	
16:33:15	-6.795897	38.98551	121.095	1.24415	-4.630453	0.91	3	98	0	50	4.513308	2.021221	-75.30879	
16:33:15	-6.795898	38.9855	121.365	1.223929	-5.132627	0.19	3	98	0	50	4.513308	2.021221	-75.30879	
16:33:15	-6.795898	38.98551	121.036	1.228224	-3.853374	0.42	3	98	0	50	4.513308	2.021221	-75.30879	
16:33:15	-6.795898	38.98551	120.893	1.229842	-3.415946	0.25	3	98	0	50	4.513308	2.021221	-75.30879	
16:33:15	-6.795899	38.98551	120.992	1.227961	-2.899126	0.07	3	98	0	50	4.501671	1.985567	-75.35323	
16:33:16	-6.795899	38.98551	120.921	1.226879	-2.775517	0.42	3	99	0	50	4.501671	1.985567	-75.35323	
16:33:16	-6.795899	38.98551	121.057	1.228899	-2.321923	0.06	3	99	0	50	4.501671	1.985567	-75.35323	
16:33:16	-6.7959	38.98551	121.258	1.234944	-1.886879	0.09	3	99	0	50	4.501671	1.985567	-75.35323	
16:33:16	-6.7959	38.98551	120.955	1.249825	-0.7124379	0.26	3	99	0	50	4.501671	1.985567	-75.35323	
16:33:17	-6.7959	38.98551	121.066	1.253396	-0.3239143	0.09	3	99	0	50	4.527393	2.017296	-75.3876	
16:33:17	-6.7959	38.98551	120.922	1.237788	-0.8670714	0.06	3	99	0	50	4.527393	2.017296	-75.3876	
16:33:17	-6.7959	38.98552	120.8	1.220692	-1.261117	0.24	3	99	0	50	4.527393	2.017296	-75.3876	
16:33:17	-6.795901	38.98552	121.013	1.201368	-1.852209	0.32	3	99	0	50	4.527393	2.017296	-75.3876	
16:33:17	-6.7959	38.98552	120.817	1.182779	-3.108905	0.52	3	99	0	50	4.527393	2.017296	-75.3876	
16:33:18	-6.7959	38.98552	120.694	1.16651	-3.370621	0.51	3	99	0	50	4.496617	2.011964	-75.43928	
16:33:18	-6.7959	38.98551	120.82	1.140854	-4.545169	0.24	3	99	0	50	4.496617	2.011964	-75.43928	
16:33:18	-6.795899	38.98552	120.567	1.093909	-6.968524	0.39	3	99	0	50	4.496617	2.011964	-75.43928	
16:33:18	-6.795898	38.98552	120.281	1.050477	-8.434476	0.26	3	99	0	50	4.496617	2.011964	-75.43928	
16:33:18	-6.795897	38.98552	119.839	1.007428	-10.10857	0.33	3	99	0	50	4.496617	2.011964	-75.43928	
16:33:19	-6.795896	38.98552	119.402	0.9665502	-11.40498	0.13	3	99	0	50	4.465675	1.985231	-75.46194	
16:33:19	-6.795894	38.98553	117.641	0.9382651	-11.12789	1.01	3	99	0	50	4.465675	1.985231	-75.46194	
16:33:19	-6.79589	38.98554	116.097	0.9158783	-11.37714	1.58	3	99	0	50	4.465675	1.985231	-75.46194	
16:33:19	-6.795888	38.98554	115.636	0.9236036	-9.721866	1.12	3	99	0	50	4.465675	1.985231	-75.46194	
16:33:19	-6.795889	38.98553	115.812	0.9398285	-6.981969	0.94	3	99	0	50	4.465675	1.985231	-75.46194	
16:33:20	-6.795888	38.98553	115.771	0.9777299	-4.181952	1.04	3	99	0	50	4.493016	1.911065	-75.43568	
16:33:20	-6.795888	38.98553	115.946	1.023991	-1.742138	0.98	3	99	0	50	4.493016	1.911065	-75.43568	
16:33:20	-6.795889	38.98553	116.266	1.040536	-0.5505077	0.85	3	99	0	50	4.493016	1.911065	-75.43568	
16:33:20	-6.795889	38.98553	116.395	1.053617	0.4099461	0.51	3	99	0	50	4.493016	1.911065	-75.43568	
16:33:20	-6.795888	38.98553	116.303	1.071469	1.395471	0.62	3	99	0	50	4.493016	1.911065	-75.43568	
16:33:21	-6.795888	38.98553	116.451	1.08812	2.06371	0.48	3	99	0	50	4.443652	1.891497	-75.39648	
16:33:21	-6.795888	38.98553	116.543	1.082001	1.769502	0.63	3	99	0	50	4.443652	1.891497	-75.39648	
16:33:21	-6.795888	38.98553	116.682	1.072419	0.9041154	0.52	3	99	0	50	4.443652	1.891497	-75.39648	
16:33:21	-6.795887	38.98553	116.202	1.06613	0.2396987	0.28	3	99	0	50	4.443652	1.891497	-75.39648	
16:33:21	-6.795887	38.98553	116.45	1.060721	-0.4686375	0.29	3	99	0	50	4.443652	1.891497	-75.39648	
16:33:22	-6.795887	38.98553	116.237	1.026693	-2.37433	0.32	3	99	0	50	4.451017	1.843197	-75.34014	
16:33:22	-6.795887	38.98553	116.089	0.9893506	-4.161294	0.17	3	99	0	50	4.451017	1.843197	-75.34014	
16:33:22	-6.795887	38.98553	116.149	0.9483589	-6.159483	0.26	3	99	0	50	4.451017	1.843197	-75.34014	
16:33:22	-6.795887	38.98553	115.945	0.9065889	-7.903365	0.28	3	99	0	50	4.451017	1.843197	-75.34014	
16:33:23	-6.795886	38.98552	115.926	0.8722693	-8.831724	0.21	3	98	0	50	4.450567	1.871724	-75.32093	
16:33:23	-6.795886	38.98552	115.983	0.8567653	-7.772313	0.09	3	98	0	50	4.450567	1.871724	-75.32093	
16:33:23	-6.795885	38.98552	115.758	0.8802062	-5.94802	0.22	3	98	0	50	4.450567	1.871724	-75.32093	
16:33:23	-6.795885	38.98552	115.777	0.9719275	0.0437723	0.24	3	98	0	50	4.450567	1.871724	-75.32093	
16:33:23	-6.795885	38.98552	115.713	1.056721	5.340989	0.24	3	98	0	50	4.450567	1.871724	-75.32093	
16:33:24	-6.795885	38.98552	115.785	1.136852	9.449766	0.37	3	98	0	50	4.468808	1.896606	-75.30912	
16:33:24	-6.795885	38.98552	115.8	1.194937	11.72353	0.16	3	98	0	50	4.468808	1.896606	-75.30912	
16:33:24	-6.795885	38.98552	115.627	1.252714	13.96773	0.24	3	98	0	50	4.468808	1.896606	-75.30912	
16:33:24	-6.795884	38.98552	115.515	1.327708	16.75906	0.29	3	98	0	50	4.468808	1.896606	-75.30912	
16:33:24	-6.795883	38.98552	115.379	1.426748	20.14497	0.21	3	98	0	50	4.468808	1.896606	-75.30912	
16:33:25	-6.795884	38.98552	115.251	1.549109	24.95211	0.16	3	98	0	50	4.498574	1.866113	-75.29089	
16:33:25	-6.795883	38.98552	115.012	1.638808	27.29292	0.72	3	98	0	50	4.498574	1.866113	-75.29089	
16:33:25	-6.795883	38.98552	114.901	1.6781	26.92212	0.26	3	98	0	50	4.498574	1.866113	-75.29089	
16:33:25	-6.795883	38.98552	114.955	1.707769	25.67335	0.06	3	98	0	50	4.498574	1.866113	-75.29089	
16:33:25	-6.795883	38.98552	114.875	1.725066	24.15632	0.16	3	98	0	50	4.498574	1.866113	-75.29089	
16:33:26	-6.795883	38.98552	114.8	1.735751	22.07805	0.04	3	98	0	50	4.531054	1.898465	-75.25169	
16:33:26	-6.795884	38.98552	114.663	1.733006	20.0651	0.26	3	98	0	50	4.531054	1.898465	-75.25169	
16:33:26	-6.795884	38.98552	114.685	1.727594	17.72864	0.09	3	98	0	50	4.531054	1.898465	-75.25169	
16:33:26	-6.795885	38.98552	114.762	1.725018	15.92615	0.06	3	98	0	50	4.531054	1.898465	-75.25169	
16:33:26	-6.795885	38.98552	114.819	1.711675	13.95691	0.32	3	98	0	50	4.531054	1.898465	-75.25169	
16:33:27	-6.795885	38.98552	114.644	1.678488	10.57806	0.25	3	98	0	50	4.525217	1.90728	-75.24931	
16:33:27	-6.795885	38.98552	114.531	1.636923	7.508013	0.14	3	98	0	50	4.525217	1.90728	-75.24931	
16:33:27	-6.795886	38.98552	114.602	1.584531	4.310473	0.26	3	98	0	50	4.525217	1.90728	-75.24931	
16:33:27	-6.795887	38.98552	114.601	1.532448	0.9534934	0.44	3	98	0	50	4.525217	1.90728	-75.24931	
16:33:27	-6.795887	38.98552	114.426	1.485815	-1.438851	0.04	3	98	0	50	4.525217	1.90728	-75.24931	
16:33:28	-6.795887	38.98552	114.281	1.463684	-1.932201	0.25	3	98	0	50	4.498571	1.902677	-75.28927	
16:33:28	-6.795887	38.98552	114.363	1.542071	2.186254	0.5	3	98	0	50	4.498571	1.902677	-75.28927	
16:33:28	-6.795888	38.98552	114.386	1.610721	5.236355	0.59	3	98	0	50	4.498571	1.902677	-75.28927	
16:33:28	-6.79589	38.98553	114.382	1.681205	8.310444	2.22	3	98	0	50	4.498571	1.902677	-75.28927	
16:33:28	-6.795895	38.98553	114.65	1.743535	10.57753	3.34	3	98	0	50	4.498571	1.902677	-75.28927	
16:33:29	-6.795897	38.98554	114.74	1.782323	11.34122	1.46	3	98	0	50	4.481323	1.936018	-75.79334	
16:33:29	-6.795897	38.98554	114.904	1.811866	11.80551	0.81	3	98	0	50	4.481323	1.936018	-75.79334	
16:33:29	-6.795898	38.98554	114.915	1.853713	12.87377	0.78	3	99	0	50	4.481323	1.936018	-75.79334	
16:33:29	-6.795898	38.98554	114.856	1.887115	13.28432	0.68	3	99	0	50	4.481323	1.936018	-75.79334	
16:33:29	-6.795898	38.98554	114.668	1.941866	15.19455	0.36	3	99	0	50	4.481323	1.936018	-75.79334	
16:33:30	-6.795898	38.98554	114.513	1.994726	16.27195	0.66	3	99	0	50	4.499781	1.891415	-75.69993	
16:33:30	-6.795898	38.98554	114.624	1.952484	11.86993	0.66	3	99	0	50	4.499781	1.891415	-75.69993	
16:33:30	-6.795899	38.98554	114.766	1.875354	6.716486	0.5	3	99	0	50	4.499781	1.891415	-75.69993	
16:33:30	-6.795899	38.98553	114.83	1.819212	3.630675	0.52	3	99	0	50	4.499781	1.891415	-75.69993	
16:33:30	-6.795899	38.98553	114.684	1.780237	1.475304	0.26	3	99	0	50	4.499781	1.891415	-75.69993	
16:33:31	-6.7959	38.98553	114.865	1.78674	0.8784612	0.52	3	99	0	50	4.491754	1.876738	-75.60332	
16:33:31	-6.7959	38.98553	114.785	1.80332	2.108902	0.26	3	99	0	50	4.491754	1.876738	-75.60332	
16:33:31	-6.795901	38.98553	114.814	1.863988	4.796577	0.34	3	99	0	50	4.491754	1.876738	-75.60332	
16:33:31	-6.795897	38.98553	115.044	1.922475	7.053417	0.28	3	99	0	50	4.491754	1.876738	-75.60332	
16:33:31	-6.795896	38.98552	115.19	1.948399	7.468438	0.21	3	99	0	50	4.491754	1.876738	-75.60332	
16:33:32	-6.795895	38.98552	114.899	1.959493	7.005391	0.39	3	99	0	50	4.517738	1.894906	-75.5198	
16:33:32	-6.795893	38.98552	114.735	1.954917	6.107747	0.16	3	99	0	50	4.517738	1.894906	-75.5198	
16:33:32	-6.795892	38.98552	114.365	1.945896	4.65633	0.16	3	99	0	50	4.517738	1.894906	-75.5198	
16:33:32	-6.795891	38.98552	114.606	1.951157	4.631737	0.57	3	99	0	50	4.517738	1.894906	-75.5198	
16:33:32	-6.79589	38.98551	114.935	1.958111	4.528374	0.22	3	99	0	50	4.517738	1.894906	-75.5198	
16:33:33	-6.79589	38.9855	115.229	1.988719	5.724855	0.34	3	99	0	50	4.557167	1.921147	-75.46284	
16:33:33	-6.795889	38.9855	115.064	2.021797	7.28224	0.52	3	99	0	50	4.557167	1.921147	-75.46284	
16:33:33	-6.795889	38.9855	114.729	1.999702	5.14662	0.17	3	99	0	50	4.557167	1.921147	-75.46284	
16:33:33	-6.795887	38.9855	114.486	1.969135	2.858004	0.29	3	99	0	50	4.557167	1.921147	-75.46284	
16:33:33	-6.795886	38.9855	114.185	1.93812	1.013652	0.45	3	99	0	50	4.557167	1.921147	-75.46284	
16:33:34	-6.795884	38.9855	113.81	1.914798	-0.1780578	0.42	3	99	0	50	4.551733	1.899234	-75.43141	
16:33:34	-6.795882	38.9855	113.16	1.893001	-1.719209	0.34	3	99	0	50	4.551733	1.899234	-75.43141	
16:33:34	-6.795881	38.98551	112.471	1.872869	-2.214711	0.44	3	99	0	50	4.551733	1.899234	-75.43141	
16:33:34	-6.795878	38.98551	111.861	1.851111	-2.706456	0.85	3	99	0	50	4.551733	1.899234	-75.43141	
16:33:34	-6.795876	38.98551	111.145	1.828706	-3.642051	0.63	3	99	0	50	4.551733	1.899234	-75.43141	
16:33:35	-6.795875	38.98552	111.02	1.784309	-5.522985	2.51	3	99	0	50	4.527477	1.930977	-75.40683	
16:33:35	-6.795874	38.98552	110.761	1.710657	-8.707499	0.95	3	99	0	50	4.527477	1.930977	-75.40683	
16:33:35	-6.795871	38.98552	110.156	1.637667	-12.59731	0.62	3	98	0	50	4.527477	1.930977	-75.40683	
16:33:35	-6.79587	38.98552	109.673	1.498907	-17.96973	0.55	3	98	0	50	4.527477	1.930977	-75.40683	
16:33:36	-6.795869	38.98552	109.3	1.428155	-19.64354	0.72	3	98	0	50	4.546301	1.978794	-75.38558	
16:33:36	-6.795868	38.98552	109.302	1.367499	-21.00891	0.39	3	98	0	50	4.546301	1.978794	-75.38558	
16:33:36	-6.795867	38.98552	109.205	1.311422	-21.41107	0.66	3	98	0	50	4.546301	1.978794	-75.38558	
16:33:36	-6.795866	38.98552	108.961	1.298887	-20.19954	0.85	3	98	0	50	4.546301	1.978794	-75.38558	
16:33:36	-6.795865	38.98552	108.551	1.334544	-16.10685	0.57	3	98	0	50	4.546301	1.978794	-75.38558	
16:33:37	-6.795865	38.98551	108.742	1.352521	-13.71911	0.48	3	98	0	50	4.554808	1.984578	-75.37499	
16:33:37	-6.795864	38.98551	108.585	1.346638	-12.31613	0.5	3	98	0	50	4.554808	1.984578	-75.37499	
16:33:37	-6.795865	38.98551	109.055	1.338233	-11.52352	0.18	3	98	0	50	4.554808	1.984578	-75.37499	
16:33:37	-6.795864	38.98551	108.782	1.324702	-11.63146	0.33	3	98	0	50	4.554808	1.984578	-75.37499	
16:33:37	-6.795863	38.98551	108.63	1.311746	-10.91429	0.48	3	98	0	50	4.554808	1.984578	-75.37499	
16:33:38	-6.795863	38.9855	109.003	1.298993	-10.5515	0.52	3	98	0	50	4.511018	2.014844	-75.34565	
16:33:38	-6.795862	38.9855	108.705	1.301276	-8.935141	0.39	3	98	0	50	4.511018	2.014844	-75.34565	
16:33:38	-6.795863	38.9855	109.048	1.333712	-6.456938	0.41	3	98	0	50	4.511018	2.014844	-75.34565	
