Date	Latitude(deg) 	Longitude(deg)	hamsl(m)	hafl(m)	climbrate(cm/s)	GroundSpeed(m/s)	Airspeed(m/s)	Mav_Link(%)	Rssi_Link(%)	Throttle	Roll(deg)	Pitch(deg)	Yaw(deg)
20:42:41	0	0	0	0	0	0	0	100	0	0	0	0	0	
20:42:41	0	0	0	-0.3540835	-0.1881294	0	3	100	0	50	-0.1711858	-0.1236633	13.82809	
20:42:41	0	0	0	-0.353267	-2.019602	0	3	100	0	50	-0.1655539	-0.1160471	13.83391	
20:42:42	0	0	0	-0.3555209	-3.442437	0	3	100	0	50	-0.1547899	-0.09734295	13.74893	
20:42:42	0	0	0	-0.2811607	-0.9753268	0	3	100	0	50	-0.145016	-0.04240861	13.73032	
20:42:42	0	0	0	-0.1006673	7.08867	0	3	100	0	50	-0.1331582	-0.003317434	13.761	
20:42:42	0	0	0	0.1960191	19.90872	0	3	100	0	50	-0.1168977	0.02724033	13.78184	
20:42:42	0	0	0	0.563539	34.91481	0	3	100	0	50	-0.1079791	0.05177299	13.79236	
20:42:43	0	0	0	0.7481402	39.30423	0	3	100	0	50	-0.09710468	0.08659808	13.59141	
20:42:43	0	0	0	0.8186685	37.32087	0	3	100	0	50	-0.08883994	0.1340919	13.56875	
20:42:43	0	0	0	0.8081713	31.71602	0	3	100	0	50	-0.07812728	0.1631002	13.59416	
20:42:43	0	0	0	0.7482604	23.47405	0	3	100	0	50	-0.07177041	0.1866086	13.61005	
20:42:43	0	0	0	0.7090717	17.72883	0	3	100	0	50	-0.06217359	0.2110475	13.46792	
20:42:44	0	0	0	0.6885161	13.74771	0	3	100	0	50	-0.05607267	0.2386964	13.41326	
20:42:44	0	0	0	0.6325953	7.672568	0	3	100	0	50	-0.05759038	0.2410736	13.42902	
20:42:44	0	0	0	0.5309688	-0.2596067	0	3	100	0	50	-0.05288775	0.2590157	13.46175	
20:42:44	0	0	0	0.4357399	-7.037405	0	3	100	0	50	-0.04279517	0.2701316	13.43867	
20:42:44	0	0	0	0.3658851	-11.77797	0	3	100	0	50	-0.03958658	0.2825948	13.2209	
20:42:45	0	0	0	0.3028581	-15.58387	0	3	100	0	50	-0.04237773	0.2895936	13.21839	
20:42:45	0	0	0	0.2470272	-18.79468	0	3	100	0	50	-0.03908523	0.3026878	13.26073	
20:42:45	0	0	0	0.2033739	-20.69696	0	3	100	0	50	-0.03853032	0.3164318	13.29571	
20:42:45	0	0	0	0.1714389	-22.30784	0	3	100	0	50	-0.02459376	0.3250235	13.17295	
20:42:45	0	0	0	0.1278662	-24.06108	0	3	100	0	50	-0.01536139	0.3420687	13.19765	
20:42:46	0	0	0	0.07795615	-25.97744	0	3	100	0	50	-0.01095985	0.3478027	13.24724	
20:42:46	0	0	0	0.04527559	-26.54904	0	3	100	0	50	0.001442751	0.3492464	13.28538	
20:42:46	0	0	0	0.03277026	-25.69301	0	3	100	0	50	0.007077718	0.3704637	13.18792	
20:42:46	0	0	0	0.029697	-24.84762	0	3	100	0	50	0.01312621	0.37873	13.183	
20:42:46	0	0	0	0.03161572	-23.67983	0	3	100	0	50	0.02420305	0.3965883	13.2054	
20:42:47	0	0	0	0.03507194	-22.74541	0	3	100	0	50	0.0338267	0.4114074	13.24175	
20:42:47	0	0	0	-0.09956754	-29.05518	0	3	100	0	50	0.02921909	0.4164076	13.27296	
20:42:47	0	0	0	-0.2195683	-34.1302	0	3	100	0	50	0.02280005	0.4272747	13.127	
20:42:47	0	0	0	-0.2913959	-37.06908	0	3	100	0	50	0.02233104	0.433788	12.99186	
20:42:47	0	0	0	-0.3612309	-38.66844	0	3	100	0	50	0.02718883	0.438855	13.01322	
20:42:48	0	0	0	-0.3813927	-37.48602	0	3	100	0	50	0.02502729	0.4385455	13.03525	
20:42:48	0	0	0	-0.3958317	-36.30935	0	3	100	0	50	0.01603084	0.4406627	13.00358	
20:42:48	0	0	0	-0.3803093	-32.97969	0	3	100	0	50	0.01546348	0.4397923	12.95403	
20:42:48	0	0	0	-0.3596551	-29.70287	0	3	100	0	50	0.009978862	0.4416885	12.96713	
20:42:48	0	0	0	-0.3439122	-27.05332	0	3	100	0	50	0.0003282593	0.4473605	12.97927	
20:42:49	0	0	0	-0.3268418	-24.99335	0	3	100	0	50	-0.00559055	0.460117	13.00804	
20:42:49	0	0	0	-0.3848969	-26.92296	0	3	100	0	50	-0.0007981301	0.4552085	12.91984	
20:42:49	0	0	0	-0.4355337	-28.6229	0	3	100	0	50	0.002002508	0.452432	12.94692	
20:42:49	0	0	0	-0.4574353	-28.6973	0	3	100	0	50	-0.003233565	0.4466981	12.98457	
20:42:49	0	0	0	-0.4786189	-27.73687	0	3	100	0	50	-0.008599535	0.456245	13.01618	
20:42:50	0	0	0	-0.4683079	-25.43952	0	3	100	0	50	-0.001069897	0.4395528	13.04418	
20:42:50	0	0	0	-0.4563741	-23.7359	0	3	100	0	50	0.003024402	0.4054983	13.00123	
20:42:50	0	0	0	-0.4305828	-21.16373	0	3	100	0	50	-0.007332217	0.4133579	13.02551	
20:42:50	0	0	0	-0.4003099	-19.0485	0	3	100	0	50	-0.01324668	0.4136687	13.05367	
20:42:50	0	0	0	-0.3751043	-17.00752	0	3	100	0	50	-0.01611469	0.4022978	13.08407	
20:42:51	0	0	0	-0.3513971	-14.89386	0	3	100	0	50	-0.01495787	0.4024271	12.86668	
20:42:51	0	0	0	-0.2934477	-11.69337	0	3	100	0	50	-0.01999893	0.4276569	12.77693	
20:42:51	0	0	0	-0.2413058	-9.491958	0	3	100	0	50	-0.03624966	0.4168321	12.814	
20:42:51	0	0	0	-0.1998603	-7.578591	0	3	100	0	50	-0.04767885	0.4125672	12.85895	
20:42:51	0	0	0	-0.1585812	-5.600278	0	3	100	0	50	-0.04872834	0.4103046	12.8521	
20:42:52	0	0	0	-0.1564569	-5.487178	0	3	100	0	50	-0.03946406	0.4140512	12.7914	
20:42:52	0	0	0	-0.1931202	-8.266188	0	3	100	0	50	-0.04579594	0.414046	12.82815	
20:42:52	0	0	0	-0.219775	-10.01634	0	3	100	0	50	-0.04987279	0.4028126	12.87198	
20:42:52	0	0	0	-0.2255592	-10.51915	0	3	100	0	50	-0.05486396	0.4112089	12.90636	
20:42:52	0	0	0	-0.2104721	-10.09091	0	3	100	0	50	-0.05690551	0.3991594	12.70924	
20:42:53	0	0	0	-0.1828521	-8.520301	0	3	100	0	50	-0.05194981	0.4146616	12.68729	
20:42:53	0	0	0	-0.150285	-6.990675	0	3	100	0	50	-0.05388897	0.4149724	12.72906	
20:42:53	0	0	0	-0.1175731	-5.745451	0	3	100	0	50	-0.04373389	0.4284012	12.76902	
20:42:53	0	0	0	-0.09266592	-4.819209	0	3	100	0	50	-0.04732911	0.4341302	12.70506	
20:42:53	0	0	0	-0.08158132	-4.366157	0	3	100	0	50	-0.04346707	0.4093473	12.72304	
20:42:54	0	0	0	-0.09430924	-5.740407	0	3	100	0	50	-0.04187728	0.42177	12.76632	
20:42:54	0	0	0	-0.1381894	-8.453786	0	3	100	0	50	-0.04951865	0.396519	12.80359	
20:42:54	0	0	0	-0.1611264	-9.671349	0	3	100	0	50	-0.04804392	0.3888125	12.85119	
20:42:54	0	0	0	-0.1587075	-9.294516	0	3	100	0	50	-0.03959041	0.3769587	12.81221	
20:42:54	0	0	0	-0.1594639	-9.447653	0	3	100	0	50	-0.04429377	0.3759671	12.83898	
20:42:55	0	0	0	-0.1624759	-9.747738	0	3	100	0	50	-0.06078038	0.3730323	12.88524	
20:42:55	0	0	0	-0.1652249	-9.298043	0	3	100	0	50	-0.05509135	0.3756999	12.9156	
20:42:55	0	0	0	-0.1674221	-9.464085	0	3	100	0	50	-0.05288931	0.374828	12.70968	
20:42:55	0	0	0	-0.1621956	-9.513515	0	3	100	0	50	-0.04938452	0.3944642	12.67848	
20:42:55	0	0	0	-0.1446233	-8.299369	0	3	100	0	50	-0.04457702	0.4091006	12.72233	
20:42:56	0	0	0	-0.1322149	-7.950571	0	3	100	0	50	-0.04548064	0.4075938	12.76296	
20:42:56	0	0	0	-0.1237161	-7.41764	0	3	100	0	50	-0.05720464	0.3737931	12.76896	
20:42:56	0	0	0	-0.1053016	-5.915247	0	3	100	0	50	-0.06430794	0.3603636	12.70841	
20:42:56	0	0	0	-0.08118003	-4.536478	0	3	100	0	50	-0.05817947	0.3570986	12.75768	
20:42:56	0	0	0	-0.05977984	-4.089531	0	3	100	0	50	-0.05349766	0.3487397	12.80111	
20:42:57	0	0	0	-0.06513817	-5.101441	0	3	100	0	50	-0.05328343	0.338176	12.8434	
20:42:57	0	0	0	-0.07046677	-5.221563	0	3	100	0	50	-0.05220142	0.3485859	12.74722	
20:42:57	0	0	0	-0.05517459	-4.48966	0	3	100	0	50	-0.06844436	0.3359104	12.77227	
20:42:57	0	0	0	-0.03974558	-3.725542	0	3	100	0	50	-0.06035573	0.3453186	12.80912	
20:42:57	0	0	0	-0.07668862	-6.33561	0	3	100	0	50	-0.05908807	0.3429361	12.85134	
20:42:58	0	0	0	-0.1141572	-8.016773	0	3	100	0	50	-0.05462695	0.3347515	12.86265	
20:42:58	0	0	0	-0.1705348	-11.4957	0	3	100	0	50	-0.05709762	0.3307379	12.71982	
20:42:58	0	0	0	-0.2226998	-14.39904	0	3	100	0	50	-0.06055826	0.3136835	12.75308	
20:42:58	0	0	0	-0.2436409	-14.54587	0	3	100	0	50	-0.07936875	0.3381517	12.79284	
20:42:58	0	0	0	-0.2614524	-14.96849	0	3	100	0	50	-0.08753107	0.3487095	12.82631	
20:42:59	0	0	0	-0.3309115	-17.77052	0	3	100	0	50	-0.08152576	0.3571385	12.81637	
20:42:59	0	0	0	-0.3928074	-19.84646	0	3	100	0	50	-0.093962	0.3606609	12.83736	
20:42:59	0	0	0	-0.4201753	-20.49293	0	3	100	0	50	-0.1049314	0.3591313	12.88161	
20:42:59	0	0	0	-0.4463637	-20.71181	0	3	100	0	50	-0.1015887	0.3508148	12.92753	
20:42:59	0	0	0	-0.4475428	-19.18629	0	3	100	0	50	-0.100746	0.348933	12.84401	
20:43:00	0	0	0	-0.4459336	-17.95836	0	3	100	0	50	-0.102144	0.3362832	12.84407	
20:43:00	0	0	0	-0.4361977	-16.21548	0	3	100	0	50	-0.0939106	0.3415053	12.89042	
20:43:00	0	0	0	-0.423951	-14.50146	0	3	100	0	50	-0.0918662	0.327065	12.93424	
20:43:00	0	0	0	-0.3821856	-11.60071	0	3	100	0	50	-0.08266126	0.3306585	12.95999	
20:43:00	0	0	0	-0.3434744	-9.326473	0	3	100	0	50	-0.07200609	0.3260363	12.93678	
20:43:01	0	0	0	-0.285325	-6.624866	0	3	100	0	50	-0.07024119	0.3290361	12.92494	
20:43:01	0	0	0	-0.2323755	-3.465202	0	3	100	0	50	-0.0565669	0.3328149	12.96029	
20:43:01	0	0	0	-0.1828606	-1.335426	0	3	100	0	50	-0.05417151	0.310009	12.98565	
20:43:01	0	0	0	-0.1342486	0.3639177	0	3	100	0	50	-0.03976191	0.3061159	12.89694	
20:43:01	0	0	0	-0.11562	0.3957342	0	3	100	0	50	-0.03673878	0.2841457	12.81125	
20:43:02	0	0	0	-0.1338582	-1.199509	0	3	100	0	50	-0.03614487	0.289961	12.78807	
20:43:02	0	0	0	-0.1309271	-1.200644	0	3	100	0	50	-0.04077873	0.2873158	12.8174	
20:43:02	0	0	0	-0.1073255	-0.5505748	0	3	100	0	50	-0.04749477	0.2892628	12.84588	
20:43:02	0	0	0	-0.06781559	1.412096	0	3	100	0	50	-0.04815815	0.2725881	12.75693	
20:43:02	0	0	0	-0.01944831	3.134549	0	3	100	0	50	-0.0578788	0.2603012	12.74689	
20:43:03	0	0	0	0.006528922	3.289625	0	3	100	0	50	-0.0654617	0.2372721	12.77394	
20:43:03	0	0	0	0.01199494	2.727266	0	3	100	0	50	-0.06474105	0.2285507	12.80982	
20:43:03	0	0	0	0.01999002	2.551688	0	3	100	0	50	-0.07697404	0.2241089	12.75642	
20:43:03	0	0	0	0.03180247	2.227717	0	3	100	0	50	-0.07306408	0.2334485	12.72297	
20:43:03	0	0	0	0.02089132	0.606357	0	3	100	0	50	-0.08111838	0.2355918	12.7549	
20:43:04	0	0	0	-0.01812783	-1.670324	0	3	100	0	50	-0.07756855	0.2176784	12.79457	
20:43:04	0	0	0	-0.05744875	-4.415628	0	3	100	0	50	-0.08562403	0.2231262	12.82767	
20:43:04	0	0	0	-0.1006125	-6.578729	0	3	100	0	50	-0.08661757	0.2118044	12.63073	
20:43:04	0	0	0	-0.1110254	-6.51162	0	3	100	0	50	-0.08049542	0.2250585	12.64033	
20:43:04	0	0	0	-0.1035541	-5.70683	0	3	100	0	50	-0.07786078	0.2217829	12.67981	
20:43:05	0	0	0	-0.07491276	-3.639967	0	3	100	0	50	-0.07818634	0.2197621	12.70185	
20:43:05	0	0	0	-0.03939909	-1.881691	0	3	100	0	50	-0.09434303	0.2228643	12.61437	
20:43:05	0	0	0	-0.004395201	-0.3302525	0	3	100	0	50	-0.09358852	0.2276631	12.50905	
20:43:05	0	0	0	0.02619534	1.55725	0	3	100	0	50	-0.08533401	0.213564	12.54826	
20:43:05	0	0	0	0.02853269	0.4934333	0	3	100	0	50	-0.0904964	0.2092025	12.58254	
20:43:06	0	0	0	-0.005922664	-2.136294	0	3	100	0	50	-0.08528409	0.1979526	12.61311	
20:43:06	0	0	0	-0.02298393	-3.226093	0	3	100	0	50	-0.09152079	0.1607395	12.43595	
20:43:06	0	0	0	-0.01957537	-3.151939	0	3	100	0	50	-0.09076799	0.1471372	12.45785	
20:43:06	0	0	0	-0.01669506	-3.006205	0	3	100	0	50	-0.08627113	0.1436949	12.51099	
20:43:06	0	0	0	-0.05698289	-4.733333	0	3	100	0	50	-0.09225017	0.1403102	12.55845	
20:43:07	0	0	0	-0.09315802	-6.400618	0	3	100	0	50	-0.1107979	0.1341529	12.42955	
20:43:07	0	0	0	-0.1467246	-9.049323	0	3	100	0	50	-0.1032523	0.124636	12.47105	
20:43:07	0	0	0	-0.1912615	-11.88944	0	3	100	0	50	-0.1062164	0.1138302	12.53354	
20:43:07	0	0	0	-0.1954457	-11.67545	0	3	100	0	50	-0.1061485	0.1087121	12.59036	
20:43:07	0	0	0	-0.1978661	-10.78913	0	3	100	0	50	-0.1002485	0.09780179	12.52039	
20:43:08	0	0	0	-0.2342574	-12.24231	0	3	100	0	50	-0.1025266	0.09308293	12.4097	
20:43:08	0	0	0	-0.2695661	-13.58698	0	3	100	0	50	-0.104837	0.09994928	12.44002	
20:43:08	0	0	0	-0.2697259	-12.94096	0	3	100	0	50	-0.1071581	0.08296584	12.48138	
20:43:08	0	0	0	-0.2680643	-11.80562	0	3	100	0	50	-0.1144351	0.06968319	12.52624	
20:43:08	0	0	0	-0.2546492	-10.47098	0	3	100	0	50	-0.1029009	0.06892941	12.33604	
20:43:09	0	0	0	-0.241402	-9.371808	0	3	100	0	50	-0.09092352	0.07807303	12.30785	
20:43:09	0	0	0	-0.2247693	-7.613055	0	3	100	0	50	-0.084035	0.09344924	12.3551	
20:43:09	0	0	0	-0.2069046	-6.645617	0	3	100	0	50	-0.07858768	0.09609305	12.40974	
20:43:09	0	0	0	-0.2099909	-6.407247	0	3	100	0	50	-0.09204876	0.08017801	12.38702	
20:43:09	0	0	0	-0.2119417	-5.884154	0	3	100	0	50	-0.09274035	0.08058818	12.3579	
20:43:10	0	0	0	-0.1791797	-3.84755	0	3	100	0	50	-0.09144624	0.08357893	12.40266	
20:43:10	0	0	0	-0.1496818	-2.494198	0	3	100	0	50	-0.09260808	0.101826	12.44706	
20:43:10	0	0	0	-0.1356387	-1.875398	0	3	100	0	50	-0.09682848	0.1233425	12.49616	
20:43:10	0	0	0	-0.1249561	-1.802387	0	3	100	0	50	-0.09581791	0.1259296	12.3686	
20:43:10	0	0	0	-0.07679024	0.5417437	0	3	100	0	50	-0.09624533	0.1098231	12.39512	
20:43:11	0	0	0	-0.03313448	2.840114	0	3	100	0	50	-0.09065717	0.1081618	12.43776	
20:43:11	0	0	0	0.02035723	5.259132	0	3	100	0	50	-0.1068946	0.08755615	12.49128	
20:43:11	0	0	0	0.07372789	7.319809	0	3	100	0	50	-0.1068707	0.07248172	12.52951	
20:43:11	0	0	0	0.1210141	8.236042	0	3	100	0	50	-0.08962787	0.07101869	12.56414	
20:43:11	0	0	0	0.1512278	8.971384	0	3	100	0	50	-0.08186102	0.07211284	12.61131	
20:43:12	0	0	0	0.1921943	9.770782	0	3	100	0	50	-0.08245897	0.06208694	12.64894	
20:43:12	0	0	0	0.2338344	10.57838	0	3	100	0	50	-0.07838064	0.06528301	12.67904	
20:43:12	0	0	0	0.2352588	9.659111	0	3	100	0	50	-0.07710983	0.06890907	12.42523	
20:43:12	0	0	0	0.2137907	7.796346	0	3	100	0	50	-0.06181469	0.05939603	12.40084	
20:43:12	0	0	0	0.157054	3.008656	0	3	100	0	50	-0.06655354	0.06224475	12.44334	
20:43:13	0	0	0	0.08008081	-1.679482	0	3	100	0	50	-0.05673827	0.06801578	12.47235	
20:43:13	0	0	0	0.02267289	-5.524963	0	3	100	0	50	-0.05196392	0.05115749	12.42645	
20:43:13	0	0	0	-0.02709551	-7.498283	0	3	100	0	50	-0.05565126	0.04633895	12.36206	
20:43:13	0	0	0	-0.05845592	-8.500757	0	3	100	0	50	-0.04885242	0.03711784	12.3882	
20:43:13	0	0	0	-0.06835549	-8.616982	0	3	100	0	50	-0.05391361	0.02862163	12.42594	
20:43:14	0	0	0	-0.05530212	-8.034256	0	3	100	0	50	-0.06334215	0.02101069	12.46437	
20:43:14	0	0	0	-0.02072558	-6.132614	0	3	100	0	50	-0.06812373	0.01224712	12.39978	
20:43:14	0	0	0	0.01961023	-4.077393	0	3	100	0	50	-0.070418	0.00851013	12.36572	
20:43:14	0	0	0	0.06209259	-1.701991	0	3	100	0	50	-0.089998	-0.01083102	12.40404	
20:43:14	0	0	0	0.1314238	1.640822	0	3	100	0	50	-0.09379525	-0.01207567	12.44662	
20:43:15	0	0	0	0.2078524	5.56285	0	3	100	0	50	-0.0906301	-0.01358883	12.41488	
20:43:15	0	0	0	0.2527858	6.89273	0	3	100	0	50	-0.09038377	-0.01403535	12.40674	
20:43:15	0	0	0	0.2631107	7.137486	0	3	100	0	50	-0.09267346	-0.008786875	12.44413	
20:43:15	0	0	0	0.2650361	5.888412	0	3	100	0	50	-0.07988092	-0.002504148	12.47186	
20:43:15	0	0	0	0.2548388	3.839528	0	3	100	0	50	-0.09301213	-0.02292396	12.49031	
20:43:16	0	0	0	0.2209849	1.056371	0	3	100	0	50	-0.09977353	-0.01798027	12.39139	
20:43:16	0	0	0	0.1673987	-2.330156	0	3	100	0	50	-0.1133766	-0.01425999	12.41994	
20:43:16	0	0	0	0.1177575	-5.142551	0	3	100	0	50	-0.1111169	-0.01389701	12.46213	
20:43:16	0	0	0	0.02469193	-9.974122	0	3	100	0	50	-0.1099594	-0.01272532	12.49402	
20:43:16	0	0	0	-0.05960732	-13.79776	0	3	100	0	50	-0.1255081	-0.02971725	12.3596	
20:43:17	0	0	0	-0.08734517	-13.98403	0	3	100	0	50	-0.1238047	-0.01803473	12.36606	
20:43:17	0	0	0	-0.1131392	-14.44058	0	3	100	0	50	-0.1223696	-0.02958053	12.40994	
20:43:17	0	0	0	-0.1167885	-13.63908	0	3	100	0	50	-0.1320363	-0.01717308	12.45004	
20:43:17	0	0	0	-0.1176543	-12.38018	0	3	100	0	50	-0.1330459	-0.01416581	12.4199	
20:43:17	0	0	0	-0.1300511	-12.10597	0	3	100	0	50	-0.1351983	-0.008663888	12.4111	
20:43:18	0	0	0	-0.1397169	-11.5447	0	3	100	0	50	-0.13666	-0.007674251	12.46241	
20:43:18	0	0	0	-0.1522569	-10.95034	0	3	100	0	50	-0.1376692	-0.009390443	12.50504	
20:43:18	0	0	0	-0.1610063	-10.09643	0	3	100	0	50	-0.1475199	-0.01899258	12.54083	
20:43:18	0	0	0	-0.1659584	-9.474301	0	3	100	0	50	-0.1456087	0.0006713028	12.33513	
20:43:18	0	0	0	-0.1688376	-8.926125	0	3	100	0	50	-0.1476645	0.0175944	12.36228	
20:43:19	0	0	0	-0.1634735	-7.861779	0	3	100	0	50	-0.1568862	0.02944857	12.41767	
20:43:19	0	0	0	-0.156833	-7.296043	0	3	100	0	50	-0.1671879	0.0272951	12.46875	
20:43:19	0	0	0	-0.1537351	-6.913048	0	3	100	0	50	-0.1627058	0.01851803	12.39905	
20:43:19	0	0	0	-0.1503658	-6.39667	0	3	100	0	50	-0.1720613	0.002775214	12.3486	
20:43:19	0	0	0	-0.1494706	-5.609452	0	3	100	0	50	-0.1724122	-0.02104512	12.40126	
20:43:20	0	0	0	-0.1472325	-5.274682	0	3	100	0	50	-0.1791196	-0.03896016	12.44381	
20:43:20	0	0	0	-0.1781044	-6.27459	0	3	100	0	50	-0.1821335	-0.03943235	12.47918	
20:43:20	0	0	0	-0.2042431	-7.110558	0	3	100	0	50	-0.1779508	-0.0588786	12.32825	
20:43:20	0	0	0	-0.267849	-10.13929	0	3	100	0	50	-0.1750915	-0.06748928	12.35653	
20:43:20	0	0	0	-0.3241556	-12.12621	0	3	100	0	50	-0.1817761	-0.06660257	12.41043	
20:43:21	0	0	0	-0.3712843	-13.99314	0	3	100	0	50	-0.1854445	-0.04884274	12.46726	
20:43:21	0	0	0	-0.4092422	-15.34495	0	3	100	0	50	-0.1886135	-0.03259726	12.52505	
20:43:21	0	0	0	-0.4442044	-16.3188	0	3	100	0	50	-0.179566	-0.01921145	12.58379	
20:43:21	0	0	0	-0.4713062	-16.34109	0	3	100	0	50	-0.1777853	-0.02483472	12.63118	
20:43:21	0	0	0	-0.5067357	-16.84302	0	3	100	0	50	-0.1773529	-0.02865217	12.67879	
20:43:22	0	0	0	-0.5414439	-17.14429	0	3	100	0	50	-0.1930875	-0.0424564	12.72697	
20:43:22	0	0	0	-0.5591876	-16.64361	0	3	100	0	50	-0.1999214	-0.03876587	12.6897	
20:43:22	0	0	0	-0.5658342	-15.96767	0	3	100	0	50	-0.2037937	-0.07878945	12.65423	
20:43:22	0	0	0	-0.536161	-13.44843	0	3	100	0	50	-0.2044778	-0.0804853	12.69306	
20:43:22	0	0	0	-0.4862729	-10.02738	0	3	100	0	50	-0.2015448	-0.05440319	12.73343	
20:43:23	0	0	0	-0.4623418	-8.126092	0	3	100	0	50	-0.1862541	-0.05870879	12.66127	
20:43:23	0	0	0	-0.4616269	-7.612316	0	3	100	0	50	-0.184371	-0.05133491	12.48313	
20:43:23	0	0	0	-0.4610926	-6.758595	0	3	100	0	50	-0.1929064	-0.05142867	12.47521	
20:43:23	0	0	0	-0.4617476	-6.835633	0	3	100	0	50	-0.1919518	-0.0443859	12.51761	
20:43:23	0	0	0	-0.4567147	-6.099503	0	3	100	0	50	-0.1903296	-0.05616479	12.566	
20:43:24	0	0	0	-0.4428526	-4.681303	0	3	100	0	50	-0.1779108	-0.07822831	12.36715	
20:43:24	0	0	0	-0.4230286	-3.424822	0	3	100	0	50	-0.1748326	-0.08186135	12.37828	
20:43:24	0	0	0	-0.3927897	-1.415096	0	3	100	0	50	-0.1765499	-0.09343407	12.42233	
20:43:24	0	0	0	-0.3656221	-0.1117778	0	3	100	0	50	-0.1874422	-0.107439	12.48153	
20:43:24	0	0	0	-0.3422951	1.354366	0	3	100	0	50	-0.1914424	-0.1088784	12.47342	
20:43:25	0	0	0	-0.3257244	1.807795	0	3	100	0	50	-0.2154838	-0.1154033	12.37638	
20:43:25	0	0	0	-0.3208887	1.410359	0	3	100	0	50	-0.1932892	-0.1113419	12.43369	
20:43:25	-6.796019	38.98571	323.963	-0.3234791	1.2238	0.28	3	100	0	50	-0.1964451	-0.1219609	12.48625	
20:43:25	-6.796021	38.98571	333.299	-0.3344548	0.4056421	1.17	3	100	0	50	-0.1898095	-0.1395035	12.53264	
20:43:25	-6.796023	38.98572	335.748	-0.3461662	-0.06811085	0.31	3	100	0	50	-0.1838736	-0.1500959	12.41813	
20:43:26	-6.796024	38.98572	336.709	-0.3560685	-0.6221593	0.62	3	100	0	50	-0.1693056	-0.1249352	12.42866	
20:43:26	-6.796023	38.98572	335.612	-0.3650041	-0.988041	0.77	3	100	0	50	-0.1663762	-0.1283086	12.47753	
20:43:26	-6.796024	38.98572	334.767	-0.337977	0.3840222	0.62	3	100	0	50	-0.1748265	-0.131865	12.52919	
20:43:26	-6.796022	38.98572	332.094	-0.3142957	1.077758	0.29	3	100	0	50	-0.1734323	-0.1075543	12.43959	
20:43:26	-6.796021	38.98571	328.833	-0.2811893	2.639082	0.33	3	100	0	50	-0.1777204	-0.1155015	12.41716	
20:43:27	-6.796019	38.98571	325.605	-0.248625	3.798875	0.45	3	100	0	50	-0.1845974	-0.1141364	12.46422	
20:43:27	-6.796015	38.98571	321.366	-0.2384883	3.913201	0.19	3	100	0	50	-0.1815481	-0.1028628	12.52058	
20:43:27	-6.796013	38.9857	318.033	-0.2298163	4.43459	0.55	3	100	0	50	-0.1847961	-0.09915089	12.53805	
20:43:27	-6.796011	38.98569	316.23	-0.2315047	3.725324	0.48	3	100	0	50	-0.1881672	-0.09747275	12.32107	
20:43:27	-6.796011	38.98569	315.16	-0.2344562	3.368402	0.34	3	100	0	50	-0.1817559	-0.1095819	12.33502	
20:43:28	-6.796011	38.98569	314.926	-0.2100614	4.153687	0.03	3	100	0	50	-0.1769567	-0.09842984	12.38653	
20:43:28	-6.796011	38.98569	314.301	-0.1891428	4.769434	0.21	3	100	0	50	-0.1845721	-0.1097214	12.44021	
20:43:28	-6.796011	38.98569	313.622	-0.1846863	4.548115	0.22	3	100	0	50	-0.1635893	-0.1132408	12.33353	
20:43:28	-6.796013	38.98569	314.073	-0.1813755	4.278486	0.41	3	100	0	50	-0.1455044	-0.09918258	12.33433	
20:43:29	-6.796012	38.98569	313.122	-0.1745761	3.77633	0.16	3	100	0	50	-0.1572289	-0.1083636	12.38219	
20:43:29	-6.796011	38.98569	311.74	-0.1690629	3.290759	0.26	3	100	0	50	-0.1719376	-0.1273805	12.424	
20:43:29	-6.79601	38.98569	310.733	-0.2003139	1.164349	0.62	3	100	0	50	-0.1833257	-0.1319779	12.43914	
20:43:29	-6.79601	38.98569	310.181	-0.2292488	-0.4447451	0.39	3	100	0	50	-0.1957666	-0.1372507	12.36387	
20:43:29	-6.79601	38.98569	309.508	-0.2586336	-2.207376	0.69	3	100	0	50	-0.1874968	-0.151338	12.39441	
20:43:30	-6.796009	38.98569	307.516	-0.2877739	-3.703042	0.57	3	100	0	50	-0.1859045	-0.1526992	12.43645	
20:43:30	-6.796009	38.98569	307.516	-0.3316435	-5.263615	0.48	3	100	0	50	-0.1882024	-0.1437196	12.48166	
20:43:30	-6.796009	38.98569	307.317	-0.370173	-6.432075	0.48	3	100	0	50	-0.19226	-0.1233503	12.2996	
20:43:30	-6.796009	38.98569	307.806	-0.3460582	-4.712518	0.62	3	100	0	50	-0.1949173	-0.1239248	12.22744	
20:43:30	-6.796009	38.98569	308.295	-0.3234219	-3.093852	0.57	3	100	0	50	-0.2158106	-0.1334508	12.27417	
20:43:31	-6.796009	38.98569	308.296	-0.2822167	-1.082528	0.59	3	100	0	50	-0.2230541	-0.1278089	12.33332	
20:43:31	-6.79601	38.98569	308.676	-0.2401357	1.807066	0.12	3	100	0	50	-0.2174137	-0.118099	12.35806	
20:43:31	-6.795927	38.98552	195.823	-0.2466161	1.251438	0.07	3	100	0	50	-0.2080965	-0.1111453	12.25704	
20:43:31	-6.795889	38.98545	143.201	-0.2984283	-2.29098	0.19	3	100	0	50	-0.2026439	-0.09600879	12.30197	
20:43:31	-6.79587	38.98541	116.982	-0.3282464	-3.605137	0.17	3	100	0	50	-0.2203061	-0.1039709	12.3561	
20:43:31	-6.795859	38.98539	101.663	-0.3225515	-3.130235	0.03	3	100	0	50	-0.2133687	-0.1088368	12.41584	
20:43:32	-6.795851	38.98537	90.804	-0.3201809	-2.630039	0.17	3	100	0	50	-0.2005613	-0.1065404	12.40214	
20:43:32	-6.795846	38.98536	83.448	-0.3185847	-1.536289	0.22	3	100	0	50	-0.1995997	-0.1045185	12.44153	
20:43:32	-6.795842	38.98535	78.018	-0.2985175	-0.05784826	0.45	3	100	0	50	-0.2025879	-0.08142325	12.48814	
20:43:32	-6.79584	38.98534	74.602	-0.2637468	1.321932	0.19	3	100	0	50	-0.1965694	-0.06805458	12.53677	
20:43:33	-6.795838	38.98534	71.989	-0.2270315	3.309166	0.19	3	100	0	50	-0.1999384	-0.0833196	12.58129	
20:43:33	-6.795837	38.98534	69.904	-0.183453	5.120004	0.22	3	100	0	50	-0.1933441	-0.1078158	12.6094	
20:43:33	-6.795837	38.98534	68.497	-0.1549077	5.874473	0.04	3	100	0	50	-0.182821	-0.09930155	12.65008	
20:43:33	-6.795836	38.98534	67.619	-0.1377504	5.871162	0.02	3	100	0	50	-0.1896611	-0.09091929	12.67459	
20:43:33	-6.795835	38.98533	66.713	-0.132405	5.860601	0.25	3	100	0	50	-0.196851	-0.1058081	12.71253	
20:43:34	-6.795835	38.98533	65.513	-0.1424299	4.579722	0.21	3	100	0	50	-0.1916612	-0.1101413	12.44233	
20:43:34	-6.795835	38.98533	64.568	-0.1394012	4.234695	0.09	3	100	0	50	-0.2014479	-0.124038	12.43264	
20:43:34	-6.795834	38.98533	63.287	-0.1295493	3.998697	0.16	3	100	0	50	-0.1972368	-0.136553	12.47495	
20:43:34	-6.795834	38.98533	63.287	-0.1152991	4.038404	0.09	3	100	0	50	-0.1973107	-0.1413533	12.52298	
20:43:34	-6.795834	38.98532	62.867	-0.09831028	4.858678	0.11	3	100	0	50	-0.2018275	-0.1493248	12.47332	
20:43:35	-6.795833	38.98532	62.191	-0.07009116	5.503646	0.06	3	100	0	50	-0.1981308	-0.1403807	12.4586	
20:43:35	-6.795833	38.98532	61.729	-0.03430091	7.038138	0.11	3	100	0	50	-0.2008028	-0.1528927	12.51805	
20:43:35	-6.795832	38.98532	60.559	-0.01280836	7.906331	0.45	3	100	0	50	-0.201674	-0.1527029	12.5674	
20:43:35	-6.795832	38.98532	61.13	-0.01052814	6.928172	0.28	3	100	0	50	-0.195777	-0.1443667	12.61127	
20:43:35	-6.795832	38.98532	61.675	0.008140165	7.274293	0.04	3	100	0	50	-0.1904424	-0.125879	12.60164	
20:43:36	-6.795833	38.98532	62.135	0.0413994	8.127851	0.51	3	100	0	50	-0.198362	-0.1206679	12.60305	
20:43:36	-6.795832	38.98532	60.34	0.06956527	8.447858	0.39	3	100	0	50	-0.2068715	-0.1168455	12.64414	
20:43:36	-6.795831	38.98532	58.891	0.05455533	6.505468	0.21	3	100	0	50	-0.1987266	-0.1142035	12.68448	
20:43:36	-6.79583	38.98532	57.564	0.03953756	5.072793	0.08	3	100	0	50	-0.1780753	-0.09705055	12.57389	
20:43:36	-6.79583	38.98532	56.859	-0.006537001	2.40808	0.22	3	100	0	50	-0.1755534	-0.1015226	12.48695	
20:43:37	-6.795829	38.98532	56.194	-0.0535236	-0.3072816	0.09	3	100	0	50	-0.1807621	-0.09010942	12.53442	
20:43:37	-6.795828	38.98532	55.602	-0.1355416	-4.648195	0.25	3	100	0	50	-0.1667751	-0.09271091	12.59214	
20:43:37	-6.795827	38.98532	55.37	-0.1974975	-7.639815	0.26	3	100	0	50	-0.1790798	-0.09326909	12.64353	
20:43:37	-6.795827	38.98532	55.354	-0.2687713	-10.33696	0.28	3	100	0	50	-0.1812268	-0.09182967	12.48963	
20:43:37	-6.795826	38.98532	55.397	-0.3377615	-13.27876	0.26	3	100	0	50	-0.1802538	-0.07650659	12.52936	
20:43:38	-6.795826	38.98532	55.736	-0.3563969	-13.13968	0.18	3	100	0	50	-0.1810389	-0.06627733	12.57732	
20:43:38	-6.795826	38.98532	56.299	-0.3713152	-12.9465	0.45	3	100	0	50	-0.1963614	-0.08306941	12.61573	
20:43:38	-6.795826	38.98532	55.838	-0.3283578	-9.691783	0.12	3	100	0	50	-0.1886672	-0.05758606	12.53818	
20:43:38	-6.795826	38.98532	55.694	-0.2877411	-6.954851	0.11	3	100	0	50	-0.1898645	-0.06625231	12.5156	
20:43:38	-6.795826	38.98532	56.246	-0.2175549	-3.295958	0.65	3	100	0	50	-0.1982371	-0.06025924	12.57014	
20:43:39	-6.795827	38.98532	55.89	-0.1524201	0.5320107	0.32	3	100	0	50	-0.2009614	-0.05153059	12.61739	
20:43:39	-6.795827	38.98532	55.772	-0.1690787	-0.4460989	0.09	3	100	0	50	-0.1984293	-0.06402483	12.60803	
20:43:39	-6.795826	38.98532	55.416	-0.18448	-1.405063	0.35	3	100	0	50	-0.1973906	-0.0683158	12.50902	
20:43:39	-6.795826	38.98532	55.503	-0.1878726	-1.417463	0.34	3	100	0	50	-0.1756002	-0.05984199	12.53974	
20:43:39	-6.795826	38.98532	55.462	-0.1913632	-1.400834	0.14	3	100	0	50	-0.180674	-0.05938721	12.58363	
20:43:40	-6.795825	38.98532	55.266	-0.197909	-1.463188	0.09	3	100	0	50	-0.1929264	-0.06338041	12.63253	
20:43:40	-6.795825	38.98532	55.378	-0.2030738	-1.502732	0.07	3	100	0	50	-0.1997582	-0.07400762	12.51461	
20:43:40	-6.795825	38.98532	54.977	-0.1351606	2.43676	0.14	3	100	0	50	-0.2001158	-0.09798502	12.46296	
20:43:40	-6.795824	38.98532	54.849	-0.07887085	5.20123	0.14	3	100	0	50	-0.1960162	-0.1199814	12.50134	
20:43:40	-6.795823	38.98532	54.83	-0.008986833	8.351689	0.03	3	100	0	50	-0.2019784	-0.1250221	12.55653	
20:43:41	-6.795823	38.98532	53.945	0.05324436	10.75734	0.13	3	100	0	50	-0.2174956	-0.1163435	12.56828	
20:43:41	-6.795823	38.98532	53.542	0.06796441	10.82341	0.36	3	100	0	50	-0.2156411	-0.09147434	12.3914	
20:43:41	-6.795822	38.98532	52.221	0.01998816	7.018728	0.34	3	100	0	50	-0.2112204	-0.060633	12.43964	
20:43:41	-6.795821	38.98532	51.533	-0.03252018	3.160811	0.18	3	100	0	50	-0.2099323	-0.06865711	12.50335	
20:43:41	-6.79582	38.98532	50.844	-0.09139492	-0.6318339	0.29	3	100	0	50	-0.2137717	-0.05945512	12.55905	
20:43:42	-6.795819	38.98532	50.549	-0.08839052	-0.3421518	0.26	3	100	0	50	-0.2090534	-0.05189738	12.43053	
20:43:42	-6.795818	38.98532	50.61	-0.04865644	1.777847	0.14	3	100	0	50	-0.21406	-0.04978769	12.44806	
20:43:42	-6.795817	38.98532	50.471	-0.03164507	2.629665	0.19	3	100	0	50	-0.2095279	-0.04649469	12.50247	
20:43:42	-6.795818	38.98532	50.647	-0.02854509	2.540209	0.61	3	100	0	50	-0.2086004	-0.05003092	12.55466	
20:43:42	-6.795819	38.98532	50.717	-0.01856232	2.973676	0.71	3	100	0	50	-0.1942362	-0.01814644	12.49016	
20:43:43	-6.795819	38.98532	50.354	0.001969235	3.843331	0.31	3	100	0	50	-0.1812892	-0.02800184	12.5078	
20:43:43	-6.795819	38.98532	49.985	-0.01814028	2.361315	0.29	3	100	0	50	-0.173972	-0.01667005	12.56377	
20:43:43	-6.795819	38.98532	49.529	-0.07396035	-0.6732682	0.58	3	100	0	50	-0.1702238	-0.00778817	12.61286	
20:43:43	-6.795819	38.98532	49.089	-0.1297003	-3.593958	0.34	3	100	0	50	-0.1714844	-0.01192595	12.6556	
20:43:43	-6.795817	38.98532	48.69	-0.1747521	-5.644996	0.48	3	100	0	50	-0.1700751	-0.0238285	12.59381	
20:43:44	-6.795817	38.98532	48.271	-0.1934921	-5.986153	0.19	3	100	0	50	-0.1524242	-0.02248728	12.60092	
20:43:44	-6.795816	38.98532	47.782	-0.1961474	-5.773057	0.52	3	100	0	50	-0.1469128	-0.04089695	12.64864	
20:43:44	-6.795815	38.98532	46.722	-0.1975224	-4.951735	0.59	3	100	0	50	-0.151915	-0.06148607	12.69401	
20:43:44	-6.795814	38.98532	46.542	-0.1984332	-4.842295	0.48	3	100	0	50	-0.1640477	-0.03351503	12.64421	
20:43:44	-6.795813	38.98532	46.202	-0.2092236	-5.261501	0.53	3	100	0	50	-0.1672692	-0.01787154	12.59777	
20:43:45	-6.795813	38.98532	45.991	-0.2289171	-5.859129	0.45	3	100	0	50	-0.1580087	-0.01732565	12.60372	
20:43:45	-6.795813	38.98532	46.077	-0.2673674	-7.217954	0.55	3	100	0	50	-0.1518552	-0.01370991	12.63515	
20:43:45	-6.795811	38.98532	45.199	-0.3221704	-9.440457	0.39	3	100	0	50	-0.1530988	-0.02358739	12.67856	
20:43:45	-6.795812	38.98532	44.959	-0.3803057	-11.22359	0.55	3	100	0	50	-0.1470842	-0.04738973	12.53978	
20:43:45	-6.795812	38.98532	44.801	-0.4403489	-13.50894	0.41	3	100	0	50	-0.1560852	-0.03787624	12.53204	
20:43:46	-6.795811	38.98532	44.017	-0.4884296	-15.43777	0.25	3	100	0	50	-0.1549687	-0.05281616	12.57581	
20:43:46	-6.79581	38.98532	43.351	-0.5017863	-14.36792	0.37	3	100	0	50	-0.1645764	-0.05540537	12.63098	
20:43:46	-6.795812	38.98532	43.206	-0.5117022	-13.58518	0.9	3	100	0	50	-0.1724349	-0.05849819	12.55402	
20:43:46	-6.795811	38.98532	42.78	-0.4994364	-11.89742	0.29	3	100	0	50	-0.1687451	-0.07341523	12.54446	
20:43:46	-6.795811	38.98532	42.052	-0.4853316	-10.50436	0.45	3	100	0	50	-0.1793815	-0.07084563	12.58771	
20:43:47	-6.79581	38.98532	41.348	-0.4463263	-7.579695	0.44	3	100	0	50	-0.2078881	-0.08564275	12.63077	
20:43:47	-6.79581	38.98532	41.501	-0.4087613	-4.403908	0.48	3	100	0	50	-0.2145905	-0.08275186	12.66499	
20:43:47	-6.795809	38.98532	40.932	-0.3158841	0.8102247	0.45	3	100	0	50	-0.2155478	-0.09017212	12.59541	
20:43:47	-6.795808	38.98531	41.009	-0.2321403	4.748484	0.66	3	100	0	50	-0.2193758	-0.09529328	12.63779	
20:43:47	-6.795808	38.98531	40.67	-0.164092	8.553713	0.04	3	100	0	50	-0.2161477	-0.09937616	12.68385	
20:43:48	-6.795808	38.98531	40.47	-0.1092252	10.53039	0.29	3	100	0	50	-0.2115786	-0.09897929	12.73873	
20:43:48	-6.795808	38.98532	40.333	-0.1065196	9.666199	0.76	3	100	0	50	-0.2031725	-0.0814724	12.64455	
20:43:48	-6.795807	38.98532	38.892	-0.106179	8.564551	0.41	3	100	0	50	-0.1996625	-0.09283207	12.56914	
20:43:48	-6.795809	38.98532	38.002	-0.09811771	8.228599	0.78	3	100	0	50	-0.2030725	-0.08975904	12.61723	
20:43:48	-6.795809	38.98532	37.923	-0.09251655	7.081653	0.59	3	100	0	50	-0.1990763	-0.07041343	12.66392	
20:43:49	-6.795809	38.98532	37.745	-0.1020775	6.28522	0.38	3	100	0	50	-0.1994051	-0.06687549	12.69287	
20:43:49	-6.795808	38.98531	37.718	-0.1116013	5.34483	0.24	3	100	0	50	-0.1868751	-0.07324561	12.50629	
20:43:49	-6.795807	38.98531	37.36	-0.1119069	4.695678	0.17	3	100	0	50	-0.1663639	-0.0472127	12.51684	
20:43:49	-6.795805	38.98531	36.713	-0.1129218	4.820499	0.68	3	100	0	50	-0.1591966	-0.05013752	12.54049	
20:43:49	-6.795805	38.98531	36.413	-0.116979	4.306978	0.52	3	100	0	50	-0.1574299	-0.04536811	12.6031	
20:43:50	-6.795804	38.98531	35.722	-0.1206647	4.131986	0.34	3	100	0	50	-0.1548852	-0.05248881	12.53524	
20:43:50	-6.795803	38.98531	35.439	-0.142501	2.200007	0.31	3	100	0	50	-0.1608683	-0.04389789	12.56795	
20:43:50	-6.795803	38.98531	34.678	-0.1844074	-0.9189196	0.04	3	100	0	50	-0.1650687	-0.03441768	12.64714	
20:43:50	-6.795803	38.98531	34.571	-0.2055868	-1.811152	0.26	3	100	0	50	-0.151332	-0.0327243	12.59817	
20:43:51	-6.795803	38.98531	34.678	-0.2057825	-2.081484	0.65	3	100	0	50	-0.1654439	-0.02444276	12.54275	
20:43:51	-6.795802	38.98531	33.445	-0.1871673	-0.6022994	0.38	3	100	0	50	-0.1699284	-0.01632407	12.57483	
20:43:51	-6.7958	38.98531	31.498	-0.1445387	1.779386	0.63	3	100	0	50	-0.1733933	-0.008397744	12.61282	
20:43:51	-6.795798	38.98531	30.532	-0.08583466	4.664362	0.88	3	100	0	50	-0.1761118	-0.01991143	12.64518	
20:43:51	-6.795798	38.98531	29.364	-0.06557885	5.127109	0.13	3	100	0	50	-0.1643845	-0.001223477	12.45221	
20:43:52	-6.795797	38.98531	28.718	-0.06960614	3.820852	0.71	3	100	0	50	-0.1722012	-0.03071237	12.42274	
20:43:52	-6.795797	38.98531	27.618	-0.07506505	1.862528	0.06	3	100	0	50	-0.1589517	-0.01752659	12.47272	
20:43:52	-6.795794	38.98531	26.271	-0.08072651	1.59873	1.26	3	100	0	50	-0.1559879	-0.01093841	12.51742	
20:43:52	-6.795794	38.98531	26.043	-0.08216827	1.395801	0.14	3	100	0	50	-0.1609863	-0.01400808	12.52183	
20:43:52	-6.795793	38.98531	25.841	-0.08006083	1.37409	0.65	3	100	0	50	-0.1603973	-0.02533707	12.48417	
20:43:53	-6.795793	38.98531	25.849	-0.04497093	2.889581	0.14	3	100	0	50	-0.1606274	-0.04113371	12.5192	
20:43:53	-6.795794	38.98531	25.643	0.03490802	6.725908	0.37	3	100	0	50	-0.1648489	-0.02699184	12.56922	
20:43:53	-6.795794	38.98531	25.458	0.2189052	13.91395	0.44	3	100	0	50	-0.1650765	-0.05326719	12.51687	
20:43:53	-6.795794	38.98531	25.441	0.287158	16.36326	0.42	3	100	0	50	-0.1710861	-0.06358119	12.53546	
20:43:54	-6.795795	38.98531	25.617	0.3391691	18.07313	0.9	3	100	0	50	-0.1759014	-0.07226654	12.57699	
20:43:54	-6.795795	38.98531	24.959	0.3633277	17.36468	0.34	3	100	0	50	-0.1813563	-0.08538182	12.62389	
20:43:54	-6.795794	38.98531	24.906	0.368568	16.00988	0.29	3	100	0	50	-0.184487	-0.08302569	12.64694	
20:43:54	-6.795794	38.98531	24.936	0.3770883	14.91801	0.16	3	100	0	50	-0.1910369	-0.07675886	12.67746	
20:43:54	-6.795793	38.98531	24.677	0.3932745	14.67901	0.47	3	100	0	50	-0.1941079	-0.06586933	12.70876	
20:43:55	-6.795792	38.98531	24.357	0.3823173	12.72811	0.42	3	100	0	50	-0.1931371	-0.08781352	12.74312	
20:43:55	-6.795792	38.98531	24.213	0.34802	9.042183	0.33	3	100	0	50	-0.1892797	-0.1013028	12.75738	
20:43:55	-6.795792	38.98531	24.512	0.3163714	6.119023	0.29	3	100	0	50	-0.1906903	-0.09300669	12.55072	
20:43:55	-6.795792	38.98531	25.135	0.2893763	4.47647	0.32	3	100	0	50	-0.1882626	-0.08377794	12.57291	
20:43:55	-6.795791	38.98531	25.481	0.2644161	2.63876	0.47	3	100	0	50	-0.1842727	-0.09208521	12.62515	
20:43:56	-6.79579	38.98531	25.094	0.2075837	-0.5355422	0.26	3	100	0	50	-0.1819537	-0.09883673	12.6604	
20:43:56	-6.795789	38.98531	24.788	0.1445977	-3.514664	0.42	3	100	0	50	-0.1785546	-0.1048403	12.50854	
20:43:56	-6.795785	38.98531	23.568	0.1160481	-5.104451	1.05	3	100	0	50	-0.1822137	-0.1297526	12.49296	
20:43:56	-6.795785	38.98531	23.263	0.08844707	-5.656524	0.59	3	100	0	50	-0.1926631	-0.136025	12.5336	
20:43:56	-6.795784	38.98531	22.858	0.07666045	-5.792702	0.24	3	100	0	50	-0.1791259	-0.1198877	12.59263	
20:43:57	-6.795783	38.98531	22.224	0.06752444	-4.92729	0.79	3	100	0	50	-0.1794082	-0.1303919	12.60751	
20:43:57	-6.795783	38.98531	22.247	0.07084084	-4.121518	0.18	3	100	0	50	-0.1936405	-0.1353136	12.5079	
20:43:57	-6.795783	38.98531	23.34	0.07393059	-4.166152	0.44	3	100	0	50	-0.1941519	-0.1262457	12.54264	
20:43:57	-6.795783	38.98531	23.587	0.06234251	-4.615885	0.26	3	100	0	50	-0.1933686	-0.1162641	12.59294	
20:43:57	-6.795783	38.98531	23.935	0.05204996	-4.972317	0.14	3	100	0	50	-0.1907841	-0.1147493	12.64348	
20:43:58	-6.795783	38.98531	23.732	0.03910772	-4.771382	0.26	3	100	0	50	-0.1862188	-0.1238114	12.53221	
20:43:58	-6.795783	38.98531	24.241	0.02770483	-4.83346	0.09	3	99	0	50	-0.1906341	-0.140016	12.52194	
20:43:58	-6.795781	38.98531	24.185	0.01899354	-4.786521	0.38	3	99	0	50	-0.1828084	-0.1418938	12.56368	
20:43:58	-6.795779	38.98531	24.099	0.01087281	-4.67474	0.48	3	99	0	50	-0.1848244	-0.1578981	12.61496	
20:43:58	-6.795779	38.98532	24.702	0.001171635	-4.681398	0.44	3	99	0	50	-0.1913034	-0.1522462	12.62443	
20:43:59	-6.795781	38.98532	25.099	-0.006853903	-4.974178	0.85	3	99	0	50	-0.1961368	-0.1605792	12.42729	
20:43:59	-6.795781	38.98532	24.715	-0.0131489	-5.011372	0.29	3	99	0	50	-0.1932278	-0.1563969	12.44715	
20:43:59	-6.795782	38.98532	25.005	-0.01780755	-4.517008	0.65	3	99	0	50	-0.2009375	-0.1728687	12.48181	
20:43:59	-6.795782	38.98532	24.818	-0.005282233	-3.833415	0.31	3	99	0	50	-0.2134167	-0.1661036	12.52322	
20:43:59	-6.795781	38.98532	25.015	0.006556904	-2.70024	0.09	3	99	0	50	-0.2109541	-0.1665853	12.40852	
20:44:00	-6.795781	38.98532	25.454	0.08192772	1.530108	0.24	3	99	0	50	-0.2089714	-0.1465625	12.40774	
20:44:00	-6.795782	38.98532	25.776	0.1511022	5.402006	0.5	3	99	0	50	-0.1940262	-0.1166874	12.46011	
20:44:00	-6.795779	38.98531	24.705	0.1970866	7.775848	0.87	3	99	0	50	-0.1974558	-0.09474076	12.50435	
20:44:00	-6.795777	38.98531	24.142	0.2430531	9.211537	1.06	3	99	0	50	-0.2044556	-0.09914985	12.52954	
20:44:00	-6.795774	38.98531	23.914	0.2653372	9.509645	0.89	3	99	0	50	-0.2019292	-0.10655	12.54685	
20:44:01	-6.795774	38.98531	24.476	0.2595242	8.437186	0.22	3	99	0	50	-0.1932438	-0.1071715	12.58312	
20:44:01	-6.795773	38.98531	24.711	0.2474072	7.260154	0.24	3	99	0	50	-0.1991698	-0.1029081	12.61309	
20:44:01	-6.795773	38.98531	25.457	0.2273435	5.880048	0.48	3	99	0	50	-0.20696	-0.1070947	12.64995	
20:44:01	-6.795775	38.98531	26.074	0.2066051	4.168481	1.1	3	99	0	50	-0.1999273	-0.1157211	12.65821	
20:44:01	-6.795775	38.98531	26.381	0.1831284	2.323495	0.69	3	99	0	50	-0.2099497	-0.1211467	12.5865	
20:44:02	-6.795774	38.98531	26.128	0.1748572	1.677374	0.22	3	99	0	50	-0.2218593	-0.1128142	12.62611	
20:44:02	-6.795773	38.98531	25.532	0.1756053	1.330725	0.45	3	99	0	50	-0.2232305	-0.136112	12.66974	
20:44:02	-6.795773	38.98531	25.31	0.1592807	0.04856806	0.37	3	99	0	50	-0.226924	-0.1400698	12.711	
20:44:02	-6.795771	38.98531	24.99	0.1207951	-2.36604	0.29	3	99	0	50	-0.2238258	-0.1132796	12.6715	
20:44:02	-6.79577	38.98531	24.785	0.07071542	-4.792818	0.16	3	99	0	50	-0.2302327	-0.1195928	12.6896	
20:44:03	-6.79577	38.98531	24.959	0.0229321	-7.106869	0.17	3	99	0	50	-0.2373524	-0.1323858	12.72604	
20:44:03	-6.79577	38.98531	25.544	0.0229321	-7.106869	0.42	3	99	0	50	-0.2435154	-0.1592598	12.76799	
20:44:03	-6.79577	38.98531	25.461	-0.04889136	-9.934139	0.19	3	99	0	50	-0.2494154	-0.1744803	12.64705	
20:44:03	-6.795769	38.98531	25.333	-0.07526366	-10.43854	0.32	3	99	0	50	-0.2433283	-0.181678	12.6421	
20:44:03	-6.795769	38.98531	25.779	-0.1045839	-11.02804	0.26	3	99	0	50	-0.2339782	-0.1985388	12.66584	
20:44:04	-6.795769	38.98531	26.6	-0.1115232	-10.86981	0.29	3	99	0	50	-0.227698	-0.1777797	12.71247	
20:44:04	-6.795768	38.98531	27.165	-0.09915034	-9.14897	0.22	3	99	0	50	-0.2227252	-0.1688225	12.73112	
20:44:04	-6.795769	38.98531	28.358	-0.0793433	-7.173982	0.84	3	99	0	50	-0.2184233	-0.1779085	12.6515	
20:44:04	-6.79577	38.98532	29.017	-0.05199016	-5.386909	0.79	3	99	0	50	-0.224076	-0.1909304	12.67057	
20:44:04	-6.79577	38.98532	28.35	-0.05334519	-4.57101	0.29	3	99	0	50	-0.2268703	-0.1888848	12.71292	
20:44:05	-6.795768	38.98532	27.947	-0.08387986	-5.376943	0.22	3	99	0	50	-0.2202353	-0.2031353	12.74786	
20:44:05	-6.795769	38.98532	27.659	-0.08818058	-4.505233	0.42	3	99	0	50	-0.209641	-0.184718	12.70545	
20:44:05	-6.795768	38.98532	27.732	-0.07027593	-3.397939	0.21	3	99	0	50	-0.2072307	-0.1644265	12.67802	
20:44:05	-6.795768	38.98531	27.537	-0.05441365	-2.996047	0.25	3	99	0	50	-0.2113191	-0.156933	12.70705	
20:44:05	-6.795769	38.98531	27.793	-0.08699833	-4.762814	0.38	3	99	0	50	-0.2060638	-0.1395361	12.74539	
20:44:06	-6.795768	38.98531	27.66	-0.115797	-5.673308	0.62	3	99	0	50	-0.2160216	-0.1337551	12.79572	
20:44:06	-6.795768	38.98531	27.564	-0.09736419	-3.158053	0.53	3	99	0	50	-0.2235157	-0.1680118	12.50592	
20:44:06	-6.795768	38.98531	27.299	-0.07592779	-1.114842	0.61	3	99	0	50	-0.2280902	-0.1794293	12.37511	
20:44:06	-6.795768	38.98531	27.33	-0.06556841	-0.7904261	0.48	3	99	0	50	-0.2384346	-0.1832135	12.42055	
20:44:06	-6.795766	38.98531	27.378	-0.05500633	0.08675479	0.19	3	99	0	50	-0.2318273	-0.18742	12.47313	
20:44:07	-6.795766	38.98531	26.88	-0.08884065	-1.866865	0.33	3	99	0	50	-0.2333211	-0.1853238	12.33696	
20:44:07	-6.795764	38.98531	26.074	-0.1188353	-3.049092	0.79	3	99	0	50	-0.2257613	-0.1800716	12.35488	
20:44:07	-6.795764	38.98531	25.53	-0.1080799	-2.703319	0.22	3	99	0	50	-0.237083	-0.1968541	12.40744	
20:44:07	-6.795765	38.98531	25.837	-0.09858947	-2.30978	0.52	3	99	0	50	-0.246278	-0.2013314	12.46301	
20:44:07	-6.795765	38.98531	25.878	-0.1259856	-3.801899	0.28	3	99	0	50	-0.2503903	-0.2088779	12.44968	
20:44:08	-6.795765	38.98531	26.082	-0.1506082	-4.532214	0.17	3	99	0	50	-0.2610545	-0.2138953	12.38877	
20:44:08	-6.795764	38.98531	25.948	-0.1514319	-4.494883	0.31	3	99	0	50	-0.2608514	-0.2340166	12.43258	
20:44:08	-6.795763	38.98531	25.317	-0.1516424	-4.000666	0.5	3	99	0	50	-0.2608564	-0.2377733	12.48915	
20:44:08	-6.795763	38.98531	24.856	-0.1893555	-5.764305	0.21	3	99	0	50	-0.2569213	-0.246972	12.5232	
20:44:08	-6.795762	38.98531	24.721	-0.222473	-6.768568	0.14	3	99	0	50	-0.252318	-0.2569445	12.38875	
20:44:09	-6.795763	38.98531	24.278	-0.2252895	-6.940209	0.28	3	99	0	50	-0.2599672	-0.2551625	12.38589	
20:44:09	-6.795761	38.98531	23.801	-0.2275652	-6.576023	0.57	3	99	0	50	-0.2682831	-0.2609113	12.43164	
20:44:09	-6.795761	38.98531	23.885	-0.2235807	-6.098213	0.09	3	99	0	50	-0.268142	-0.2650089	12.4851	
20:44:09	-6.79576	38.98531	23.47	-0.2192802	-5.420846	0.18	3	99	0	50	-0.2617464	-0.2802819	12.32529	
20:44:09	-6.795761	38.98531	23.144	-0.2219039	-5.176177	0.39	3	99	0	50	-0.2580323	-0.2871631	12.29561	
20:44:10	-6.795763	38.98531	23.312	-0.2231883	-4.617662	0.64	3	99	0	50	-0.2628476	-0.2856373	12.35569	
20:44:10	-6.795763	38.98531	23.531	-0.219892	-3.670835	0.76	3	99	0	50	-0.267676	-0.2693843	12.41481	
20:44:10	-6.795763	38.98531	24.565	-0.2151081	-2.591684	0.85	3	99	0	50	-0.2641648	-0.2755501	12.45431	
20:44:10	-6.795763	38.98531	24.43	-0.1772426	-0.4714213	0.25	3	99	0	50	-0.2662504	-0.2764157	12.33328	
20:44:10	-6.795761	38.98531	23.532	-0.1115758	2.92293	0.56	3	99	0	50	-0.2609463	-0.2928353	12.37435	
20:44:11	-6.795758	38.98532	22.387	-0.05052729	5.536239	0.97	3	99	0	50	-0.259545	-0.3018113	12.41461	
20:44:11	-6.795757	38.98532	21.82	0.02621869	8.69766	0.79	3	99	0	50	-0.2636604	-0.2986639	12.47665	
20:44:11	-6.795755	38.98532	20.769	0.06061059	9.390671	0.87	3	99	0	50	-0.2665769	-0.2902695	12.40859	
20:44:11	-6.795756	38.98532	20.427	0.07152776	9.859373	0.17	3	99	0	50	-0.2580649	-0.2758349	12.39993	
20:44:11	-6.795758	38.98532	19.931	0.07348198	9.422937	0.22	3	99	0	50	-0.2614355	-0.2767056	12.44905	
20:44:12	-6.79576	38.98532	20.478	0.06228986	7.931532	0.75	3	99	0	50	-0.2753965	-0.265042	12.49962	
20:44:12	-6.795763	38.98531	21.794	0.05600001	7.256718	1.05	3	99	0	50	-0.282633	-0.2487569	12.55378	
20:44:12	-6.795763	38.98532	22.568	0.05660195	6.596741	0.56	3	99	0	50	-0.2687419	-0.2443604	12.48127	
20:44:12	-6.795763	38.98532	22.959	0.07680437	7.11052	0.39	3	99	0	50	-0.2813724	-0.2403719	12.50243	
20:44:12	-6.795763	38.98532	22.992	0.1143873	8.629966	0.19	3	99	0	50	-0.2877542	-0.2549852	12.55307	
20:44:13	-6.795763	38.98532	22.992	0.1462297	9.934138	0.19	3	99	0	50	-0.2811548	-0.2357198	12.60127	
20:44:13	-6.795758	38.98532	21.98	0.1704022	10.26779	0.94	3	99	0	50	-0.2742834	-0.2357187	12.62976	
20:44:13	-6.79576	38.98532	22.529	0.1173089	6.517863	0.11	3	99	0	50	-0.275365	-0.2346407	12.64064	
20:44:13	-6.79576	38.98532	22.903	0.01624917	0.6508847	0.13	3	99	0	50	-0.2793483	-0.2369537	12.6827	
20:44:13	-6.795759	38.98532	22.81	-0.06007463	-3.33068	0.25	3	99	0	50	-0.2750555	-0.228642	12.72676	
20:44:14	-6.795759	38.98532	22.969	-0.1127404	-5.609546	0.19	3	99	0	50	-0.275052	-0.2193854	12.72104	
20:44:14	-6.79576	38.98532	23.05	-0.1517977	-6.829511	0.06	3	99	0	50	-0.288471	-0.2153693	12.60149	
20:44:14	-6.79576	38.98532	22.568	-0.166626	-6.848596	0.29	3	99	0	50	-0.2806575	-0.2033788	12.63654	
20:44:14	-6.79576	38.98532	22.473	-0.1624342	-6.107813	0.22	3	99	0	50	-0.2710929	-0.1962755	12.68887	
20:44:14	-6.79576	38.98532	22.716	-0.133138	-3.891024	0.31	3	99	0	50	-0.2657419	-0.1989513	12.75354	
20:44:15	-6.795762	38.98532	23.269	-0.1214628	-2.975598	0.41	3	99	0	50	-0.2600595	-0.1862169	12.6639	
20:44:15	-6.795763	38.98532	23.767	-0.1300622	-2.873545	0.39	3	99	0	50	-0.2573844	-0.1676786	12.57158	
20:44:15	-6.795763	38.98532	23.928	-0.1369343	-2.829399	0.13	3	99	0	50	-0.2587399	-0.1598305	12.62784	
20:44:15	-6.795762	38.98532	23.995	-0.2260931	-7.035119	0.18	3	99	0	50	-0.2586165	-0.1690319	12.67675	
20:44:15	-6.795762	38.98532	24.27	-0.3060775	-10.18618	0.34	3	99	0	50	-0.2644429	-0.1626673	12.72493	
20:44:16	-6.795762	38.98532	24.258	-0.3324174	-10.53746	0.18	3	99	0	50	-0.2703039	-0.1618935	12.6512	
20:44:16	-6.795761	38.98532	24.42	-0.3570769	-10.96176	0.89	3	99	0	50	-0.2800179	-0.1579266	12.70591	
20:44:16	-6.79576	38.98532	24.681	-0.3169623	-7.826755	0.53	3	99	0	50	-0.2867719	-0.1578269	12.75856	
20:44:16	-6.795759	38.98532	24.767	-0.2787285	-5.048748	0.5	3	99	0	50	-0.2742817	-0.1471379	12.81309	
20:44:16	-6.795761	38.98532	24.796	-0.1986431	-0.2115204	0.09	3	99	0	50	-0.2757642	-0.1203851	12.73813	
20:44:17	-6.795762	38.98532	24.931	-0.1183371	4.045983	0.29	3	99	0	50	-0.2740637	-0.1226039	12.7505	
20:44:17	-6.795763	38.98532	24.709	-0.05468833	7.111278	0.52	3	99	0	50	-0.2697831	-0.09023617	12.79892	
20:44:17	-6.795765	38.98532	25.342	0.002644074	9.106187	0.84	3	99	0	50	-0.2722296	-0.08622111	12.83677	
20:44:17	-6.795766	38.98532	25.346	0.05810875	11.34296	0.45	3	99	0	50	-0.2638724	-0.06375028	12.83032	
20:44:17	-6.795765	38.98532	25.209	0.1070185	12.64744	0.24	3	99	0	50	-0.2654273	-0.06026525	12.80342	
20:44:18	-6.795766	38.98532	25.502	0.181903	15.24178	0.22	3	99	0	50	-0.2624776	-0.07171012	12.84857	
20:44:18	-6.795768	38.98532	25.814	0.2551199	17.43318	0.51	3	99	0	50	-0.2614447	-0.06013239	12.89175	
20:44:18	-6.795767	38.98532	25.788	0.1782019	11.20436	0.45	3	99	0	50	-0.2567591	-0.08393875	12.93229	
20:44:18	-6.795767	38.98532	25.707	0.118128	7.039803	0.45	3	99	0	50	-0.2490745	-0.06588344	12.95171	
20:44:18	-6.795768	38.98532	25.554	0.1262708	6.708502	0.42	3	99	0	50	-0.2525679	-0.0885875	12.98996	
20:44:19	-6.795769	38.98532	25.846	0.131174	6.057749	0.12	3	99	0	50	-0.2520534	-0.09051707	13.02377	
20:44:19	-6.795769	38.98532	25.442	0.09122016	3.273218	0.19	3	99	0	50	-0.2563917	-0.08653668	13.05414	
20:44:19	-6.79577	38.98532	25.239	0.05379537	1.236594	0.18	3	99	0	50	-0.2561401	-0.09157898	12.97241	
20:44:19	-6.79577	38.98532	25.392	0.009851034	-1.111467	0.19	3	99	0	50	-0.2394205	-0.07859715	12.96122	
20:44:19	-6.795771	38.98532	25.413	-0.02640508	-2.911955	0.19	3	99	0	50	-0.2309953	-0.06449354	13.0097	
20:44:20	-6.795772	38.98532	25.378	-0.01975214	-2.523784	0.19	3	99	0	50	-0.2220371	-0.06529106	13.045	
20:44:20	-6.795774	38.98532	24.934	-0.01295724	-2.167094	0.42	3	99	0	50	-0.209275	-0.05325267	13.03029	
20:44:20	-6.795774	38.98532	24.298	-0.01643129	-1.86898	0.29	3	99	0	50	-0.2200537	-0.05008646	12.8576	
20:44:20	-6.795773	38.98532	24.287	-0.02696628	-2.373536	0.48	3	99	0	50	-0.212535	-0.0430354	12.88018	
20:44:20	-6.795774	38.98532	23.575	-0.03219541	-2.569171	0.07	3	99	0	50	-0.2110696	-0.05488393	12.91623	
20:44:21	-6.795773	38.98532	23.307	-0.02926857	-1.992574	0.56	3	99	0	50	-0.2267786	-0.06413849	12.95804	
20:44:21	-6.795774	38.98532	24.017	-0.0187517	-1.426608	0.13	3	99	0	50	-0.2270736	-0.06809764	12.83996	
20:44:21	-6.795774	38.98532	23.366	-0.004954305	-1.167245	0.17	3	99	0	50	-0.2486287	-0.09763552	12.82569	
20:44:21	-6.795775	38.98532	23.158	-0.006346335	-1.376613	0.08	3	99	0	50	-0.2600831	-0.1305217	12.86736	
20:44:21	-6.795776	38.98532	23.078	-0.01565026	-1.662888	0.33	3	99	0	50	-0.2754355	-0.1526475	12.9105	
20:44:22	-6.795777	38.98532	22.599	-0.01369118	-1.672651	0.12	3	99	0	50	-0.2747056	-0.1648228	12.91556	
20:44:22	-6.795778	38.98532	22.428	0.0006829973	-1.134062	0.66	3	99	0	50	-0.2718002	-0.1665409	12.77839	
20:44:22	-6.795778	38.98532	21.867	0.004346242	-1.143903	0.51	3	99	0	50	-0.2680616	-0.1590826	12.81589	
20:44:22	-6.795779	38.98532	21.667	-0.006164521	-1.837259	0.22	3	99	0	50	-0.2738781	-0.1793507	12.85271	
20:44:22	-6.795778	38.98532	21.041	-0.00876342	-1.811706	0.34	3	99	0	50	-0.2710737	-0.1835001	12.90169	
20:44:23	-6.795778	38.98532	20.853	-0.001428028	-0.9509493	0.19	3	99	0	50	-0.2682217	-0.1658229	12.76296	
20:44:23	-6.795779	38.98532	20.534	-0.01502896	-1.14274	0.58	3	99	0	50	-0.2646602	-0.1544492	12.67965	
20:44:23	-6.79578	38.98532	20.338	-0.04015094	-2.586596	0.42	3	99	0	50	-0.2660288	-0.1486489	12.71831	
20:44:23	-6.79578	38.98532	20.124	-0.07076956	-4.197825	0.29	3	99	0	50	-0.2702742	-0.1419863	12.76939	
20:44:23	-6.795781	38.98532	20.4	-0.102761	-5.479955	0.55	3	99	0	50	-0.278015	-0.1228195	12.7984	
20:44:24	-6.795779	38.98532	20.237	-0.1310642	-6.303384	0.79	3	99	0	50	-0.267236	-0.1183442	12.70315	
20:44:24	-6.795778	38.98532	19.785	-0.1621824	-6.863813	0.9	3	99	0	50	-0.2587052	-0.1175528	12.73613	
20:44:24	-6.795776	38.98532	19.515	-0.1733369	-7.021011	0.79	3	99	0	50	-0.2451488	-0.1275304	12.79837	
20:44:24	-6.795774	38.98532	19.136	-0.1601781	-5.912281	0.76	3	99	0	50	-0.2341077	-0.1187192	12.84942	
20:44:24	-6.795774	38.98532	19.401	-0.1473315	-4.560781	0.22	3	99	0	50	-0.2236364	-0.1403646	12.701	
20:44:25	-6.795773	38.98532	19.2	-0.1371988	-3.573053	0.25	3	99	0	50	-0.2310598	-0.1577214	12.69812	
20:44:25	-6.795773	38.98532	18.883	-0.1277293	-3.077815	0.29	3	99	0	50	-0.2388715	-0.1511285	12.7437	
20:44:25	-6.795773	38.98532	18.795	-0.1397455	-3.785463	0.04	3	99	0	50	-0.2413766	-0.1786484	12.78086	
20:44:25	-6.795772	38.98532	18.601	-0.1504488	-4.11307	0.29	3	99	0	50	-0.2568777	-0.1817674	12.74939	
20:44:25	-6.795772	38.98532	18.594	-0.1494925	-3.659525	0.09	3	99	0	50	-0.2553662	-0.2011011	12.7151	
20:44:26	-6.795772	38.98532	18.499	-0.1471963	-2.858771	0.26	3	99	0	50	-0.2631573	-0.1861112	12.74269	
20:44:26	-6.795772	38.98532	18.352	-0.1404527	-2.424407	0.28	3	99	0	50	-0.2538638	-0.1747789	12.77733	
20:44:26	-6.795772	38.98532	18.291	-0.1343548	-2.227957	0.22	3	99	0	50	-0.2503209	-0.1700291	12.81722	
20:44:26	-6.795772	38.98532	18.317	-0.09919897	-0.3442273	0.14	3	99	0	50	-0.2538951	-0.1968441	12.64216	
20:44:26	-6.795772	38.98532	18.291	-0.06387065	1.705125	0.33	3	99	0	50	-0.2531519	-0.1814986	12.59827	
20:44:27	-6.795771	38.98532	18.502	-0.04182465	2.711846	0.08	3	99	0	50	-0.2593104	-0.1684734	12.65534	
20:44:27	-6.795771	38.98532	18.45	-0.02289214	3.389983	0.11	3	99	0	50	-0.2679975	-0.1953687	12.70738	
20:44:27	-6.79577	38.98532	18.537	-0.02953668	2.837595	0.21	3	99	0	50	-0.265993	-0.2054842	12.69025	
20:44:27	-6.79577	38.98532	18.669	-0.03613098	2.125297	0.29	3	99	0	50	-0.2565685	-0.1867219	12.64851	
20:44:27	-6.795773	38.98532	19.105	-0.05058362	0.9350901	1.3	3	99	0	50	-0.2527151	-0.1969269	12.65046	
20:44:28	-6.795777	38.98532	20.324	-0.06586407	-0.2928273	2.28	3	99	0	50	-0.2557309	-0.2042106	12.70158	
20:44:28	-6.795783	38.98532	21.509	-0.1473149	-4.625623	2.75	3	99	0	50	-0.25906	-0.1903847	12.74133	
20:44:28	-6.795785	38.98531	22.121	-0.2211488	-8.126346	2.19	3	99	0	50	-0.257081	-0.1693286	12.56244	
20:44:28	-6.795785	38.98531	22.146	-0.2779768	-9.786604	0.66	3	99	0	50	-0.262992	-0.1552272	12.59062	
20:44:28	-6.795783	38.98531	21.722	-0.3315811	-11.45432	0.17	3	99	0	50	-0.2761338	-0.1362479	12.65196	
20:44:29	-6.795783	38.98531	21.721	-0.3418743	-11.18021	0.29	3	99	0	50	-0.2742448	-0.1344152	12.69795	
20:44:29	-6.795783	38.98531	22.432	-0.3517956	-10.93333	0.19	3	99	0	50	-0.269159	-0.1369438	12.65988	
20:44:29	-6.795783	38.98531	23.224	-0.3418903	-9.605389	0.55	3	99	0	50	-0.2684887	-0.1423464	12.67189	
20:44:29	-6.795783	38.98531	23.508	-0.3310054	-7.994528	0.13	3	99	0	50	-0.2734623	-0.1649626	12.72225	
20:44:29	-6.795783	38.98531	23.3	-0.2997518	-5.368998	0.29	3	99	0	50	-0.2644392	-0.1600648	12.77634	
20:44:30	-6.795783	38.98531	23.173	-0.2641578	-3.429119	0.31	3	99	0	50	-0.2731867	-0.1599133	12.82723	
20:44:30	-6.795783	38.98531	22.768	-0.2525149	-2.758761	0.16	3	99	0	50	-0.2748584	-0.1657627	12.61764	
20:44:30	-6.795783	38.98531	23.085	-0.2590303	-3.178713	0.13	3	99	0	50	-0.2745309	-0.160166	12.64854	
20:44:30	-6.795781	38.98531	22.894	-0.2707961	-3.442711	0.38	3	99	0	50	-0.27724	-0.1643099	12.68975	
20:44:30	-6.795779	38.98531	21.963	-0.2861003	-3.917502	0.45	3	99	0	50	-0.271063	-0.1602557	12.74042	
20:44:31	-6.795779	38.98531	21.75	-0.3248557	-5.527424	0.33	3	99	0	50	-0.2677076	-0.1607642	12.63482	
20:44:31	-6.795779	38.98531	22.212	-0.3760943	-7.66194	0.19	3	99	0	50	-0.2741056	-0.1608739	12.58445	
20:44:31	-6.795778	38.98531	22.182	-0.4448956	-10.53869	0.17	3	99	0	50	-0.2731217	-0.1574852	12.63108	
20:44:31	-6.795778	38.98531	22.368	-0.51933	-12.91605	0.11	3	99	0	50	-0.2676571	-0.15926	12.68109	
20:44:32	-6.795779	38.98531	22.834	-0.5642805	-14.05449	0.42	3	99	0	50	-0.2673361	-0.1763418	12.66414	
20:44:32	-6.795778	38.98531	22.579	-0.5882776	-13.64557	0.26	3	99	0	50	-0.2659423	-0.176558	12.61757	
20:44:32	-6.795778	38.98531	22.334	-0.5955814	-12.44746	0.09	3	99	0	50	-0.2646493	-0.1843672	12.65738	
20:44:32	-6.795778	38.98531	21.664	-0.5839013	-10.48586	0.28	3	99	0	50	-0.2620074	-0.1699356	12.70203	
20:44:32	-6.795776	38.98531	21.104	-0.5545306	-7.397149	0.39	3	99	0	50	-0.2627823	-0.1635383	12.75204	
20:44:32	-6.795776	38.98531	20.59	-0.5146158	-4.897064	0.34	3	99	0	50	-0.2630104	-0.170455	12.59972	
20:44:33	-6.795775	38.98531	20.711	-0.478974	-2.33731	0.16	3	99	0	50	-0.2529245	-0.1408205	12.59889	
20:44:33	-6.795776	38.98531	20.81	-0.4472806	-0.4169669	0.47	3	99	0	50	-0.2662473	-0.1065772	12.63899	
20:44:33	-6.795775	38.98531	21.016	-0.4113189	1.266012	0.26	3	99	0	50	-0.2567678	-0.08270817	12.69024	
20:44:33	-6.795775	38.98531	21.796	-0.3782189	2.630187	0.21	3	99	0	50	-0.257575	-0.08010878	12.72005	
20:44:33	-6.795775	38.98531	22.309	-0.3510381	3.392321	0.22	3	99	0	50	-0.2677731	-0.07746251	12.64426	
20:44:34	-6.795774	38.98531	22.751	-0.3351923	3.682289	0.19	3	99	0	50	-0.2727609	-0.09104807	12.68993	
20:44:34	-6.795774	38.98531	23	-0.3073181	4.987414	0.34	3	99	0	50	-0.2716096	-0.08586058	12.72772	
20:44:34	-6.795773	38.98531	22.981	-0.263115	6.319355	0.17	3	99	0	50	-0.265212	-0.08412388	12.76608	
20:44:34	-6.795773	38.98531	22.765	-0.2037757	8.895833	0.19	3	99	0	50	-0.2533382	-0.06308334	12.69741	
20:44:34	-6.795772	38.98531	22.586	-0.1379456	12.11519	0.11	3	99	0	50	-0.2390142	-0.05441834	12.69206	
20:44:35	-6.795771	38.98531	22.74	-0.07910099	14.31274	0.11	3	99	0	50	-0.2458296	-0.0600712	12.73662	
20:44:35	-6.795771	38.98532	22.859	-0.03538988	15.42261	0.31	3	99	0	50	-0.2288778	-0.06741165	12.78534	
20:44:35	-6.795772	38.98531	23.294	0.001797894	16.26431	0.7	3	99	0	50	-0.2293746	-0.05934186	12.77364	
20:44:35	-6.795773	38.98531	23.94	0.01431472	15.5684	0.71	3	99	0	50	-0.2165178	-0.07319363	12.60466	
20:44:35	-6.795773	38.98532	24.431	0.02384593	14.49081	0.18	3	99	0	50	-0.2192181	-0.07616481	12.62063	
20:44:36	-6.795773	38.98532	24.992	-0.01017843	11.22435	0.24	3	99	0	50	-0.2324516	-0.0894554	12.65636	
20:44:36	-6.795773	38.98532	25.206	-0.04259197	8.549139	0.39	3	99	0	50	-0.2462016	-0.0701961	12.70241	
20:44:36	-6.795774	38.98532	25.629	-0.07498074	6.225125	0.87	3	99	0	50	-0.2418358	-0.07886872	12.55762	
20:44:36	-6.795775	38.98531	25.447	-0.1084558	3.614304	1.01	3	99	0	50	-0.2439243	-0.08565314	12.57684	
20:44:36	-6.795776	38.98531	25.441	-0.1210601	2.577404	0.97	3	99	0	50	-0.2466288	-0.0924978	12.61989	
20:44:37	-6.795776	38.98531	25.501	-0.1329489	1.457593	0.52	3	99	0	50	-4.058931	-0.07422636	12.46044	
20:44:37	-6.795775	38.98531	25.308	-0.09796663	4.670414	0.08	3	99	0	50	-7.663337	0.08811913	12.85921	
20:44:37	-6.795774	38.98531	25.301	-0.06699584	4.001482	0.83	3	99	0	50	4.543272	-0.07074618	12.93328	
20:44:37	-6.795771	38.98531	25.333	-0.03216848	7.573035	1.59	3	99	0	50	-3.34236	-0.07629434	12.23833	
20:44:37	-6.795769	38.98531	26.032	0.003864832	10.69311	1.2	3	99	0	50	-15.04667	0.5963285	12.93206	
20:44:38	-6.795768	38.98531	26.655	0.0147915	8.227038	1.94	3	99	0	50	4.767486	0.1722379	13.99105	
20:44:38	-6.795766	38.98531	26.726	0.02029128	9.222271	0.58	3	99	0	50	-4.679935	0.26577	13.10724	
20:44:38	-6.795765	38.98531	27.9	0.04261322	12.34605	0.41	3	99	0	50	-18.51845	1.16691	13.94008	
20:44:38	-6.795763	38.98531	28.62	0.06157021	9.646558	0.56	3	99	0	50	-3.162562	0.5212136	15.20535	
20:44:39	-6.795763	38.98531	28.678	0.08266079	9.42471	0.42	3	99	0	50	0.4540084	0.4812608	15.10839	
20:44:39	-6.795762	38.98531	28.847	0.1019015	10.14388	0.17	3	99	0	50	0.1761079	0.4560227	14.92019	
20:44:39	-6.795762	38.98531	29.638	0.1469512	11.56239	0.35	3	99	0	50	0.02856596	0.4213287	14.74338	
20:44:39	-6.795762	38.98531	30.488	0.1855236	12.60619	0.29	3	99	0	50	0.07334962	0.4863417	14.69668	
20:44:39	-6.795762	38.98531	31.094	0.2325003	13.78496	0.59	3	99	0	50	0.02912585	0.4747591	14.64499	
20:44:40	-6.795762	38.98531	31.423	0.277019	14.68138	0.97	3	99	0	50	-0.07086932	0.4439769	14.57883	
20:44:40	-6.795762	38.98531	31.515	0.3173998	15.72764	0.29	3	99	0	50	-0.1092038	0.4248963	14.4368	
20:44:40	-6.795763	38.98531	32.393	0.3540674	15.82737	0.48	3	99	0	50	-0.1033374	0.410915	14.3562	
20:44:40	-6.795763	38.98531	32.764	0.3646399	14.6338	0.29	3	99	0	50	-0.09016778	0.3764293	14.31522	
20:44:40	-6.795762	38.98531	32.78	0.340231	11.87485	0.41	3	99	0	50	-0.1000018	0.3821503	14.27596	
20:44:41	-6.79576	38.98531	32.78	0.3121785	9.21011	0.45	3	99	0	50	-0.1271368	0.3411607	14.10387	
20:44:41	-6.795758	38.98531	32.604	0.2804096	6.529596	0.56	3	99	0	50	-0.1363565	0.3249104	13.98507	
20:44:41	-6.795758	38.98531	32.712	0.2238018	2.729076	0.19	3	99	0	50	-0.1298347	0.2862155	13.96588	
20:44:41	-6.795759	38.98531	33.021	0.1613185	-0.966514	0.42	3	99	0	50	-0.1345709	0.2947962	13.93014	
20:44:41	-6.795758	38.98531	32.467	0.1175266	-3.481396	0.12	3	99	0	50	-0.151427	0.2777719	13.88841	
20:44:42	-6.795757	38.98531	32.384	0.1088731	-3.88436	0.44	3	99	0	50	-0.1770595	0.2622349	13.55915	
20:44:42	-6.795758	38.98531	32.979	0.1166424	-3.495498	0.17	3	99	0	50	-0.1895297	0.2121223	13.50722	
20:44:42	-6.795758	38.98531	33.063	0.1416461	-1.730351	0.18	3	99	0	50	-0.1872181	0.1932854	13.49238	
20:44:42	-6.795757	38.98531	32.816	0.1793547	0.02930956	0.24	3	99	0	50	-0.2003044	0.1733767	13.47369	
20:44:42	-6.795755	38.98531	32.775	0.2276062	2.323081	0.5	3	99	0	50	-0.2128439	0.1553294	13.30283	
20:44:42	-6.795753	38.98532	32.409	0.2173401	1.340682	0.63	3	99	0	50	-0.2196312	0.1459828	13.27519	
20:44:43	-6.795752	38.98532	32.504	0.1729649	-1.253551	0.14	3	99	0	50	-0.233727	0.127591	13.26089	
20:44:43	-6.795752	38.98532	32.531	0.09095353	-5.097217	0.16	3	99	0	50	-0.2429637	0.08996866	13.24583	
20:44:43	-6.795751	38.98532	31.806	0.001291714	-9.329838	0.11	3	99	0	50	-0.2527516	0.06134789	13.14886	
20:44:43	-6.795749	38.98532	31.099	-0.08041204	-12.49735	0.81	3	99	0	50	-0.2664609	0.02211806	13.08509	
20:44:44	-6.795745	38.98532	30.541	-0.1404575	-14.7141	0.69	3	99	0	50	-0.2817221	-0.03104063	13.08779	
20:44:44	-6.795745	38.98532	30.423	-0.1705955	-14.83379	0.21	3	99	0	50	-0.2983122	-0.05079471	13.09387	
20:44:44	-6.795745	38.98532	29.856	-0.1635085	-13.33971	0.32	3	99	0	50	-0.3069139	-0.06345768	13.09791	
20:44:44	-6.795743	38.98532	29.517	-0.1440254	-11.00556	0.45	3	99	0	50	-0.3162934	-0.05478751	12.86249	
20:44:44	-6.795742	38.98532	29.948	-0.1150827	-8.359119	0.66	3	99	0	50	-0.3214023	-0.07114635	12.82384	
20:44:45	-6.79574	38.98532	30.284	-0.08705556	-6.161699	0.26	3	99	0	50	-0.3280156	-0.1169691	12.82476	
20:44:45	-6.79574	38.98532	30.08	-0.09962641	-5.665024	0.26	3	99	0	50	-0.3357607	-0.1472901	12.83332	
20:44:45	-6.795739	38.98532	30.025	-0.1093917	-5.722753	0.38	3	99	0	50	-0.3332976	-0.1524262	12.77807	
20:44:45	-6.795738	38.98532	29.803	-0.07869931	-3.502508	0.33	3	99	0	50	-0.3393305	-0.1505908	12.6717	
20:44:45	-6.795737	38.98532	29.59	-0.04621715	-1.668891	0.17	3	99	0	50	-0.3302671	-0.1405452	12.67367	
20:44:46	-6.795736	38.98532	29.21	-0.04875581	-1.636046	0.37	3	99	0	50	-0.3327624	-0.1393161	12.69822	
20:44:46	-6.795736	38.98532	28.499	-0.05112268	-1.973052	0.29	3	99	0	50	-0.3255102	-0.1301064	12.72761	
20:44:46	-6.795734	38.98532	27.762	-0.07551608	-2.901608	0.28	3	99	0	50	-0.3232038	-0.1261583	12.49659	
20:44:46	-6.795734	38.98532	27.02	-0.09690143	-3.508631	0.44	3	99	0	50	-0.3429807	-0.1540341	12.46483	
20:44:46	-6.795733	38.98532	26.07	-0.1362787	-5.081445	0.33	3	99	0	50	-0.3437024	-0.1492806	12.48628	
20:44:47	-6.795732	38.98532	24.868	-0.1674006	-6.190981	0.36	3	99	0	50	-0.3455585	-0.1495097	12.49755	
20:44:47	-6.795731	38.98532	24.659	-0.2110368	-7.642439	0.25	3	99	0	50	-0.3430475	-0.1618012	12.42424	
20:44:47	-6.795731	38.98532	24.199	-0.2485129	-8.325762	0.28	3	99	0	50	-0.3418974	-0.1648579	12.38716	
20:44:47	-6.795731	38.98532	24.055	-0.2407997	-7.06847	0.51	3	99	0	50	-0.3538608	-0.1591122	12.40945	
20:44:47	-6.795731	38.98532	24.236	-0.2319199	-6.09959	0.55	3	99	0	50	-0.34906	-0.165437	12.42988	
20:44:48	-6.79573	38.98532	24.519	-0.2491996	-6.417607	0.18	3	99	0	50	-0.3492854	-0.1509792	12.44578	
