Date	Latitude(deg) 	Longitude(deg)	hamsl(m)	hafl(m)	climbrate(cm/s)	GroundSpeed(m/s)	Airspeed(m/s)	Mav_Link(%)	Rssi_Link(%)	Throttle	Roll(deg)	Pitch(deg)	Yaw(deg)
13:24:44	0	0	0	0.5406131	-18.47257	0	3	39	0	50	9.643517	-4.198628	-73.09616	
13:24:46	0	0	0	1.119906	10.77763	0	3	48	0	50	9.857333	-4.049052	-73.59408	
13:24:48	0	0	0	0.7027927	-16.86124	0	3	55	0	50	9.97534	-4.029172	-74.05762	
13:24:49	0	0	0	0.4286925	-21.47385	0	3	61	0	50	10.02792	-4.000601	-74.35567	
13:24:51	0	0	0	0.6021487	-6.37493	0	3	66	0	50	10.04638	-3.969179	-74.53622	
13:24:53	0	0	0	0.4725456	-11.83117	0	3	70	0	50	10.01092	-3.935123	-74.70553	
13:24:54	0	0	0	0.5312599	-5.510336	0	3	73	0	50	9.968463	-3.928964	-74.81022	
13:24:56	0	0	0	0.2536237	-17.52981	0	3	76	0	50	9.917747	-4.048867	-74.83184	
13:24:58	0	0	0	0.4861696	-1.770321	0	3	78	0	50	9.856284	-4.014402	-74.77116	
13:24:59	0	0	0	0.4066227	-4.46014	0	3	80	0	50	9.811777	-4.01922	-74.68243	
13:25:01	0	0	0	0.2263515	-12.10831	0	3	82	0	50	9.796639	-4.049153	-74.54353	
13:25:03	0	0	0	0.1560462	-7.496288	0	3	84	0	50	9.721183	-4.098727	-74.41338	
13:25:05	0	0	0	0.4258654	5.796792	0	3	85	0	50	9.726565	-4.110766	-74.27958	
13:25:06	0	0	0	0.1613329	-11.12045	0	3	87	0	50	9.674809	-4.17965	-74.0716	
13:25:08	0	0	0	-0.01455279	-10.9324	0	3	88	0	50	9.632768	-4.140867	-73.91956	
13:25:10	0	0	0	0.5230264	14.82442	0	3	89	0	50	9.61924	-4.23601	-73.81628	
13:25:11	0	0	0	0.9428931	19.11277	0	3	90	0	50	9.524549	-4.300434	-73.5691	
13:25:13	0	0	0	0.9425718	6.071704	0	3	91	0	50	9.514655	-4.305668	-73.39731	
13:25:15	0	0	0	0.9251822	2.112805	0	3	91	0	50	9.503876	-4.411602	-73.23769	
13:25:16	0	0	0	0.9853093	2.154498	0	3	92	0	50	9.520847	-4.327803	-73.02028	
13:25:18	0	0	0	0.8325579	-7.36674	0	3	93	0	50	9.466695	-4.35004	-72.89668	
13:25:20	0	0	0	0.3849331	-17.01556	0	3	93	0	50	9.473485	-4.365149	-72.76713	
13:25:21	0	0	0	0.443152	-9.37084	0	3	94	0	50	9.4596	-4.307187	-72.67357	
13:25:23	0	0	0	0.2448435	-11.29402	0	3	94	0	50	9.44693	-4.337771	-72.60921	
13:25:25	0	0	0	0.4587918	3.477385	0	3	95	0	50	9.392907	-4.355091	-72.51564	
13:25:26	0	0	0	0.5166744	7.426098	0	3	95	0	50	9.391472	-4.33417	-72.42099	
13:25:28	0	0	0	0.6635547	5.54985	0	3	95	0	50	9.386964	-4.240556	-72.36794	
13:25:30	0	0	0	0.2569219	-13.99055	0	3	96	0	50	9.368092	-4.229407	-72.35193	
13:25:31	0	0	0	0.5814332	7.640931	0	3	96	0	50	9.343388	-4.193129	-72.36464	
13:25:33	0	0	0	0.3750725	-2.91212	0	3	96	0	50	9.328996	-4.132598	-72.37261	
13:25:35	0	0	0	0.4929584	1.824561	0	3	96	0	50	9.342153	-4.194398	-72.41843	
13:25:37	0	0	0	0.1460083	-14.10011	0	3	97	0	50	9.371842	-4.168812	-72.46098	
13:25:38	0	0	0	0.1347515	-3.839173	0	3	97	0	50	9.381418	-4.176334	-72.50159	
13:25:40	0	0	0	0.4521558	9.584139	0	3	97	0	50	9.400232	-4.182472	-72.47407	
13:25:42	0	0	0	0.6511601	10.14917	0	3	97	0	50	9.397381	-4.209681	-72.50178	
13:25:43	0	0	0	0.6354576	5.354614	0	3	97	0	50	9.408577	-4.212041	-72.5141	
13:25:45	0	0	0	0.8861091	10.90351	0	3	98	0	50	9.413171	-4.214383	-72.48607	
13:25:47	0	0	0	0.8296434	2.108133	0	3	98	0	50	9.375371	-4.206984	-72.48667	
13:25:48	0	0	0	0.9278378	3.539279	0	3	98	0	50	9.393147	-4.181054	-72.48354	
13:25:50	0	0	0	0.5388002	-13.75132	0	3	98	0	50	9.428026	-4.215489	-72.50267	
13:25:52	0	0	0	0.3432552	-13.60561	0	3	98	0	50	9.425181	-4.215672	-72.53099	
13:25:53	0	0	0	0.1990065	-10.3009	0	3	98	0	50	9.408956	-4.255416	-72.53201	
13:25:55	0	0	0	0.2650042	1.63553	0	3	98	0	50	9.407593	-4.243603	-72.50562	
13:25:57	0	0	0	0.3861477	6.079756	0	3	98	0	50	9.366998	-4.252404	-72.51884	
13:25:59	0	0	0	0.6588575	9.323053	0	3	99	0	50	9.429067	-4.204792	-72.51843	
13:26:01	0	0	0	0.7743974	5.942369	0	3	99	0	50	9.340552	-4.273698	-72.50466	
13:26:03	0	0	0	1.145066	20.69136	0	3	99	0	50	9.303944	-4.271214	-72.43953	
13:26:05	0	0	0	0.8982861	-2.430039	0	3	99	0	50	9.292991	-4.237582	-72.48008	
13:26:07	0	0	0	0.8262385	-2.967212	0	3	99	0	50	9.282497	-4.230569	-72.4592	
13:26:09	0	0	0	0.2628769	-25.9698	0	3	99	0	50	9.316216	-4.187698	-72.47322	
13:26:11	0	0	0	-0.02421347	-25.58995	0	3	99	0	50	9.356807	-4.110969	-72.49738	
13:26:13	0	0	0	-0.4018547	-26.83636	0	3	99	0	50	9.348821	-4.154217	-72.52583	
13:26:14	0	0	0	-0.1252855	-1.623031	0	3	99	0	50	9.358588	-4.198294	-72.50677	
13:26:16	0	0	0	0.3643999	18.57159	0	3	99	0	50	9.381614	-4.136939	-72.5018	
13:26:18	0	0	0	0.7284029	21.29357	0	3	99	0	50	9.349078	-4.134898	-72.55294	
13:26:19	0	0	0	0.7929088	11.53533	0	3	99	0	50	9.365355	-4.12159	-72.57799	
13:26:21	0	0	0	0.8790504	8.628603	0	3	99	0	50	9.366661	-4.154874	-72.62558	
13:26:23	0	0	0	0.944864	6.557208	0	3	99	0	50	9.34207	-4.151427	-72.64359	
13:26:24	0	0	0	0.6136032	-10.09634	0	3	99	0	50	9.366105	-4.191957	-72.66381	
13:26:26	0	0	0	0.5252821	-5.479535	0	3	99	0	50	9.379232	-4.221777	-72.65902	
13:26:28	0	0	0	1.050738	17.43657	0	3	99	0	50	9.386439	-4.334768	-72.62486	
13:26:29	0	0	0	1.150872	8.295182	0	3	99	0	50	9.356874	-4.266553	-72.51773	
13:26:31	0	0	0	0.8829991	-8.332939	0	3	99	0	50	9.385983	-4.313082	-72.52522	
13:26:33	0	0	0	0.9899174	1.218874	0	3	99	0	50	9.37177	-4.253684	-72.44868	
13:26:35	0	0	0	0.7881041	-10.20964	0	3	99	0	50	9.369289	-4.1856	-72.47104	
13:26:36	0	0	0	0.5740959	-9.389078	0	3	99	0	50	9.356771	-4.169172	-72.47265	
13:26:38	0	0	0	0.8341985	6.423463	0	3	99	0	50	9.376266	-4.191527	-72.50112	
13:26:40	0	0	0	0.9531729	6.252409	0	3	99	0	50	9.309571	-4.192562	-72.51722	
13:26:41	0	0	0	0.7829981	-3.214951	0	3	99	0	50	9.298835	-4.134721	-72.53606	
13:26:43	0	0	0	0.6370271	-4.25348	0	3	99	0	50	9.2945	-4.190434	-72.57531	
13:26:45	0	0	0	0.2506761	-19.90711	0	3	99	0	50	9.294744	-4.164829	-72.60838	
13:26:46	0	0	0	0.2400054	-7.568978	0	3	99	0	50	9.287831	-4.194812	-72.59635	
13:26:48	0	0	0	0.6431905	11.64486	0	3	99	0	50	9.284747	-4.306754	-72.54337	
13:26:50	0	0	0	0.3218703	-7.777331	0	3	99	0	50	9.275135	-4.320985	-72.50835	
13:26:51	0	0	0	0.03165564	-14.74919	0	3	99	0	50	9.30111	-4.357968	-72.45744	
13:26:53	0	0	0	0.1591167	0.5595669	0	3	99	0	50	9.287906	-4.320814	-72.37385	
13:26:55	0	0	0	0.2489709	3.211796	0	3	99	0	50	9.23872	-4.388579	-72.33931	
13:26:56	0	0	0	0.2849305	3.61717	0	3	99	0	50	9.266829	-4.359805	-72.24097	
13:26:58	0	0	0	0.6491811	15.48692	0	3	99	0	50	9.273023	-4.299851	-72.24487	
13:27:00	0	0	0	0.321119	-5.035667	0	3	99	0	50	9.266644	-4.376769	-72.25992	
13:27:01	0	0	0	0.3556191	-0.3650025	0	3	99	0	50	9.281392	-4.354366	-72.22587	
13:27:03	0	0	0	0.2879445	-1.658787	0	3	99	0	50	9.263464	-4.344534	-72.22124	
13:27:05	0	0	0	0.5276989	8.359716	0	3	99	0	50	9.285663	-4.355273	-72.23349	
13:27:07	0	0	0	0.5121635	5.322235	0	3	99	0	50	9.286925	-4.376611	-72.19417	
13:27:08	0	0	0	0.8082244	10.11675	0	3	99	0	50	9.288623	-4.339142	-72.20087	
13:27:10	0	0	0	0.5698907	-1.853978	0	3	99	0	50	9.309521	-4.331426	-72.22046	
13:27:12	0	0	0	0.6537415	5.749155	0	3	99	0	50	9.282019	-4.296534	-72.22559	
13:27:13	0	0	0	0.7357817	3.305345	0	3	99	0	50	9.317265	-4.214727	-72.24976	
13:27:15	0	0	0	0.4205087	-10.68196	0	3	99	0	50	9.2351	-4.15228	-72.30365	
13:27:17	0	0	0	0.1035402	-16.77208	0	3	99	0	50	9.203139	-4.056728	-72.35861	
13:27:18	0	0	0	0.2689864	-2.771866	0	3	99	0	50	9.371363	-4.065476	-72.45268	
13:27:20	0	0	0	0.6906518	14.46928	0	3	99	0	50	9.419413	-4.021985	-72.56899	
13:27:22	0	0	0	1.013561	17.8202	0	3	99	0	50	9.433578	-4.033031	-72.65182	
13:27:23	0	0	0	0.9346209	6.19983	0	3	99	0	50	9.439027	-4.124291	-72.74127	
13:27:25	0	0	0	0.7060062	-5.40835	0	3	99	0	50	9.497525	-4.157869	-72.77154	
13:27:27	0	0	0	0.904884	4.37836	0	3	99	0	50	9.478119	-4.155396	-72.76848	
13:27:28	0	0	0	0.8930401	2.872162	0	3	99	0	50	9.460349	-4.141309	-72.77174	
13:27:30	0	0	0	1.001547	7.187894	0	3	99	0	50	9.450468	-4.156544	-72.77093	
13:27:32	0	0	0	1.107751	7.66822	0	3	99	0	50	9.453218	-4.27407	-72.75425	
13:27:33	0	0	0	1.126873	2.57894	0	3	99	0	50	9.47967	-4.246637	-72.69103	
13:27:35	0	0	0	1.03312	-2.862506	0	3	99	0	50	9.480042	-4.291836	-72.65826	
13:27:37	0	0	0	1.007717	-2.472171	0	3	99	0	50	9.450604	-4.348584	-72.61845	
13:27:39	0	0	0	1.144765	2.645454	0	3	99	0	50	9.437276	-4.312207	-72.53951	
13:27:40	0	0	0	1.09417	-0.6468983	0	3	99	0	50	9.395906	-4.375657	-72.48637	
13:27:42	0	0	0	1.47828	16.82259	0	3	99	0	50	9.401064	-4.376462	-72.41348	
13:27:44	0	0	0	1.388609	2.056534	0	3	99	0	50	9.372488	-4.287194	-72.32477	
13:27:45	0	0	0	1.342544	-3.131811	0	3	99	0	50	9.379548	-4.220368	-72.31859	
13:27:47	0	0	0	1.186681	-7.057086	0	3	99	0	50	9.354368	-4.27886	-72.3798	
13:27:49	0	0	0	1.449365	8.544744	0	3	99	0	50	9.357328	-4.321768	-72.35651	
13:27:50	0	0	0	1.719272	11.53411	0	3	99	0	50	9.321968	-4.450016	-72.31859	
13:27:52	0	0	0	1.479906	-5.359262	0	3	99	0	50	9.286489	-4.405959	-72.23479	
13:27:54	0	0	0	1.114483	-16.18018	0	3	99	0	50	9.30757	-4.353135	-72.18436	
13:27:55	0	0	0	1.107999	-4.083053	0	3	99	0	50	9.319043	-4.32864	-72.18322	
13:27:57	0	0	0	1.17375	-0.209859	0	3	99	0	50	9.286652	-4.286658	-72.20271	
13:27:59	0	0	0	1.285661	4.038238	0	3	99	0	50	9.336385	-4.324368	-72.23321	
13:28:00	0	0	0	1.062325	-5.677098	0	3	99	0	50	9.308407	-4.301444	-72.23152	
13:28:02	0	0	0	0.8144895	-12.5707	0	3	99	0	50	9.312799	-4.196853	-72.26356	
13:28:04	0	0	0	0.880851	-0.5715041	0	3	99	0	50	9.329884	-4.164525	-72.32031	
13:28:05	0	0	0	0.820755	-4.141497	0	3	99	0	50	9.332546	-4.141995	-72.43286	
13:28:07	0	0	0	0.8656061	-0.3390234	0	3	99	0	50	9.342836	-4.057891	-72.4903	
13:28:09	0	0	0	0.9814166	4.568901	0	3	99	0	50	9.348949	-4.060167	-72.55356	
13:28:11	0	0	0	0.8210724	-2.252349	0	3	99	0	50	9.35464	-4.03405	-72.60321	
13:28:12	0	0	0	0.8588315	-1.597659	0	3	99	0	50	9.356947	-4.016	-72.64637	
13:28:14	0	0	0	0.8809917	0.7473952	0	3	99	0	50	9.342535	-4.091474	-72.67847	
13:28:16	0	0	0	0.7661027	-2.889576	0	3	99	0	50	9.416575	-4.125901	-72.65527	
13:28:17	0	0	0	0.7462048	-2.938426	0	3	99	0	50	9.456603	-4.086061	-72.66354	
13:28:19	0	0	0	0.8868389	4.801313	0	3	99	0	50	9.433093	-4.152671	-72.70659	
13:28:21	0	0	0	1.074667	8.717614	0	3	99	0	50	9.399564	-4.227058	-72.69804	
13:28:22	0	0	0	0.9473566	-1.174437	0	3	99	0	50	9.417227	-4.204123	-72.64324	
13:28:24	0	0	0	1.066097	3.098603	0	3	99	0	50	9.387717	-4.20488	-72.62941	
13:28:26	0	0	0	1.124352	3.110054	0	3	99	0	50	9.350819	-4.180153	-72.6193	
13:28:27	0	0	0	0.9643025	-3.471624	0	3	99	0	50	9.310693	-4.226829	-72.58625	
13:28:29	0	0	0	1.001202	0.5255428	0	3	99	0	50	9.336617	-4.215597	-72.58481	
13:28:31	0	0	0	1.119365	3.049887	0	3	99	0	50	9.361708	-4.256509	-72.55443	
13:28:32	0	0	0	0.8546903	-8.731277	0	3	99	0	50	9.354904	-4.2721	-72.51566	
13:28:34	0	0	0	0.8339047	-3.937431	0	3	99	0	50	9.325301	-4.240108	-72.48331	
13:28:36	0	0	0	1.231106	12.10542	0	3	99	0	50	9.317549	-4.269706	-72.43116	
13:28:37	0	0	0	1.239239	5.551593	0	3	99	0	50	9.316404	-4.264827	-72.43008	
13:28:39	0	0	0	1.312329	4.061331	0	3	99	0	50	9.310476	-4.277051	-72.44724	
13:28:41	0	0	0	1.217239	-1.001554	0	3	99	0	50	9.282027	-4.268603	-72.43301	
13:28:43	0	0	0	0.9468801	-12.58479	0	3	99	0	50	9.326171	-4.220134	-72.44093	
13:28:44	0	0	0	1.140458	3.244563	0	3	99	0	50	9.342297	-4.259983	-72.43793	
13:28:46	0	0	0	1.226456	1.436927	0	3	99	0	50	9.366199	-4.244678	-72.41711	
13:28:48	0	0	0	1.102087	-2.859445	0	3	99	0	50	9.384278	-4.226666	-72.41864	
13:28:49	0	0	0	0.6137307	-19.75956	0	3	99	0	50	9.412282	-4.254053	-72.42913	
13:28:51	0	0	0	0.74755	-0.04575811	0	3	99	0	50	9.402768	-4.281239	-72.4231	
13:28:53	0	0	0	1.149678	14.71425	0	3	99	0	50	9.416609	-4.283529	-72.41356	
13:28:54	0	0	0	1.163686	6.810739	0	3	99	0	50	9.441999	-4.2417	-72.3901	
13:28:56	0	0	0	1.564865	20.745	0	3	99	0	50	9.436832	-4.197096	-72.46204	
13:28:58	0	0	0	1.769195	18.67089	0	3	99	0	50	9.411659	-4.179557	-72.50944	
13:28:59	0	0	0	1.615006	0.6481217	0	3	99	0	50	9.425934	-4.169226	-72.50754	
13:29:01	0	0	0	1.664124	2.244347	0	3	99	0	50	9.408772	-4.197035	-72.5267	
13:29:03	0	0	0	1.33058	-9.669703	0	3	99	0	50	9.42862	-4.169732	-72.54454	
13:29:04	0	0	0	1.180259	-8.711299	0	3	99	0	50	9.388828	-4.186658	-72.58224	
13:29:06	0	0	0	1.311117	1.177206	0	3	99	0	50	9.40933	-4.219336	-72.59934	
13:29:08	0	0	0	1.103714	-8.221041	0	3	99	0	50	9.421694	-4.286	-72.53982	
13:29:09	0	0	0	0.7663671	-17.59897	0	3	99	0	50	9.381039	-4.286223	-72.48363	
13:29:11	0	0	0	1.022756	5.408092	0	3	99	0	50	9.383109	-4.224159	-72.4584	
13:29:13	0	0	0	1.174543	4.915884	0	3	99	0	50	9.402643	-4.193304	-72.4455	
13:29:15	0	0	0	1.215641	3.921762	0	3	99	0	50	9.412724	-4.174319	-72.49222	
13:29:16	0	0	0	1.217637	1.157838	0	3	99	0	50	9.410187	-4.173874	-72.49608	
13:29:18	0	0	0	1.302709	2.750603	0	3	99	0	50	9.438205	-4.133819	-72.52085	
13:29:20	0	0	0	1.472622	8.516335	0	3	99	0	50	9.440849	-4.163187	-72.55553	
13:29:21	0	0	0	1.572519	10.43872	0	3	99	0	50	9.396174	-4.203041	-72.56608	
13:29:23	0	0	0	1.648168	8.474736	0	3	99	0	50	9.346684	-4.234327	-72.54693	
13:29:25	0	0	0	1.619272	0.2612174	0	3	99	0	50	9.359514	-4.281175	-72.53353	
13:29:26	0	0	0	1.652273	3.195777	0	3	99	0	50	9.339108	-4.258356	-72.48948	
13:29:28	0	0	0	1.134425	-15.00059	0	3	99	0	50	9.33015	-4.324488	-72.45756	
13:29:30	0	0	0	1.176364	-4.398692	0	3	99	0	50	9.324536	-4.232646	-72.40741	
13:29:31	0	0	0	1.507642	11.38077	0	3	99	0	50	9.347888	-4.2158	-72.46137	
13:29:33	0	0	0	1.393861	1.181228	0	3	99	0	50	9.353339	-4.198692	-72.48233	
13:29:35	0	0	0	1.486029	3.688032	0	3	99	0	50	9.319003	-4.210706	-72.47243	
13:29:36	0	0	0	1.540879	3.191144	0	3	99	0	50	9.347625	-4.201064	-72.46217	
13:29:38	0	0	0	1.271376	-10.10689	0	3	99	0	50	9.368187	-4.188107	-72.45818	
13:29:40	0	0	0	1.297515	-0.1473957	0	3	99	0	50	9.358433	-4.160346	-72.48241	
13:29:41	0	0	0	1.662545	14.05276	0	3	99	0	50	9.375093	-4.225558	-72.51286	
13:29:43	0	0	0	1.574647	0.01037531	0	3	99	0	50	9.369164	-4.22658	-72.49935	
13:29:45	0	0	0	1.533394	-3.368175	0	3	99	0	50	9.41411	-4.211463	-72.48775	
13:29:47	0	0	0	1.552421	-2.642175	0	3	99	0	50	9.410491	-4.225981	-72.49092	
13:29:48	0	0	0	1.418446	-3.659068	0	3	99	0	50	9.385903	-4.276752	-72.47956	
13:29:50	0	0	0	1.730071	9.289334	0	3	99	0	50	9.37493	-4.241985	-72.43342	
13:29:52	0	0	0	1.619239	-0.6534132	0	3	99	0	50	9.402895	-4.207465	-72.43266	
13:29:53	0	0	0	1.469101	-3.281668	0	3	99	0	50	9.375913	-4.255338	-72.44743	
13:29:55	0	0	0	1.467639	-3.431739	0	3	99	0	50	9.379801	-4.228986	-72.48082	
13:29:57	0	0	0	1.6333	6.690927	0	3	99	0	50	9.396447	-4.240139	-72.47173	
13:29:58	0	0	0	1.676704	3.191882	0	3	99	0	50	9.363451	-4.29017	-72.4563	
13:30:00	0	0	0	1.854486	7.797769	0	3	99	0	50	9.345065	-4.290663	-72.44087	
13:30:02	0	0	0	1.655717	-4.930628	0	3	99	0	50	9.375937	-4.286724	-72.41624	
13:30:03	0	0	0	1.654415	-1.113265	0	3	99	0	50	9.403121	-4.226547	-72.40965	
13:30:05	0	0	0	1.845492	5.010288	0	3	99	0	50	9.409981	-4.231347	-72.45249	
13:30:07	0	0	0	1.697186	-3.623309	0	3	99	0	50	9.380346	-4.201246	-72.46153	
13:30:08	0	0	0	1.619746	-4.269888	0	3	99	0	50	9.376849	-4.237042	-72.46777	
13:30:10	0	0	0	1.248192	-14.68106	0	3	99	0	50	9.382656	-4.262503	-72.47121	
13:30:12	0	0	0	1.795091	14.6246	0	3	99	0	50	9.421434	-4.238302	-72.48047	
13:30:14	0	0	0	1.765384	4.547236	0	3	99	0	50	9.42282	-4.239995	-72.4943	
13:30:15	0	0	0	1.610189	-2.754287	0	3	99	0	50	9.411982	-4.270252	-72.52242	
13:30:17	0	0	0	1.871848	9.65844	0	3	99	0	50	9.403824	-4.269116	-72.51252	
13:30:19	0	0	0	1.813247	-0.1600158	0	3	99	0	50	9.389209	-4.260633	-72.52568	
13:30:20	0	0	0	1.60074	-7.390275	0	3	99	0	50	9.410862	-4.248544	-72.52292	
13:30:22	0	0	0	1.717397	1.804536	0	3	99	0	50	9.431842	-4.285652	-72.51628	
13:30:24	0	0	0	1.823325	3.200417	0	3	99	0	50	9.442913	-4.224867	-72.47871	
13:30:25	0	0	0	1.67828	-5.626465	0	3	99	0	50	9.402225	-4.215829	-72.48403	
13:30:27	0	0	0	1.589225	-6.272494	0	3	99	0	50	9.397763	-4.217126	-72.51728	
13:30:29	0	0	0	1.416138	-11.24464	0	3	99	0	50	9.411536	-4.23132	-72.50533	
13:30:30	0	0	0	1.442032	-1.486482	0	3	99	0	50	9.413194	-4.198595	-72.50774	
13:30:32	0	0	0	1.627496	4.655996	0	3	99	0	50	9.41996	-4.2228	-72.50268	
13:30:34	0	0	0	1.511557	-2.468117	0	3	99	0	50	9.417282	-4.277129	-72.50186	
13:30:35	0	0	0	1.4351	-3.687343	0	3	99	0	50	9.41641	-4.217716	-72.47787	
13:30:37	0	0	0	1.600809	4.938818	0	3	99	0	50	9.370567	-4.215052	-72.50032	
13:30:39	0	0	0	1.414134	-4.348257	0	3	99	0	50	9.37549	-4.250335	-72.49908	
13:30:40	0	0	0	1.370239	-1.770223	0	3	99	0	50	9.411081	-4.158608	-72.48523	
13:30:42	0	0	0	1.471806	2.993967	0	3	99	0	50	9.39031	-4.166121	-72.54264	
13:30:44	0	0	0	1.413651	-3.47393	0	3	99	0	50	9.40546	-4.171353	-72.57233	
13:30:46	0	0	0	1.506438	4.049936	0	3	100	0	50	9.386187	-4.232693	-72.5722	
13:30:47	0	0	0	1.425514	-1.312234	0	3	100	0	50	9.403737	-4.223146	-72.55529	
13:30:49	0	0	0	1.516311	3.455976	0	3	100	0	50	9.420907	-4.182842	-72.57461	
13:30:51	0	0	0	1.421804	-1.185794	0	3	100	0	50	9.420092	-4.185731	-72.58438	
13:30:52	0	0	0	1.545304	5.367521	0	3	100	0	50	9.434641	-4.139735	-72.61954	
13:30:54	0	0	0	1.907909	15.95128	0	3	100	0	50	9.431896	-4.166318	-72.65318	
13:30:56	0	0	0	1.629367	-3.259232	0	3	100	0	50	9.390877	-4.187208	-72.67079	
13:30:57	0	0	0	1.494052	-8.073146	0	3	100	0	50	9.375679	-4.187466	-72.60574	
13:30:59	0	0	0	1.414761	-5.919426	0	3	100	0	50	9.385785	-4.199933	-72.57195	
13:31:01	0	0	0	1.598976	3.746443	0	3	100	0	50	9.38988	-4.117572	-72.56943	
13:31:02	0	0	0	1.526516	-1.521418	0	3	100	0	50	9.366538	-4.127178	-72.61588	
13:31:04	0	0	0	1.326609	-6.846415	0	3	100	0	50	9.382391	-4.13006	-72.63273	
13:31:06	0	0	0	1.349534	-1.783763	0	3	100	0	50	9.386314	-4.085413	-72.60992	
13:31:07	0	0	0	1.37048	1.523432	0	3	100	0	50	9.385779	-4.048088	-72.65038	
13:31:09	0	0	0	1.318783	-2.213012	0	3	100	0	50	9.393964	-4.107833	-72.67984	
13:31:11	0	0	0	1.348574	1.182637	0	3	100	0	50	9.427444	-4.155731	-72.70268	
13:31:12	0	0	0	1.526305	6.248421	0	3	100	0	50	9.399129	-4.149162	-72.71653	
13:31:14	0	0	0	1.618965	3.823084	0	3	100	0	50	9.373834	-4.168489	-72.69174	
13:31:16	0	0	0	1.476331	-5.71367	0	3	100	0	50	9.354997	-4.263147	-72.65067	
13:31:18	0	0	0	1.140387	-12.62661	0	3	100	0	50	9.396585	-4.213915	-72.5945	
13:31:19	0	0	0	1.241466	-1.62833	0	3	100	0	50	9.420259	-4.232232	-72.60142	
13:31:21	0	0	0	1.306979	1.976252	0	3	100	0	50	9.410439	-4.242004	-72.56571	
13:31:23	0	0	0	1.270004	-0.4405668	0	3	100	0	50	9.397281	-4.238193	-72.48006	
13:31:24	0	0	0	1.331829	1.2109	0	3	100	0	50	9.38315	-4.178481	-72.46303	
13:31:26	0	0	0	1.267374	-0.8819078	0	3	100	0	50	9.373156	-4.231441	-72.46926	
13:31:28	0	0	0	1.284762	-0.9489704	0	3	100	0	50	9.381965	-4.171606	-72.52087	
13:31:29	0	0	0	1.271903	-1.620356	0	3	100	0	50	9.379503	-4.191298	-72.53629	
13:31:31	0	0	0	1.335484	2.564957	0	3	100	0	50	9.361503	-4.157534	-72.52414	
13:31:33	0	0	0	1.544326	7.473491	0	3	100	0	50	9.430094	-4.120519	-72.54436	
13:31:34	0	0	0	1.489772	0.609037	0	3	100	0	50	9.408078	-4.189661	-72.6007	
13:31:36	0	0	0	1.477077	1.108952	0	3	100	0	50	9.393229	-4.152881	-72.61974	
13:31:38	0	0	0	1.630299	5.029509	0	3	100	0	50	9.35535	-4.239364	-72.63471	
13:31:39	0	0	0	1.438448	-6.371131	0	3	100	0	50	9.34201	-4.294725	-72.55405	
13:31:41	0	0	0	1.393975	-5.560238	0	3	100	0	50	9.337505	-4.37815	-72.51253	
13:31:43	0	0	0	1.518628	0.226229	0	3	100	0	50	9.338195	-4.418266	-72.452	
13:31:44	0	0	0	1.7157	6.743648	0	3	100	0	50	9.367625	-4.388573	-72.37085	
13:31:46	0	0	0	1.507842	-3.383798	0	3	100	0	50	9.395535	-4.355387	-72.29364	
13:31:48	0	0	0	1.448297	-2.29675	0	3	100	0	50	9.402365	-4.363662	-72.24278	
13:31:50	0	0	0	1.786831	11.59293	0	3	100	0	50	9.388134	-4.329166	-72.24735	
13:31:51	0	0	0	1.661148	-0.9348055	0	3	100	0	50	9.41642	-4.288506	-72.23403	
13:31:53	0	0	0	1.478682	-6.245048	0	3	100	0	50	9.387974	-4.262056	-72.26031	
13:31:55	0	0	0	1.774776	7.694022	0	3	100	0	50	9.402623	-4.257988	-72.30286	
13:31:56	0	0	0	1.763744	4.080735	0	3	100	0	50	9.407018	-4.234694	-72.30239	
13:31:58	0	0	0	2.145463	16.29617	0	3	100	0	50	9.446576	-4.204919	-72.34724	
13:32:00	0	0	0	1.980025	1.338265	0	3	100	0	50	9.473341	-4.097688	-72.38712	
13:32:01	0	0	0	1.624608	-14.05199	0	3	100	0	50	9.48498	-4.0593	-72.47987	
13:32:03	0	0	0	1.512438	-9.089691	0	3	100	0	50	9.487248	-4.06256	-72.56842	
13:32:05	0	0	0	1.69057	3.865332	0	3	100	0	50	9.488753	-4.060211	-72.63116	
13:32:06	0	0	0	1.714722	-1.186206	0	3	100	0	50	9.490453	-4.031535	-72.68462	
13:32:08	0	0	0	1.588669	-4.628078	0	3	100	0	50	9.485426	-4.019542	-72.75537	
13:32:10	0	0	0	1.791168	3.663776	0	3	100	0	50	9.449228	-4.044703	-72.78738	
13:32:11	0	0	0	1.71121	-1.286896	0	3	100	0	50	9.467973	-4.098257	-72.82742	
13:32:13	0	0	0	1.498964	-9.51179	0	3	100	0	50	9.455562	-4.169864	-72.82517	
13:32:15	0	0	0	1.552141	-0.9309596	0	3	100	0	50	9.425493	-4.24037	-72.80346	
13:32:16	0	0	0	1.740652	7.643867	0	3	100	0	50	9.400296	-4.286189	-72.74531	
13:32:18	0	0	0	1.845889	5.297739	0	3	100	0	50	9.394284	-4.341472	-72.67635	
13:32:20	0	0	0	1.679609	-3.63417	0	3	100	0	50	9.393488	-4.346407	-72.5812	
13:32:22	0	0	0	1.75251	-0.8810876	0	3	100	0	50	9.377301	-4.242439	-72.50981	
13:32:23	0	0	0	1.707883	-3.260555	0	3	100	0	50	9.404439	-4.248481	-72.48854	
13:32:25	0	0	0	1.762617	1.522362	0	3	100	0	50	9.394408	-4.257698	-72.48164	
13:32:27	0	0	0	1.664875	-3.814765	0	3	100	0	50	9.428448	-4.296903	-72.49094	
13:32:28	0	0	0	1.8507	4.160333	0	3	100	0	50	9.376602	-4.334974	-72.45115	
13:32:30	0	0	0	1.534368	-8.260919	0	3	100	0	50	9.356606	-4.310703	-72.38737	
13:32:32	0	0	0	1.6616	1.764237	0	3	100	0	50	9.340111	-4.282201	-72.34489	
13:32:33	0	0	0	1.469243	-8.266791	0	3	100	0	50	9.367403	-4.240388	-72.32128	
13:32:35	0	0	0	1.478285	-0.9281736	0	3	100	0	50	9.34765	-4.272794	-72.3694	
13:32:37	0	0	0	1.749289	10.11737	0	3	100	0	50	9.379538	-4.265166	-72.35239	
13:32:38	0	0	0	1.703839	3.263433	0	3	100	0	50	9.382625	-4.219317	-72.35792	
13:32:40	0	0	0	1.625281	-2.001591	0	3	100	0	50	9.419487	-4.206408	-72.37519	
13:32:42	0	0	0	1.580026	-1.702606	0	3	100	0	50	9.431617	-4.16642	-72.4108	
13:32:43	0	0	0	1.660572	1.532249	0	3	100	0	50	9.417052	-4.247406	-72.47499	
13:32:45	0	0	0	1.398806	-9.142696	0	3	100	0	50	9.447524	-4.191848	-72.50669	
13:32:47	0	0	0	1.397796	-3.827855	0	3	100	0	50	9.472668	-4.193497	-72.54917	
13:32:48	0	0	0	1.37982	-0.9942465	0	3	100	0	50	9.45565	-4.205036	-72.56025	
13:32:50	0	0	0	1.321683	-3.424116	0	3	100	0	50	9.425642	-4.165226	-72.55009	
13:32:52	0	0	0	1.37162	1.720672	0	3	100	0	50	9.411988	-4.17731	-72.57598	
13:32:54	0	0	0	1.561048	9.030061	0	3	100	0	50	9.429523	-4.208642	-72.63728	
13:32:55	0	0	0	1.662912	8.693302	0	3	100	0	50	9.414375	-4.13754	-72.59026	
13:32:57	0	0	0	1.545182	-3.467994	0	3	100	0	50	9.424635	-4.168246	-72.60566	
13:32:59	0	0	0	1.28726	-9.600726	0	3	100	0	50	9.387107	-4.16503	-72.63382	
13:33:00	0	0	0	1.659889	10.14097	0	3	100	0	50	9.407392	-4.209179	-72.65403	
13:33:02	0	0	0	1.46429	-2.845999	0	3	100	0	50	9.367485	-4.288994	-72.63066	
13:33:04	0	0	0	1.296803	-7.714451	0	3	100	0	50	9.369069	-4.299163	-72.55329	
13:33:05	0	0	0	1.276169	-4.933408	0	3	100	0	50	9.385369	-4.26704	-72.53529	
13:33:07	0	0	0	1.074641	-7.876486	0	3	100	0	50	9.413005	-4.238429	-72.50086	
13:33:09	0	0	0	1.328375	5.772538	0	3	100	0	50	9.447257	-4.259025	-72.49256	
13:33:10	0	0	0	1.486788	10.25033	0	3	100	0	50	9.397512	-4.256937	-72.51167	
13:33:12	0	0	0	1.613157	8.929718	0	3	100	0	50	9.377018	-4.275674	-72.49625	
13:33:14	0	0	0	1.421153	-5.244742	0	3	100	0	50	9.40552	-4.280373	-72.49484	
13:33:15	0	0	0	1.028292	-16.04856	0	3	100	0	50	9.406284	-4.279438	-72.48923	
13:33:17	0	0	0	1.592592	16.07189	0	3	100	0	50	9.413689	-4.296918	-72.43552	
13:33:19	0	0	0	1.972692	20.93238	0	3	100	0	50	9.39655	-4.308613	-72.41602	
13:33:20	0	0	0	1.983869	5.079051	0	3	100	0	50	9.405065	-4.284622	-72.36755	
13:33:22	0	0	0	1.884792	0.411878	0	3	100	0	50	9.433866	-4.252698	-72.38927	
13:33:24	0	0	0	1.755009	-6.470034	0	3	100	0	50	9.358461	-4.259044	-72.43289	
13:33:26	0	0	0	1.696887	-5.332757	0	3	100	0	50	9.370913	-4.307192	-72.4227	
13:33:27	0	0	0	1.33327	-15.11947	0	3	100	0	50	9.340389	-4.350744	-72.38863	
13:33:29	0	0	0	1.393761	-4.825743	0	3	100	0	50	9.356177	-4.339548	-72.33675	
13:33:31	0	0	0	1.55885	4.407208	0	3	100	0	50	9.400249	-4.275328	-72.3313	
13:33:32	0	0	0	1.559839	1.998903	0	3	100	0	50	9.384853	-4.283693	-72.34196	
13:33:34	0	0	0	1.448948	-0.4408601	0	3	100	0	50	9.401253	-4.237109	-72.33569	
13:33:36	0	0	0	1.395088	-3.771789	0	3	100	0	50	9.367117	-4.186251	-72.366	
13:33:37	0	0	0	1.646415	9.283409	0	3	100	0	50	9.351152	-4.18431	-72.42056	
13:33:39	0	0	0	1.966473	13.52004	0	3	100	0	50	9.36775	-4.197508	-72.44419	
13:33:41	0	0	0	2.286815	17.92218	0	3	100	0	50	9.375999	-4.193356	-72.45824	
13:33:42	0	0	0	2.295889	8.308807	0	3	100	0	50	9.387135	-4.169637	-72.497	
13:33:44	0	0	0	2.458175	9.626969	0	3	100	0	50	9.392885	-4.071247	-72.53449	
13:33:46	0	0	0	2.455001	5.182865	0	3	100	0	50	9.406806	-4.071476	-72.59821	
13:33:47	0	0	0	2.279294	-3.594867	0	3	100	0	50	9.397617	-4.122957	-72.65945	
13:33:49	0	0	0	2.158794	-4.10304	0	3	100	0	50	9.455105	-4.177189	-72.67487	
13:33:51	0	0	0	2.23261	-2.815994	0	3	100	0	50	9.434141	-4.270112	-72.69543	
13:33:53	0	0	0	2.397533	5.015994	0	3	100	0	50	9.465074	-4.199765	-72.64974	
13:33:54	0	0	0	2.191425	-7.509504	0	3	100	0	50	9.468432	-4.117724	-72.65823	
13:33:56	0	0	0	1.909581	-12.17752	0	3	100	0	50	9.48739	-4.117734	-72.67079	
13:33:58	0	0	0	2.083171	0.3865121	0	3	100	0	50	9.49719	-4.137572	-72.67861	
13:33:59	0	0	0	1.779814	-12.69927	0	3	100	0	50	9.48038	-4.115347	-72.69833	
13:34:01	0	0	0	2.030067	5.508486	0	3	100	0	50	9.44438	-4.127689	-72.76884	
13:34:03	0	0	0	1.867805	-4.69674	0	3	100	0	50	9.46878	-4.171093	-72.74397	
13:34:04	0	0	0	1.674846	-8.074972	0	3	100	0	50	9.450032	-4.210064	-72.70961	
13:34:06	0	0	0	1.79602	0.5828022	0	3	100	0	50	9.457563	-4.189219	-72.69779	
13:34:08	0	0	0	2.079516	9.846501	0	3	100	0	50	9.415692	-4.293041	-72.64943	
13:34:09	0	0	0	2.23473	10.36943	0	3	100	0	50	9.393485	-4.332872	-72.57379	
13:34:11	0	0	0	2.204269	4.143427	0	3	100	0	50	9.376853	-4.329938	-72.50365	
13:34:13	0	0	0	2.091285	-3.969559	0	3	100	0	50	9.352144	-4.322775	-72.47495	
13:34:14	0	0	0	2.357161	9.827756	0	3	100	0	50	9.338371	-4.324174	-72.39183	
13:34:16	0	0	0	2.14376	-2.751567	0	3	100	0	50	9.364304	-4.305496	-72.34184	
13:34:18	0	0	0	2.168319	-1.058151	0	3	100	0	50	9.369744	-4.320497	-72.33401	
13:34:19	0	0	0	2.049535	-6.911833	0	3	100	0	50	9.362907	-4.330999	-72.32773	
13:34:21	0	0	0	2.12	0.6301823	0	3	100	0	50	9.425972	-4.294529	-72.29562	
13:34:23	0	0	0	2.079424	-0.4480661	0	3	100	0	50	9.402964	-4.245621	-72.30393	
13:34:25	0	0	0	2.191484	5.06698	0	3	100	0	50	9.471884	-4.219778	-72.34304	
13:34:26	0	0	0	2.04107	-4.640813	0	3	100	0	50	9.492085	-4.17167	-72.3854	
13:34:28	0	0	0	1.833247	-8.607549	0	3	100	0	50	9.504826	-4.18914	-72.45924	
13:34:30	0	0	0	1.692248	-9.685615	0	3	100	0	50	9.494882	-4.155988	-72.50352	
13:34:31	0	0	0	1.740708	-0.5772533	0	3	100	0	50	9.454351	-4.11093	-72.5605	
13:34:33	0	0	0	1.973098	6.297252	0	3	100	0	50	9.456199	-4.127026	-72.58879	
13:34:35	0	0	0	1.915342	1.433136	0	3	100	0	50	9.443901	-4.188874	-72.62285	
13:34:36	0	0	0	1.966614	3.305364	0	3	100	0	50	9.406533	-4.201157	-72.62819	
13:34:38	0	0	0	2.156464	9.068531	0	3	100	0	50	9.405515	-4.217648	-72.62095	
13:34:40	0	0	0	2.324384	12.21618	0	3	100	0	50	9.42434	-4.198444	-72.62335	
13:34:41	0	0	0	2.395548	5.356351	0	3	100	0	50	9.416784	-4.237093	-72.59528	
13:34:43	0	0	0	2.060634	-10.00925	0	3	100	0	50	9.415627	-4.232804	-72.62034	
13:34:45	0	0	0	1.665157	-19.32137	0	3	100	0	50	9.381158	-4.268354	-72.62603	
13:34:46	0	0	0	1.282859	-21.36121	0	3	100	0	50	9.401567	-4.294453	-72.55555	
13:34:48	0	0	0	1.927328	15.88252	0	3	100	0	50	9.392332	-4.300961	-72.49036	
13:34:50	0	0	0	2.334837	24.43724	0	3	100	0	50	9.41226	-4.258495	-72.43618	
13:34:51	0	0	0	2.239502	7.008664	0	3	100	0	50	9.397861	-4.203894	-72.41268	
13:34:53	0	0	0	2.116174	-1.137412	0	3	100	0	50	9.402272	-4.211036	-72.47643	
13:34:55	0	0	0	2.263576	3.582029	0	3	100	0	50	9.39585	-4.101961	-72.49493	
13:34:57	0	0	0	2.027975	-5.76057	0	3	100	0	50	9.402154	-4.126503	-72.56863	
13:34:58	0	0	0	2.157666	2.111026	0	3	100	0	50	9.387622	-4.150122	-72.59674	
13:35:00	0	0	0	1.997455	-4.810607	0	3	100	0	50	9.381879	-4.148697	-72.60106	
13:35:02	0	0	0	1.820171	-7.961669	0	3	100	0	50	9.428206	-4.161557	-72.60519	
13:35:03	0	0	0	1.908343	-1.222696	0	3	100	0	50	9.388762	-4.172546	-72.59084	
13:35:05	0	0	0	1.945169	-1.140919	0	3	100	0	50	9.497903	-4.198595	-72.62621	
13:35:07	0	0	0	1.951092	0.9849076	0	3	100	0	50	9.368698	-4.237535	-72.61749	
13:35:08	0	0	0	2.232455	10.83317	0	3	100	0	50	9.370962	-4.223561	-72.57843	
13:35:10	0	0	0	2.011316	-5.194323	0	3	100	0	50	9.374766	-4.230318	-72.51858	
13:35:12	0	0	0	1.960556	-4.293077	0	3	100	0	50	9.387751	-4.177752	-72.513	
13:35:13	0	0	0	2.169108	3.675785	0	3	100	0	50	9.397034	-4.201775	-72.50085	
13:35:15	0	0	0	2.133046	2.120256	0	3	100	0	50	9.367302	-4.268819	-72.51054	
13:35:17	0	0	0	2.353383	9.391099	0	3	100	0	50	9.358283	-4.269471	-72.47487	
13:35:18	0	0	0	2.02017	-8.636118	0	3	100	0	50	9.377007	-4.21498	-72.46246	
13:35:20	0	0	0	1.926467	-4.133889	0	3	100	0	50	9.374771	-4.284218	-72.50233	
13:35:22	0	0	0	1.955073	-2.010216	0	3	100	0	50	9.372591	-4.339201	-72.47003	
13:35:23	0	0	0	2.176481	6.759712	0	3	100	0	50	9.393559	-4.292361	-72.42773	
13:35:25	0	0	0	2.09604	-0.1108505	0	3	100	0	50	9.403144	-4.277607	-72.42477	
13:35:27	0	0	0	2.058313	-2.94142	0	3	100	0	50	9.407669	-4.289382	-72.39013	
13:35:29	0	0	0	2.255865	8.893797	0	3	100	0	50	9.388041	-4.298228	-72.35984	
13:35:30	0	0	0	2.116983	-3.721462	0	3	100	0	50	9.392082	-4.373466	-72.33017	
13:35:32	0	0	0	1.940573	-6.066269	0	3	100	0	50	9.382207	-4.354779	-72.29887	
13:35:34	0	0	0	1.88798	-3.861438	0	3	100	0	50	9.397223	-4.38097	-72.28986	
13:35:35	0	0	0	2.115135	5.128482	0	3	100	0	50	9.332468	-4.354659	-72.28686	
13:35:37	0	0	0	2.220377	6.924994	0	3	100	0	50	9.346532	-4.365824	-72.28432	
13:35:39	0	0	0	2.224434	5.944925	0	3	100	0	50	9.358968	-4.420367	-72.27829	
13:35:41	0	0	0	2.126224	1.311225	0	3	100	0	50	9.388791	-4.374229	-72.23631	
13:35:43	0	0	0	2.625664	13.47635	0	3	100	0	50	9.35423	-4.371143	-72.22743	
13:35:45	0	0	0	2.190312	-7.620694	0	3	100	0	50	9.352479	-4.382136	-72.22215	
13:35:46	0	0	0	1.909267	-13.33531	0	3	100	0	50	9.352308	-4.385596	-72.20722	
13:35:48	0	0	0	1.421365	-24.74219	0	3	100	0	50	9.371845	-4.29923	-72.18347	
13:35:50	0	0	0	1.362999	-9.864841	0	3	100	0	50	9.389027	-4.261238	-72.22698	
13:35:52	0	0	0	1.919582	15.21783	0	3	75	0	50	9.420107	-4.206228	-72.29149	
13:35:53	0	0	0	1.784665	2.652093	0	3	41	0	50	9.411877	-4.167631	-72.36662	
13:35:55	0	0	0	1.18494	-22.78277	0	3	43	0	50	9.37542	-4.165963	-72.39694	
13:35:57	0	0	0	1.099759	-10.58083	0	3	45	0	50	9.404968	-4.094973	-72.478	
13:35:58	0	0	0	1.818721	23.05218	0	3	46	0	50	9.479643	-4.066249	-72.58553	
13:36:00	0	0	0	2.159028	21.53315	0	3	48	0	50	9.439424	-4.031024	-72.66238	
13:36:02	0	0	0	2.233172	11.15152	0	3	50	0	50	9.422504	-4.02145	-72.74705	
13:36:03	0	0	0	2.049206	-3.556926	0	3	52	0	50	9.417595	-4.054564	-72.77064	
13:36:05	0	0	0	1.97341	-1.967376	0	3	54	0	50	9.389093	-4.104924	-72.80199	
13:36:07	0	0	0	1.935733	-2.949906	0	3	56	0	50	9.388716	-4.119157	-72.77222	
13:36:08	0	0	0	2.09719	4.230436	0	3	57	0	50	9.393031	-4.198665	-72.76151	
13:36:10	0	0	0	2.005631	-2.659159	0	3	59	0	50	9.356105	-4.209836	-72.6909	
13:36:12	0	0	0	1.845411	-5.048108	0	3	61	0	50	9.364581	-4.208737	-72.65617	
13:36:13	0	0	0	2.242907	13.82828	0	3	63	0	50	9.388345	-4.241149	-72.58895	
13:36:15	0	0	0	2.52215	14.77206	0	3	26	0	50	9.392756	-4.278425	-72.582	
13:36:17	0	0	0	1.83964	-18.98391	0	3	28	0	50	9.37991	-4.278402	-72.52331	
13:36:19	0	0	0	1.794259	-7.658533	0	3	29	0	50	9.367373	-4.211935	-72.48958	
13:36:20	0	0	0	2.091444	7.83673	0	3	31	0	50	9.401428	-4.170293	-72.49074	
