Date	Latitude(deg) 	Longitude(deg)	hamsl(m)	hafl(m)	climbrate(cm/s)	GroundSpeed(m/s)	Airspeed(m/s)	Mav_Link(%)	Rssi_Link(%)	Throttle	Roll(deg)	Pitch(deg)	Yaw(deg)
15:11:21	0	0	0	0	0	0	0	100	0	0	-0.1820781	1.117748	-124.2535	
15:11:21	0	0	0	0.2260408	-1.518543	0	3	100	0	50	-0.1931292	1.109481	-124.2383	
15:11:21	0	0	0	0.09391444	-11.29818	0	3	100	0	50	-0.1932167	1.103283	-124.2494	
15:11:22	0	0	0	-0.3093375	-34.26291	0	3	100	0	50	-0.1947828	1.121634	-124.1982	
15:11:22	0	0	0	-1.091394	-71.53864	0	3	100	0	50	-0.1988142	1.088265	-124.2161	
15:11:22	0	0	0	-1.28595	-77.16155	0	3	100	0	50	-0.2002617	1.088459	-124.232	
15:11:22	0	0	0	-1.264529	-70.69388	0	3	100	0	50	-0.2076733	1.081461	-124.1867	
15:11:23	0	0	0	-1.198611	-62.82909	0	3	100	0	50	-0.2189568	1.107556	-124.0832	
15:11:23	0	0	0	-1.090056	-53.94113	0	3	100	0	50	-0.2164691	1.102186	-124.1044	
15:11:23	0	0	0	-0.9704279	-45.01379	0	3	99	0	50	-0.221512	1.098939	-124.1363	
15:11:23	0	0	0	-0.7370095	-30.05662	0	3	99	0	50	-0.2204197	1.113685	-124.0514	
15:11:24	0	0	0	-0.6614726	-25.44145	0	3	99	0	50	-0.2112211	1.102217	-124.049	
15:11:24	0	0	0	-0.5862272	-20.88938	0	3	99	0	50	-0.2181888	1.105146	-124.0618	
15:11:24	0	0	0	-0.5264552	-17.91157	0	3	99	0	50	-0.22504	1.100699	-124.09	
15:11:24	0	0	0	-0.4729447	-15.79364	0	3	99	0	50	-0.2082452	1.089869	-124.067	
15:11:24	0	0	0	-0.5098881	-18.29996	0	3	99	0	50	-0.2172711	1.077526	-124.0028	
15:11:25	0	0	0	-0.5638656	-21.34908	0	3	99	0	50	-0.2161566	1.075327	-124.0159	
15:11:25	0	0	0	-0.5770489	-22.16115	0	3	99	0	50	-0.2205961	1.072993	-124.0221	
15:11:25	0	0	0	-0.5770489	-22.16115	0	3	98	0	50	-0.2088306	1.101809	-124.0521	
15:11:25	0	0	0	-0.5986609	-23.33498	0	3	98	0	50	-0.2170035	1.072616	-123.9651	
15:11:25	-6.795773	38.98492	66.352	-0.6144446	-23.98361	0.33	3	98	0	50	-0.2075129	1.073673	-123.8825	
15:11:26	-6.795767	38.9849	62.89	-0.6260931	-23.74713	2.16	3	98	0	50	-0.203224	1.065623	-123.9165	
15:11:26	-6.795765	38.98488	61.299	-0.6344484	-23.24342	1.32	3	98	0	50	-0.2034626	1.069777	-123.9455	
15:11:26	-6.795765	38.98489	61.848	-0.6434172	-23.14347	0.66	3	98	0	50	-0.2057487	1.066373	-123.8717	
15:11:26	-6.795763	38.98488	60.955	-0.6509339	-23.04385	0.57	3	97	0	50	-0.1906499	1.085495	-123.766	
15:11:27	-6.795762	38.98487	60.26	-0.6199446	-21.27477	0.16	3	97	0	50	-0.1880927	1.087255	-123.7941	
15:11:27	-6.79576	38.98486	59.102	-0.6167237	-20.83811	0.11	3	97	0	50	-0.1892804	1.107507	-123.8215	
15:11:27	-6.795759	38.98486	57.911	-0.6168435	-21.08234	0.11	3	97	0	50	-0.1795321	1.117604	-123.6564	
15:11:27	-6.795758	38.98485	56.776	-0.6261133	-21.4044	0.22	3	97	0	50	-0.1769299	1.127154	-123.6818	
15:11:27	-6.795755	38.98484	55.038	-0.6362971	-21.95076	0.17	3	97	0	50	-0.1771573	1.137228	-123.7202	
15:11:28	-6.795753	38.98483	54	-0.5878312	-19.138	0.26	3	97	0	50	-0.1730453	1.131491	-123.743	
15:11:28	-6.795751	38.98483	53.428	-0.5301834	-16.23458	0.29	3	97	0	50	-0.1752575	1.141992	-123.595	
15:11:28	-6.795751	38.98483	53.154	-0.4855753	-14.23576	0.06	3	97	0	50	-0.1684265	1.139673	-123.4877	
15:11:28	-6.79575	38.98482	52.972	-0.4488583	-12.52902	0.09	3	97	0	50	-0.1669825	1.133059	-123.5295	
15:11:29	-6.795749	38.98482	52.986	-0.4230919	-11.28082	0.12	3	98	0	50	-0.1710515	1.124633	-123.5762	
15:11:29	-6.795747	38.98482	52.303	-0.4037308	-10.98061	0.45	3	98	0	50	-0.1731029	1.095798	-123.5849	
15:11:29	-6.795747	38.98481	51.622	-0.359965	-9.185592	0.44	3	98	0	50	-0.1764597	1.090474	-123.439	
15:11:29	-6.795747	38.98482	51.929	-0.3105617	-7.487001	0.19	3	97	0	50	-0.1800761	1.078174	-123.5143	
15:11:30	-6.795746	38.98482	52.118	-0.2214956	-4.817739	0.39	3	97	0	50	-0.1814937	1.09557	-123.5424	
15:11:30	-6.795746	38.98482	52.198	-0.1758612	-2.974302	0.16	3	97	0	50	-0.1732428	1.098711	-123.3942	
15:11:30	-6.795745	38.98482	52.13	-0.1127302	-0.9265457	0.21	3	97	0	50	-0.1751581	1.108155	-123.3235	
15:11:30	-6.795745	38.98482	52.282	-0.03969708	1.718695	0.02	3	97	0	50	-0.180216	1.100569	-123.3565	
15:11:30	-6.795745	38.98482	52.134	0.04649828	4.483119	0.08	3	97	0	50	-0.1772734	1.104895	-123.3951	
15:11:31	-6.795744	38.98481	51.603	0.1254435	6.803213	0.25	3	97	0	50	-0.1750645	1.115424	-123.4437	
15:11:31	-6.795743	38.98481	50.709	0.1978922	8.548752	0.42	3	97	0	50	-0.1794765	1.1427	-123.4607	
15:11:31	-6.795742	38.9848	50.237	0.2592459	9.283188	0.28	3	97	0	50	-0.1869649	1.135947	-123.5147	
15:11:31	-6.795741	38.9848	50.217	0.3417	11.53831	0.29	3	97	0	50	-0.1882091	1.142711	-123.5561	
15:11:31	-6.795738	38.9848	49.303	0.3995222	12.06289	0.45	3	97	0	50	-0.1837819	1.132243	-123.5945	
15:11:32	-6.795737	38.98479	48.477	0.3990099	8.735147	0.26	3	97	0	50	-0.1823911	1.144033	-123.5239	
15:11:32	-6.795735	38.98479	47.953	0.3946086	5.768206	0.29	3	97	0	50	-0.179644	1.147478	-123.48	
15:11:32	-6.795733	38.98478	47.156	0.3934916	3.806896	0.13	3	97	0	50	-0.1721662	1.137484	-123.5244	
15:11:32	-6.795731	38.98478	46.532	0.3810287	1.519034	0.28	3	97	0	50	-0.1736171	1.13135	-123.5506	
15:11:32	-6.795731	38.98478	45.999	0.3551166	-1.275331	0.18	3	97	0	50	-0.192983	1.132666	-123.575	
15:11:33	-6.795727	38.98476	44.081	0.326324	-4.200879	0.18	3	97	0	50	-0.1859289	1.158125	-123.4617	
15:11:33	-6.795726	38.98476	43.245	0.2748826	-8.758299	0.16	3	97	0	50	-0.1892237	1.148457	-123.496	
15:11:33	-6.795725	38.98476	42.633	0.2706964	-9.285652	0.53	3	97	0	50	-0.2024314	1.148718	-123.5352	
15:11:33	-6.795724	38.98475	42.051	0.2666395	-9.917657	0.13	3	97	0	50	-0.2041892	1.152525	-123.4125	
15:11:34	-6.795722	38.98475	41.112	0.262238	-10.69171	0.14	3	97	0	50	-0.1913403	1.172021	-123.4239	
15:11:34	-6.795722	38.98474	40.348	0.2740165	-10.11674	0.25	3	97	0	50	-0.1971126	1.151365	-123.4697	
15:11:34	-6.795721	38.98474	39.69	0.3214723	-7.517	0.32	3	97	0	50	-0.1931157	1.151307	-123.5093	
15:11:34	-6.795719	38.98473	38.172	0.3642106	-6.081155	0.06	3	97	0	50	-0.1909618	1.170927	-123.463	
15:11:34	-6.795718	38.98472	37.142	0.380136	-6.111026	0.29	3	97	0	50	-0.1942977	1.164878	-123.4677	
15:11:35	-6.795718	38.98472	36.516	0.3872505	-6.74917	0.16	3	97	0	50	-0.1997835	1.181735	-123.5191	
15:11:35	-6.795717	38.98472	35.757	0.4008377	-6.53327	0.09	3	97	0	50	-0.1950164	1.189481	-123.564	
15:11:35	-6.795715	38.98471	35.197	0.4154449	-6.40354	0.18	3	97	0	50	-0.1928491	1.168549	-123.6122	
15:11:35	-6.795713	38.98471	34.356	0.3828229	-8.950924	0.25	3	97	0	50	-0.2000826	1.149297	-123.4782	
15:11:35	-6.795713	38.9847	33.327	0.3422045	-11.1867	0.35	3	97	0	50	-0.2092721	1.13545	-123.4139	
15:11:35	-6.795712	38.9847	32.659	0.2865425	-14.62186	0.39	3	97	0	50	-0.2148302	1.138357	-123.4247	
15:11:36	-6.795712	38.9847	31.693	0.2318122	-17.55594	0.64	3	97	0	50	-0.2177747	1.146044	-123.4806	
15:11:36	-6.795711	38.98469	30.659	0.1898493	-18.93193	0.56	3	97	0	50	-0.2205783	1.109483	-123.4401	
15:11:36	-6.795711	38.98468	29.74	0.1536725	-19.67187	0.04	3	97	0	50	-0.2186832	1.100985	-123.3819	
15:11:36	-6.795709	38.98468	28.952	0.1850123	-17.32489	0.04	3	97	0	50	-0.2285246	1.091819	-123.431	
15:11:37	-6.795708	38.98468	27.985	0.2282467	-14.80138	0.12	3	97	0	50	-0.2308714	1.069847	-123.4749	
15:11:37	-6.795706	38.98467	27.144	0.2688297	-12.69693	0.12	3	97	0	50	-0.2266469	1.060335	-123.5067	
15:11:37	-6.795705	38.98466	25.917	0.3110831	-10.29195	0.31	3	97	0	50	-0.2180061	1.074029	-123.293	
15:11:37	-6.795704	38.98466	24.987	0.3253939	-9.585826	0.34	3	97	0	50	-0.2123549	1.091622	-123.3302	
15:11:37	-6.795702	38.98465	23.636	0.3323047	-9.240099	0.39	3	97	0	50	-0.2139769	1.100986	-123.3763	
15:11:53	-6.795701	38.98464	22.724	0.3357153	-9.199004	0.24	3	97	0	50	-0.2237838	1.094747	-123.4026	
15:11:53	-6.795699	38.98464	21.405	0.3373393	-9.444567	0.35	3	97	0	50	-0.2343286	1.092308	-123.3419	
15:11:53	-6.795698	38.98463	20.387	0.3361449	-9.120648	0.28	3	97	0	50	-0.2382466	1.099514	-123.216	
15:11:54	-6.795697	38.98462	19.286	0.3340717	-9.804924	0.38	3	97	0	50	-0.2456194	1.094915	-123.2429	
15:11:54	-6.795696	38.98462	19.219	0.3365254	-10.09106	0.72	3	96	0	50	-0.2626622	1.091089	-123.3208	
15:11:54	-6.795694	38.98462	18.199	0.3397132	-9.911947	0.42	3	96	0	50	-0.2544472	1.102005	-123.3508	
15:11:54	-6.795693	38.98461	17.309	0.3581087	-9.239666	0.22	3	96	0	50	-0.2534136	1.08249	-123.3721	
15:11:54	-6.795692	38.98461	16.777	0.3783684	-8.168083	0.38	3	96	0	50	-0.2494589	1.083443	-123.4084	
15:11:54	-6.795691	38.9846	15.998	0.3908067	-7.718478	0.25	3	96	0	50	-0.2504959	1.095009	-123.4412	
15:11:55	-6.795691	38.9846	15.631	0.3803845	-8.639088	0.58	3	96	0	50	-0.2667938	1.091723	-123.4897	
15:11:55	-6.79569	38.9846	15.025	0.372689	-9.261384	0.56	3	96	0	50	-0.2659887	1.090498	-123.4292	
15:11:55	-6.79569	38.9846	15.095	0.375418	-9.144371	0.18	3	96	0	50	-0.2661372	1.106064	-123.3613	
15:11:55	-6.79569	38.9846	15.508	0.3692168	-9.464418	0.45	3	96	0	50	-0.2737057	1.100647	-123.4088	
15:11:55	-6.795689	38.9846	15.181	0.3509789	-10.70017	0.09	3	96	0	50	-0.2808062	1.093299	-123.4638	
15:11:55	-6.795689	38.9846	15.114	0.3466015	-10.55156	0.44	3	96	0	50	-0.2697498	1.097052	-123.4989	
15:11:56	-6.795689	38.9846	15.143	0.3601137	-9.870417	0.22	3	96	0	50	-0.2637066	1.104949	-123.4228	
15:11:56	-6.795728	38.98481	48.374	0.3601137	-9.870417	0.25	3	86	0	50	-0.2843252	1.083043	-123.2905	
15:11:56	-6.795729	38.98481	48.602	-0.01545919	-4.796011	0.37	3	86	0	50	-0.2867984	1.09388	-123.3576	
15:11:56	-6.795729	38.98481	48.952	-0.00893166	-4.038474	0.36	3	86	0	50	-0.279576	1.09776	-123.3602	
15:11:56	-6.795731	38.98482	49.724	-0.02599853	-5.017073	0.31	3	86	0	50	-0.2732131	1.097926	-123.3356	
15:11:56	-6.795732	38.98483	50.883	-0.04668843	-5.557582	0.29	3	86	0	50	-0.2754083	1.089555	-123.3768	
15:11:56	-6.795733	38.98483	51.614	-0.002531851	-3.140264	0.13	3	86	0	50	-0.2775339	1.085029	-123.4014	
15:11:57	-6.795735	38.98484	53.288	0.06144678	0.3267369	0.45	3	86	0	50	-0.271147	1.08914	-123.4101	
15:11:57	-6.795736	38.98484	53.868	0.1017386	1.622353	0.04	3	86	0	50	-0.2748562	1.094538	-123.3718	
15:11:57	-6.795748	38.9849	63.802	0.1191518	2.165692	1.44	3	86	0	50	-0.2734007	1.094116	-123.4279	
15:11:57	-6.795756	38.98494	70.399	0.138617	2.360039	0.58	3	86	0	50	-0.2656772	1.101676	-123.4807	
15:11:57	-6.795763	38.98497	75.185	0.167245	3.017791	0.42	3	86	0	50	-0.2616475	1.08778	-123.3964	
15:11:57	-6.795767	38.98499	79.107	0.1953134	4.056841	0.55	3	86	0	50	-0.2634642	1.109464	-123.3554	
15:11:58	-6.795773	38.98501	83.198	0.201704	4.139479	0.29	3	86	0	50	-0.2683539	1.109041	-123.3969	
15:11:58	-6.795776	38.98503	86.694	0.2016359	3.006566	0.17	3	87	0	50	-0.2670838	1.098022	-123.4366	
15:11:58	-6.79578	38.98505	90.003	0.2095404	2.599424	0.24	3	87	0	50	-0.2722443	1.096879	-123.4821	
15:11:58	-6.795784	38.98507	92.955	0.2191569	2.653883	0.52	3	87	0	50	-0.2718649	1.096675	-123.3206	
15:11:58	-6.795786	38.98508	95.33	0.2261765	2.232663	0.29	3	87	0	50	-0.2801068	1.088176	-123.3505	
15:11:58	-6.795793	38.98511	100.303	0.2306753	2.165281	0.14	3	87	0	50	-0.2765363	1.083371	-123.4585	
15:11:59	-6.795795	38.98512	102.381	0.1878505	-1.761423	0.08	3	87	0	50	-0.2765653	1.067814	-123.354	
15:11:59	-6.795797	38.98513	103.811	0.1885525	-1.634921	0.02	3	87	0	50	-0.2750247	1.081182	-123.2852	
15:11:59	-6.795798	38.98514	105.64	0.1952839	-1.730145	0.41	3	87	0	50	-0.2941624	1.100907	-123.3876	
15:11:59	-6.795799	38.98515	106.496	0.1988384	-2.092549	0.17	3	87	0	50	-0.2939129	1.100422	-123.4263	
15:11:59	-6.7958	38.98515	106.986	0.2059322	-1.607902	0.14	3	87	0	50	-0.2959614	1.111142	-123.4018	
15:11:59	-6.795801	38.98515	107.819	0.2151648	-1.84166	0.29	3	87	0	50	-0.292691	1.132721	-123.4555	
15:12:00	-6.795803	38.98516	108.684	0.214559	-1.750785	0.19	3	87	0	50	-0.3005214	1.140251	-123.4998	
15:12:00	-6.795803	38.98516	109.286	0.1984052	-2.793343	0.21	3	87	0	50	-0.3017909	1.13698	-123.5544	
15:12:00	-6.795804	38.98516	109.508	0.186315	-2.760983	0.41	3	87	0	50	-0.2986961	1.126985	-123.4099	
15:12:00	-6.795805	38.98517	110.012	0.189324	-2.291172	0.31	3	87	0	50	-0.2974109	1.166261	-123.4121	
15:12:00	-6.795805	38.98517	110.551	0.176648	-3.439009	0.04	3	87	0	50	-0.2957339	1.177215	-123.4386	
15:12:00	-6.795806	38.98517	110.889	0.1436102	-5.252013	0.34	3	88	0	50	-0.2689337	1.191318	-123.5095	
15:12:01	-6.795807	38.98517	110.989	0.1306594	-5.615764	0.57	3	88	0	50	-0.2710254	1.217251	-123.5141	
15:12:01	-6.795807	38.98518	111.31	0.1433579	-4.56053	0.64	3	88	0	50	-0.2688014	1.230119	-123.4078	
15:12:01	-6.795807	38.98518	111.39	0.151367	-4.539614	0.18	3	88	0	50	-0.2632418	1.248432	-123.4369	
15:12:01	-6.795808	38.98518	111.546	0.1514567	-4.433673	0.22	3	88	0	50	-0.2534193	1.252235	-123.5032	
15:12:01	-6.795808	38.98518	111.81	0.1396628	-4.953505	0.5	3	88	0	50	-0.2512528	1.260004	-123.5577	
15:12:01	-6.795809	38.98518	112.098	0.08411858	-6.977533	0.45	3	88	0	50	-0.2483109	1.229562	-123.4616	
15:12:02	-6.795809	38.98518	112.444	0.03794669	-9.131125	0.55	3	88	0	50	-0.2583901	1.218265	-123.427	
15:12:02	-6.79581	38.98518	112.56	0.00428256	-10.31204	0.39	3	88	0	50	-0.2540748	1.213517	-123.4765	
15:12:02	-6.79581	38.98518	112.879	-0.004361562	-10.15532	0.42	3	88	0	50	-0.2547588	1.211286	-123.5293	
15:12:02	-6.795811	38.98518	113.287	0.01437167	-8.245061	0.18	3	88	0	50	-0.2552736	1.211249	-123.5488	
15:12:02	-6.795811	38.98518	113.295	0.04759992	-5.834925	0.13	3	88	0	50	-0.2535301	1.197158	-123.4257	
15:12:02	-6.795811	38.98518	113.293	0.09813182	-3.346239	0.36	3	88	0	50	-0.2543246	1.173732	-123.4665	
15:12:02	-6.795812	38.98519	113.46	0.1323121	-1.150964	0.57	3	88	0	50	-0.2531716	1.163539	-123.5203	
15:12:03	-6.795813	38.98519	113.551	0.1363255	-1.056967	0.13	3	88	0	50	-0.2403589	1.170784	-123.5794	
15:12:03	-6.795813	38.98519	113.661	0.1359334	-1.119958	0.03	3	88	0	50	-0.2405941	1.174137	-123.5154	
15:12:03	-6.795814	38.98519	113.779	0.1186876	-1.840735	0.07	3	88	0	50	-0.2394229	1.185866	-123.517	
15:12:03	-6.795815	38.98519	113.98	0.1111151	-2.142246	0.45	3	89	0	50	-0.2343952	1.188997	-123.5674	
15:12:03	-6.795815	38.98519	114.326	0.1183775	-2.123709	0.09	3	89	0	50	-0.2174686	1.208304	-123.6254	
15:12:04	-6.795816	38.98519	114.288	0.1247967	-1.485021	0.39	3	89	0	50	-0.2157798	1.213638	-123.5917	
15:12:04	-6.795816	38.98519	114.386	0.1661192	0.7786214	0.66	3	89	0	50	-0.2065842	1.221061	-123.5063	
15:12:04	-6.795817	38.9852	114.659	0.2119959	2.668458	0.11	3	89	0	50	-0.1988094	1.212649	-123.5086	
15:12:04	-6.795817	38.9852	114.802	0.2513305	4.369149	0.56	3	89	0	50	-0.2189246	1.207824	-123.5557	
15:12:04	-6.795817	38.9852	114.791	0.2914385	5.90195	0.22	3	89	0	50	-0.2151652	1.220907	-123.6024	
15:12:05	-6.795817	38.9852	115.047	0.2838127	4.852001	0.72	3	89	0	50	-0.2118635	1.209508	-123.4799	
15:12:05	-6.795817	38.9852	115.453	0.2655612	3.29709	0.24	3	89	0	50	-0.211798	1.212206	-123.4312	
15:12:05	-6.795818	38.9852	115.75	0.2515687	1.826172	0.14	3	89	0	50	-0.2079195	1.197958	-123.4919	
15:12:05	-6.795818	38.9852	115.915	0.2370606	0.2368044	0.42	3	89	0	50	-0.2139529	1.18771	-123.5397	
15:12:05	-6.795819	38.9852	116.205	0.235988	-0.1064775	0.14	3	89	0	50	-0.2129953	1.202432	-123.4497	
15:12:06	-6.79582	38.9852	116.401	0.2374172	-0.3601756	0.33	3	89	0	50	-0.2056827	1.197555	-123.3922	
15:12:06	-6.795821	38.9852	116.557	0.2650902	1.075982	0.08	3	90	0	50	-0.2126927	1.178159	-123.3929	
15:12:06	-6.795821	38.9852	116.701	0.2960103	1.956038	0.12	3	90	0	50	-0.2161642	1.176418	-123.4356	
15:12:06	-6.795822	38.98521	116.772	0.3221395	2.748119	0.39	3	90	0	50	-0.2211588	1.183772	-123.4837	
15:12:06	-6.795823	38.98521	117.09	0.3481783	3.547233	0.18	3	90	0	50	-0.2095705	1.188753	-123.3547	
15:12:07	-6.795823	38.98521	117.292	0.3445906	3.101876	0.19	3	90	0	50	-0.2158543	1.186857	-123.3935	
15:12:07	-6.795823	38.98521	117.403	0.3338538	2.133348	0.07	3	90	0	50	-0.2283665	1.175657	-123.4562	
15:12:07	-6.795824	38.98521	117.596	0.3121574	0.3863966	0.35	3	90	0	50	-0.2197313	1.18954	-123.5191	
15:12:07	-6.795825	38.98521	117.819	0.2857569	-0.9745667	0.26	3	90	0	50	-0.212489	1.154432	-123.4	
15:12:08	-6.795825	38.98521	117.939	0.1571523	-7.403159	0.7	3	90	0	50	-0.2110802	1.160754	-123.4624	
15:12:08	-6.795825	38.98521	118.165	0.09967328	-8.979086	0.52	3	90	0	50	-0.2136657	1.16983	-123.5222	
15:12:08	-6.795825	38.98521	118.148	0.03790881	-11.3603	0.44	3	90	0	50	-0.213186	1.178297	-123.5461	
15:12:08	-6.795825	38.98521	118.205	0.01103637	-12.55322	0.24	3	90	0	50	-0.2118606	1.173917	-123.3483	
15:12:08	-6.795826	38.98522	118.517	-0.01339605	-13.42339	0.28	3	90	0	50	-0.2197627	1.17125	-123.3655	
15:12:09	-6.795827	38.98522	118.888	-0.02472114	-13.11993	0.22	3	90	0	50	-0.2256495	1.16258	-123.4181	
15:12:09	-6.795828	38.98522	119.006	0.003047033	-10.53472	0.08	3	90	0	50	-0.2376742	1.145282	-123.4656	
15:12:09	-6.795829	38.98522	119.156	0.0350178	-7.463764	0.22	3	91	0	50	-0.2378964	1.147024	-123.4562	
15:12:09	-6.79583	38.98522	119.397	0.08659214	-4.09485	0.37	3	90	0	50	-0.2477254	1.162144	-123.2143	
15:12:09	-6.79583	38.98523	119.536	0.1134625	-2.808206	0.17	3	90	0	50	-0.2515993	1.131046	-123.2493	
15:12:10	-6.795831	38.98523	119.752	0.1135982	-2.789252	0.11	3	90	0	50	-0.2555677	1.123279	-123.3043	
15:12:10	-6.795831	38.98523	119.92	0.1041655	-3.009051	0.41	3	90	0	50	-0.2467769	1.139373	-123.2824	
15:12:10	-6.795832	38.98523	120.131	0.08213954	-3.591417	0.47	3	91	0	50	-0.2431312	1.149067	-123.2462	
15:12:10	-6.795833	38.98523	120.497	0.05567921	-4.996285	0.31	3	91	0	50	-0.2599663	1.145483	-123.308	
15:12:10	-6.795834	38.98523	120.683	-0.003979187	-7.542866	0.19	3	91	0	50	-0.2664144	1.144176	-123.3382	
15:12:11	-6.795834	38.98524	120.913	-0.04736092	-8.808527	0.24	3	91	0	50	-0.2751783	1.143515	-123.4429	
15:12:11	-6.795834	38.98524	120.891	-0.05343916	-8.823441	0.13	3	91	0	50	-0.2848133	1.107768	-123.3466	
15:12:11	-6.795834	38.98524	121.012	-0.05762772	-8.336507	0.17	3	91	0	50	-0.2759411	1.109879	-123.3634	
15:12:11	-6.795835	38.98524	121.263	-0.05741867	-7.441571	0.17	3	91	0	50	-0.2684363	1.09274	-123.405	
15:12:11	-6.795835	38.98524	121.369	-0.05543228	-6.311028	0.52	3	91	0	50	-0.2590578	1.083645	-123.4551	
15:12:12	-6.795835	38.98524	121.519	-0.0512002	-5.549695	0.55	3	91	0	50	-0.2592148	1.102159	-123.4727	
15:12:12	-6.795836	38.98524	121.643	-0.03689739	-4.608827	0.35	3	91	0	50	-0.2589713	1.112615	-123.4111	
15:12:12	-6.795837	38.98524	121.841	-0.01117302	-3.158861	0.17	3	91	0	50	-0.2644288	1.092653	-123.4528	
15:12:12	-6.795837	38.98524	122.052	0.001164749	-2.764577	0.17	3	91	0	50	-0.262575	1.07987	-123.5077	
15:12:12	-6.795837	38.98524	122.238	-0.01727761	-4.061039	0.08	3	91	0	50	-0.2627308	1.079392	-123.5549	
15:12:13	-6.795837	38.98524	122.355	-0.03817171	-4.697992	0.42	3	91	0	50	-0.2620097	1.078645	-123.4401	
15:12:13	-6.795838	38.98525	122.67	-0.07312284	-5.785208	0.25	3	91	0	50	-0.2672929	1.07884	-123.4616	
15:12:13	-6.795838	38.98525	122.591	-0.1043721	-7.077552	0.36	3	91	0	50	-0.2820444	1.069158	-123.5219	
15:12:13	-6.795839	38.98525	122.937	-0.1240513	-7.968129	0.09	3	91	0	50	-0.2757261	1.086124	-123.5466	
15:12:14	-6.795839	38.98525	122.873	-0.1897541	-10.2226	0.16	3	91	0	50	-0.2839736	1.075593	-123.5351	
15:12:14	-6.79584	38.98525	122.858	-0.2351562	-12.03966	0.18	3	91	0	50	-0.2975231	1.073712	-123.5737	
15:12:14	-6.79584	38.98525	122.922	-0.2417593	-11.39993	0.26	3	91	0	50	-0.2996657	1.074719	-123.6143	
15:12:14	-6.795841	38.98525	123.045	-0.230121	-9.564565	0.09	3	91	0	50	-0.2976367	1.055545	-123.623	
15:12:14	-6.795841	38.98525	123.192	-0.2075406	-7.680358	0.18	3	91	0	50	-0.291366	1.079118	-123.5042	
15:12:15	-6.795841	38.98526	123.344	-0.1834903	-5.744919	0.25	3	91	0	50	-0.2925337	1.084885	-123.5205	
15:12:15	-6.795841	38.98525	123.277	-0.144191	-3.300627	0.09	3	91	0	50	-0.3048906	1.09428	-123.5663	
15:12:15	-6.795841	38.98525	123.279	-0.1005153	-0.7068785	0.09	3	91	0	50	-0.3030896	1.079138	-123.6051	
15:12:15	-6.795842	38.98526	123.302	-0.05210962	1.994535	0.24	3	92	0	50	-0.3113516	1.062445	-123.5521	
15:12:15	-6.795842	38.98526	123.325	-0.005345341	4.38605	0.04	3	92	0	50	-0.309234	1.062459	-123.4635	
15:12:16	-6.795842	38.98526	123.51	0.077076	7.686876	0.38	3	92	0	50	-0.3070844	1.04366	-123.5121	
15:12:16	-6.795842	38.98526	123.721	0.1515669	10.383	0.52	3	92	0	50	-0.3105971	1.029824	-123.5557	
15:12:16	-6.795842	38.98526	123.828	0.2301172	13.47373	0.19	3	92	0	50	-0.3199459	1.038779	-123.5934	
15:12:16	-6.795841	38.98526	123.813	0.3020844	15.84062	0.22	3	92	0	50	-0.307204	1.058059	-123.4594	
15:12:17	-6.79584	38.98526	123.453	0.3794037	18.04354	0.24	3	92	0	50	-0.3042015	1.041051	-123.4844	
15:12:17	-6.79584	38.98526	123.202	0.4486868	19.97534	0.16	3	91	0	50	-0.3000382	1.059909	-123.5696	
15:12:17	-6.795839	38.98526	123.184	0.6000116	23.65921	0.26	3	92	0	50	-0.2805783	1.061981	-123.5005	
15:12:17	-6.795839	38.98526	123.321	0.6384259	23.44314	0.04	3	92	0	50	-0.2799563	1.044903	-123.4785	
15:12:17	-6.795839	38.98526	123.338	0.6594605	22.37189	0.51	3	92	0	50	-0.2733956	1.046134	-123.523	
15:12:18	-6.79584	38.98526	123.473	0.6437454	19.49995	0.34	3	92	0	50	-0.2726711	1.047222	-123.5531	
15:12:18	-6.795839	38.98526	123.603	0.6132987	15.49046	0.09	3	92	0	50	-0.2665235	1.039915	-123.5894	
15:12:18	-6.79584	38.98526	123.905	0.5995079	13.51653	0.31	3	92	0	50	-0.2611437	1.049346	-123.4009	
15:12:18	-6.79584	38.98526	123.817	0.5917167	11.95512	0.08	3	92	0	50	-0.2589033	1.034895	-123.4247	
15:12:18	-6.79584	38.98526	124	0.5937234	11.02248	0.11	3	92	0	50	-0.2740859	1.034191	-123.4711	
15:12:19	-6.79584	38.98526	123.914	0.6329994	11.45684	0.14	3	92	0	50	-0.2749971	1.018625	-123.5222	
15:12:19	-6.795839	38.98526	123.859	0.6774285	11.74811	0.29	3	92	0	50	-0.2692699	1.022224	-123.5145	
15:12:19	-6.795839	38.98526	123.759	0.7316242	13.26697	0.39	3	92	0	50	-0.2652194	1.02389	-123.4413	
15:12:19	-6.79584	38.98526	123.905	0.7487178	12.76278	0.29	3	92	0	50	-0.2591519	1.036333	-123.4717	
15:12:19	-6.795839	38.98526	123.924	0.7204297	9.787253	0.09	3	92	0	50	-0.255681	1.057498	-123.5094	
15:12:20	-6.79584	38.98526	123.964	0.6724915	6.030378	0.51	3	92	0	50	-0.2593823	1.060369	-123.4406	
15:12:20	-6.79584	38.98526	124.226	0.6063828	1.802308	0.21	3	92	0	50	-0.2541848	1.056409	-123.4065	
15:12:20	-6.79584	38.98526	124.398	0.551233	-1.521533	0.03	3	92	0	50	-0.2483851	1.057292	-123.3641	
15:12:20	-6.79584	38.98527	124.671	0.5507179	-1.333796	0.08	3	92	0	50	-0.2390749	1.062237	-123.4037	
15:12:20	-6.79584	38.98527	124.795	0.5625773	-0.4495503	0.51	3	92	0	50	-0.2374373	1.047444	-123.4559	
15:12:21	-6.79584	38.98527	124.916	0.6170928	2.238343	0.39	3	92	0	50	-0.2296593	1.050411	-123.3313	
15:12:21	-6.795839	38.98527	125.061	0.6673942	3.979069	0.31	3	93	0	50	-0.2234183	1.041752	-123.3686	
15:12:21	-6.795839	38.98527	125.108	0.7227315	6.042476	0.17	3	93	0	50	-0.2237563	1.052818	-123.4015	
15:12:21	-6.795839	38.98527	125.174	0.7464008	6.342706	0.28	3	93	0	50	-0.2338544	1.063164	-123.4523	
15:12:22	-6.79584	38.98527	125.176	0.7217183	4.358171	0.76	3	93	0	50	-0.2297618	1.072669	-123.4816	
15:12:22	-6.79584	38.98527	125.112	0.7088139	3.75024	0.21	3	93	0	50	-0.2414748	1.064287	-123.5026	
15:12:22	-6.79584	38.98527	125.241	0.7109038	3.619517	0.38	3	93	0	50	-0.2362895	1.071523	-123.5399	
15:12:22	-6.795839	38.98527	125.109	0.7086976	2.998605	0.26	3	93	0	50	-0.2320968	1.06735	-123.5731	
15:12:22	-6.795839	38.98527	125.239	0.690717	1.386767	0.56	3	93	0	50	-0.2229208	1.069361	-123.6134	
15:12:23	-6.795838	38.98527	125.401	0.6689953	0.2814544	0.13	3	93	0	50	-0.2269551	1.077816	-123.4877	
15:12:23	-6.795838	38.98527	125.276	0.631364	-1.433507	0.17	3	93	0	50	-0.2202457	1.099285	-123.5008	
15:12:23	-6.795838	38.98527	125.208	0.600687	-2.778744	0.47	3	93	0	50	-0.2123244	1.09498	-123.541	
15:12:23	-6.795838	38.98527	125.276	0.5886165	-3.824367	0.28	3	93	0	50	-0.2056606	1.110474	-123.5704	
15:12:23	-6.795839	38.98528	125.271	0.5775041	-4.159957	0.48	3	93	0	50	-0.200287	1.109053	-123.59	
15:12:24	-6.795838	38.98528	125.111	0.539641	-5.233844	0.12	3	93	0	50	-0.1936315	1.099873	-123.5082	
15:12:24	-6.795838	38.98528	125.171	0.5001292	-6.773242	0.36	3	93	0	50	-0.2082971	1.098041	-123.5481	
15:12:24	-6.795838	38.98528	125.232	0.4915456	-6.379718	0.35	3	93	0	50	-0.2026782	1.1099	-123.5733	
15:12:24	-6.795837	38.98528	125.286	0.4907021	-6.118915	0.11	3	93	0	50	-0.2034998	1.10896	-123.6081	
15:12:24	-6.795837	38.98527	125.185	0.5226342	-3.641164	0.31	3	94	0	50	-0.2010803	1.106578	-123.5816	
15:12:25	-6.795837	38.98527	125.068	0.5596763	-1.939186	0.5	3	94	0	50	-0.2082868	1.11408	-123.5395	
15:12:25	-6.795837	38.98527	124.78	0.5803227	-1.254228	0.07	3	94	0	50	-0.2187297	1.109499	-123.5883	
15:12:25	-6.795837	38.98527	124.559	0.5969762	-0.2588673	0.22	3	94	0	50	-0.2188291	1.11632	-123.6356	
15:12:25	-6.795837	38.98527	124.49	0.603327	-0.09359807	0.07	3	94	0	50	-0.2159531	1.128323	-123.5349	
15:12:25	-6.795836	38.98527	124.429	0.606597	-0.2983025	0.14	3	94	0	50	-0.212096	1.127442	-123.4388	
15:12:26	-6.795836	38.98527	124.479	0.5763028	-1.719151	0.18	3	94	0	50	-0.2075837	1.116856	-123.469	
15:12:26	-6.795836	38.98527	124.324	0.5455592	-3.340558	0.45	3	94	0	50	-0.2097741	1.120142	-123.5165	
15:12:26	-6.795837	38.98527	124.281	0.5324052	-3.276622	0.08	3	94	0	50	-0.2182774	1.132801	-123.5343	
15:12:26	-6.795837	38.98527	124.146	0.5235702	-3.289225	0.13	3	94	0	50	-0.2170809	1.157368	-123.3772	
15:12:26	-6.795837	38.98527	124.071	0.490396	-4.521383	0.14	3	94	0	50	-0.2254096	1.14341	-123.3563	
15:12:27	-6.795837	38.98527	124.028	0.4503007	-6.026317	0.14	3	94	0	50	-0.2281004	1.129749	-123.4085	
15:12:27	-6.795837	38.98527	124.069	0.393659	-8.488901	0.09	3	94	0	50	-0.2400908	1.137409	-123.48	
15:12:27	-6.795837	38.98527	124.042	0.3331241	-10.2393	0.09	3	94	0	50	-0.2355965	1.151027	-123.4257	
15:12:27	-6.795837	38.98527	123.787	0.2763527	-12.30919	0.22	3	94	0	50	-0.2325916	1.133168	-123.3648	
15:12:27	-6.795836	38.98527	123.648	0.211204	-14.52659	0.55	3	94	0	50	-0.2153129	1.13974	-123.4106	
15:12:28	-6.795836	38.98527	123.762	0.1311504	-16.44342	0.11	3	94	0	50	-0.2155928	1.141615	-123.4642	
15:12:28	-6.795836	38.98527	123.77	0.05428215	-19.1891	0.21	3	94	0	50	-0.2253184	1.124561	-123.5097	
15:12:28	-6.795836	38.98527	123.765	-0.01362691	-21.43988	0.57	3	94	0	50	-0.233387	1.135903	-123.4301	
15:12:28	-6.795836	38.98527	123.747	-0.08536537	-22.80235	0.29	3	94	0	50	-0.2416573	1.130997	-123.4563	
15:12:28	-6.795836	38.98527	123.887	-0.1403342	-24.06249	0.14	3	94	0	50	-0.2461904	1.142684	-123.5021	
15:12:28	-6.795837	38.98527	124.012	-0.2104637	-25.19763	0.44	3	94	0	50	-0.2474637	1.113823	-123.5418	
15:12:29	-6.795837	38.98527	123.926	-0.2590449	-25.52515	0.21	3	94	0	50	-0.2393212	1.123275	-123.4679	
15:12:29	-6.795836	38.98527	123.79	-0.2614854	-23.24112	0.16	3	94	0	50	-0.2360541	1.122559	-123.3381	
15:12:29	-6.795835	38.98527	123.738	-0.259776	-20.66372	0.51	3	94	0	50	-0.2346339	1.125763	-123.3089	
15:12:29	-6.795835	38.98527	123.704	-0.2559515	-18.65598	0.29	3	93	0	50	-0.2323024	1.107506	-123.4034	
15:12:30	-6.795836	38.98527	123.788	-0.2748865	-16.36819	0.29	3	93	0	50	-0.2283149	1.092946	-123.2772	
15:12:30	-6.795836	38.98527	123.9	-0.2876044	-15.35996	0.29	3	94	0	50	-0.2234614	1.093021	-123.3163	
15:12:30	-6.795835	38.98527	123.648	-0.3093252	-14.9708	0.31	3	94	0	50	-0.2171192	1.088342	-123.3845	
15:12:30	-6.795835	38.98527	123.669	-0.3248572	-13.82751	0.41	3	94	0	50	-0.2027503	1.09002	-123.4406	
15:12:31	-6.795836	38.98527	123.679	-0.3321459	-12.8437	0.47	3	94	0	50	-0.2043853	1.110765	-123.3123	
15:12:31	-6.795836	38.98527	123.701	-0.3080748	-10.88162	0.09	3	94	0	50	-1.325656	1.066041	-123.3697	
15:12:31	-6.795836	38.98527	123.66	-0.1623169	-2.599227	0.39	3	94	0	50	5.704061	0.9261261	-123.226	
15:12:31	-6.795836	38.98527	123.758	-0.03968997	4.468144	0.29	3	94	0	50	11.44072	0.8890099	-123.0779	
15:12:31	-6.795835	38.98527	123.573	0.07653265	10.79273	0.25	3	94	0	50	-5.048933	0.824739	-122.7602	
15:12:32	-6.795835	38.98527	123.619	0.1192406	11.63738	0.08	3	94	0	50	-0.04002741	0.8101779	-122.9923	
15:12:32	-6.795835	38.98527	123.755	0.06324318	6.701416	0.24	3	94	0	50	14.82916	0.4186002	-122.4023	
15:12:32	-6.795835	38.98527	123.93	-0.01163758	3.114045	0.39	3	94	0	50	-2.777713	0.6135079	-122.2207	
15:12:32	-6.795835	38.98527	123.911	-0.1910034	-5.956758	0.14	3	94	0	50	-1.643902	0.6601583	-122.6235	
15:12:32	-6.795835	38.98527	124.032	-0.364638	-16.6366	0.17	3	94	0	50	15.51097	0.1666806	-121.9339	
15:12:33	-6.795835	38.98527	123.935	-0.5502026	-25.56289	0.07	3	94	0	50	16.38847	0.09463138	-121.6297	
15:12:33	-6.795834	38.98527	123.905	-0.7104663	-30.99388	0.68	3	94	0	50	-3.744658	0.3551736	-121.4538	
15:12:33	-6.795834	38.98527	124.227	-0.8467848	-35.15077	0.48	3	94	0	50	1.374029	0.5555922	-121.5078	
15:12:33	-6.795834	38.98527	124.023	-0.9504985	-35.57833	0.5	3	94	0	50	-0.8020936	0.6370704	-121.4911	
15:12:33	-6.795833	38.98527	123.752	-0.9370735	-31.67499	0.33	3	94	0	50	-0.07593435	0.6318307	-121.464	
15:12:34	-6.795833	38.98527	123.662	-0.906781	-26.25356	0.25	3	94	0	50	1.317896	0.6177378	-121.4987	
15:12:34	-6.795833	38.98527	123.742	-0.860014	-21.91499	0.19	3	94	0	50	6.140845	0.6186258	-121.3805	
15:12:34	-6.795833	38.98527	123.62	-0.8022028	-16.69587	0.04	3	94	0	50	-2.56086	0.6632046	-121.5021	
15:12:34	-6.795832	38.98526	123.468	-0.6963611	-9.4807	0.18	3	94	0	50	0.8777227	0.6954461	-121.3847	
15:12:34	-6.795831	38.98526	123.346	-0.5849198	-1.256025	0.11	3	94	0	50	-2.382871	0.6559973	-121.5649	
15:12:35	-6.795831	38.98526	123.346	-0.4591829	5.85453	0.11	3	94	0	50	7.565788	0.5894937	-121.4674	
15:12:35	-6.79583	38.98526	123.277	-0.3310997	12.69847	0.91	3	94	0	50	3.56735	0.5930077	-121.2712	
15:12:35	-6.795829	38.98526	123.259	-0.2164187	18.35543	0.06	3	94	0	50	-9.900714	0.6668194	-121.803	
15:12:35	-6.79583	38.98526	123.484	-0.09636087	21.25415	0.29	3	94	0	50	10.5528	0.486008	-121.7983	
15:12:36	-6.795828	38.98526	123.074	0.02238321	27.57452	0.14	3	94	0	50	-7.442273	0.4320163	-122.0597	
15:12:36	-6.795827	38.98526	122.878	0.2037572	27.93982	0.17	3	94	0	50	13.88624	0.1245566	-121.9729	
15:12:36	-6.795827	38.98526	122.649	0.2574879	29.01398	0.52	3	94	0	50	-4.22037	0.3275824	-121.7488	
15:12:36	-6.795827	38.98526	122.768	0.3642336	30.07862	0.14	3	94	0	50	0.08592694	0.3184386	-121.8011	
15:12:36	-6.795827	38.98526	122.753	0.4692839	32.89944	0.28	3	94	0	50	4.313498	0.1630483	-121.6002	
15:12:37	-6.795826	38.98526	122.602	0.5713214	36.15514	0.22	3	94	0	50	-3.830769	0.2784581	-121.7831	
15:12:37	-6.795826	38.98526	122.644	0.6601328	37.06105	0.17	3	94	0	50	8.552407	0.1172206	-121.4778	
15:12:37	-6.795825	38.98526	122.488	0.6909454	34.59274	0.66	3	94	0	50	4.946432	0.1377119	-121.0991	
15:12:37	-6.795825	38.98525	122.289	0.7020528	32.65523	0.17	3	94	0	50	-6.253977	0.1069588	-121.5239	
15:12:37	-6.795824	38.98525	122.431	0.6991403	27.53622	0.26	3	94	0	50	12.74869	0.05067484	-121.3311	
15:12:38	-6.795824	38.98525	122.196	0.686618	25.08337	0.52	3	94	0	50	2.817138	0.1107915	-120.6656	
15:12:38	-6.795823	38.98524	121.617	0.7139351	24.46066	0.65	3	94	0	50	-6.900384	0.1756828	-120.9092	
15:12:38	-6.795823	38.98524	121.461	0.7503471	22.5394	0.26	3	94	0	50	19.78301	-0.4287748	-120.521	
15:12:38	-6.795823	38.98524	121.287	0.7734864	22.81615	0.22	3	94	0	50	2.16139	0.04875109	-119.8834	
15:12:38	-6.795822	38.98524	121.248	0.7753516	21.88323	0.16	3	94	0	50	-8.614138	-0.1012613	-120.7484	
15:12:39	-6.79582	38.98524	121.106	0.776118	17.28358	0.33	3	93	0	50	-0.3144171	-0.2189252	-119.6233	
15:12:39	-6.795819	38.98524	121.194	0.7880453	10.82219	0.39	3	94	0	50	2.689028	-0.3048962	-119.5311	
15:12:39	-6.795819	38.98524	121.274	0.7833668	10.558	0.25	3	94	0	50	1.342943	-0.3023165	-119.4051	
15:12:40	-6.795819	38.98524	121.298	0.7674792	7.906292	0.34	3	94	0	50	5.988802	-0.5163624	-119.2973	
15:12:40	-6.795819	38.98524	121.287	0.7600022	6.699078	0.44	3	94	0	50	4.563142	-0.3729898	-118.9604	
15:12:40	-6.795819	38.98524	121.379	0.7735855	4.040997	0.16	3	94	0	50	0.7280641	-0.3360233	-118.9389	
15:12:40	-6.795818	38.98524	121.311	0.7824833	1.244242	0.38	3	94	0	50	3.250266	-0.3007456	-118.8806	
15:12:40	-6.795818	38.98524	121.345	0.8035043	3.627046	0.09	3	94	0	50	-0.9604071	-0.2311234	-118.6578	
15:12:41	-6.795817	38.98524	121.349	0.8149848	4.592121	0.31	3	94	0	50	0.1725023	-0.1881828	-118.7328	
15:12:41	-6.795816	38.98524	121.401	0.746398	1.488247	0.19	3	94	0	50	0.5990182	-0.1545389	-118.8085	
15:12:41	-6.795815	38.98524	121.458	0.6906372	-1.355556	0.13	3	94	0	50	0.1799624	-0.0549757	-118.8663	
15:12:42	-6.795815	38.98524	121.501	0.6007071	-4.045642	0.08	3	94	0	50	-0.5087084	-0.04170878	-118.6584	
15:12:42	-6.795815	38.98524	121.696	0.5707386	-3.668595	0.71	3	94	0	50	9.597967	-0.7987812	-112.6835	
15:12:42	-6.795814	38.98524	121.894	0.5853397	8.352717	0.41	3	93	0	50	9.404091	-3.100555	-85.16732	
15:12:42	-6.795812	38.98524	122.253	0.6527789	29.11205	1.92	3	93	0	50	6.046014	-3.684509	-64.75407	
15:12:43	-6.79581	38.98524	122.486	0.665638	20.63583	1.32	3	93	0	50	12.64139	-1.519403	-45.3618	
15:12:43	-6.79581	38.98524	122.226	0.6537555	13.74315	1.01	3	93	0	50	13.97952	2.20963	-32.15837	
15:12:43	-6.79581	38.98524	122.304	0.6202107	-9.422932	0.66	3	93	0	50	34.36563	6.231428	-23.86559	
15:12:43	-6.79581	38.98524	122.41	0.5205091	-19.96218	0.82	3	93	0	50	1.023439	8.339758	-25.48678	
15:12:43	-6.795809	38.98524	122.386	0.4248065	-28.6371	1.06	3	94	0	50	-27.42176	3.924591	-20.8117	
15:12:44	-6.795807	38.98524	122.186	0.342464	-29.80162	1.53	3	94	0	50	-7.844406	5.636518	-10.81033	
15:12:44	-6.795806	38.98524	122.081	0.2820386	-23.47189	0.29	3	94	0	50	25.4984	9.490288	-8.501533	
15:12:44	-6.795806	38.98524	121.961	0.2091812	-28.92835	0.25	3	94	0	50	-6.234081	10.37175	-12.61073	
15:12:44	-6.795806	38.98524	122.314	0.1408676	-35.1849	0.45	3	94	0	50	-22.05117	5.707441	-8.085433	
15:12:44	-6.795806	38.98524	122.195	0.1412769	-25.3933	0.47	3	94	0	50	-15.06151	5.762169	-2.21874	
15:12:45	-6.795806	38.98524	122.117	0.1648916	-23.08856	0.13	3	94	0	50	14.13175	9.11772	1.88466	
15:12:45	-6.795805	38.98523	121.571	0.1358285	-27.59123	0.45	3	94	0	50	-24.87488	11.56881	-1.319118	
15:12:45	-6.795806	38.98523	121.333	0.09821773	-35.46308	1.01	3	94	0	50	0.1303475	13.35168	8.073929	
15:12:45	-6.795807	38.98524	121.408	0.03788515	-34.15574	0.18	3	94	0	50	11.69943	13.13299	6.215287	
15:12:45	-6.795806	38.98523	121.25	-0.006447787	-21.14312	0.55	3	94	0	50	-19.52921	5.587421	-4.032074	
15:12:46	-6.795807	38.98523	121.045	0.03951945	-21.07397	0.5	3	94	0	50	24.43734	3.590183	0.8160756	
15:12:46	-6.795806	38.98523	120.763	0.09219281	-24.5188	0.55	3	94	0	50	14.45357	3.788919	-3.570321	
15:12:46	-6.795805	38.98522	119.515	0.1428515	-18.96051	0.42	3	94	0	50	-21.08682	-0.7126855	-8.379554	
15:12:46	-6.795805	38.98523	119.803	0.1738373	-26.65625	0.53	3	94	0	50	-1.443367	1.487723	-1.171152	
15:12:46	-6.795806	38.98523	119.806	0.1651946	-31.33456	0.48	3	94	0	50	19.44758	3.370582	2.958544	
15:12:47	-6.795806	38.98523	119.684	0.1511343	-22.74259	0.58	3	94	0	50	-19.92983	0.970749	-0.3808352	
15:12:47	-6.795808	38.98523	119.818	0.1351413	-32.08794	1.19	3	94	0	50	-15.48642	2.408453	4.985237	
15:12:47	-6.79581	38.98523	119.772	0.1233763	-28.91604	1.06	3	94	0	50	21.4229	4.479886	9.075808	
15:12:47	-6.795809	38.98523	119.694	0.04583647	-26.44029	0.44	3	95	0	50	-17.34911	2.977288	4.236728	
15:12:47	-6.795808	38.98523	119.731	-0.02839672	-39.63844	0.58	3	95	0	50	-16.45614	1.193185	9.747414	
15:12:48	-6.795809	38.98523	119.992	-0.07653689	-24.78263	0.03	3	95	0	50	18.13186	3.17549	13.70143	
15:12:48	-6.795808	38.98523	119.709	-0.1338426	-30.92691	0.61	3	95	0	50	-13.32818	1.058044	10.41108	
15:12:48	-6.795808	38.98523	119.543	-0.168686	-38.384	0.09	3	95	0	50	-15.6087	0.6494338	11.21729	
15:12:48	-6.795809	38.98523	119.612	-0.1839194	-30.07949	1.2	3	95	0	50	4.87614	4.231839	15.11769	
15:12:48	-6.79581	38.98523	119.305	-0.1975029	-36.25562	0.39	3	95	0	50	12.97798	5.632601	16.70295	
15:12:49	-6.79581	38.98523	119.452	-0.2031076	-29.09477	0.22	3	95	0	50	10.19225	5.108818	16.08461	
15:12:49	-6.795809	38.98523	119.515	-0.1917765	-22.40969	0.38	3	95	0	50	-5.03712	2.99703	12.18571	
15:12:49	-6.795808	38.98522	119.617	-0.1841958	-21.48681	0.64	3	95	0	50	-2.045883	1.586216	11.57123	
15:12:49	-6.795809	38.98523	119.848	-0.1786682	-17.49696	0.68	3	95	0	50	6.85697	2.463616	15.47889	
15:12:49	-6.795807	38.98522	119.549	-0.1827938	-19.25632	1.04	3	95	0	50	-17.28181	1.649737	13.74108	
15:12:50	-6.795804	38.98522	119.545	-0.2028544	-19.91944	1.43	3	95	0	50	3.8579	2.10164	15.71528	
15:12:50	-6.795803	38.98522	119.776	-0.2407413	-23.70358	1.38	3	95	0	50	-4.156367	2.60302	15.92314	
15:12:50	-6.795802	38.98522	120.443	-0.2685929	-23.71902	0.53	3	95	0	50	16.16892	1.287775	21.2485	
15:12:50	-6.7958	38.98522	120.386	-0.2962611	-17.03064	0.74	3	95	0	50	-14.97452	1.480211	17.05511	
15:12:51	-6.795802	38.98522	120.34	-0.2934066	-17.90898	1.2	3	95	0	50	3.853544	-0.6358457	19.6962	
15:12:51	-6.795801	38.98522	120.47	-0.2994432	-20.64856	1.02	3	95	0	50	17.00229	-1.637455	20.81011	
15:12:51	-6.795803	38.98523	120.666	-0.3215368	-14.94839	2.27	3	95	0	50	14.49053	-3.812658	17.98287	
15:12:51	-6.795805	38.98523	121.027	-0.3233995	-6.11461	1.95	3	95	0	50	-9.122205	-3.576905	13.55109	
15:12:52	-6.795809	38.98523	121.317	-0.312379	-17.14791	1.24	3	95	0	50	10.12461	-1.399347	16.20682	
15:12:52	-6.795809	38.98523	121.396	-0.3487476	-6.496723	1.19	3	95	0	50	4.391459	-3.372593	17.35982	
15:12:52	-6.795808	38.98523	121.21	-0.3707879	-8.733802	1.27	3	95	0	50	-15.10157	-4.186135	14.54991	
15:12:52	-6.795809	38.98523	121.216	-0.3859881	-11.40184	1.49	3	95	0	50	9.825799	-1.748865	16.8631	
15:12:52	-6.795807	38.98523	120.783	-0.4010708	-16.32897	0.06	3	95	0	50	9.527932	-2.020625	18.96973	
15:12:53	-6.795806	38.98522	120.125	-0.3888366	-8.86112	1.43	3	95	0	50	-18.11087	-3.173188	17.13259	
15:12:53	-6.795806	38.98522	119.974	-0.3816745	-11.88193	1.19	3	95	0	50	11.05665	-2.133893	19.13047	
15:12:53	-6.795807	38.98523	120.238	-0.3117768	-8.661432	1.06	3	95	0	50	11.71565	-1.961815	18.93682	
15:12:53	-6.795808	38.98523	120.659	-0.2128	6.456536	0.9	3	95	0	50	-14.26427	-2.067303	13.90567	
15:12:53	-6.795809	38.98523	121.208	-0.1495825	5.08327	0.85	3	95	0	50	9.955755	0.2394579	13.52852	
15:12:54	-6.795809	38.98523	121.524	-0.1094224	-0.6713027	0.41	3	95	0	50	16.58372	0.4712054	14.51726	
15:12:54	-6.79581	38.98524	122.116	-5.538017E-05	18.44624	0.66	3	95	0	50	-10.6763	-0.4428108	10.49789	
15:12:54	-6.79581	38.98524	122.489	0.1231943	13.04741	0.57	3	95	0	50	-8.599968	0.9638109	7.430275	
15:12:54	-6.79581	38.98524	122.129	0.2209405	17.14562	0.06	3	95	0	50	14.74189	-0.9621712	10.10957	
15:12:54	-6.795811	38.98524	122.308	0.3306341	30.36998	1.06	3	95	0	50	-7.350532	-2.607168	10.71429	
15:12:55	-6.795815	38.98524	122.366	0.4126506	22.50994	2.51	3	95	0	50	14.11183	-4.2226	14.21516	
15:12:55	-6.795815	38.98524	122.896	0.4842045	28.85345	0.41	3	95	0	50	-0.4386017	-3.438161	13.01023	
15:12:55	-6.795816	38.98524	122.37	0.5066367	22.6698	2	3	95	0	50	-14.41869	-1.952181	11.26986	
15:12:55	-6.795815	38.98524	122.746	0.5301517	17.5793	1.36	3	95	0	50	20.40174	-1.039367	13.02647	
15:12:56	-6.795815	38.98524	123.334	0.537047	13.80041	1.58	3	95	0	50	10.01259	0.4651468	11.52	
15:12:56	-6.795815	38.98524	123.112	0.5419818	19.17888	0.64	3	95	0	50	5.652179	8.020374	10.21919	
15:12:56	-6.795814	38.98524	122.991	0.5391617	15.35772	0.14	3	95	0	50	6.926622	7.450775	10.18191	
15:12:56	-6.795814	38.98524	123.106	0.5514656	19.66154	0.63	3	95	0	50	3.7692	-4.775392	7.790517	
15:12:56	-6.795813	38.98524	123.476	0.588203	29.71758	1.19	3	95	0	50	4.233946	-16.6911	4.477428	
15:12:57	-6.795814	38.98524	123.65	0.6036857	22.42177	0.36	3	95	0	50	5.781135	-18.50317	3.31956	
15:12:57	-6.795814	38.98524	123.452	0.6144927	22.95011	0.45	3	95	0	50	10.28153	-7.645418	5.002422	
15:12:57	-6.795814	38.98524	123.605	0.6295507	12.04701	0.83	3	95	0	50	10.1562	4.057151	6.066041	
15:12:57	-6.795815	38.98524	123.62	0.634569	9.632154	0.82	3	95	0	50	7.770049	5.626542	4.357905	
15:12:57	-6.795815	38.98524	123.525	0.6388305	18.71815	0.94	3	95	0	50	15.44289	-3.442982	1.520934	
15:12:58	-6.795815	38.98524	123.35	0.6617972	27.47659	0.94	3	95	0	50	12.67756	-9.094038	0.889787	
15:12:58	-6.795815	38.98524	123.443	0.68959	29.37971	0.94	3	95	0	50	-3.458465	-10.1082	-2.456724	
15:12:58	-6.795815	38.98524	123.371	0.6629509	8.894469	0.09	3	95	0	50	17.38365	-6.701994	-0.9470754	
15:12:58	-6.795816	38.98524	123.467	0.6225393	0.1981601	1.24	3	95	0	50	26.55197	-4.707222	1.721318	
15:12:58	-6.795816	38.98524	123.575	0.5961187	18.00731	0.66	3	95	0	50	-1.15521	-5.142371	-1.075019	
15:12:59	-6.795816	38.98524	123.941	0.5962436	9.207274	0.52	3	95	0	50	-12.72983	-4.36805	-3.659495	
15:12:59	-6.795815	38.98524	124.033	0.5890678	7.209508	0.71	3	95	0	50	13.24468	-2.060643	0.1576481	
15:12:59	-6.795815	38.98524	124.567	0.5742411	-2.308154	0.29	3	95	0	50	13.58707	-1.231337	1.900465	
15:12:59	-6.795816	38.98524	125.017	0.5713015	8.628118	1.07	3	95	0	50	-2.495245	-3.300179	-4.255733	
15:12:59	-6.795815	38.98524	124.949	0.5696475	1.996916	0.28	3	95	0	50	1.727509	-6.833438	-11.00571	
15:13:00	-6.795815	38.98524	125.063	0.5840406	16.79465	0.42	3	95	0	50	2.96336	-10.31773	-20.72933	
15:13:00	-6.795815	38.98524	125.012	0.6120037	13.91417	0.98	3	95	0	50	6.409969	-12.49191	-31.74426	
15:13:00	-6.795814	38.98524	124.917	0.6514205	17.68817	0.48	3	95	0	50	10.74175	-12.57033	-43.80433	
15:13:00	-6.795814	38.98524	124.909	0.677492	10.00109	0.96	3	96	0	50	11.23923	-10.69097	-54.58033	
15:13:00	-6.795813	38.98524	125.251	0.6775533	6.372526	0.62	3	96	0	50	9.559789	-10.02519	-66.2655	
15:13:01	-6.795811	38.98525	125.689	0.6568723	-1.145675	0.76	3	96	0	50	2.507094	-13.33621	-77.27271	
15:13:01	-6.795811	38.98525	125.867	0.624788	1.700777	0.57	3	95	0	50	0.1343983	-12.23429	-87.82417	
15:13:01	-6.795811	38.98525	125.968	0.6155934	-15.03887	1.5	3	95	0	50	3.030734	-7.079049	-87.70204	
15:13:01	-6.795812	38.98525	126.219	0.5908626	-5.879628	0.87	3	95	0	50	-8.888928	-6.318389	-83.69826	
15:13:02	-6.795812	38.98526	126.376	0.5619307	2.269692	0.66	3	95	0	50	-5.752594	-4.745002	-76.58541	
15:13:02	-6.795811	38.98526	126.502	0.5224085	-14.86355	0.79	3	96	0	50	7.57314	2.744881	-74.20802	
15:13:02	-6.79581	38.98525	126.694	0.4468468	-43.59791	0.51	3	96	0	50	5.530576	-0.1003489	-74.74281	
15:13:02	-6.79581	38.98525	126.911	0.3958437	4.308403	0.39	3	96	0	50	3.567612	0.3728753	-74.31197	
15:13:02	-6.79581	38.98526	127.309	0.3909695	6.253646	0.79	3	96	0	50	3.361743	0.7012933	-73.95258	
15:13:03	-6.795811	38.98526	127.469	0.3879797	6.789034	0.72	3	96	0	50	3.372395	0.6785212	-73.65414	
15:13:03	-6.79581	38.98526	127.399	0.3588207	6.474815	0.65	3	96	0	50	3.447857	0.6799274	-73.33942	
15:13:03	-6.795812	38.98526	127.958	0.328443	6.121456	0.66	3	96	0	50	3.497051	0.670542	-73.0423	
15:13:03	-6.795814	38.98526	128.125	0.3069266	5.873411	1.04	3	96	0	50	3.564353	0.6757086	-72.75816	
15:13:03	-6.795815	38.98526	127.923	0.2912335	5.670634	0.52	3	96	0	50	3.629445	0.6602896	-72.47974	
15:13:04	-6.795815	38.98526	127.655	0.2217277	2.59454	0.72	3	96	0	50	3.694083	0.6829652	-72.24589	
15:13:04	-6.795816	38.98526	127.442	0.1487431	0.08912515	0.44	3	96	0	50	3.723017	0.6861786	-72.11966	
15:13:04	-6.79582	38.98526	127.51	0.05924036	-3.199721	1.56	3	95	0	50	3.874563	0.6982891	-71.53793	
15:13:04	-6.795823	38.98526	127.243	-0.09537631	-7.553126	1.43	3	95	0	50	3.941435	0.682622	-71.37085	
15:13:05	-6.795824	38.98526	126.992	-0.1535988	-7.749794	0.93	3	95	0	50	4.001157	0.6693613	-71.20463	
15:13:05	-6.795825	38.98526	127.846	-0.1681881	-6.477482	0.66	3	95	0	50	4.051931	0.6583438	-71.01737	
15:13:05	-6.795828	38.98527	128.036	-0.1645841	-4.289454	1.11	3	95	0	50	4.102414	0.6487666	-70.83181	
15:13:05	-6.795831	38.98527	128.302	-0.1366028	-0.9029834	0.97	3	95	0	50	4.143361	0.6577961	-70.66738	
15:13:05	-6.795834	38.98528	128.546	-0.1005862	2.266397	0.42	3	95	0	50	4.19574	0.6572656	-70.51173	
15:13:06	-6.795836	38.98528	128.847	-0.05479622	5.231647	0.85	3	95	0	50	4.251262	0.626563	-70.3738	
15:13:06	-6.795837	38.98528	128.946	-0.01013081	8.069715	1.28	3	95	0	50	4.275538	0.6239541	-70.2927	
15:13:06	-6.795839	38.98528	128.799	-0.01062207	8.759933	1.69	3	95	0	50	4.339256	0.6149866	-70.05299	
15:13:06	-6.79584	38.98528	128.741	-0.02081818	8.32506	1.18	3	95	0	50	4.36841	0.6266783	-69.93658	
15:13:06	-6.795842	38.98528	128.558	-0.05310056	7.101088	1.95	3	95	0	50	4.406466	0.6275408	-69.81743	
15:13:07	-6.795842	38.98528	128.276	-0.0869531	6.106621	0.91	3	95	0	50	4.438305	0.6341447	-69.67804	
15:13:07	-6.795842	38.98527	128.111	-0.1201082	5.067757	0.91	3	95	0	50	4.470448	0.6130733	-69.55978	
15:13:07	-6.795843	38.98527	128.09	-0.150032	4.151371	0.94	3	95	0	50	4.50599	0.6254404	-69.44353	
15:13:07	-6.795843	38.98527	128.314	-0.1457449	5.346868	0.5	3	95	0	50	4.544611	0.6379074	-69.36624	
15:13:07	-6.795843	38.98527	128.306	-0.1359543	6.509314	1.42	3	95	0	50	4.560051	0.6375552	-69.31191	
15:13:08	-6.795845	38.98528	128.469	-0.1371755	6.887568	1.57	3	95	0	50	4.596861	0.6530421	-69.13977	
15:13:08	-6.795846	38.98528	128.27	-0.1790063	5.124281	1.87	3	95	0	50	4.629543	0.6696227	-69.02761	
15:13:08	-6.795846	38.98527	127.654	-0.2123541	4.241575	1.28	3	95	0	50	4.652073	0.6820168	-68.97366	
15:13:08	-6.795848	38.98528	127.895	-0.2290041	4.410954	0.88	3	95	0	50	4.683331	0.6936694	-68.90714	
15:13:08	-6.79585	38.98528	128.352	-0.2415608	4.666499	1.52	3	95	0	50	4.698754	0.7073542	-68.83195	
15:13:09	-6.795852	38.98528	128.55	-0.252797	4.788321	0.76	3	95	0	50	4.70998	0.7041168	-68.75951	
15:13:09	-6.795853	38.98528	128.714	-0.2849534	3.610697	1.07	3	95	0	50	4.728179	0.7074077	-68.71172	
15:13:09	-6.795853	38.98529	128.914	-0.3473952	1.274001	1.01	3	95	0	50	4.75732	0.7160386	-68.64735	
15:13:09	-6.795854	38.98529	129.132	-0.3890132	-0.1610693	1.16	3	95	0	50	4.769663	0.7266141	-68.54799	
15:13:09	-6.795855	38.98529	129.06	-0.4013099	0.11425	0.75	3	95	0	50	4.78548	0.7201333	-68.46442	
15:13:10	-6.795855	38.98529	128.796	-0.3819515	2.29379	0.39	3	95	0	50	4.805815	0.730422	-68.3582	
15:13:10	-6.795855	38.98529	128.529	-0.2557649	9.491963	1.04	3	95	0	50	4.817243	0.7409685	-68.29729	
15:13:10	-6.795855	38.98529	128.292	-0.1265507	15.95416	1.38	3	96	0	50	4.834986	0.7424976	-68.22608	
15:13:10	-6.795856	38.98529	127.977	-0.01122322	21.58649	1.17	3	96	0	50	4.864384	0.7560665	-68.14969	
15:13:10	-6.795856	38.98528	127.643	0.07755493	25.16157	0.52	3	95	0	50	4.884149	0.763958	-68.06985	
15:13:11	-6.795856	38.98528	127.332	0.1340472	26.5558	0.58	3	95	0	50	4.895635	0.7703201	-68.01488	
15:13:11	-6.795857	38.98529	127.56	0.1835147	28.22078	1.13	3	95	0	50	4.906204	0.7710285	-67.96629	
15:13:11	-6.795858	38.98529	127.92	0.2231552	28.29504	0.47	3	95	0	50	4.923311	0.7596588	-67.92049	
15:13:11	-6.795858	38.98529	128.005	0.2639412	28.61993	0.39	3	95	0	50	4.943964	0.7578502	-67.85862	
15:13:11	-6.795859	38.98529	128.092	0.3167848	29.50042	0.13	3	95	0	50	4.970142	0.7694752	-67.78562	
15:13:12	-6.795859	38.98529	128.132	0.3596807	29.51258	0.53	3	95	0	50	4.975915	0.7837396	-67.76328	
15:13:12	-6.795859	38.98529	128.339	0.3899208	29.24779	0.45	3	95	0	50	4.98395	0.7942693	-67.72762	
15:13:12	-6.79586	38.98528	127.889	0.4252879	28.97919	0.52	3	95	0	50	5.003401	0.7680756	-67.62324	
15:13:12	-6.79586	38.98529	128.06	0.5100037	30.02238	0.06	3	95	0	50	5.016765	0.759851	-67.59823	
15:13:13	-6.795861	38.98529	128.42	0.4724946	26.62448	0.59	3	95	0	50	5.029219	0.7812241	-67.5535	
15:13:13	-6.795862	38.98529	129.061	0.4221236	21.82939	0.12	3	95	0	50	5.036243	0.7905219	-67.5031	
15:13:13	-6.795862	38.98529	129.102	0.4241515	21.56595	0.62	3	95	0	50	5.041302	0.8149273	-67.46127	
15:13:13	-6.795862	38.98529	128.867	0.445017	21.40132	0.53	3	95	0	50	5.046403	0.821777	-67.44048	
15:13:14	-6.795865	38.98529	128.831	0.4757839	21.61541	0.59	3	95	0	50	5.067572	0.7973422	-67.39302	
15:13:14	-6.795865	38.98529	128.611	0.5283858	22.14733	0.72	3	95	0	50	5.081582	0.7951898	-67.34692	
15:13:14	-6.795865	38.98529	128.187	0.5575822	22.40518	0.98	3	95	0	50	5.096674	0.7833721	-67.31182	
15:13:14	-6.795866	38.98529	128.132	0.5898761	22.67984	0.57	3	95	0	50	5.117205	0.8092257	-67.30456	
15:13:15	-6.795866	38.98529	128.202	0.6167135	23.00096	0.95	3	95	0	50	5.122634	0.8339555	-67.28356	
15:13:15	-6.795866	38.98529	128.038	0.61315	21.649	0.16	3	95	0	50	5.128247	0.8613292	-67.25557	
15:13:15	-6.795866	38.98529	128.046	0.6018192	19.38598	0.22	3	95	0	50	5.128621	0.8573725	-67.22382	
15:13:15	-6.795867	38.98529	128.228	0.5789432	16.70395	0.36	3	95	0	50	5.123154	0.8548824	-67.20201	
15:13:15	-6.795868	38.98529	128.634	0.5503057	14.5057	0.19	3	95	0	50	5.120463	0.8844239	-67.20286	
15:13:16	-6.79587	38.98529	128.815	0.4799207	11.04875	0.97	3	95	0	50	5.128524	0.8770019	-67.18453	
15:13:16	-6.79587	38.98529	128.841	0.4055757	7.273481	0.37	3	96	0	50	5.140961	0.8830333	-67.15767	
15:13:16	-6.79587	38.98529	128.534	0.3875968	6.376963	0.58	3	96	0	50	5.145975	0.8792185	-67.13087	
15:13:16	-6.79587	38.98529	128.399	0.3832675	6.274745	0.19	3	96	0	50	5.15271	0.8843949	-67.13987	
15:13:16	-6.795872	38.9853	128.901	0.3609744	4.504156	0.59	3	96	0	50	5.156069	0.9011321	-67.12016	
15:13:17	-6.795872	38.9853	128.768	0.3358023	2.880678	0.22	3	96	0	50	5.15864	0.8802599	-67.08995	
15:13:17	-6.795873	38.98529	128.495	0.3126242	1.477088	0.7	3	96	0	50	5.160262	0.8767602	-67.07254	
15:13:17	-6.795873	38.98529	128.029	0.2919924	0.6049909	1.06	3	95	0	50	5.1638	0.8830645	-67.05565	
15:13:17	-6.795874	38.98529	127.628	0.2887884	0.5363347	0.57	3	95	0	50	5.160331	0.8962141	-67.04328	
15:13:17	-6.795874	38.98529	126.987	0.290308	1.595177	0.76	3	96	0	50	5.160636	0.8918911	-67.0188	
15:13:18	-6.795873	38.98528	125.954	0.284224	1.514189	0.24	3	96	0	50	5.175625	0.8941202	-67.00079	
15:13:18	-6.795873	38.98528	125.665	0.2586221	0.6553203	0.16	3	96	0	50	5.189773	0.8891475	-66.97233	
15:13:18	-6.795872	38.98528	125.198	0.2376206	-0.2450928	0.22	3	96	0	50	5.178178	0.8838058	-66.97874	
15:13:18	-6.795872	38.98528	124.894	0.2237196	-0.4656014	0.26	3	96	0	50	5.18807	0.883954	-66.97395	
15:13:18	-6.795872	38.98528	124.859	0.1994358	-1.145326	0.14	3	96	0	50	5.190306	0.8876603	-66.95084	
15:13:19	-6.795873	38.98528	125.009	0.1584074	-2.350023	0.29	3	96	0	50	5.198788	0.9050683	-66.93264	
15:13:19	-6.795873	38.98528	125.311	0.1348443	-2.696167	0.37	3	96	0	50	5.205223	0.8967684	-66.95774	
15:13:19	-6.795873	38.98528	125.254	0.1321276	-2.254856	0.18	3	96	0	50	5.201042	0.9124882	-66.98017	
15:13:19	-6.795873	38.98528	125.107	0.1258233	-2.214556	0.34	3	96	0	50	5.203424	0.9293906	-66.97585	
15:13:19	-6.795874	38.98528	124.996	0.1018262	-2.702276	0.63	3	96	0	50	5.20228	0.9273642	-66.96691	
15:13:20	-6.795875	38.98528	124.797	0.06688495	-3.327163	0.13	3	96	0	50	5.190812	0.9283057	-66.96357	
15:13:20	-6.795875	38.98528	124.383	-0.01714613	-7.241059	0.24	3	96	0	50	5.189707	0.9423835	-66.95965	
15:13:20	-6.795874	38.98528	124.161	-0.08898978	-9.908813	0.26	3	96	0	50	5.198016	0.9565293	-66.94479	
15:13:20	-6.795872	38.98527	122.838	-0.1480119	-11.41276	0.09	3	96	0	50	5.210579	0.9669099	-66.94746	
15:13:20	-6.795871	38.98526	122.175	-0.1986774	-12.14373	0.45	3	96	0	50	5.207426	0.9890836	-66.94704	
15:13:21	-6.79587	38.98526	121.3	-0.2495663	-13.33817	0.26	3	96	0	50	5.206128	1.007105	-66.99105	
15:13:21	-6.795869	38.98526	120.474	-0.2952541	-13.92603	0.51	3	96	0	50	5.215033	1.024037	-66.99528	
15:13:21	-6.795869	38.98525	119.858	-0.3348218	-14.25596	0.31	3	96	0	50	5.223965	1.016227	-66.99336	
15:13:21	-6.795869	38.98525	119.349	-0.36428	-14.17079	0.38	3	96	0	50	5.222835	1.020357	-66.9925	
15:13:21	-6.79587	38.98524	118.836	-0.3883746	-13.32399	0.39	3	96	0	50	5.2076	1.029176	-66.99155	
15:13:22	-6.795869	38.98524	118.109	-0.4125142	-12.44267	0.69	3	96	0	50	5.206693	1.026974	-67.03406	
15:13:22	-6.795869	38.98524	117.654	-0.4572977	-12.54	0.5	3	96	0	50	5.197875	1.031109	-67.04255	
15:13:22	-6.795868	38.98524	117.456	-0.4740394	-11.84128	0.83	3	96	0	50	5.199683	1.032266	-67.03384	
15:13:22	-6.795867	38.98523	117.067	-0.4293892	-8.122447	0.65	3	96	0	50	5.186293	1.031957	-67.0164	
15:13:22	-6.795867	38.98523	116.648	-0.3860076	-4.464908	0.55	3	96	0	50	5.167406	1.042737	-67.04421	
15:13:23	-6.795868	38.98523	116.163	-0.3669251	-1.897854	0.59	3	96	0	50	5.168529	1.057479	-67.05085	
15:13:23	-6.795868	38.98523	115.476	-0.3530647	-0.6696044	0.72	3	96	0	50	5.165496	1.053377	-67.03735	
15:13:23	-6.795869	38.98522	115.272	-0.3032197	2.538212	0.14	3	96	0	50	5.170129	1.066838	-67.04499	
15:13:23	-6.79587	38.98523	115.391	-0.2399873	5.765955	0.04	3	96	0	50	5.170393	1.068048	-67.04442	
15:13:23	-6.79587	38.98523	115.313	-0.2280017	6.416748	0.45	3	96	0	50	5.166813	1.064765	-67.0674	
15:13:24	-6.795869	38.98522	114.479	-0.2273289	6.798503	0.45	3	96	0	50	5.169364	1.075302	-67.06661	
15:13:24	-6.795868	38.98522	113.68	-0.2195558	7.50274	0.39	3	97	0	50	5.161782	1.061815	-67.06168	
15:13:24	-6.795867	38.98521	113.427	-0.2098006	8.044995	1.2	3	97	0	50	5.158722	1.061939	-67.05377	
15:13:24	-6.795868	38.98521	113.537	-0.1656628	9.998257	0.64	3	97	0	50	5.148316	1.052079	-67.07648	
15:13:24	-6.795866	38.9852	112.573	-0.1225646	11.87235	0.66	3	97	0	50	5.150486	1.064166	-67.09087	
15:13:25	-6.795867	38.98521	112.89	-0.03630946	15.84671	0.47	3	97	0	50	5.136727	1.050535	-67.08963	
15:13:25	-6.795868	38.98521	113.102	0.05139333	19.10456	0.41	3	97	0	50	5.128429	1.035142	-67.08776	
15:13:25	-6.795868	38.98521	113.36	0.1211478	21.36812	0.26	3	97	0	50	5.122941	1.012334	-67.10934	
15:13:25	-6.795867	38.98521	112.994	0.1887275	22.80168	0.42	3	97	0	50	5.113673	1.025162	-67.13355	
15:13:25	-6.795867	38.9852	112.679	0.2368723	24.25329	0.5	3	97	0	50	5.11724	1.031327	-67.14833	
15:13:26	-6.795867	38.9852	112.106	0.2758143	24.36037	0.21	3	97	0	50	5.115129	1.036628	-67.15913	
15:13:26	-6.795867	38.9852	112.106	0.2773081	22.67414	0.21	3	97	0	50	5.106502	1.031324	-67.15555	
15:13:26	-6.795866	38.9852	111.36	0.2664034	19.89348	1.17	3	97	0	50	5.091005	1.046574	-67.1965	
15:13:26	-6.795866	38.9852	111.36	0.2634939	18.3646	1.17	3	97	0	50	5.093692	1.059041	-67.20679	
15:13:26	-6.795864	38.98519	110.611	0.2606412	17.08318	1.04	3	97	0	50	5.098385	1.043817	-67.20802	
15:13:27	-6.795864	38.98518	110.37	0.303929	18.64267	0.57	3	97	0	50	5.086267	1.024611	-67.2135	
15:13:27	-6.795863	38.98518	109.976	0.3649731	20.31181	0.89	3	97	0	50	5.08263	1.014018	-67.24458	
15:13:27	-6.795862	38.98518	108.753	0.4138173	21.73431	0.66	3	97	0	50	5.065475	0.9975226	-67.258	
15:13:27	-6.795861	38.98517	107.696	0.4625026	22.40848	0.14	3	97	0	50	5.057732	1.00024	-67.24108	
15:13:27	-6.795862	38.98518	108.305	0.4829631	21.55032	0.45	3	97	0	50	5.062191	0.9963265	-67.22713	
15:13:28	-6.795862	38.98518	108.305	0.4212035	16.5814	0.45	3	97	0	50	5.066206	1.000618	-67.22138	
15:13:28	-6.795862	38.98518	108.754	0.364835	12.41636	0.47	3	97	0	50	5.068997	0.9990636	-67.26406	
15:13:28	-6.795862	38.98518	108.345	0.3211835	9.479298	0.64	3	97	0	50	5.056437	1.000523	-67.26482	
15:13:28	-6.795862	38.98518	108.225	0.2926043	7.67427	0.5	3	97	0	50	5.047695	0.9874418	-67.25684	
15:13:28	-6.795863	38.98518	108.652	0.2734317	6.548831	0.63	3	97	0	50	5.050569	0.980651	-67.24628	
15:13:29	-6.795863	38.98518	108.652	0.2558704	5.618595	0.63	3	97	0	50	5.056792	0.9846533	-67.24242	
15:13:29	-6.795862	38.98518	108.531	0.2403214	4.834743	0.76	3	97	0	50	5.067224	0.9912234	-67.29593	
15:13:29	-6.795862	38.98518	108.669	0.2271957	4.329609	0.87	3	97	0	50	5.06703	0.9876825	-67.3015	
15:13:29	-6.795861	38.98516	107.702	0.2193029	3.713572	0.77	3	97	0	50	5.07322	0.9754002	-67.29259	
15:13:29	-6.79586	38.98516	107.16	0.2183687	3.614426	0.84	3	96	0	50	5.075586	0.9741368	-67.28385	
15:13:30	-6.79586	38.98516	107.104	0.241127	5.070348	0.52	3	96	0	50	5.07376	0.974546	-67.30063	
15:13:30	-6.795858	38.98516	106.729	0.2686256	6.295704	0.66	3	96	0	50	5.058739	0.9657483	-67.29478	
15:13:30	-6.795858	38.98516	106.522	0.3205362	7.878078	0.68	3	96	0	50	5.060014	0.9907074	-67.28452	
15:13:30	-6.795857	38.98515	105.699	0.3423117	8.637191	0.79	3	96	0	50	5.056872	1.000514	-67.28374	
15:13:30	-6.795857	38.98515	105.73	0.335147	7.798615	0.68	3	97	0	50	5.068737	1.002552	-67.31007	
15:13:31	-6.795857	38.98515	105.604	0.3343044	7.718828	0.37	3	97	0	50	5.07245	0.9853384	-67.33335	
15:13:31	-6.795857	38.98515	105.834	0.3425536	8.331991	1.05	3	97	0	50	5.071426	0.996601	-67.32529	
15:13:31	-6.795857	38.98515	105.98	0.3496633	8.272508	0.87	3	97	0	50	5.063035	0.996958	-67.31448	
15:13:31	-6.795857	38.98515	106.509	0.3543922	7.813296	0.63	3	97	0	50	5.065596	0.9949493	-67.31422	
15:13:31	-6.795857	38.98515	106.257	0.3568816	6.982028	0.14	3	97	0	50	5.062829	1.003281	-67.33363	
15:13:32	-6.795857	38.98515	106.397	0.3566878	6.678176	0.22	3	97	0	50	5.055406	0.9711788	-67.32069	
15:13:32	-6.795857	38.98516	106.769	0.3616016	6.2621	0.45	3	97	0	50	5.053067	0.9694697	-67.31348	
15:13:32	-6.795857	38.98516	106.871	0.3772688	7.198021	0.48	3	97	0	50	5.052024	0.9782305	-67.31348	
15:13:32	-6.795857	38.98515	107	0.3947633	7.770944	1.11	3	97	0	50	5.037316	0.9791935	-67.34815	
15:13:32	-6.795857	38.98515	107.156	0.4124542	8.304872	1.04	3	97	0	50	5.029828	0.9701862	-67.35394	
15:13:33	-6.795856	38.98515	106.823	0.4268246	8.595185	0.52	3	97	0	50	5.027679	0.9698154	-67.34753	
15:13:33	-6.795857	38.98515	106.736	0.4508808	9.063518	0.25	3	97	0	50	5.028621	0.9498739	-67.33868	
15:13:33	-6.795857	38.98515	107.109	0.4758465	9.599136	0.66	3	97	0	50	5.044578	0.9485378	-67.32767	
15:13:33	-6.795857	38.98515	107.537	0.5136432	10.83615	0.69	3	97	0	50	5.048657	0.9459079	-67.33723	
15:13:33	-6.795856	38.98515	107.42	0.5500498	11.50768	0.7	3	97	0	50	5.044082	0.9457498	-67.32077	
15:13:34	-6.795856	38.98515	107.923	0.6278656	14.35625	1.11	3	97	0	50	5.058401	0.9622458	-67.31505	
15:13:34	-6.795856	38.98515	108.018	0.7150874	17.94833	0.11	3	97	0	50	5.04825	0.9496256	-67.29412	
15:13:34	-6.795855	38.98515	107.666	0.7815365	20.79084	0.66	3	97	0	50	5.047407	0.9571138	-67.31374	
15:13:34	-6.795855	38.98515	108.217	0.8466907	22.04323	0.18	3	97	0	50	5.049859	0.9698359	-67.30716	
15:13:34	-6.795855	38.98515	107.856	0.9022079	22.97582	0.53	3	97	0	50	5.045585	0.9451124	-67.29944	
15:13:35	-6.795854	38.98515	107.779	0.9412466	23.14634	1.46	3	97	0	50	5.038209	0.9443026	-67.28571	
15:13:35	-6.795853	38.98515	108.39	0.969896	22.8923	1.01	3	97	0	50	5.01687	0.9363746	-67.28909	
15:13:35	-6.795852	38.98515	108.668	0.9953654	22.41167	1.26	3	97	0	50	5.011953	0.9323061	-67.32135	
15:13:35	-6.795851	38.98515	108.811	1.004536	20.68574	1.01	3	97	0	50	4.995152	0.935198	-67.31392	
15:13:35	-6.795851	38.98515	108.96	1.006184	18.85498	0.68	3	97	0	50	4.990908	0.9155704	-67.29937	
15:13:36	-6.795851	38.98515	109.279	0.9880979	16.35144	0.26	3	97	0	50	4.986726	0.9153085	-67.28416	
15:13:36	-6.795851	38.98515	109.279	0.962763	13.54577	0.26	3	97	0	50	4.980141	0.9131501	-67.31547	
15:13:36	-6.795852	38.98515	109.83	0.8799261	8.150916	0.58	3	97	0	50	4.979372	0.9100612	-67.30696	
15:13:36	-6.795852	38.98516	110.321	0.7972624	2.717894	0.32	3	97	0	50	4.977219	0.9054524	-67.29568	
15:13:36	-6.795853	38.98516	110.822	0.6253834	-6.304243	0.39	3	97	0	50	4.978313	0.9158114	-67.28993	
15:13:37	-6.795853	38.98516	110.992	0.47042	-13.63684	0.61	3	97	0	50	4.981011	0.9225605	-67.31485	
15:13:37	-6.795852	38.98516	110.695	0.3346338	-19.89515	0.34	3	97	0	50	4.983475	0.9258608	-67.30512	
15:13:37	-6.795852	38.98516	110.776	0.1988976	-24.81483	0.63	3	97	0	50	4.979643	0.9166429	-67.28837	
15:13:37	-6.79585	38.98515	110.332	0.08246017	-28.26645	1.06	3	97	0	50	4.969177	0.9067282	-67.27793	
15:13:37	-6.79585	38.98515	110.035	-0.008892883	-29.86136	0.59	3	97	0	50	4.956933	0.8974283	-67.27181	
15:13:38	-6.79585	38.98515	109.804	-0.09094794	-31.10192	0.18	3	97	0	50	4.952101	0.9128146	-67.29565	
15:13:38	-6.795849	38.98514	109.556	-0.1933637	-32.76723	0.52	3	97	0	50	4.952893	0.9281266	-67.27957	
15:13:38	-6.795848	38.98514	109.411	-0.2507978	-32.61424	0.87	3	97	0	50	4.954063	0.9204491	-67.27103	
15:13:38	-6.795847	38.98514	109.118	-0.2752091	-30.16701	0.58	3	97	0	50	4.934025	0.9021613	-67.26802	
15:13:38	-6.795847	38.98514	108.733	-0.2850122	-26.9401	0.48	3	97	0	50	4.922501	0.8985237	-67.28682	
15:13:39	-6.795847	38.98514	109.051	-0.2701799	-23.80823	0.72	3	97	0	50	4.929342	0.8862153	-67.32063	
15:13:39	-6.795847	38.98514	109.057	-0.2490188	-20.05121	0.59	3	97	0	50	4.913527	0.8736869	-67.33466	
15:13:39	-6.795847	38.98514	109.079	-0.2134899	-16.29809	1.04	3	97	0	50	4.911533	0.885448	-67.31509	
