Date	Latitude(deg) 	Longitude(deg)	hamsl(m)	hafl(m)	climbrate(cm/s)	GroundSpeed(m/s)	Airspeed(m/s)	Mav_Link(%)	Rssi_Link(%)	Throttle	Roll(deg)	Pitch(deg)	Yaw(deg)
08:51:03	0	0	0	0	0	0	0	100	0	0	6.329577	1.649233	-116.5553	
08:51:03	0	0	0	0.08988401	0.25186	0	3	100	0	50	6.340042	1.640116	-116.6104	
08:51:03	0	0	0	0.0911688	0.9993042	0	3	100	0	50	6.33155	1.624803	-116.7045	
08:51:04	0	0	0	-0.137045	-10.28109	0	3	100	0	50	6.335313	1.632877	-116.7994	
08:51:04	0	0	0	-0.3585244	-20.30094	0	3	100	0	50	6.327034	1.630195	-116.8969	
08:51:04	0	0	0	-0.4927903	-25.22019	0	3	100	0	50	6.313148	1.609387	-116.9834	
08:51:04	0	0	0	-0.6330516	-29.44199	0	3	100	0	50	6.315976	1.590323	-116.9671	
08:51:04	0	0	0	-0.6516959	-27.25856	0	3	100	0	50	6.304793	1.588556	-116.9748	
08:51:05	0	0	0	-0.5836332	-20.64412	0	3	100	0	50	6.305642	1.567179	-117.0531	
08:51:05	0	0	0	-0.4735286	-12.28481	0	3	100	0	50	6.315937	1.582546	-117.1235	
08:51:05	0	0	0	-0.3036214	-2.050344	0	3	100	0	50	6.325689	1.595143	-117.1481	
08:51:05	0	0	0	-0.2053735	3.35825	0	3	100	0	50	6.329231	1.589008	-117.2005	
08:51:05	0	0	0	-0.1433118	6.253573	0	3	100	0	50	6.334763	1.591762	-117.2799	
08:51:06	0	0	0	-0.08218907	8.637229	0	3	100	0	50	6.350836	1.58356	-117.3572	
08:51:06	0	0	0	-0.02591383	10.67779	0	3	100	0	50	6.352717	1.581128	-117.4079	
08:51:06	0	0	0	0.01771734	12.2383	0	3	100	0	50	6.353361	1.566357	-117.4028	
08:51:06	0	0	0	0.05792517	13.77459	0	3	100	0	50	6.368346	1.576258	-117.4512	
08:51:06	0	0	0	0.08888538	14.01175	0	3	100	0	50	6.379326	1.581019	-117.5084	
08:51:07	0	0	0	0.109205	14.00271	0	3	100	0	50	6.382959	1.579759	-117.5681	
08:51:07	0	0	0	0.1371673	13.41752	0	3	100	0	50	6.389194	1.572068	-117.5523	
08:51:07	0	0	0	0.181469	14.36068	0	3	100	0	50	6.378705	1.558656	-117.5972	
08:51:07	0	0	0	0.1675602	12.28986	0	3	100	0	50	6.362913	1.566867	-117.6491	
08:51:07	0	0	0	0.1215848	8.914595	0	3	100	0	50	6.373034	1.551512	-117.6985	
08:51:08	0	0	0	0.08282451	6.398483	0	3	100	0	50	6.368519	1.536781	-117.7386	
08:51:08	0	0	0	0.05332043	4.60948	0	3	100	0	50	6.366298	1.516452	-117.7515	
08:51:08	0	0	0	0.02837853	3.621651	0	3	100	0	50	6.351542	1.516272	-117.7886	
08:51:08	0	0	0	0.01490705	3.265529	0	3	100	0	50	6.347999	1.500469	-117.8387	
08:51:08	0	0	0	0.004506698	2.283455	0	3	100	0	50	6.359933	1.497842	-117.874	
08:51:09	0	0	0	-7.366762E-05	2.496147	0	3	100	0	50	6.357798	1.469375	-117.8346	
08:51:09	0	0	0	0.03195471	4.642334	0	3	100	0	50	6.344572	1.463783	-117.873	
08:51:09	0	0	0	0.05296927	5.707861	0	3	98	0	50	6.355829	1.443323	-117.9098	
08:51:09	0	0	0	0.07006045	6.026984	0	3	98	0	50	6.356817	1.455058	-117.9399	
08:51:10	0	0	0	0.08452915	6.123851	0	3	98	0	50	6.379735	1.450589	-117.8386	
08:51:10	0	0	0	0.1065229	7.244164	0	3	98	0	50	6.372723	1.435211	-117.8305	
08:51:10	0	0	0	0.1283128	8.133646	0	3	98	0	50	6.365026	1.450896	-117.8308	
08:51:10	0	0	0	0.06178556	3.885255	0	3	98	0	50	6.362902	1.448252	-117.8448	
08:51:10	0	0	0	0.007152731	1.434342	0	3	98	0	50	6.345676	1.421845	-117.7998	
08:51:11	0	0	0	-0.01164464	0.9399993	0	3	98	0	50	6.345081	1.416485	-117.7907	
08:51:11	0	0	0	-0.02789042	-0.01488612	0	3	98	0	50	6.341232	1.411317	-117.8064	
08:51:11	0	0	0	-0.03144074	0.4409286	0	3	98	0	50	6.359161	1.41767	-117.8117	
08:51:11	0	0	0	-0.03290281	0.9657972	0	3	99	0	50	6.369419	1.420174	-117.8218	
08:51:11	0	0	0	0.02471902	4.293783	0	3	99	0	50	6.390068	1.405596	-117.7647	
08:51:12	0	0	0	0.07760999	6.610013	0	3	99	0	50	6.40062	1.397374	-117.7458	
08:51:12	0	0	0	0.1172972	7.888736	0	3	99	0	50	6.403824	1.390312	-117.7463	
08:51:12	0	0	0	0.1570047	9.420288	0	3	98	0	50	6.415549	1.400833	-117.726	
08:51:12	0	0	0	0.09206878	5.609506	0	3	98	0	50	6.412831	1.39245	-117.7099	
08:51:13	0	0	0	0.05791978	3.567968	0	3	98	0	50	6.410497	1.400051	-117.7214	
08:51:13	0	0	0	0.02372581	1.505539	0	3	98	0	50	6.416459	1.395183	-117.7259	
08:51:13	0	0	0	0.001355455	0.4803338	0	3	98	0	50	6.412847	1.397295	-117.6925	
08:51:13	0	0	0	-0.01827263	-0.3914624	0	3	98	0	50	6.420277	1.387213	-117.629	
08:51:13	0	0	0	-0.06059368	-2.707018	0	3	97	0	50	6.413086	1.392187	-117.6263	
08:51:14	0	0	0	-0.09937407	-4.709205	0	3	97	0	50	6.406107	1.383309	-117.6312	
08:51:14	0	0	0	-0.1364975	-6.336111	0	3	97	0	50	6.403208	1.375464	-117.6393	
08:51:14	0	0	0	-0.1726066	-6.930309	0	3	97	0	50	6.388128	1.382005	-117.555	
08:51:14	0	0	0	-0.19576	-7.565942	0	3	97	0	50	6.400358	1.386382	-117.5263	
08:51:14	0	0	0	-0.2091876	-8.031036	0	3	98	0	50	6.386932	1.378391	-117.5333	
08:51:15	0	0	0	-0.1966942	-5.933347	0	3	98	0	50	6.379057	1.367502	-117.5411	
08:51:15	0	0	0	-0.1583937	-3.054597	0	3	98	0	50	6.380316	1.362565	-117.5259	
08:51:15	0	0	0	-0.1212139	-1.163284	0	3	98	0	50	6.384092	1.363501	-117.484	
08:51:15	0	0	0	-0.08454842	1.259994	0	3	98	0	50	6.394155	1.367497	-117.4649	
08:51:15	0	0	0	-0.08386782	1.436907	0	3	98	0	50	6.3775	1.367038	-117.4458	
08:51:16	0	0	0	-0.115283	-0.4320211	0	3	98	0	50	6.365746	1.340669	-117.443	
08:51:16	0	0	0	-0.1405849	-1.458018	0	3	98	0	50	6.369131	1.321242	-117.3358	
08:51:16	0	0	0	-0.1655325	-2.729055	0	3	98	0	50	6.370883	1.337731	-117.2984	
08:51:16	0	0	0	-0.1884012	-4.089149	0	3	98	0	50	6.364688	1.356452	-117.2909	
08:51:16	0	0	0	-0.2096571	-4.848932	0	3	98	0	50	6.371676	1.347722	-117.2874	
08:51:17	0	0	0	-0.2066346	-4.050637	0	3	98	0	50	6.373616	1.32467	-117.2335	
08:51:17	0	0	0	-0.1804419	-1.774983	0	3	98	0	50	6.37686	1.34339	-117.1769	
08:51:17	0	0	0	-0.1545689	0.5293552	0	3	98	0	50	6.377841	1.357051	-117.1687	
08:51:17	0	0	0	-0.1367028	2.33522	0	3	98	0	50	6.368079	1.356418	-117.1677	
08:51:17	0	0	0	-0.123796	3.27058	0	3	98	0	50	6.365796	1.359193	-117.1729	
08:51:18	0	0	0	-0.1165815	3.782453	0	3	98	0	50	6.359406	1.340955	-117.0746	
08:51:18	0	0	0	-0.1148698	3.682029	0	3	98	0	50	6.363299	1.343734	-117.0507	
08:51:18	0	0	0	-0.1217226	3.20771	0	3	98	0	50	6.357965	1.351922	-117.0469	
08:51:18	0	0	0	-0.149684	1.510407	0	3	98	0	50	6.356951	1.358247	-117.0444	
08:51:18	0	0	0	-0.2118667	-1.613076	0	3	98	0	50	6.335029	1.355526	-117.0147	
08:51:19	0	0	0	-0.2589304	-4.089244	0	3	98	0	50	6.324177	1.338592	-116.9895	
08:51:19	0	0	0	-0.296207	-5.451016	0	3	98	0	50	6.324376	1.333671	-116.9859	
08:51:19	0	0	0	-0.3292252	-6.602968	0	3	98	0	50	6.329228	1.352935	-116.9869	
08:51:19	0	0	0	-0.3902442	-8.991325	0	3	98	0	50	6.318711	1.357275	-116.9759	
08:51:19	0	0	0	-0.4393178	-10.7458	0	3	98	0	50	6.314425	1.340467	-116.8592	
08:51:20	0	0	0	-0.4949061	-12.67401	0	3	98	0	50	6.306509	1.33876	-116.851	
08:51:20	0	0	0	-0.5439129	-14.3443	0	3	98	0	50	6.293872	1.329043	-116.8669	
08:51:20	0	0	0	-0.518867	-11.49603	0	3	98	0	50	6.287562	1.314655	-116.8516	
08:51:20	0	0	0	-0.4978992	-9.251497	0	3	98	0	50	6.297057	1.303612	-116.7541	
08:51:21	0	0	0	-0.4868181	-7.482215	0	3	98	0	50	6.310001	1.288347	-116.7156	
08:51:21	0	0	0	-0.4758864	-6.103992	0	3	98	0	50	6.320627	1.288727	-116.6979	
08:51:21	0	0	0	-0.4439493	-3.480887	0	3	98	0	50	6.315642	1.293623	-116.6903	
08:51:21	0	0	0	-0.4094076	-0.6653506	0	3	98	0	50	6.32007	1.300888	-116.6733	
08:51:21	0	0	0	-0.4357948	-2.020156	0	3	98	0	50	6.317062	1.295622	-116.5882	
08:51:21	0	0	0	-0.4601957	-3.24101	0	3	98	0	50	6.311274	1.301488	-116.5179	
08:51:22	0	0	0	-0.447	-1.725686	0	3	98	0	50	6.322026	1.326651	-116.5159	
08:51:22	0	0	0	-0.4334073	-1.270796	0	3	98	0	50	6.320435	1.313388	-116.5171	
08:51:22	0	0	0	-0.4608609	-2.460222	0	3	98	0	50	6.317817	1.329762	-116.4206	
08:51:22	0	0	0	-0.489699	-3.222091	0	3	98	0	50	6.323299	1.313802	-116.3873	
08:51:23	0	0	0	-0.5178895	-4.593093	0	3	98	0	50	6.317045	1.306691	-116.3891	
08:51:23	0	0	0	-0.5436129	-5.982605	0	3	98	0	50	6.307475	1.32111	-116.3935	
08:51:23	0	0	0	-0.5935391	-7.812018	0	3	98	0	50	6.313663	1.324768	-116.3936	
08:51:23	0	0	0	-0.6377184	-9.638919	0	3	98	0	50	6.320318	1.320156	-116.396	
08:51:23	0	0	0	-0.6543891	-9.287617	0	3	98	0	50	6.32715	1.334355	-116.3886	
08:51:23	0	0	0	-0.6678266	-9.211624	0	3	98	0	50	6.34003	1.354695	-116.3911	
08:51:24	0	0	0	-0.6620172	-7.757868	0	3	98	0	50	6.357316	1.360361	-116.3943	
08:51:24	0	0	0	-0.6539229	-6.001265	0	3	98	0	50	6.365252	1.357686	-116.3226	
08:51:24	0	0	0	-0.6491117	-5.176011	0	3	98	0	50	6.38961	1.361557	-116.2688	
08:51:24	0	0	0	-0.6492758	-4.483562	0	3	98	0	50	6.406271	1.371175	-116.2371	
08:51:24	0	0	0	-0.6468933	-3.692843	0	3	98	0	50	6.411714	1.392772	-116.2386	
08:51:25	0	0	0	-0.6415976	-3.114304	0	3	98	0	50	6.390716	1.404666	-116.2405	
08:51:25	0	0	0	-0.6056896	-0.8746201	0	3	98	0	50	6.395407	1.423883	-116.1403	
08:51:25	0	0	0	-0.5518884	2.097867	0	3	98	0	50	6.39295	1.450707	-116.1329	
08:51:25	0	0	0	-0.483265	5.999823	0	3	98	0	50	6.394114	1.469568	-116.1419	
08:51:25	0	0	0	-0.4161335	9.081665	0	3	98	0	50	6.401899	1.461828	-116.1453	
08:51:26	0	0	0	-0.3603454	11.40846	0	3	98	0	50	6.404319	1.466432	-116.0727	
08:51:26	0	0	0	-0.3280056	11.47835	0	3	98	0	50	6.405221	1.480365	-116.0149	
08:51:26	0	0	0	-0.3271532	10.42977	0	3	98	0	50	6.411078	1.48682	-116.0027	
08:51:26	0	0	0	-0.3650717	7.952657	0	3	98	0	50	6.403971	1.479089	-116.0219	
08:51:27	0	0	0	-0.4138737	4.814719	0	3	98	0	50	6.410366	1.488467	-116.0074	
08:51:27	0	0	0	-0.4657794	1.466873	0	3	98	0	50	6.411667	1.48287	-115.9783	
08:51:27	0	0	0	-0.5216143	-1.626743	0	3	98	0	50	6.410836	1.509601	-115.9924	
08:51:27	0	0	0	-0.5774847	-4.258487	0	3	98	0	50	6.412814	1.503265	-116.0033	
08:51:27	0	0	0	-0.614057	-5.916623	0	3	98	0	50	6.412711	1.480221	-116.0204	
08:51:28	0	0	0	-0.6322803	-6.555656	0	3	98	0	50	6.42505	1.478329	-115.9274	
08:51:28	0	0	0	-0.6496678	-6.947295	0	3	98	0	50	6.421091	1.461622	-115.9339	
08:51:28	0	0	0	-0.6634827	-6.78012	0	3	98	0	50	6.416649	1.448374	-115.9483	
08:51:28	0	0	0	-0.6847558	-6.570929	0	3	98	0	50	6.399445	1.430454	-115.9615	
08:51:28	0	0	0	-0.7124144	-7.356308	0	3	98	0	50	6.402962	1.420217	-115.9554	
08:51:28	0	0	0	-0.6954774	-6.15859	0	3	98	0	50	6.394998	1.402082	-115.8552	
08:51:29	0	0	0	-0.648547	-3.231298	0	3	98	0	50	6.40193	1.407229	-115.8558	
08:51:29	0	0	0	-0.6056112	-0.6178631	0	3	98	0	50	6.389919	1.395488	-115.8675	
08:51:29	0	0	0	-0.6653246	-3.138299	0	3	98	0	50	6.38805	1.423664	-115.8899	
08:51:29	0	0	0	-0.7193818	-6.152116	0	3	98	0	50	6.39517	1.402796	-115.8156	
08:51:29	0	0	0	-0.7498943	-7.121359	0	3	98	0	50	6.389958	1.419598	-115.8188	
08:51:30	0	0	0	-0.7817671	-7.400981	0	3	98	0	50	6.378787	1.417698	-115.8422	
08:51:30	0	0	0	-0.8251056	-9.193882	0	3	98	0	50	6.364767	1.416051	-115.8584	
08:51:30	0	0	0	-0.8681386	-10.84313	0	3	98	0	50	6.341914	1.422408	-115.8726	
08:51:30	0	0	0	-0.8970003	-11.33154	0	3	98	0	50	6.324908	1.388534	-115.8439	
08:51:30	0	0	0	-0.9232718	-11.33163	0	3	98	0	50	6.332269	1.400324	-115.854	
08:51:31	0	0	0	-0.9444355	-11.17332	0	3	98	0	50	6.32436	1.395261	-115.8782	
08:51:31	0	0	0	-0.9632185	-10.73357	0	3	98	0	50	6.318896	1.409384	-115.8885	
08:51:31	0	0	0	-0.971548	-9.411062	0	3	98	0	50	6.311186	1.412153	-115.8839	
08:51:31	0	0	0	-0.9751986	-8.393038	0	3	98	0	50	6.297471	1.384886	-115.8393	
08:51:31	0	0	0	-0.8987125	-3.902606	0	3	98	0	50	6.281516	1.387645	-115.8542	
08:51:32	0	0	0	-0.8203901	0.8505741	0	3	98	0	50	6.267685	1.388369	-115.865	
08:51:32	0	0	0	-0.7874374	2.636299	0	3	98	0	50	6.263489	1.35992	-115.8545	
08:51:32	0	0	0	-0.757938	3.688962	0	3	98	0	50	6.259783	1.335927	-115.7976	
08:51:32	0	0	0	-0.6985565	6.65866	0	3	98	0	50	6.258238	1.347544	-115.7476	
08:51:33	0	0	0	-0.6389423	9.724098	0	3	98	0	50	6.264767	1.350156	-115.7535	
08:51:33	0	0	0	-0.6102912	10.52924	0	3	98	0	50	6.268443	1.343944	-115.7637	
08:51:33	0	0	0	-0.5855505	11.25085	0	3	98	0	50	6.267588	1.358534	-115.7512	
08:51:33	0	0	0	-0.6109241	9.068136	0	3	98	0	50	6.279139	1.365834	-115.6765	
08:51:33	0	0	0	-0.6356324	7.071012	0	3	98	0	50	6.268082	1.360255	-115.6921	
08:51:34	0	0	0	-0.6637437	4.887806	0	3	98	0	50	6.255646	1.368905	-115.7074	
08:51:34	0	0	0	-0.6927803	3.271756	0	3	98	0	50	6.274082	1.386762	-115.678	
08:51:34	0	0	0	-0.7012791	2.560664	0	3	98	0	50	6.261065	1.384905	-115.6678	
08:51:34	0	0	0	-0.6832886	3.25904	0	3	98	0	50	6.278912	1.399818	-115.6805	
08:51:34	0	0	0	-0.6581709	4.428038	0	3	98	0	50	6.278512	1.4068	-115.6925	
08:51:35	0	0	0	-0.6199304	5.433998	0	3	98	0	50	6.283482	1.38418	-115.7115	
08:51:35	0	0	0	-0.603398	6.336962	0	3	98	0	50	6.289668	1.384097	-115.7038	
08:51:35	0	0	0	-0.5975832	6.10378	0	3	98	0	50	6.285113	1.387761	-115.7081	
08:51:35	0	0	0	-0.6128607	5.176278	0	3	98	0	50	6.279765	1.407481	-115.7194	
08:51:35	0	0	0	-0.6404294	3.076713	0	3	98	0	50	6.282113	1.4234	-115.7248	
08:51:36	0	0	0	-0.6645852	1.895382	0	3	98	0	50	6.279494	1.414287	-115.6368	
08:51:36	0	0	0	-0.6898363	0.8245692	0	3	98	0	50	6.281711	1.418749	-115.6247	
08:51:36	0	0	0	-0.6798918	1.923842	0	3	98	0	50	6.276979	1.4304	-115.6374	
08:51:36	0	0	0	-0.6254956	4.318928	0	3	98	0	50	6.269506	1.42936	-115.652	
08:51:36	0	0	0	-0.5725031	6.454196	0	3	98	0	50	6.274052	1.411602	-115.638	
08:51:37	0	0	0	-0.5133671	8.507956	0	3	98	0	50	6.274266	1.400462	-115.5572	
08:51:37	0	0	0	-0.4729027	10.29272	0	3	98	0	50	6.276211	1.383612	-115.5582	
08:51:37	0	0	0	-0.4325812	11.1706	0	3	98	0	50	6.270805	1.37133	-115.5794	
08:51:37	0	0	0	-0.4031839	11.82505	0	3	98	0	50	6.269831	1.362258	-115.5897	
08:51:37	0	0	0	-0.3819771	12.07404	0	3	98	0	50	6.284708	1.361261	-115.5117	
08:51:38	0	0	0	-0.3566633	12.62937	0	3	98	0	50	6.287719	1.386604	-115.5049	
08:51:38	0	0	0	-0.3289919	12.74141	0	3	98	0	50	6.29541	1.379674	-115.5109	
08:51:38	0	0	0	-0.3135155	12.71023	0	3	98	0	50	6.293423	1.405834	-115.5222	
08:51:38	0	0	0	-0.311883	11.77213	0	3	98	0	50	6.290956	1.429456	-115.4916	
08:51:38	0	0	0	-0.3174607	10.31381	0	3	98	0	50	6.29953	1.434579	-115.4209	
08:51:39	0	0	0	-0.3290463	8.764752	0	3	98	0	50	6.307053	1.430197	-115.4397	
08:51:39	0	0	0	-0.3397189	7.68251	0	3	98	0	50	6.305767	1.429866	-115.457	
08:51:39	0	0	0	-0.3282713	7.621529	0	3	98	0	50	6.316622	1.437071	-115.4843	
08:51:39	0	0	0	-0.3206761	7.109878	0	3	98	0	50	6.323572	1.429439	-115.4041	
08:51:39	0	0	0	-0.2798496	9.025219	0	3	98	0	50	6.32879	1.426562	-115.3804	
08:51:40	0	0	0	-0.2461289	10.58833	0	3	98	0	50	6.313356	1.433078	-115.4054	
08:51:40	0	0	0	-0.2746625	7.838768	0	3	98	0	50	6.321605	1.439774	-115.4238	
08:51:40	0	0	0	-0.3028513	5.176253	0	3	98	0	50	6.320174	1.454742	-115.43	
08:51:40	0	0	0	-0.4027985	-0.7795932	0	3	98	0	50	6.315143	1.458542	-115.4024	
08:51:40	0	0	0	-0.5019512	-5.61668	0	3	98	0	50	6.32256	1.456196	-115.4104	
08:51:41	0	0	0	-0.5675303	-8.196038	0	3	98	0	50	6.322509	1.467319	-115.4246	
08:51:41	0	0	0	-0.6253533	-10.23569	0	3	98	0	50	6.330432	1.476079	-115.4295	
08:51:41	0	0	0	-0.6327299	-9.679258	0	3	98	0	50	6.331948	1.474098	-115.338	
08:51:41	0	0	0	-0.6377558	-9.060374	0	3	98	0	50	6.336143	1.473596	-115.3317	
08:51:41	0	0	0	-0.6256968	-7.925693	0	3	98	0	50	6.338394	1.491014	-115.3542	
08:51:42	0	0	0	-0.6117988	-6.314492	0	3	98	0	50	6.330946	1.503817	-115.3813	
08:51:42	0	0	0	-0.6048098	-4.961158	0	3	98	0	50	6.329002	1.504968	-115.3963	
08:51:42	0	0	0	-0.5967104	-3.538146	0	3	98	0	50	6.345735	1.528961	-115.4064	
08:51:42	0	0	0	-0.5465377	-0.225559	0	3	98	0	50	6.354043	1.563367	-115.4197	
08:51:42	0	0	0	-0.4972462	2.475779	0	3	98	0	50	6.361767	1.578801	-115.4477	
08:51:43	0	0	0	-0.5050439	1.762516	0	3	98	0	50	6.370614	1.616253	-115.4569	
08:51:43	0	0	0	-0.5114971	2.145654	0	3	98	0	50	6.371681	1.633126	-115.388	
08:51:43	0	0	0	-0.4867306	3.614933	0	3	98	0	50	6.367797	1.658257	-115.4053	
08:51:43	0	0	0	-0.4646922	4.035928	0	3	98	0	50	6.35349	1.657351	-115.4367	
08:51:43	0	0	0	-0.4576924	4.313567	0	3	98	0	50	6.354399	1.689527	-115.4654	
08:51:44	0	0	0	-0.4508184	4.350917	0	3	98	0	50	6.364999	1.693698	-115.4627	
08:51:44	0	0	0	-0.4666505	3.531838	0	3	98	0	50	6.347619	1.693748	-115.4585	
08:51:44	0	0	0	-0.501394	1.838045	0	3	98	0	50	6.346404	1.681488	-115.4971	
08:51:44	0	0	0	-0.5131648	0.6736577	0	3	98	0	50	6.338367	1.696726	-115.5219	
08:51:44	0	0	0	-0.5037282	1.404852	0	3	98	0	50	6.345259	1.695992	-115.5438	
08:51:45	0	0	0	-0.4918311	1.980139	0	3	98	0	50	6.344391	1.685842	-115.5144	
08:51:45	0	0	0	-0.4785772	2.721537	0	3	98	0	50	6.354556	1.676013	-115.5267	
08:51:45	0	0	0	-0.4831679	2.513205	0	3	98	0	50	6.354323	1.694274	-115.5529	
08:51:45	0	0	0	-0.5030465	1.879103	0	3	98	0	50	6.35054	1.689008	-115.5801	
08:51:45	0	0	0	-0.5112129	1.373994	0	3	99	0	50	6.35236	1.676272	-115.4985	
08:51:46	0	0	0	-0.5088828	1.350075	0	3	99	0	50	6.354787	1.671869	-115.4688	
08:51:46	0	0	0	-0.5006651	1.116581	0	3	98	0	50	6.351258	1.655744	-115.4953	
08:51:46	0	0	0	-0.4871152	2.17714	0	3	98	0	50	6.352319	1.667534	-115.53	
08:51:46	0	0	0	-0.4816129	2.04405	0	3	98	0	50	6.357776	1.672706	-115.562	
08:51:46	0	0	0	-0.4840946	1.397672	0	3	98	0	50	6.360755	1.660262	-115.4924	
08:51:47	0	0	0	-0.5108593	0.006857328	0	3	98	0	50	6.3613	1.655883	-115.5003	
08:51:47	0	0	0	-0.5494503	-2.344857	0	3	98	0	50	6.355811	1.659925	-115.5464	
08:51:47	0	0	0	-0.563475	-3.338804	0	3	98	0	50	6.360855	1.660767	-115.5712	
08:51:47	0	0	0	-0.5528492	-1.705359	0	3	98	0	50	6.348526	1.634351	-115.5249	
08:51:47	0	0	0	-0.555183	-1.190001	0	3	98	0	50	6.347445	1.64073	-115.5236	
08:51:48	0	0	0	-0.5759587	-2.284371	0	3	98	0	50	6.336565	1.62852	-115.5493	
08:51:48	0	0	0	-0.6193956	-4.305368	0	3	98	0	50	6.335079	1.629036	-115.5857	
08:51:48	0	0	0	-0.6782083	-6.67307	0	3	98	0	50	6.31107	1.624683	-115.5882	
08:51:48	0	0	0	-0.708098	-8.062604	0	3	98	0	50	6.312496	1.648171	-115.5403	
08:51:48	-6.795918	38.98534	110.294	-0.7130425	-7.689438	0.53	3	98	0	50	6.319154	1.650824	-115.5453	
08:51:49	-6.79592	38.98535	109.649	-0.7156327	-6.795331	0.69	3	98	0	50	6.311361	1.646376	-115.5765	
08:51:49	-6.79592	38.98535	109.196	-0.7031617	-5.224195	0.63	3	98	0	50	6.301662	1.646768	-115.6001	
08:51:49	-6.79592	38.98535	109.304	-0.689628	-3.350224	0.66	3	98	0	50	6.292013	1.645361	-115.4855	
08:51:49	-6.79592	38.98535	109.534	-0.6556798	-1.375172	0.36	3	98	0	50	6.283401	1.639635	-115.4938	
08:51:49	-6.795922	38.98535	110.401	-0.6213591	0.4484354	0.17	3	98	0	50	6.295472	1.623375	-115.5227	
08:51:50	-6.795925	38.98535	111.065	-0.6452297	-0.404085	0.19	3	98	0	50	6.298976	1.628892	-115.5418	
08:51:50	-6.795925	38.98535	111.065	-0.6663203	-1.324418	0.31	3	98	0	50	6.305892	1.644579	-115.5454	
08:51:50	-6.795926	38.98535	111.572	-0.6760045	-1.904844	0.13	3	98	0	50	6.308156	1.651945	-115.4838	
08:51:50	-6.795926	38.98535	111.693	-0.6864467	-2.727647	0.28	3	98	0	50	6.30986	1.677157	-115.5012	
08:51:50	-6.795927	38.98535	111.627	-0.695493	-2.589659	0.07	3	98	0	50	6.3091	1.675613	-115.5355	
08:51:51	-6.795926	38.98535	111.564	-0.7025852	-2.487042	0.13	3	98	0	50	6.307013	1.693293	-115.5662	
08:51:51	-6.795927	38.98535	112.167	-0.6813429	-0.8350763	0.22	3	98	0	50	6.317038	1.680174	-115.4562	
08:51:51	-6.795929	38.98535	113.134	-0.6605033	0.8939775	0.19	3	98	0	50	6.30879	1.68872	-115.4524	
08:51:51	-6.795931	38.98535	113.937	-0.6267399	2.264993	0.13	3	98	0	50	6.30312	1.671228	-115.4843	
08:51:51	-6.795933	38.98535	114.542	-0.5933872	3.618376	0.29	3	98	0	50	6.292571	1.680278	-115.5072	
08:51:52	-6.795935	38.98535	115.412	-0.5781211	4.296632	0.31	3	98	0	50	6.298657	1.674237	-115.4783	
08:51:52	-6.795935	38.98535	115.698	-0.5649396	4.345345	0.13	3	98	0	50	6.305297	1.677039	-115.4996	
08:51:52	-6.795934	38.98535	115.575	-0.5326004	5.327878	0.26	3	98	0	50	6.312119	1.667882	-115.5276	
08:51:52	-6.795933	38.98535	115.336	-0.5023923	5.737889	0.91	3	98	0	50	6.305018	1.676016	-115.5504	
08:51:52	-6.79593	38.98535	114.817	-0.4700802	7.034163	0.76	3	98	0	50	6.309055	1.682093	-115.5736	
08:51:53	-6.795929	38.98535	114.718	-0.4419265	7.802166	0.53	3	98	0	50	6.312613	1.690987	-115.5182	
08:51:53	-6.795929	38.98534	114.637	-0.3865474	9.375332	0.32	3	98	0	50	6.309344	1.683116	-115.5067	
08:51:53	-6.795929	38.98534	114.641	-0.3381203	11.02607	0.14	3	98	0	50	6.297117	1.688086	-115.5289	
08:51:53	-6.795929	38.98534	114.982	-0.2835043	12.80865	0.21	3	98	0	50	6.301883	1.68763	-115.5623	
08:51:53	-6.795929	38.98534	114.673	-0.2305676	14.14837	0.29	3	98	0	50	6.301219	1.696653	-115.5364	
08:51:54	-6.795929	38.98535	114.793	-0.1988263	14.27107	0.34	3	98	0	50	6.306661	1.687407	-115.4981	
08:51:54	-6.795929	38.98535	114.862	-0.1913171	13.78681	0.33	3	98	0	50	6.321437	1.724406	-115.491	
08:51:54	-6.795929	38.98535	114.929	-0.1731586	13.44003	0.22	3	98	0	50	6.322628	1.717445	-115.5185	
08:51:54	-6.795928	38.98535	114.83	-0.1460185	13.84244	0.18	3	98	0	50	6.302504	1.7111	-115.5499	
08:51:54	-6.795927	38.98534	114.622	-0.1228622	13.18952	0.28	3	98	0	50	6.303371	1.700163	-115.5401	
08:51:55	-6.795926	38.98534	114.234	-0.1065447	12.55603	0.09	3	98	0	50	6.296883	1.694646	-115.5539	
08:51:55	-6.795924	38.98534	114.024	-0.07968713	12.25352	0.14	3	98	0	50	6.299116	1.703781	-115.592	
08:51:55	-6.795923	38.98534	113.789	-0.04505496	13.40401	0.06	3	98	0	50	6.29636	1.707298	-115.6171	
08:51:55	-6.795922	38.98534	113.358	-0.0173736	13.44349	0.06	3	98	0	50	6.293573	1.710852	-115.5957	
08:51:55	-6.795922	38.98534	113.286	0.002730851	13.30182	0.11	3	98	0	50	6.295156	1.680299	-115.622	
08:51:56	-6.795922	38.98534	113.335	0.01099697	12.83748	0.09	3	99	0	50	6.293136	1.652822	-115.6554	
08:51:56	-6.795921	38.98534	113.464	0.005482972	11.41469	0.39	3	99	0	50	6.287534	1.630008	-115.6876	
08:51:56	-6.79592	38.98534	113.453	-0.00508522	9.535382	0.07	3	99	0	50	6.300502	1.619348	-115.7097	
08:51:56	-6.795921	38.98534	113.641	-0.02012908	7.895715	0.29	3	99	0	50	6.291581	1.60065	-115.659	
08:51:56	-6.795921	38.98534	113.662	-0.04712756	6.302986	0.09	3	99	0	50	6.287152	1.594048	-115.6623	
08:51:57	-6.795922	38.98534	113.926	-0.07904103	4.469653	0.11	3	99	0	50	6.287328	1.593665	-115.6756	
08:51:57	-6.795922	38.98534	113.883	-0.1052923	3.105165	0.09	3	99	0	50	6.280413	1.581681	-115.6914	
08:51:57	-6.795922	38.98535	114.371	-0.1278504	0.9480084	0.36	3	99	0	50	6.279985	1.571128	-115.6187	
08:51:57	-6.795922	38.98535	114.371	-0.1637195	-0.9094321	0.22	3	99	0	50	6.279214	1.563006	-115.6151	
08:51:57	-6.795922	38.98535	114.745	-0.2207058	-3.55587	0.29	3	99	0	50	6.275882	1.567533	-115.6242	
08:51:58	-6.795923	38.98535	114.944	-0.2841994	-6.880197	0.32	3	99	0	50	6.270323	1.566015	-115.6472	
08:51:58	-6.795923	38.98535	115.283	-0.3654907	-10.32314	0.17	3	99	0	50	6.251164	1.574297	-115.6546	
08:51:58	-6.795923	38.98535	115.456	-0.4096032	-12.21609	0.06	3	99	0	50	6.244664	1.588115	-115.6435	
08:51:58	-6.795923	38.98535	115.813	-0.4267423	-12.11326	0.21	3	99	0	50	6.247331	1.588829	-115.6607	
08:51:58	-6.795923	38.98535	115.855	-0.4405015	-11.81632	0.09	3	99	0	50	6.234624	1.581678	-115.6847	
08:51:59	-6.795923	38.98535	115.934	-0.425914	-9.873583	0.28	3	99	0	50	6.261803	1.596602	-115.7047	
08:51:59	-6.795922	38.98535	116.018	-0.4105359	-7.82285	0.55	3	99	0	50	6.277	1.604988	-115.6968	
08:51:59	-6.795922	38.98535	116.179	-0.4117766	-7.148184	0.24	3	99	0	50	6.285706	1.607188	-115.6766	
08:51:59	-6.795922	38.98535	116.326	-0.4115424	-6.172478	0.12	3	99	0	50	6.28062	1.620803	-115.6897	
08:51:59	-6.795922	38.98535	116.724	-0.4405223	-7.068803	0.12	3	99	0	50	6.278141	1.632974	-115.7089	
08:52:00	-6.795922	38.98535	116.844	-0.465798	-7.767598	0.26	3	99	0	50	6.282098	1.643735	-115.7223	
08:52:00	-6.795922	38.98535	116.799	-0.4506785	-5.873587	0.19	3	99	0	50	6.29904	1.627227	-115.6882	
08:52:00	-6.795922	38.98535	116.84	-0.4344525	-4.632783	0.29	3	99	0	50	6.302393	1.619457	-115.7098	
08:52:00	-6.795922	38.98535	117.071	-0.4210389	-3.395802	0.48	3	99	0	50	6.306758	1.603952	-115.7296	
08:52:00	-6.795923	38.98535	117.072	-0.4082129	-2.521162	0.19	3	99	0	50	6.29831	1.600932	-115.7397	
08:52:01	-6.795923	38.98535	117.114	-0.3841865	-1.069093	0.19	3	99	0	50	6.278829	1.603936	-115.7313	
08:52:01	-6.795923	38.98535	117.062	-0.3615786	0.4896487	0.04	3	99	0	50	6.289921	1.57981	-115.7475	
08:52:01	-6.795924	38.98535	117.209	-0.2915761	4.019824	0.34	3	99	0	50	6.295056	1.573299	-115.7567	
08:52:01	-6.795924	38.98535	117.245	-0.2213255	7.564905	0.22	3	99	0	50	6.286484	1.550954	-115.7633	
08:52:01	-6.795924	38.98535	117.334	-0.2325764	5.933671	0.14	3	99	0	50	6.290369	1.560983	-115.7395	
08:52:02	-6.795925	38.98535	117.211	-0.2444049	4.681602	0.04	3	99	0	50	6.297708	1.583582	-115.7112	
08:52:02	-6.795925	38.98535	117.397	-0.2485679	4.380832	0.18	3	99	0	50	6.311722	1.587144	-115.7267	
08:52:02	-6.795924	38.98535	117.159	-0.2535352	3.49532	0.64	3	99	0	50	6.324169	1.617392	-115.7323	
08:52:02	-6.795924	38.98535	117.096	-0.2520832	2.690262	0.14	3	99	0	50	6.331317	1.615666	-115.7472	
08:52:02	-6.795923	38.98535	117.137	-0.2512545	2.740411	0.39	3	99	0	50	6.326782	1.608842	-115.7259	
08:52:03	-6.795923	38.98535	117.121	-0.2704288	1.249496	0.32	3	99	0	50	6.350666	1.599582	-115.7242	
08:52:03	-6.795922	38.98535	117.016	-0.2887434	0.07295604	0.72	3	99	0	50	6.334399	1.625737	-115.7417	
08:52:03	-6.795922	38.98535	117.177	-0.3131731	-1.136357	0.19	3	99	0	50	6.346632	1.628113	-115.7657	
08:52:03	-6.795922	38.98535	117.402	-0.3376264	-2.494071	0.08	3	99	0	50	6.341742	1.632209	-115.7754	
08:52:03	-6.795923	38.98535	117.571	-0.3701435	-4.151878	0.39	3	99	0	50	6.346795	1.63391	-115.7194	
08:52:04	-6.795923	38.98535	117.667	-0.4143794	-6.216538	0.39	3	99	0	50	6.361337	1.617614	-115.7383	
08:52:04	-6.795924	38.98535	117.788	-0.4317695	-6.417291	0.45	3	99	0	50	6.353043	1.624097	-115.7478	
08:52:04	-6.795925	38.98535	117.649	-0.4184453	-5.24095	0.07	3	99	0	50	6.340576	1.635778	-115.7774	
08:52:04	-6.795924	38.98535	117.691	-0.4350543	-5.402512	0.09	3	99	0	50	6.336368	1.634279	-115.7257	
08:52:04	-6.795925	38.98535	117.722	-0.4693049	-7.036282	0.44	3	99	0	50	6.328648	1.63941	-115.7147	
08:52:05	-6.795925	38.98535	117.722	-0.5207625	-9.333041	0.14	3	99	0	50	6.332767	1.651587	-115.7315	
08:52:05	-6.795925	38.98535	117.845	-0.5795304	-11.71715	0.31	3	98	0	50	6.321294	1.613259	-115.7396	
08:52:05	-6.795925	38.98535	117.827	-0.6734536	-14.48776	0.04	3	98	0	50	6.321145	1.586188	-115.7376	
08:52:05	-6.795925	38.98535	117.816	-0.6840621	-13.79126	0.03	3	98	0	50	6.322485	1.59304	-115.7569	
08:52:06	-6.795925	38.98535	117.816	-0.6630259	-11.57774	0.03	3	98	0	50	6.326309	1.59275	-115.7741	
08:52:06	-6.795925	38.98535	118.094	-0.6333637	-8.683123	0.22	3	98	0	50	6.330803	1.572039	-115.7831	
08:52:06	-6.795925	38.98535	118.098	-0.6001693	-6.207325	0.18	3	98	0	50	6.319627	1.572754	-115.7395	
08:52:06	-6.795925	38.98535	117.831	-0.5899316	-4.795828	0.25	3	98	0	50	6.316232	1.576893	-115.706	
08:52:06	-6.795924	38.98535	117.756	-0.6004694	-5.137016	0.16	3	98	0	50	6.315383	1.582311	-115.7012	
08:52:07	-6.795925	38.98535	117.932	-0.6149181	-5.288909	0.33	3	98	0	50	6.309622	1.599866	-115.7207	
08:52:07	-6.795925	38.98535	118.261	-0.6326806	-5.76144	0.22	3	98	0	50	6.304371	1.600972	-115.7032	
08:52:07	-6.795925	38.98535	118.025	-0.6420386	-6.392162	0.29	3	98	0	50	6.30572	1.586466	-115.6737	
08:52:07	-6.795923	38.98535	118.091	-0.6442031	-6.031552	0.57	3	98	0	50	6.297832	1.586321	-115.6846	
08:52:07	-6.795923	38.98535	118.017	-0.6343374	-5.257242	0.16	3	98	0	50	6.290178	1.596604	-115.696	
08:52:08	-6.795923	38.98535	118.107	-0.6075586	-3.302466	0.14	3	99	0	50	6.275014	1.581115	-115.7126	
08:52:08	-6.795923	38.98535	118.037	-0.5696094	-1.063624	0.13	3	99	0	50	6.288146	1.566806	-115.583	
08:52:08	-6.795923	38.98535	118.023	-0.5083112	2.534611	0.24	3	99	0	50	6.292441	1.558839	-115.5659	
08:52:08	-6.795923	38.98535	118.06	-0.4580269	5.289878	0.24	3	99	0	50	6.300686	1.554533	-115.5819	
08:52:08	-6.795923	38.98535	118.099	-0.4836107	3.671199	0.17	3	99	0	50	6.299378	1.544423	-115.6036	
08:52:09	-6.795923	38.98535	118.079	-0.5134792	1.159921	0.09	3	99	0	50	6.311674	1.561589	-115.5204	
08:52:09	-6.795923	38.98535	118.107	-0.5156876	0.3390626	0.11	3	99	0	50	6.316448	1.572929	-115.514	
08:52:09	-6.795923	38.98535	118.076	-0.5187052	0.02463221	0.29	3	99	0	50	6.320698	1.560286	-115.5398	
08:52:09	-6.795922	38.98535	117.944	-0.5163525	0.1380273	0.11	3	99	0	50	6.326133	1.558634	-115.5596	
08:52:09	-6.795923	38.98535	118.143	-0.5147012	-0.1522779	0.29	3	99	0	50	6.334348	1.544077	-115.5532	
08:52:10	-6.795922	38.98535	118.178	-0.5046623	0.2303202	0.38	3	99	0	50	6.333688	1.537339	-115.4849	
08:52:10	-6.795923	38.98535	118.413	-0.4944506	0.8510667	0.26	3	99	0	50	6.346284	1.551828	-115.4948	
08:52:10	-6.795923	38.98535	118.55	-0.4994242	0.7581809	0.26	3	99	0	50	6.33529	1.539824	-115.5143	
08:52:10	-6.795923	38.98535	118.506	-0.5038839	0.1724298	0.14	3	99	0	50	6.330401	1.535431	-115.5188	
08:52:10	-6.795923	38.98535	118.381	-0.5681563	-3.207601	0.11	3	99	0	50	6.31861	1.553563	-115.4647	
08:52:11	-6.795923	38.98535	118.479	-0.6399477	-6.781679	0.26	3	99	0	50	6.321744	1.564757	-115.4592	
08:52:11	-6.795924	38.98535	119.181	-0.6504976	-7.036372	0.29	3	99	0	50	6.316035	1.567745	-115.4815	
08:52:11	-6.795924	38.98535	119.694	-0.6618365	-7.289989	0.29	3	99	0	50	6.320454	1.560188	-115.5107	
08:52:11	-6.795924	38.98535	119.826	-0.6152229	-3.921291	0.11	3	99	0	50	6.340179	1.571891	-115.5187	
08:52:11	-6.795923	38.98535	119.573	-0.5672386	-0.8557545	0.26	3	99	0	50	6.355226	1.58618	-115.4934	
08:52:12	-6.795923	38.98535	119.644	-0.5020928	2.47273	0.19	3	99	0	50	6.360596	1.58579	-115.5001	
08:52:12	-6.795923	38.98535	119.891	-0.4382447	5.971603	0.26	3	98	0	50	6.359209	1.599334	-115.5243	
08:52:12	-6.795923	38.98535	120.239	-0.393788	7.91822	0.38	3	98	0	50	6.363369	1.604283	-115.5434	
08:52:12	-6.795923	38.98535	120.342	-0.3548131	9.286218	0.21	3	98	0	50	6.381824	1.60818	-115.4659	
08:52:12	-6.795922	38.98535	120.355	-0.3581535	8.176369	0.19	3	98	0	50	6.382075	1.58312	-115.4716	
08:52:13	-6.795922	38.98535	120.455	-0.3627992	7.26759	0.14	3	98	0	50	6.382929	1.600624	-115.4811	
08:52:13	-6.795922	38.98535	120.834	-0.3485942	7.884789	0.28	3	99	0	50	6.386889	1.602692	-115.5049	
08:52:13	-6.795923	38.98535	121.208	-0.3349816	7.889241	0.25	3	99	0	50	6.39441	1.619466	-115.524	
08:52:13	-6.795923	38.98535	121.296	-0.309379	8.619898	0.41	3	99	0	50	6.404444	1.609131	-115.4391	
08:52:13	-6.795924	38.98535	121.678	-0.2626787	10.71024	0.36	3	99	0	50	6.4096	1.597537	-115.437	
08:52:14	-6.795925	38.98535	121.903	-0.2237624	11.86198	0.55	3	99	0	50	6.409461	1.583713	-115.4435	
08:52:14	-6.795925	38.98535	121.948	-0.1764207	12.59601	0.14	3	99	0	50	6.408798	1.5822	-115.4654	
08:52:14	-6.795925	38.98535	121.924	-0.1444886	13.2239	0.12	3	99	0	50	6.405645	1.569926	-115.397	
08:52:14	-6.795925	38.98535	121.958	-0.1204341	13.57533	0.52	3	99	0	50	6.404793	1.566589	-115.3776	
08:52:14	-6.795925	38.98535	122.029	-0.09099908	14.10505	0.32	3	99	0	50	6.391378	1.589505	-115.3817	
08:52:15	-6.795924	38.98535	121.414	-0.06033677	14.36926	0.19	3	99	0	50	6.379097	1.606985	-115.4068	
08:52:15	-6.795923	38.98535	121.074	-0.04949634	13.52269	0.16	3	99	0	50	6.376604	1.61217	-115.4228	
08:52:15	-6.795922	38.98535	120.539	-0.05744884	11.51762	0.59	3	99	0	50	6.377849	1.591572	-115.3369	
08:52:15	-6.795921	38.98535	120.366	-0.05687454	10.14262	0.45	3	99	0	50	6.363793	1.591879	-115.3391	
08:52:15	-6.795921	38.98535	120.447	-0.04856311	9.025336	0.12	3	99	0	50	6.352137	1.630816	-115.3594	
08:52:16	-6.795921	38.98535	120.502	-0.0493074	7.781682	0.14	3	99	0	50	6.337733	1.65366	-115.3716	
08:52:16	-6.795921	38.98535	120.685	-0.05497535	6.995609	0.07	3	99	0	50	6.354386	1.641648	-115.2615	
08:52:16	-6.795921	38.98535	120.982	-0.07980703	5.136246	0.21	3	99	0	50	6.37233	1.66707	-115.2618	
08:52:16	-6.795921	38.98535	120.958	-0.1210936	2.738347	0.01	3	99	0	50	6.386373	1.64482	-115.2959	
08:52:16	-6.79592	38.98535	120.821	-0.1317916	1.9607	0.21	3	99	0	50	6.396916	1.652692	-115.328	
08:52:17	-6.795918	38.98535	120.239	-0.1246811	2.089282	0.45	3	99	0	50	6.40174	1.635168	-115.3048	
08:52:17	-6.795917	38.98535	119.56	-0.1364642	1.00653	0.51	3	99	0	50	6.395157	1.63075	-115.2756	
08:52:17	-6.795915	38.98535	118.983	-0.172494	-0.6889252	0.63	3	99	0	50	6.397136	1.624968	-115.2918	
08:52:17	-6.795914	38.98535	118.616	-0.2191393	-3.452219	1.03	3	99	0	50	6.41135	1.6407	-115.3076	
08:52:17	-6.795912	38.98535	118.605	-0.2810047	-6.561469	0.48	3	99	0	50	6.406702	1.668231	-115.3184	
08:52:18	-6.795912	38.98535	118.65	-0.3287649	-8.660593	0.19	3	99	0	50	6.415411	1.649383	-115.2429	
08:52:18	-6.795912	38.98535	118.935	-0.3514625	-8.870676	0.11	3	99	0	50	6.410051	1.668466	-115.2574	
08:52:18	-6.795913	38.98535	119.067	-0.3703465	-8.944346	0.18	3	99	0	50	6.412327	1.682311	-115.2888	
08:52:18	-6.795913	38.98535	119.106	-0.3396055	-6.892786	0.07	3	99	0	50	6.406845	1.668921	-115.3134	
08:52:18	-6.795913	38.98535	119.208	-0.3110393	-4.71207	0.04	3	99	0	50	6.413073	1.697033	-115.2881	
08:52:19	-6.795912	38.98535	119.122	-0.2510127	-1.480267	0.11	3	99	0	50	6.416676	1.642337	-115.2207	
08:52:19	-6.795912	38.98536	119.25	-0.1903368	2.190536	0.11	3	99	0	50	6.401854	1.643555	-115.2374	
08:52:19	-6.795912	38.98536	119.115	-0.1767333	2.63895	0.16	3	99	0	50	6.399935	1.655424	-115.2601	
08:52:19	-6.795912	38.98536	119.02	-0.1671054	3.157397	0.28	3	99	0	50	6.419351	1.652084	-115.2876	
08:52:19	-6.79591	38.98536	118.714	-0.1834195	1.9532	0.44	3	99	0	50	6.426183	1.63523	-115.2371	
08:52:20	-6.795911	38.98536	118.966	-0.1977654	0.7648802	0.35	3	99	0	50	6.434101	1.647651	-115.251	
08:52:20	-6.795912	38.98536	119.311	-0.2081736	0.3927881	0.12	3	99	0	50	6.418512	1.628134	-115.2805	
08:52:20	-6.795911	38.98536	119.14	-0.2164257	0.5967812	0.18	3	99	0	50	6.414608	1.615692	-115.3068	
08:52:20	-6.795911	38.98536	119.119	-0.2439381	-0.5814742	0.17	3	99	0	50	6.41958	1.582553	-115.2534	
08:52:20	-6.79591	38.98536	119.126	-0.267439	-1.042574	0.19	3	99	0	50	6.420904	1.587475	-115.2003	
08:52:21	-6.795909	38.98536	118.705	-0.2838574	-2.173698	0.39	3	99	0	50	6.421794	1.586762	-115.2017	
08:52:21	-6.795909	38.98536	118.44	-0.3007859	-3.076465	0.24	3	99	0	50	6.422556	1.612282	-115.22	
08:52:21	-6.795907	38.98536	117.912	-0.3536046	-4.906765	0.9	3	99	0	50	6.410846	1.601259	-115.2447	
08:52:21	-6.795904	38.98536	116.969	-0.3993438	-6.590357	0.89	3	99	0	50	6.408473	1.595392	-115.176	
08:52:21	-6.795902	38.98536	116.409	-0.4448726	-8.255301	0.58	3	99	0	50	6.401358	1.604225	-115.1897	
08:52:22	-6.795901	38.98535	115.817	-0.4879217	-9.375592	0.82	3	99	0	50	6.404295	1.601143	-115.2151	
08:52:22	-6.795899	38.98535	115.626	-0.5373821	-10.45801	0.61	3	99	0	50	6.390044	1.616605	-115.2476	
08:52:22	-6.795899	38.98535	115.623	-0.5794865	-11.57665	0.42	3	99	0	50	6.394665	1.601327	-115.2085	
08:52:22	-6.795899	38.98535	115.776	-0.6243242	-12.84709	0.32	3	99	0	50	6.389601	1.614607	-115.2033	
08:52:23	-6.795899	38.98536	115.921	-0.6620809	-13.45761	0.19	3	99	0	50	6.390872	1.621681	-115.2437	
08:52:23	-6.795899	38.98536	116.238	-0.6818507	-13.16179	0.13	3	99	0	50	6.39698	1.592391	-115.2785	
08:52:23	-6.795898	38.98536	115.865	-0.6987491	-12.6535	0.32	3	99	0	50	6.396077	1.586977	-115.2928	
08:52:23	-6.795898	38.98536	115.953	-0.7069349	-11.42231	0.52	3	99	0	50	6.396229	1.607775	-115.2441	
08:52:23	-6.795897	38.98536	115.224	-0.7059845	-10.43261	0.04	3	99	0	50	6.39614	1.62524	-115.2732	
08:52:23	-6.795897	38.98536	115.324	-0.7084498	-9.193115	0.26	3	99	0	50	6.408261	1.623555	-115.2975	
08:52:24	-6.795897	38.98536	115.124	-0.7145584	-8.654941	0.35	3	99	0	50	6.413675	1.647753	-115.3275	
08:52:24	-6.795897	38.98536	115.003	-0.7136559	-7.539327	0.07	3	99	0	50	6.400457	1.627916	-115.2845	
08:52:24	-6.795896	38.98536	114.783	-0.7054707	-6.566144	0.07	3	99	0	50	6.396516	1.600779	-115.2319	
08:52:24	-6.795895	38.98536	114.315	-0.671936	-4.411935	0.19	3	99	0	50	6.380999	1.59884	-115.2104	
08:52:24	-6.795895	38.98536	114.305	-0.6289679	-2.213581	0.13	3	99	0	50	6.381908	1.606668	-115.2311	
08:52:25	-6.795895	38.98536	113.776	-0.582946	-0.1094898	0.29	3	99	0	50	6.384473	1.624695	-115.2305	
08:52:25	-6.795895	38.98536	113.962	-0.5364203	2.417913	0.12	3	99	0	50	6.37508	1.619112	-115.1888	
08:52:25	-6.795895	38.98536	114.086	-0.5129127	3.742036	0.17	3	99	0	50	6.371805	1.622875	-115.182	
08:52:25	-6.795893	38.98536	113.457	-0.5196409	2.84044	0.31	3	99	0	50	6.371476	1.618624	-115.21	
08:52:25	-6.795891	38.98536	113.041	-0.5089697	3.127715	0.22	3	99	0	50	6.369627	1.629882	-115.2472	
08:52:26	-6.795889	38.98536	112.439	-0.4823185	4.183396	0.48	3	99	0	50	6.369525	1.611782	-115.176	
08:52:26	-6.795889	38.98536	112.212	-0.5298738	1.111488	0.16	3	99	0	50	6.366521	1.619682	-115.1849	
08:52:26	-6.795888	38.98536	111.798	-0.6199005	-4.241029	0.32	3	99	0	50	6.370821	1.623268	-115.2123	
08:52:26	-6.795887	38.98536	111.481	-0.6995438	-7.757246	0.09	3	99	0	50	6.37293	1.628462	-115.2328	
08:52:26	-6.795887	38.98536	111.499	-0.7624255	-10.16457	0.29	3	99	0	50	6.370104	1.63946	-115.2338	
08:52:27	-6.795887	38.98536	111.537	-0.8045514	-11.66014	0.25	3	99	0	50	6.369514	1.629352	-115.1749	
08:52:27	-6.795887	38.98536	111.723	-0.8133172	-11.23495	0.29	3	99	0	50	6.356886	1.626648	-115.1998	
08:52:27	-6.795887	38.98535	111.524	-0.8220202	-10.81047	0.32	3	99	0	50	6.343778	1.625549	-115.2399	
08:52:27	-6.795886	38.98535	111.211	-0.8352757	-9.877298	0.02	3	99	0	50	6.321232	1.625821	-115.2756	
08:52:27	-6.795885	38.98535	110.716	-0.8226461	-7.755584	0.09	3	99	0	50	6.325298	1.636456	-115.1927	
08:52:28	-6.795885	38.98535	110.538	-0.7903024	-5.521587	0.21	3	99	0	50	6.332125	1.631773	-115.1453	
08:52:28	-6.795884	38.98535	110.087	-0.7597216	-3.119071	0.06	3	99	0	50	6.335922	1.647117	-115.1602	
08:52:28	-6.795883	38.98535	109.969	-0.7863969	-3.901972	0.22	3	99	0	50	6.325747	1.649241	-115.1899	
08:52:28	-6.795884	38.98535	110.132	-0.8087223	-4.374598	0.55	3	99	0	50	6.319336	1.642561	-115.1387	
08:52:28	-6.795884	38.98535	109.8	-0.7910435	-3.084083	0.39	3	99	0	50	6.318969	1.627247	-115.1397	
08:52:29	-6.795883	38.98535	109.305	-0.7721472	-1.600453	0.13	3	99	0	50	6.328578	1.645701	-115.1712	
08:52:29	-6.795882	38.98535	108.884	-0.7851213	-2.139173	0.26	3	99	0	50	6.34137	1.634993	-115.2006	
08:52:29	-6.795881	38.98535	108.795	-0.7970704	-2.643445	0.09	3	99	0	50	6.348583	1.630431	-115.2432	
08:52:29	-6.795881	38.98535	108.646	-0.7834325	-1.826298	0.17	3	99	0	50	6.346699	1.607406	-115.2021	
08:52:30	-6.795879	38.98535	108.521	-0.7699018	-0.7116558	0.64	3	99	0	50	6.330233	1.597836	-115.2268	
08:52:30	-6.795878	38.98535	108.353	-0.7657797	0.09840839	0.21	3	99	0	50	6.321597	1.598542	-115.2548	
08:52:30	-6.795878	38.98535	108.522	-0.7612319	0.6206537	0.19	3	99	0	50	6.319681	1.613392	-115.275	
08:52:30	-6.795882	38.98535	110.177	-0.7519531	0.9527569	0.45	3	99	0	50	6.181865	1.634815	-115.2934	
08:52:30	-6.795885	38.98536	111.341	-0.7441259	1.033056	0.25	3	99	0	50	5.681666	1.612876	-115.3337	
08:52:31	-6.795887	38.98536	112.021	-0.7134985	2.760267	0.16	3	99	0	50	5.959581	1.531733	-115.3692	
08:52:31	-6.795887	38.98536	112.465	-0.6816424	4.837452	0.12	3	99	0	50	6.108807	1.592118	-115.4011	
08:52:31	-6.795888	38.98536	112.863	-0.6321592	7.26548	0.13	3	99	0	50	6.357421	1.501429	-115.3873	
08:52:31	-6.795889	38.98536	113.278	-0.5878701	8.920708	0.18	3	99	0	50	6.326782	1.512558	-115.3466	
08:52:31	-6.795889	38.98536	113.57	-0.5259262	11.4587	0.26	3	99	0	50	6.101237	1.621882	-115.372	
08:52:32	-6.795889	38.98536	113.68	-0.4661017	13.30545	0.36	3	99	0	50	6.229441	1.800626	-115.4164	
08:52:32	-6.795889	38.98536	113.748	-0.4137471	14.29037	0.38	3	99	0	50	6.690217	1.472055	-115.4234	
08:52:32	-6.795889	38.98536	113.853	-0.3694887	15.03478	0.19	3	99	0	50	6.708364	1.566908	-115.379	
08:52:32	-6.795889	38.98536	114.097	-0.3437717	14.67095	0.32	3	99	0	50	6.551817	1.527715	-115.3785	
08:52:32	-6.795889	38.98536	114.214	-0.3236139	14.6037	0.22	3	99	0	50	6.567989	1.461517	-115.3862	
08:52:33	-6.795889	38.98536	114.299	-0.3089379	14.03296	0.35	3	99	0	50	6.150543	1.53647	-115.4011	
08:52:33	-6.795889	38.98536	114.382	-0.2970395	13.391	0.08	3	99	0	50	6.050341	1.755747	-115.429	
08:52:33	-6.795889	38.98536	114.471	-0.2994536	11.71037	0.11	3	99	0	50	6.29008	1.721507	-115.3967	
08:52:33	-6.79589	38.98536	114.399	-0.3144957	9.49052	0.59	3	99	0	50	6.040679	1.724852	-115.45	
08:52:33	-6.795891	38.98536	114.419	-0.3246049	7.931381	0.42	3	99	0	50	5.707139	1.871917	-115.5395	
08:52:34	-6.795891	38.98536	114.635	-0.3268335	7.160183	0.22	3	99	0	50	5.908822	1.663502	-115.6031	
08:52:34	-6.795891	38.98536	114.676	-0.3379372	5.976453	0.35	3	99	0	50	6.071795	1.514045	-115.5636	
08:52:34	-6.795892	38.98536	114.795	-0.3565114	4.883735	0.24	3	99	0	50	5.967764	1.652365	-115.5804	
08:52:34	-6.795892	38.98536	114.907	-0.3914685	2.082668	0.22	3	99	0	50	6.225011	1.760757	-115.6209	
08:52:34	-6.795892	38.98536	115.172	-0.4411276	-0.7790352	0.08	3	99	0	50	6.51191	1.667582	-115.6419	
08:52:34	-6.795892	38.98536	115.24	-0.4840267	-3.04241	0.35	3	99	0	50	6.444419	1.731969	-115.6168	
08:52:35	-6.795891	38.98536	115.231	-0.5343167	-5.033432	0.44	3	99	0	50	6.836497	1.853027	-115.5152	
08:52:35	-6.795891	38.98536	115.397	-0.5513239	-5.722004	0.14	3	99	0	50	6.815284	1.773718	-115.5127	
08:52:35	-6.795891	38.98536	115.533	-0.5411764	-4.808442	0.17	3	99	0	50	6.525685	1.580564	-115.5305	
08:52:35	-6.795891	38.98536	115.498	-0.5164303	-2.942999	0.08	3	99	0	50	6.488011	1.594183	-115.5468	
08:52:35	-6.795892	38.98536	115.37	-0.4810691	-0.6113943	0.33	3	99	0	50	6.499621	1.687571	-115.4834	
08:52:36	-6.795892	38.98536	115.455	-0.4508464	1.014951	0.13	3	99	0	50	6.575867	1.774051	-115.5016	
08:52:36	-6.795892	38.98536	115.462	-0.426228	2.127763	0.31	3	99	0	50	6.430354	1.665759	-115.5324	
08:52:36	-6.795892	38.98536	115.577	-0.415672	2.357748	0.26	3	99	0	50	6.757967	1.666067	-115.5437	
08:52:36	-6.795891	38.98536	115.671	-0.4176325	2.02887	0.94	3	99	0	50	6.922532	1.680645	-115.522	
08:52:37	-6.79589	38.98536	115.701	-0.420187	1.895995	0.32	3	99	0	50	7.165559	1.749989	-115.4268	
08:52:37	-6.79589	38.98536	115.676	-0.4236287	1.366051	0.39	3	99	0	50	6.659787	1.794099	-115.3826	
08:52:37	-6.79589	38.98536	115.734	-0.4187054	1.48841	0.29	3	99	0	50	6.629922	1.854734	-115.406	
08:52:37	-6.79589	38.98536	115.684	-0.4023247	2.028879	0.18	3	99	0	50	6.536571	1.757258	-115.4334	
08:52:37	-6.795891	38.98536	115.687	-0.3745306	2.911051	0.14	3	99	0	50	6.350526	1.612964	-115.3393	
08:52:38	-6.795892	38.98536	115.666	-0.3389678	4.19542	0.21	3	99	0	50	6.070519	1.636852	-115.3479	
08:52:38	-6.795893	38.98536	115.542	-0.3105775	4.936835	0.28	3	99	0	50	6.011675	1.756692	-115.3892	
08:52:38	-6.795894	38.98536	115.589	-0.3441981	3.063382	0.39	3	99	0	50	5.907145	1.767013	-115.4452	
08:52:38	-6.795895	38.98536	115.622	-0.3726951	0.9425631	0.25	3	99	0	50	5.854445	1.75919	-115.4884	
08:52:38	-6.795895	38.98536	115.666	-0.3546539	1.246709	0.17	3	99	0	50	6.124219	1.661557	-115.489	
08:52:39	-6.795895	38.98536	115.693	-0.3363453	2.659262	0.22	3	99	0	50	6.483827	1.537884	-115.5074	
08:52:39	-6.795895	38.98536	115.808	-0.2772532	4.890518	0.21	3	99	0	50	6.541842	1.574776	-115.5145	
08:52:39	-6.795895	38.98536	115.892	-0.2253683	7.58797	0.31	3	99	0	50	6.597625	1.810718	-115.5343	
08:52:39	-6.795895	38.98536	115.916	-0.1447049	10.82128	0.16	3	99	0	50	6.416745	1.820335	-115.5557	
08:52:39	-6.795895	38.98536	115.907	-0.06758037	13.81898	0.14	3	99	0	50	6.196777	1.73137	-115.5711	
08:52:40	-6.795895	38.98536	115.967	-0.01809611	15.05867	1.05	3	99	0	50	6.635572	1.724568	-115.6004	
08:52:40	-6.795894	38.98536	116.046	0.02384362	16.03714	0.14	3	99	0	50	6.882489	1.643663	-115.5812	
08:52:40	-6.795893	38.98536	116.09	0.0548003	16.31147	0.52	3	99	0	50	6.477922	1.937846	-115.5849	
08:52:40	-6.795893	38.98536	116.227	0.08021121	16.14602	0.41	3	99	0	50	6.652479	1.938983	-115.5998	
08:52:40	-6.795892	38.98536	116.314	0.09120705	15.19533	0.24	3	99	0	50	6.544816	1.743595	-115.6323	
08:52:41	-6.795892	38.98536	116.411	0.09765454	14.14768	0.21	3	99	0	50	6.392785	1.700701	-115.666	
08:52:41	-6.795893	38.98536	116.441	0.02224894	9.231923	0.39	3	99	0	50	6.202945	1.64557	-115.6916	
08:52:41	-6.795893	38.98536	116.549	-0.04815134	4.593755	0.11	3	99	0	50	5.936361	1.768116	-115.6422	
08:52:41	-6.795893	38.98536	116.628	-0.09783777	1.435423	0.06	3	99	0	50	6.195819	1.693466	-115.6338	
08:52:41	-6.795894	38.98536	116.666	-0.146588	-0.9394463	0.18	3	99	0	50	6.190484	1.683108	-115.6668	
08:52:42	-6.795894	38.98536	116.698	-0.164392	-1.962202	0.25	3	99	0	50	6.13045	1.790397	-115.7102	
08:52:42	-6.795895	38.98536	116.719	-0.1803033	-2.496251	0.28	3	99	0	50	6.159303	1.654302	-115.7324	
08:52:42	-6.795895	38.98536	116.716	-0.1834083	-2.199878	0.25	3	99	0	50	6.446559	1.579599	-115.6921	
08:52:42	-6.795895	38.98536	116.758	-0.1859984	-2.307647	0.06	3	99	0	50	6.259955	1.804085	-115.719	
08:52:42	-6.795895	38.98536	116.773	-0.1624842	-0.3609172	0.04	3	99	0	50	6.259984	1.632498	-115.7501	
08:52:43	-6.795895	38.98536	116.742	-0.13745	0.8868549	0.26	3	99	0	50	6.156464	1.69831	-115.7682	
08:52:43	-6.795895	38.98536	116.792	-0.1545874	-0.3980582	0.09	3	99	0	50	6.193944	1.63878	-115.6984	
08:52:43	-6.795896	38.98536	116.804	-0.2594303	-5.088782	0.25	3	99	0	50	6.026563	1.640804	-115.7192	
08:52:43	-6.795896	38.98536	116.775	-0.2587565	-4.838019	0.11	3	99	0	50	5.979068	1.653173	-115.771	
08:52:44	-6.795897	38.98536	116.756	-0.2597487	-4.573811	0.12	3	99	0	50	6.219142	1.60529	-115.7687	
08:52:44	-6.795897	38.98536	116.799	-0.2613762	-3.75915	0.19	3	99	0	50	6.223349	1.582183	-115.7007	
08:52:44	-6.795896	38.98536	116.798	-0.2516852	-2.519247	0.42	3	99	0	50	6.309775	1.595307	-115.7062	
08:52:44	-6.795896	38.98536	116.755	-0.2330625	-1.280815	0.29	3	99	0	50	6.566147	1.672274	-115.7133	
08:52:44	-6.795896	38.98536	116.614	-0.2328499	-1.253886	0.25	3	99	0	50	6.262622	1.775567	-115.7395	
08:52:45	-6.795897	38.98536	116.634	-0.2528665	-2.535205	0.13	3	99	0	50	6.042252	1.740936	-115.6834	
08:52:45	-6.795896	38.98536	116.739	-0.290155	-3.900696	0.32	3	99	0	50	6.256064	1.566183	-115.7031	
08:52:45	-6.795896	38.98536	116.739	-0.3501514	-6.168489	0.04	3	99	0	50	6.295902	1.510458	-115.7031	
08:52:45	-6.795896	38.98536	116.75	-0.3892849	-7.634722	0.33	3	99	0	50	6.164701	1.553162	-115.7261	
08:52:45	-6.795896	38.98536	116.721	-0.3995469	-7.082548	0.19	3	99	0	50	6.291124	1.680253	-115.695	
08:52:46	-6.795896	38.98536	116.744	-0.4118277	-6.915839	0.33	3	99	0	50	6.249505	1.603008	-115.7163	
08:52:46	-6.795895	38.98536	116.761	-0.4244487	-6.827443	0.41	3	99	0	50	6.44981	1.407472	-115.7281	
08:52:46	-6.795895	38.98536	116.725	-0.422886	-6.435275	0.14	3	99	0	50	6.235906	1.466104	-115.7216	
08:52:46	-6.795895	38.98536	116.756	-0.4100937	-5.047674	0.14	3	99	0	50	6.016995	1.455157	-115.7453	
08:52:46	-6.795896	38.98536	116.668	-0.4037017	-4.390274	0.19	3	99	0	50	6.054949	1.504564	-115.6737	
08:52:47	-6.795896	38.98536	116.631	-0.4066359	-3.765039	0.14	3	99	0	50	5.993242	1.532549	-115.6631	
08:52:47	-6.795897	38.98536	116.432	-0.4056763	-3.46799	0.26	3	99	0	50	5.964961	1.496246	-115.6844	
08:52:47	-6.795897	38.98536	116.417	-0.4000957	-2.833943	0.16	3	99	0	50	5.979752	1.536293	-115.7191	
08:52:47	-6.795897	38.98536	116.401	-0.391273	-1.692001	0.09	3	99	0	50	6.17187	1.470166	-115.7206	
08:52:47	-6.795897	38.98536	116.461	-0.3823581	-1.255922	0.26	3	99	0	50	6.137815	1.334825	-115.6954	
08:52:48	-6.795897	38.98536	116.537	-0.3739232	-0.515221	0.19	3	99	0	50	6.018893	1.239103	-115.6866	
08:52:48	-6.795898	38.98536	116.547	-0.4085956	-2.016603	0.32	3	99	0	50	5.973718	1.312737	-115.6849	
08:52:48	-6.795899	38.98536	116.494	-0.439609	-3.547353	0.36	3	99	0	50	6.300675	1.468872	-115.67	
08:52:48	-6.795898	38.98536	116.495	-0.4622797	-4.217852	0.13	3	99	0	50	6.569915	1.531809	-115.6057	
08:52:48	-6.795898	38.98536	116.442	-0.4846339	-5.433455	0.34	3	99	0	50	6.536173	1.46841	-115.5888	
08:52:49	-6.795897	38.98536	116.471	-0.518477	-6.461989	0.44	3	99	0	50	6.652613	1.405134	-115.5785	
08:52:49	-6.795897	38.98536	116.553	-0.548465	-7.951315	0.45	3	98	0	50	6.732772	1.364467	-115.5378	
08:52:49	-6.795897	38.98536	116.594	-0.5457641	-6.922736	0.11	3	98	0	50	6.316562	1.529185	-115.4856	
08:52:49	-6.795897	38.98536	116.586	-0.5412587	-5.943797	0.29	3	98	0	50	6.151671	1.451309	-115.511	
08:52:50	-6.795896	38.98536	116.626	-0.4962716	-2.874543	0.28	3	98	0	50	6.426403	1.381651	-115.4987	
08:52:50	-6.795896	38.98536	116.577	-0.3917603	2.839063	0.06	3	98	0	50	6.08951	1.402057	-115.5066	
08:52:50	-6.795896	38.98536	116.63	-0.3363524	5.397651	0.33	3	98	0	50	6.058232	1.376592	-115.4174	
08:52:50	-6.795895	38.98536	116.872	-0.2647081	8.898773	0.09	3	98	0	50	5.988303	1.460484	-115.4258	
08:52:50	-6.795895	38.98536	116.98	-0.1928464	11.947	0.25	3	98	0	50	6.112097	1.440532	-115.4598	
08:52:51	-6.795895	38.98536	116.979	-0.1824965	11.36379	0.01	3	98	0	50	6.129603	1.426574	-115.4643	
08:52:51	-6.795895	38.98536	117.027	-0.1759674	9.851444	0.09	3	98	0	50	6.055764	1.424008	-115.3993	
08:52:51	-6.795895	38.98536	117.001	-0.1694092	9.536733	0.03	3	98	0	50	6.052348	1.429305	-115.3553	
08:52:51	-6.795895	38.98536	117.05	-0.1650649	8.422958	0.11	3	98	0	50	6.044206	1.421609	-115.3519	
08:52:51	-6.795896	38.98536	116.998	-0.188342	6.404687	0.11	3	98	0	50	6.157553	1.485238	-115.3779	
08:52:52	-6.795896	38.98536	117.043	-0.2108825	4.704586	0.11	3	98	0	50	6.148215	1.494907	-115.3766	
08:52:52	-6.795896	38.98536	117.061	-0.2258945	3.68264	0.14	3	98	0	50	6.294956	1.48075	-115.3394	
08:52:52	-6.795896	38.98536	117.043	-0.239525	2.982857	0.06	3	98	0	50	6.369751	1.568237	-115.3366	
08:52:52	-6.795895	38.98536	117.061	-0.1991538	4.632079	0.29	3	98	0	50	6.62084	1.546684	-115.3451	
08:52:52	-6.795895	38.98536	117.068	-0.154431	7.176175	0.29	3	98	0	50	6.78935	1.518821	-115.3391	
08:52:53	-6.795895	38.98536	117.091	-0.1503937	6.608409	0.17	3	98	0	50	6.66001	1.591051	-115.2662	
08:52:53	-6.795895	38.98536	117.092	-0.1867549	3.696473	0.22	3	98	0	50	6.306953	1.614148	-115.2643	
08:52:53	-6.795895	38.98536	117.14	-0.2198492	1.835796	0.13	3	98	0	50	6.386868	1.469685	-115.2897	
08:52:53	-6.795895	38.98536	117.164	-0.2439501	0.00637453	0.51	3	98	0	50	6.068381	1.319919	-115.3079	
08:52:53	-6.795896	38.98536	117.12	-0.2057964	1.687193	0.21	3	98	0	50	6.153764	1.620935	-115.2733	
08:52:54	-6.795896	38.98536	117.118	-0.1332003	5.067883	0.17	3	98	0	50	6.307373	1.572636	-115.2402	
08:52:54	-6.795896	38.98536	117.079	-0.059604	8.468716	0.06	3	98	0	50	6.446418	1.563728	-115.2502	
08:52:54	-6.795896	38.98536	117.007	0.00496832	11.33242	0.14	3	98	0	50	6.57689	1.57298	-115.2709	
08:52:54	-6.795897	38.98536	116.917	0.05737833	12.95311	0.35	3	98	0	50	6.335709	1.859294	-115.2917	
08:52:54	-6.795897	38.98536	116.883	0.08710843	13.259	0.19	3	98	0	50	6.209548	1.817912	-115.267	
08:52:55	-6.795897	38.98536	116.899	0.09493306	12.09575	0.08	3	98	0	50	6.433161	1.591604	-115.3061	
08:52:55	-6.795897	38.98536	116.91	0.08072913	9.965014	0.19	3	98	0	50	6.564281	1.430526	-115.3091	
08:52:55	-6.795897	38.98536	116.871	0.06196555	7.773905	0.14	3	98	0	50	6.442633	1.617133	-115.3163	
08:52:55	-6.795897	38.98536	116.901	0.04460771	6.15974	0.02	3	98	0	50	6.470466	1.591196	-115.2981	
08:52:55	-6.795897	38.98536	116.91	0.01660279	3.747596	0.18	3	98	0	50	6.44711	1.709792	-115.2701	
08:52:56	-6.795897	38.98536	116.823	-0.01619212	2.205502	0.06	3	98	0	50	6.516735	1.681912	-115.2875	
08:52:56	-6.795897	38.98536	116.734	-0.04795856	0.5942474	0.12	3	98	0	50	6.439244	1.579146	-115.3066	
08:52:56	-6.795897	38.98536	116.63	-0.07415945	-0.3992662	0.09	3	98	0	50	6.524999	1.651688	-115.3214	
08:52:56	-6.795896	38.98536	116.562	-0.1029218	-1.762894	0.85	3	98	0	50	7.191702	1.611458	-115.177	
08:52:56	-6.795895	38.98536	116.482	-0.1316215	-3.189925	0.45	3	98	0	50	7.016736	1.537229	-115.1436	
08:52:57	-6.795895	38.98536	116.482	-0.1473974	-3.591874	0.45	3	98	0	50	7.165072	1.712843	-115.13	
08:52:57	-6.795893	38.98536	116.417	-0.15067	-3.526447	0.24	3	98	0	50	7.375753	1.827061	-115.1003	
08:52:57	-6.795893	38.98536	116.417	-0.1588925	-3.088984	0.24	3	98	0	50	6.911225	1.9136	-115.023	
08:52:57	-6.795893	38.98536	116.381	-0.1696241	-3.102962	0.12	3	98	0	50	6.577772	1.819942	-115.0435	
08:52:57	-6.795893	38.98536	116.384	-0.1788794	-3.893354	0.26	3	98	0	50	6.44419	1.732894	-115.0896	
08:52:58	-6.795894	38.98536	116.418	-0.1507597	-2.477504	0.41	3	98	0	50	6.287243	1.747624	-115.1344	
08:52:58	-6.795894	38.98536	116.418	-0.1254255	-1.273402	0.41	3	98	0	50	6.137925	1.809447	-115.1945	
08:52:58	-6.795894	38.98536	116.526	-0.09597936	0.2916042	0.41	3	98	0	50	6.182394	1.73324	-115.1871	
08:52:58	-6.795895	38.98536	116.575	-0.0634803	1.574145	0.14	3	98	0	50	6.065748	1.711161	-115.263	
08:52:59	-6.795895	38.98536	116.575	-0.06438892	1.302867	0.14	3	98	0	50	6.388119	1.89784	-115.29	
08:52:59	-6.795895	38.98536	116.54	-0.06985884	1.461966	0.14	3	98	0	50	6.591445	2.00517	-115.285	
08:52:59	-6.795895	38.98536	116.491	-0.07507791	1.619073	0.13	3	98	0	50	6.505738	1.915751	-115.312	
08:52:59	-6.795895	38.98536	116.482	-0.07724329	1.227713	0.26	3	98	0	50	6.719802	1.803102	-115.3348	
08:52:59	-6.795895	38.98536	116.553	-0.07950584	1.074889	0.11	3	98	0	50	6.42888	1.772515	-115.3769	
08:53:00	-6.795895	38.98536	116.553	-0.03763338	3.002599	0.11	3	98	0	50	6.667558	1.749806	-115.4057	
08:53:00	-6.795895	38.98536	116.622	-0.0001119794	5.026359	0.17	3	98	0	50	6.629434	1.820886	-115.3552	
08:53:00	-6.795895	38.98536	116.538	0.03368177	6.272598	0.11	3	98	0	50	7.212997	1.828332	-115.3468	
08:53:00	-6.795895	38.98536	116.533	0.06965365	7.479036	0.48	3	98	0	50	6.808105	1.763335	-115.3443	
08:53:00	-6.795895	38.98536	116.468	0.07358269	7.088469	0.09	3	98	0	50	6.181901	1.740542	-115.386	
08:53:01	-6.795895	38.98536	116.564	0.07604559	6.72263	0.29	3	98	0	50	6.46014	1.823448	-115.3509	
08:53:01	-6.795895	38.98536	116.553	0.09126015	6.830834	0.14	3	98	0	50	6.954957	1.693249	-115.3047	
08:53:01	-6.795895	38.98536	116.369	0.1032401	6.505021	0.14	3	98	0	50	6.88987	1.786567	-115.297	
08:53:01	-6.795895	38.98536	116.358	0.08112782	5.137767	0.14	3	98	0	50	6.856334	1.699525	-115.2999	
08:53:02	-6.795895	38.98536	116.33	0.06055766	3.571771	0.09	3	98	0	50	6.738201	1.850553	-115.2959	
08:53:02	-6.795895	38.98536	116.362	0.03703088	2.031319	0.26	3	98	0	50	6.765284	1.754294	-115.2284	
08:53:02	-6.795895	38.98536	116.429	0.01506033	0.7568429	0.12	3	98	0	50	6.496682	1.624609	-115.1982	
08:53:02	-6.795895	38.98536	116.723	0.01040062	0.5187488	0.06	3	98	0	50	6.519061	1.760929	-115.2194	
08:53:02	-6.795895	38.98536	116.774	0.006739272	0.8569037	0.07	3	98	0	50	6.668075	1.834152	-115.2659	
08:53:02	-6.795895	38.98536	116.829	-0.0284918	-1.470098	0.06	3	98	0	50	6.72162	1.839185	-115.2296	
08:53:03	-6.795895	38.98536	116.951	-0.08977026	-4.158862	0.21	3	98	0	50	6.701937	1.847087	-115.2446	
08:53:03	-6.795895	38.98536	116.996	-0.137081	-5.821061	0.09	3	98	0	50	6.54289	1.943147	-115.293	
08:53:03	-6.795895	38.98536	117.014	-0.1720134	-7.638041	0.09	3	98	0	50	6.570053	1.707038	-115.3435	
08:53:03	-6.795895	38.98536	117.046	-0.208222	-8.7939	0.29	3	98	0	50	6.70442	1.601464	-115.3613	
08:53:03	-6.795896	38.98536	116.965	-0.2429656	-10.3549	0.24	3	98	0	50	6.966891	1.611845	-115.3096	
08:53:04	-6.795895	38.98536	116.945	-0.2704213	-10.93014	0.88	3	98	0	50	6.627717	1.514139	-115.3145	
08:53:04	-6.795895	38.98536	116.909	-0.2904281	-11.00953	0.07	3	98	0	50	7.577572	1.603237	-115.2751	
08:53:04	-6.795895	38.98536	116.958	-0.3064412	-10.64418	0.19	3	98	0	50	7.232853	1.720287	-115.2451	
08:53:04	-6.795895	38.98536	116.966	-0.3190221	-10.20456	0.17	3	98	0	50	7.099261	1.835976	-115.1394	
08:53:04	-6.795895	38.98536	117.055	-0.3578999	-11.78717	0.45	3	98	0	50	6.945198	1.84584	-115.1296	
08:53:05	-6.795896	38.98536	117.232	-0.419084	-13.84922	0.08	3	98	0	50	6.605943	1.667239	-115.1675	
08:53:05	-6.795897	38.98536	117.46	-0.4762529	-16.231	0.39	3	98	0	50	6.89663	1.752808	-115.1822	
08:53:05	-6.795897	38.98536	117.565	-0.5287488	-17.39003	0.48	3	98	0	50	6.704236	1.624297	-115.2188	
08:53:05	-6.795898	38.98536	117.669	-0.5877037	-18.99782	0.26	3	98	0	50	6.777403	1.270997	-115.196	
08:53:05	-6.795898	38.98536	117.699	-0.6467282	-20.64473	0.06	3	98	0	50	7.181354	1.408677	-115.1731	
08:53:06	-6.795898	38.98536	117.737	-0.6906943	-20.79692	0.33	3	98	0	50	7.154414	1.671854	-115.1643	
08:53:06	-6.795898	38.98536	117.857	-0.7217366	-20.01162	0.18	3	98	0	50	7.397017	1.624887	-115.158	
08:53:06	-6.795899	38.98536	117.993	-0.7344235	-18.66541	0.04	3	98	0	50	7.238173	1.868622	-115.0928	
08:53:06	-6.795899	38.98536	117.993	-0.7315714	-16.51717	0.04	3	98	0	50	7.122331	1.722106	-115.0429	
08:53:06	-6.795899	38.98536	118.244	-0.7395785	-15.06145	0.02	3	98	0	50	7.10324	1.694101	-115.0583	
08:53:07	-6.795899	38.98536	118.359	-0.7573716	-14.44942	0.22	3	98	0	50	7.025968	1.671491	-115.0749	
08:53:07	-6.795899	38.98536	118.299	-0.7509471	-12.65676	0.19	3	98	0	50	7.217102	1.682693	-115.079	
08:53:07	-6.7959	38.98536	118.094	-0.7250627	-10.25366	0.24	3	98	0	50	7.185722	1.549904	-115.0183	
08:53:07	-6.7959	38.98536	118.066	-0.6997142	-8.225552	0.09	3	98	0	50	7.191834	1.559256	-115.0194	
08:53:07	-6.795901	38.98536	118.036	-0.6427401	-4.613082	0.39	3	98	0	50	6.911274	1.516925	-115.0303	
08:53:08	-6.795901	38.98536	118.157	-0.5890961	-0.683312	0.97	3	98	0	50	6.526241	1.544781	-115.0596	
08:53:08	-6.795899	38.98536	118.262	-0.5498593	1.614308	0.9	3	98	0	50	7.856271	1.459635	-114.94	
08:53:08	-6.795897	38.98536	118.44	-0.5136283	3.531577	0.95	3	98	0	50	8.151905	1.549323	-114.8692	
08:53:08	-6.795896	38.98536	118.575	-0.4994825	4.174029	1.44	3	98	0	50	8.170135	1.649589	-114.8269	
08:53:08	-6.795895	38.98536	118.718	-0.4872563	4.252551	0.91	3	98	0	50	8.491406	1.439806	-114.7717	
08:53:09	-6.795895	38.98536	118.537	-0.4560728	5.047219	0.25	3	98	0	50	8.073939	1.606842	-114.692	
08:53:09	-6.795894	38.98536	118.525	-0.4292967	5.937709	0.52	3	98	0	50	7.177777	1.827855	-114.6623	
08:53:09	-6.795895	38.98536	118.521	-0.4076945	6.528772	0.19	3	98	0	50	7.113302	1.993823	-114.6827	
08:53:09	-6.795895	38.98536	118.432	-0.3890071	7.106663	0.17	3	98	0	50	6.741776	1.817449	-114.7482	
08:53:09	-6.795895	38.98536	118.359	-0.3297296	9.879899	0.18	3	98	0	50	6.743977	1.907595	-114.7904	
08:53:10	-6.795895	38.98536	118.335	-0.2770618	11.5533	0.19	3	98	0	50	6.928247	1.911586	-114.7187	
08:53:10	-6.795896	38.98536	118.317	-0.2182703	13.79423	0.29	3	98	0	50	7.04236	1.787088	-114.7003	
08:53:10	-6.795897	38.98536	118.289	-0.1667311	15.39627	0.16	3	98	0	50	6.672266	1.78825	-114.7446	
08:53:10	-6.795897	38.98536	118.198	-0.178618	13.46361	0.21	3	98	0	50	6.868906	1.913606	-114.7954	
08:53:10	-6.795898	38.98536	118.108	-0.1917555	11.63479	0.04	3	98	0	50	6.700171	1.810017	-114.8042	
08:53:11	-6.795898	38.98536	117.963	-0.1925059	10.71394	0.22	3	98	0	50	6.848952	1.739634	-114.7631	
08:53:11	-6.795899	38.98536	117.804	-0.1951318	9.325836	0.22	3	98	0	50	6.820941	1.885144	-114.8032	
08:53:11	-6.795899	38.98536	117.838	-0.1967421	8.888342	0.24	3	98	0	50	7.145208	1.619433	-114.8337	
08:53:11	-6.7959	38.98536	117.729	-0.2004929	7.369135	0.17	3	98	0	50	6.935104	1.458797	-114.8347	
08:53:11	-6.795901	38.98536	117.83	-0.2011621	6.675519	0.39	3	98	0	50	7.045283	1.767226	-114.7655	
08:53:12	-6.795902	38.98536	117.857	-0.2027218	6.125046	0.04	3	98	0	50	6.744646	1.620688	-114.7921	
08:53:12	-6.795902	38.98536	117.637	-0.2133994	5.114147	0.13	3	98	0	50	7.046031	1.614419	-114.8181	
08:53:12	-6.795902	38.98536	117.665	-0.2243767	3.779284	0.25	3	98	0	50	7.263785	1.653787	-114.8148	
08:53:12	-6.795903	38.98536	117.65	-0.219411	3.508398	0.14	3	98	0	50	6.808558	1.534214	-114.7453	
08:53:12	-6.795904	38.98536	117.644	-0.1961299	4.266906	0.22	3	98	0	50	6.870533	1.511298	-114.7392	
08:53:13	-6.795904	38.98536	117.653	-0.1711732	4.691864	0.03	3	98	0	50	7.156347	1.477403	-114.7351	
08:53:13	-6.795904	38.98536	117.547	-0.1425513	5.74765	0.13	3	98	0	50	7.022822	1.596368	-114.7357	
08:53:13	-6.795905	38.98536	117.61	-0.144134	4.804458	0.19	3	98	0	50	6.844949	1.576987	-114.7486	
08:53:13	-6.795906	38.98536	117.67	-0.1647299	3.442452	0.11	3	98	0	50	6.824409	1.483843	-114.7481	
08:53:13	-6.795906	38.98536	117.608	-0.1691956	3.37625	0.26	3	98	0	50	6.933564	1.530221	-114.7509	
08:53:14	-6.795906	38.98536	117.578	-0.1571395	4.161147	0.04	3	98	0	50	7.004496	1.899921	-114.7652	
08:53:14	-6.795906	38.98536	117.576	-0.1550102	3.850084	0.17	3	98	0	50	6.914291	1.760217	-114.809	
08:53:14	-6.795906	38.98536	117.662	-0.1667373	2.505029	0.19	3	99	0	50	7.040495	1.736377	-114.7581	
08:53:14	-6.795906	38.98536	117.809	-0.1905323	1.021174	0.07	3	99	0	50	7.062747	1.751507	-114.7062	
08:53:14	-6.795906	38.98536	117.937	-0.2295773	-0.8767091	0.14	3	99	0	50	6.805953	1.652191	-114.7292	
08:53:15	-6.795906	38.98535	118.021	-0.2600225	-2.255181	0.17	3	99	0	50	7.004843	1.767393	-114.7486	
