Date	Latitude(deg) 	Longitude(deg)	hamsl(m)	hafl(m)	climbrate(cm/s)	GroundSpeed(m/s)	Airspeed(m/s)	Mav_Link(%)	Rssi_Link(%)	Throttle	Roll(deg)	Pitch(deg)	Yaw(deg)
14:48:05	0	0	0	0.3757314	-3.064907	0	3	90	0	4	17.12675	-2.868599	39.27678	
14:48:06	0	0	0	0.6099671	-4.45466	0	3	92	0	4	17.15668	-3.47359	37.27701	
14:48:08	0	0	0	0.2485476	-22.01201	0	3	94	0	5	17.31972	-3.588528	36.68965	
14:48:10	0	0	0	-0.001638312	-20.70094	0	3	95	0	4	17.40798	-3.650561	36.07775	
14:48:11	-6.729559	38.94576	137.844	0.03144222	-13.81711	0.06	3	96	0	4	17.49645	-3.718873	35.21246	
14:48:13	-6.729558	38.94576	137.785	0.1687972	-3.918872	0.16	3	96	0	4	17.4949	-3.82529	34.75289	
14:48:15	-6.729557	38.94577	137.757	0.4438493	6.058146	0.14	3	97	0	4	17.51706	-3.822963	34.12792	
14:48:16	-6.729557	38.94577	137.541	0.7568452	7.691236	0.09	3	97	0	4	17.52315	-3.764912	33.60655	
14:48:18	-6.729558	38.94577	137.213	0.01538621	-27.85634	0.04	3	97	0	4	17.54336	-3.891046	33.2044	
14:48:20	-6.729559	38.94577	136.937	-0.1887394	-22.60287	0.09	3	98	0	4	17.42421	-3.825677	32.96225	
14:48:22	-6.729561	38.94577	136.332	0.07036962	-4.14747	0.04	3	98	0	4	17.45907	-3.956998	32.76865	
14:48:23	-6.729562	38.94577	135.622	0.3018699	5.1927	0.04	3	98	0	4	17.25438	-3.99541	32.64381	
14:48:25	-6.729562	38.94577	134.887	0.7436891	14.76343	0.14	3	98	0	4	17.39979	-4.015544	32.48278	
14:48:27	-6.729561	38.94577	134.129	0.6054038	-2.974939	0.14	3	98	0	4	17.21628	-4.113281	32.43076	
14:48:28	-6.729561	38.94577	133.455	0.2257441	-15.45535	0.06	3	98	0	4	17.38461	-3.993987	32.1899	
14:48:30	-6.72956	38.94577	132.967	0.03117216	-16.21238	0.13	3	99	0	4	17.33779	-4.127344	32.13593	
14:48:32	-6.729558	38.94577	132.757	-0.1602971	-16.75818	0.09	3	99	0	4	17.26481	-4.13974	32.33271	
14:48:33	-6.729558	38.94577	132.556	-0.123571	-6.482384	0.07	3	99	0	4	17.209	-4.046289	32.31884	
14:48:35	-6.729555	38.94577	132.352	-0.1310578	-2.509845	0.17	3	99	0	4	17.24683	-3.991442	32.62207	
14:48:37	-6.729553	38.94577	131.915	0.1366815	7.789752	0.13	3	99	0	4	17.0711	-3.9333	33.00217	
14:48:38	-6.729551	38.94577	131.789	0.4282341	14.22515	0.04	3	99	0	4	0.1324826	-4.282777	39.65356	
14:48:40	-6.729549	38.94577	131.962	0.3280084	1.108905	0.04	3	99	0	4	0.6845062	-4.159221	47.18167	
14:48:42	-6.72955	38.94577	132.25	0.3664701	1.836514	0.14	3	99	0	2	-0.8761697	-4.012389	53.66455	
14:48:43	-6.729551	38.94577	132.574	0.207577	-7.230287	0.06	3	99	0	4	0.2720053	-3.942002	58.61396	
14:48:45	-6.729553	38.94576	132.966	0.3435276	-1.281508	0.04	3	99	0	4	0.4469776	-3.796057	61.96937	
14:48:47	-6.729554	38.94576	133.766	0.2228861	-4.776058	0.33	3	99	0	4	0.6953394	-4.009036	65.13638	
14:48:49	-6.729554	38.94576	134.192	0.1527598	-6.671011	0.12	3	99	0	4	3.473814	-3.928893	65.91836	
14:48:50	-6.729554	38.94576	134.777	0.06725698	-2.757906	0.19	3	99	0	4	3.456242	-3.784563	66.95509	
14:48:52	-6.729554	38.94576	135.172	0.3508816	7.900644	0.09	3	99	0	4	-0.5812785	-3.483137	68.89377	
14:48:54	-6.729553	38.94575	135.3	0.3519966	-0.5316686	0.09	3	99	0	4	0.4407991	-3.50896	70.28476	
14:48:55	-6.729552	38.94575	135.372	0.1407913	-8.976303	0.14	3	99	0	4	0.5275018	-3.063815	71.07297	
14:48:57	-6.72955	38.94574	135.995	0.1852633	-2.455597	0.09	3	99	0	4	1.271853	1.030415	73.19016	
14:48:59	-6.729551	38.94574	136.491	0.4653118	12.32784	0.07	3	99	0	4	2.44712	0.2754738	74.93577	
14:49:00	-6.729551	38.94573	136.608	0.3071666	1.021208	0.03	3	99	0	4	3.530069	0.3089869	75.92627	
14:49:02	-6.72955	38.94573	136.858	0.3189135	2.650688	0.06	3	99	0	3	3.936362	0.2273381	76.4362	
14:49:04	-6.729552	38.94572	137.093	0.2202806	-1.838426	0.12	3	99	0	4	0.6664575	0.6958019	76.91705	
14:49:05	-6.729554	38.94572	137.067	0.3277432	2.810029	0.09	3	99	0	4	1.581778	0.2470088	78.1919	
14:49:07	-6.729554	38.94572	136.614	0.6212664	11.77325	0.14	3	99	0	4	12.91205	-2.870183	74.29382	
14:49:09	-6.729554	38.94572	136.325	0.7461422	13.79049	0.03	3	99	0	5	16.90949	-0.874201	66.32806	
14:49:10	-6.729555	38.94572	136.651	0.594271	-1.32332	0.07	3	99	0	4	16.87905	-0.2990547	61.96489	
14:49:12	-6.729556	38.94573	136.523	0.567634	-2.775707	0.04	3	99	0	4	17.03102	0.01206638	58.18521	
14:49:14	-6.729555	38.94573	136.599	0.625933	-1.451846	0.09	3	99	0	4	16.89601	0.08876856	54.81795	
14:49:16	-6.729554	38.94574	136.277	0.4938984	-8.251605	0.21	3	99	0	4	17.03033	-0.2701716	52.29281	
14:49:17	-6.729553	38.94574	136.031	0.6203097	-0.4249594	0.12	3	99	0	4	17.0787	-0.4992177	49.75469	
14:49:19	-6.729551	38.94573	136.218	0.5694462	-1.537525	0.04	3	99	0	4	17.00596	-0.6979052	47.21157	
14:49:21	-6.729549	38.94572	136.478	0.4847566	-4.536897	0.16	3	99	0	4	17.1807	-1.082137	44.83455	
14:49:22	-6.729543	38.94572	136.729	0.6746505	2.632542	0.09	3	98	0	4	17.00196	-1.450557	42.99067	
14:49:24	-6.72954	38.94572	137.134	0.9680958	11.56373	0.14	3	98	0	4	16.93703	-1.608721	40.94267	
14:49:26	-6.729539	38.94572	137.632	0.6706666	-6.588805	0.12	3	98	0	4	16.94704	-1.937782	39.08511	
14:49:27	-6.729538	38.94572	137.872	0.7055596	1.312405	0.13	3	99	0	4	8.189109	-3.335398	42.14421	
14:49:29	-6.729539	38.94572	138.03	0.491183	-4.499711	0.18	3	99	0	4	15.17015	-3.843731	40.76905	
14:49:31	-6.729541	38.94572	137.98	0.4846341	-0.9377038	0.14	3	99	0	4	5.07023	-3.417692	43.41197	
14:49:32	-6.729542	38.94572	138.119	0.466871	-0.9394183	0.06	3	99	0	10	2.820917	-3.549059	48.07986	
14:49:34	-6.729543	38.94572	138.523	0.4273777	-6.215443	0.17	3	99	0	4	-0.5043354	-3.282012	53.49552	
14:49:36	-6.729542	38.94573	138.743	0.4002388	-8.562835	0.04	3	99	0	4	-0.7921991	-3.437691	57.21828	
14:49:37	-6.729541	38.94573	138.617	0.5193706	-3.374884	0.11	3	99	0	4	-0.426553	-3.562838	60.05975	
14:49:39	-6.72954	38.94573	138.853	0.7482127	1.635545	0.11	3	99	0	6546	-1.019263	-3.364854	62.8381	
14:49:41	-6.72954	38.94574	138.938	0.430609	-13.96232	0.04	3	99	0	6546	-3.404169	-2.982806	65.45776	
14:49:42	-6.72954	38.94574	138.809	0.9426119	12.61116	0.06	3	99	0	6546	2.338625	-3.591458	66.18703	
14:49:44	-6.729539	38.94574	138.541	1.013608	7.596016	0.14	3	99	0	6546	0.6620565	-3.996315	66.64909	
14:49:46	-6.729539	38.94574	138.386	0.7157298	-6.891334	0.09	3	99	0	6546	0.5928207	-3.745264	67.37874	
14:49:48	-6.729538	38.94574	138.563	0.7367836	-3.750555	0.03	3	99	0	6546	-0.23162	-3.510138	68.08692	
14:49:49	-6.729538	38.94574	138.587	0.8942575	2.338328	0.14	3	99	0	6546	0.8193952	-3.731375	68.28103	
14:49:51	-6.729538	38.94574	138.695	0.6712387	-6.275251	0.07	3	99	0	6546	0.8783786	-3.74458	68.35327	
14:49:53	-6.729538	38.94574	138.557	0.5732741	-5.657974	0.22	3	99	0	6546	1.012856	-3.946815	68.13337	
14:49:54	-6.729539	38.94574	138.925	0.7086221	2.085904	0.13	3	99	0	6546	1.146898	-3.18772	68.06223	
14:49:56	-6.729541	38.94575	139.746	0.809482	1.913462	0.04	3	99	0	6546	2.390791	-3.549823	67.74836	
14:49:58	-6.729541	38.94576	139.939	0.8069976	2.64175	0.22	3	99	0	6546	1.464803	-2.927909	67.87151	
14:49:59	-6.729542	38.94576	140.298	0.4346877	-11.55319	0.26	3	99	0	6546	2.09608	-3.118455	67.58165	
14:50:01	-6.729544	38.94576	140.555	0.4974203	0.2154125	0.11	3	99	0	6546	3.390401	-3.355163	67.04562	
14:50:03	-6.729547	38.94577	140.588	0.5562516	5.254364	0.09	3	99	0	6546	1.415045	-2.726307	67.19149	
14:50:04	-6.72955	38.94577	139.669	0.6227077	3.547931	0.22	3	99	0	6546	0.09456258	-2.80651	67.70863	
14:50:06	-6.729554	38.94576	139.269	0.9239128	9.87077	0.22	3	98	0	6546	0.2674547	-2.863133	68.03717	
14:50:08	-6.729557	38.94576	138.284	0.3623858	-18.69994	0.26	3	98	0	6546	0.9075513	-3.440781	68.18275	
14:50:09	-6.72956	38.94576	137.582	0.4840632	-3.829706	0.31	3	98	0	6546	0.9765833	-3.246569	67.93111	
14:50:11	-6.729562	38.94576	137.011	0.7175755	5.044835	0.35	3	98	0	6546	1.622133	-4.043448	67.3755	
14:50:13	-6.729566	38.94576	135.527	0.791362	4.292737	0.28	3	99	0	6546	2.941663	-3.94228	67.09702	
14:50:14	-6.729567	38.94575	134.544	1.009821	11.0625	0.11	3	99	0	6546	2.69736	-3.818787	66.12074	
14:50:16	-6.729567	38.94575	134.412	0.8996455	3.554295	0.26	3	99	0	6546	5.307292	-4.10019	64.12283	
14:50:18	-6.729566	38.94574	134.204	0.72417	-0.9511555	0.03	3	99	0	6546	4.025122	-3.911212	63.60106	
14:50:20	-6.729564	38.94574	133.976	0.9412688	8.291437	0.14	3	99	0	6546	3.065585	-3.957926	63.23074	
14:50:21	-6.729564	38.94574	133.45	0.6665246	-4.25633	0.12	3	99	0	6546	-0.2338277	-2.775165	63.3006	
14:50:23	-6.729565	38.94574	133.159	0.5089972	-6.472613	0.07	3	99	0	6546	2.331231	-3.470299	63.18951	
14:50:25	-6.729565	38.94574	133.18	0.6332216	0.2344291	0.19	3	99	0	6546	1.902365	-3.483035	63.45352	
14:50:26	-6.729563	38.94574	133.633	0.5494575	-2.119158	0.08	3	98	0	6546	-2.804974	-1.551805	59.10426	
14:50:28	-6.729564	38.94574	133.427	0.8090368	4.949341	0.18	3	97	0	6546	8.465327	-3.670605	61.55076	
14:50:31	-6.72956	38.94574	136.407	0.7226884	16.47112	0.09	3	96	0	6546	1.638626	4.119716	64.20445	
14:50:33	-6.729555	38.94574	138.249	0.8622943	-3.725101	0.17	3	96	0	6546	-3.768683	7.99647	72.48827	
14:50:35	-6.72955	38.94574	137.906	0.3460031	-44.1428	0.12	3	96	0	6547	-0.1834563	13.44744	73.70938	
14:50:36	-6.729548	38.94574	137.684	0.1079955	-12.09372	0.04	3	96	0	6546	8.49615	1.106191	72.96162	
14:50:38	-6.72955	38.94573	138.14	0.2314998	0.1048305	0.17	3	96	0	6546	7.98328	-1.592134	64.65797	
14:50:40	-6.72955	38.94573	138.318	0.423774	8.723588	0.07	3	97	0	6546	7.296636	-2.271297	60.73661	
14:50:42	-6.72955	38.94573	138.675	0.8039035	21.07831	0.07	3	97	0	6546	11.52997	-1.706512	57.06855	
14:50:43	-6.729551	38.94573	138.97	0.8707138	26.2859	0.14	3	96	0	6546	0.4673439	9.307179	54.56003	
14:50:45	-6.729553	38.94574	139.066	1.080669	1.068673	0.21	3	97	0	6546	-15.47067	5.885943	58.23747	
14:50:47	-6.729552	38.94574	139.066	1.330518	5.82739	0.14	3	97	0	6546	0.2406619	-4.314108	79.36745	
14:50:48	-6.729549	38.94574	138.663	1.24467	-12.42129	0.04	3	97	0	6546	-11.67999	-0.4413812	78.20091	
14:50:50	-6.729548	38.94574	138.489	1.286613	-9.607709	0.04	3	97	0	6546	-0.6853439	2.408463	73.82175	
14:50:52	-6.729547	38.94574	138.223	1.423953	1.078286	0.11	3	97	0	6547	13.20052	-1.249896	73.50371	
14:50:53	-6.729549	38.94574	138.023	1.141798	-13.50767	0.14	3	97	0	6546	21.32525	0.7982025	68.5374	
14:50:55	-6.72955	38.94574	137.758	1.344011	5.572591	0.19	3	97	0	6546	18.84513	-1.65435	67.90891	
14:50:57	-6.72955	38.94574	137.579	1.544666	14.8246	0.13	3	98	0	6546	-24.86106	5.579551	70.80511	
14:50:58	-6.72955	38.94574	137.184	1.665118	11.13689	0.11	3	98	0	6546	-5.148813	3.092577	77.85355	
14:51:00	-6.72955	38.94574	136.42	1.49512	-0.1522594	0.09	3	98	0	6546	23.90605	1.873228	72.52837	
14:51:02	-6.729548	38.94574	135.777	1.521335	-7.018174	0.07	3	98	0	6546	-3.022297	3.700164	50.72091	
14:51:04	-6.729547	38.94574	135.389	1.415014	-4.82731	0.04	3	98	0	6546	-2.605394	-2.373908	57.89763	
14:51:05	-6.729545	38.94575	134.645	0.9837977	-17.02336	0.14	3	98	0	6546	1.651324	3.364172	60.4997	
14:51:07	-6.729543	38.94575	134.133	1.001851	-8.111035	0.04	3	97	0	6546	-0.07806033	2.766888	62.73372	
14:51:09	-6.729542	38.94575	133.394	1.00255	-6.446408	0.11	3	98	0	6546	-1.444744	3.389697	60.80456	
14:51:10	-6.729542	38.94575	132.668	0.998371	-1.70355	0.04	3	98	0	6546	1.404743	3.959472	79.55219	
14:51:12	-6.729542	38.94575	131.709	0.9297019	-1.281702	0.04	3	98	0	6546	-2.427975	2.873333	62.78522	
14:51:14	-6.729542	38.94575	131.048	1.116746	6.053976	0.04	3	98	0	6546	5.39022	3.798748	90.51738	
14:51:15	-6.729542	38.94575	130.537	1.190088	18.23122	0.09	3	98	0	6546	-0.6552686	0.8975761	73.56066	
14:51:17	-6.729541	38.94575	130.335	1.362271	-8.33229	0.09	3	97	0	6546	1.92241	1.021773	80.39278	
14:51:19	-6.729542	38.94575	129.653	1.031351	1.132752	0.32	3	96	0	6546	12.8073	0.525479	79.6796	
14:51:20	-6.729541	38.94575	129.846	0.8319743	-3.14623	0.13	3	96	0	6546	13.96963	0.1944368	71.96546	
14:51:22	-6.72954	38.94575	129.75	0.5439913	-7.260318	0.03	3	96	0	6546	13.9419	0.8297929	66.74921	
14:51:24	-6.72954	38.94575	129.727	0.4429747	-4.009436	0.08	3	96	0	6546	13.77101	0.9797557	63.54509	
14:51:26	-6.729538	38.94575	129.61	0.2435428	-5.11383	0.06	3	96	0	6546	13.72795	0.79819	61.84263	
14:51:27	-6.729538	38.94575	129.67	0.1288521	-2.778891	0.22	3	96	0	6546	14.01848	0.3784643	59.94849	
14:51:29	-6.729537	38.94575	129.918	0.2800821	6.506047	0.09	3	95	0	6546	13.89115	0.1849605	57.82182	
14:51:31	-6.729535	38.94575	130.18	0.7069005	25.33069	0.02	3	96	0	6546	13.95093	0.01589855	56.37627	
14:51:32	-6.729533	38.94574	130.386	0.9047187	20.11137	0.08	3	96	0	6546	14.12332	-0.1751058	54.76542	
14:51:34	-6.729531	38.94574	130.7	0.8938602	10.59015	0.09	3	96	0	6546	14.22186	-0.3092105	53.30757	
14:51:36	-6.729529	38.94574	131.045	0.8946587	3.130809	0.16	3	96	0	6546	14.33392	-0.5274056	52.13137	
14:51:37	-6.729528	38.94574	131.239	0.900154	3.900304	0.12	3	95	0	6546	14.50799	-0.6744338	51.14845	
14:51:39	-6.729527	38.94574	131.27	0.7454031	-1.301569	0.04	3	95	0	6546	14.41697	-0.5388093	50.09863	
14:51:41	-6.729526	38.94574	131.255	0.8696001	3.968198	0.13	3	95	0	6546	14.66968	-0.6881161	48.90995	
14:51:43	-6.729524	38.94574	131.353	0.9002055	3.121374	0.19	3	95	0	6546	14.60227	-0.9205878	48.35001	
14:51:44	-6.729523	38.94573	131.227	0.8532644	0.3251225	0.07	3	96	0	6546	14.49907	-1.036392	47.74666	
14:51:46	-6.729522	38.94573	131.101	0.8120875	-1.025215	0.04	3	95	0	6546	14.46935	-1.018092	47.14624	
14:51:48	-6.729521	38.94573	130.827	0.9417061	6.797372	0.08	3	95	0	6546	14.47898	-1.036389	46.79539	
14:51:49	-6.72952	38.94573	130.663	0.799816	-5.650336	0.09	3	95	0	6546	14.40012	-1.163623	46.62616	
14:51:51	-6.72952	38.94573	130.474	0.8170119	1.66048	0.09	3	94	0	6546	14.86251	-1.280545	46.3146	
14:51:54	-6.72952	38.94573	130.546	0.7743663	-0.6213564	0.07	3	93	0	6546	14.40501	-1.173315	46.22588	
14:51:56	-6.729521	38.94573	130.453	0.7037709	-2.546129	0.07	3	94	0	6546	14.52951	-1.099455	46.10179	
14:51:58	-6.729522	38.94573	130.428	1.097023	13.37974	0.04	3	93	0	6546	14.01908	-1.171304	46.29374	
14:51:59	-6.729521	38.94572	130.331	0.9179653	-2.466035	0.08	3	93	0	6546	14.63405	-1.295713	46.60496	
14:52:01	-6.72952	38.94572	130.144	0.6758493	-8.927522	0.09	3	93	0	6546	14.59279	-1.166974	46.4054	
14:52:03	-6.729521	38.94573	130.159	0.5365342	-7.358071	0.26	3	93	0	6546	14.51843	-1.205519	46.77969	
14:52:04	-6.729522	38.94573	130.263	0.665665	2.672695	0.06	3	93	0	6546	14.54427	-1.200264	47.10128	
14:52:06	-6.729524	38.94573	130.098	0.6214486	-2.204502	0.07	3	93	0	6546	14.58583	-1.038253	47.02392	
14:52:08	-6.729525	38.94573	129.88	0.581704	-4.697559	0.03	3	93	0	6546	14.46152	-1.167995	47.5414	
14:52:11	-6.729526	38.94574	129.759	0.4418572	2.400113	0.06	3	92	0	6546	14.26557	-1.041027	48.21333	
14:52:13	-6.729525	38.94573	129.387	0.512164	3.774098	0.02	3	92	0	6546	14.55632	-0.9943208	48.36001	
14:52:15	-6.729524	38.94573	129.112	0.5313634	3.910012	0.13	3	91	0	6546	14.54732	-0.9716955	48.69974	
14:52:16	-6.729524	38.94573	128.579	0.6084886	4.137845	0.09	3	91	0	6546	14.59207	-0.8992832	49.15279	
14:52:18	-6.729522	38.94573	128.016	0.8051624	7.803683	0.06	3	91	0	6546	14.54634	-0.8753167	49.51793	
14:52:20	-6.729521	38.94573	127.605	1.119318	16.81825	0.02	3	91	0	6546	14.30546	-0.873298	49.80264	
14:52:21	-6.729519	38.94573	127.041	1.048597	1.684431	0.08	3	92	0	6546	14.58767	-0.8234959	50.29897	
14:52:23	-6.729518	38.94573	126.733	0.5353097	-18.82184	0.11	3	92	0	6546	14.47594	-0.6539931	50.65755	
14:52:25	-6.729517	38.94572	126.457	0.865261	-1.077107	0.12	3	93	0	6546	14.51582	-0.6606991	50.89614	
14:52:27	-6.729516	38.94572	126.47	0.9592059	3.004523	0.17	3	93	0	6546	14.67215	-0.6391929	51.0953	
14:52:30	-6.729514	38.94572	126.557	0.522846	-11.13557	0.13	3	93	0	6546	14.6227	-0.4335005	51.23259	
14:52:32	-6.729511	38.94572	126.823	0.4797627	-4.004149	0.13	3	93	0	6546	14.53945	-0.381897	51.40762	
14:52:33	-6.729509	38.94572	127.06	0.7302396	6.373724	0.04	3	92	0	6546	14.71644	-0.4892876	51.73425	
14:52:35	-6.729506	38.94572	127.21	0.5471389	-5.082693	0.08	3	93	0	6546	14.54501	-0.4226309	51.97592	
14:52:37	-6.729506	38.94571	127.567	0.6300648	2.38158	0.08	3	92	0	6546	14.72236	-0.4649813	52.0682	
14:52:38	-6.729505	38.94571	127.716	0.4323706	-7.737402	0.04	3	93	0	6546	14.53025	-0.3510812	51.84351	
14:52:40	-6.729504	38.94571	127.593	0.8135413	13.34026	0.29	3	93	0	6546	14.44396	-0.2473842	51.71223	
14:52:42	-6.729504	38.94571	127.521	1.009349	12.89204	0.06	3	94	0	6546	14.52598	-0.3764114	52.20082	
14:52:43	-6.729505	38.94571	127.257	0.9351544	0.05025957	0.07	3	94	0	6546	14.5544	-0.3633035	52.65607	
14:52:45	-6.729504	38.94571	127.212	0.6218217	-8.987323	0.07	3	95	0	6546	14.57012	-0.2235864	52.92023	
14:52:47	-6.729504	38.94571	127.157	0.4423774	-11.94864	0.09	3	95	0	6546	14.50185	-0.2986948	53.34599	
14:52:49	-6.729503	38.94571	127.125	0.300677	-9.57967	0.13	3	95	0	6546	14.49349	-0.3027291	53.49553	
14:52:50	-6.729503	38.94571	127.212	0.4042507	1.317334	0.09	3	95	0	6546	14.66689	-0.2742177	53.71487	
14:52:52	-6.729504	38.94571	127.385	0.2948472	-3.168451	0.08	3	95	0	6545	14.74043	-0.177954	53.73693	
14:52:54	-6.729506	38.94571	127.595	0.2083217	-3.395267	0.12	3	95	0	6546	14.72314	-0.1363145	53.83673	
14:52:55	-6.729508	38.94572	127.965	0.3411631	5.859999	0.04	3	94	0	6547	14.64737	-0.06849866	53.63541	
14:52:57	-6.72951	38.94572	128.411	0.4508987	6.675273	0.01	3	94	0	6546	14.71362	-0.1970756	53.6478	
14:52:59	-6.729514	38.94572	129.012	0.7740745	13.6896	0.09	3	93	0	6546	14.62714	-0.1957574	53.66602	
14:53:00	-6.729516	38.94572	129.245	1.122035	18.1662	0.09	3	93	0	6546	14.73082	-0.2556595	53.53566	
14:53:02	-6.729517	38.94572	129.649	1.151209	7.774518	0.01	3	93	0	6546	14.6333	-0.1203275	53.33354	
14:53:04	-6.72952	38.94573	129.935	0.8029546	-10.45304	0.09	3	93	0	6546	14.47787	-0.3054291	53.53032	
14:53:05	-6.729521	38.94573	129.949	0.7539159	-4.717624	0.08	3	93	0	6546	14.63609	-0.3312844	53.80983	
14:53:09	-6.729523	38.94574	130.248	0.9766857	5.452058	0.02	3	92	0	6546	14.57822	-0.1465333	53.31287	
14:53:11	-6.729523	38.94574	130.364	0.9563881	2.000417	0.03	3	91	0	6546	14.58683	-0.06476343	53.47652	
14:53:12	-6.729524	38.94574	130.778	1.189752	10.54534	0.09	3	92	0	6546	14.63757	-0.228653	53.54257	
14:53:14	-6.729525	38.94573	131.058	1.022391	-4.808273	0.08	3	93	0	6546	14.48444	-0.08845355	53.57312	
14:53:16	-6.729525	38.94573	131.47	0.8761352	-7.157009	0.04	3	93	0	6546	14.355	-0.1659136	53.75115	
14:53:17	-6.729525	38.94573	131.698	1.273064	11.91885	0.16	3	93	0	6546	14.39185	-0.08162673	53.91328	
14:53:19	-6.729525	38.94573	131.747	1.022189	-5.911806	0.02	3	94	0	6546	14.43715	-0.03157767	53.88643	
14:53:21	-6.729525	38.94573	131.996	0.9741649	-1.632945	0.02	3	94	0	6546	14.81911	-0.2717003	54.09257	
14:53:22	-6.729524	38.94573	132.219	1.044933	0.1468807	0.21	3	94	0	6546	14.48224	-0.1287048	53.89553	
14:53:24	-6.729523	38.94573	132.331	0.8812721	-4.78777	0.08	3	95	0	6546	14.56865	-0.07242223	53.72309	
14:53:26	-6.729522	38.94573	132.184	1.074066	3.853967	0.16	3	94	0	6546	14.48926	0.001004038	53.99617	
14:53:28	-6.729522	38.94573	132.051	1.339002	10.78887	0.25	3	95	0	6546	14.7772	-0.1641109	54.04075	
14:53:29	-6.729523	38.94573	132.107	0.9045069	-11.04597	0.02	3	95	0	6546	14.7929	-0.08048356	53.66064	
14:53:31	-6.729523	38.94573	132.041	0.5998647	-15.74529	0.22	3	95	0	6546	14.73407	-0.1274642	53.6904	
14:53:33	-6.729525	38.94574	132.061	0.9389539	6.859073	0.03	3	48	0	6546	15.00518	-0.06029094	53.49745	
14:53:34	-6.729525	38.94574	131.985	1.026959	3.202308	0.12	3	50	0	6546	14.8221	-0.03320752	53.34078	
14:53:36	-6.729526	38.94574	132.069	1.306457	9.264008	0.08	3	52	0	6546	14.79548	0.05679985	53.2909	
14:53:38	-6.729527	38.94574	131.933	1.148646	-3.956088	0.04	3	54	0	6546	14.6679	-0.02124957	53.28189	
14:53:39	-6.729528	38.94574	132.039	0.8611389	-10.97421	0.06	3	56	0	6545	14.69325	-0.06276816	53.2738	
14:53:41	-6.729529	38.94574	131.867	0.8559495	-5.090928	0.14	3	57	0	6546	14.76587	-0.1183826	53.09938	
14:53:43	-6.729529	38.94574	131.863	0.9421322	-1.260369	0.17	3	59	0	6546	14.78809	-0.1560708	52.86175	
14:53:44	-6.729529	38.94574	131.785	1.027779	4.769708	0.04	3	61	0	6546	14.85752	-0.07899286	52.86539	
14:53:46	-6.729531	38.94574	131.917	1.116057	4.806615	0.09	3	63	0	6546	14.79739	-0.2778997	52.89553	
14:53:48	-6.729533	38.94574	131.857	0.9442681	-4.425145	0.03	3	64	0	6546	14.77818	-0.1255885	52.81386	
14:53:50	-6.729535	38.94574	131.683	0.9225494	-2.821696	0.02	3	65	0	6546	14.77527	-0.09060205	52.73261	
14:53:51	-6.729537	38.94574	131.402	0.930481	-2.946073	0.08	3	66	0	6546	14.6752	-0.1515689	52.55077	
14:53:53	-6.72954	38.94574	130.924	0.7405878	-10.07028	0.07	3	68	0	6546	14.91899	-0.2563455	52.77024	
14:53:55	-6.729542	38.94574	130.587	0.7668983	-3.164626	0.04	3	69	0	6546	14.69051	-0.2865638	52.59225	
14:53:56	-6.729543	38.94575	130.136	0.7950108	-0.1606967	0.09	3	71	0	6546	14.82692	-0.2547193	52.28261	
14:53:58	-6.729545	38.94575	130.003	0.6736766	-5.275596	0.09	3	72	0	6546	14.69349	-0.1235044	51.94561	
14:54:00	-6.729547	38.94575	129.977	0.8704854	5.686057	0.16	3	73	0	6546	14.45901	-0.2621593	52.20775	
14:54:01	-6.729549	38.94575	130.072	0.734625	-1.461684	0.06	3	74	0	6546	14.66504	-0.2330449	52.22868	
14:54:03	-6.729551	38.94575	130.141	0.6328149	-5.668433	0.09	3	76	0	6546	14.45377	-0.1544901	52.22733	
14:54:05	-6.729553	38.94575	130.051	0.952131	9.797783	0.07	3	77	0	6546	14.46111	-0.3173654	52.43998	
14:54:06	-6.729554	38.94575	129.989	0.8126166	-1.527033	0.04	3	78	0	6546	14.61527	-0.3011239	52.42601	
14:54:08	-6.729555	38.94575	129.927	0.7596531	-2.669448	0.16	3	80	0	6546	14.47666	-0.3107114	52.39266	
14:54:10	-6.729558	38.94575	129.894	0.6968406	-2.907065	0.09	3	81	0	6545	14.85295	-0.2757648	52.35133	
14:54:12	-6.72956	38.94575	129.774	0.6475241	-4.807653	0.08	3	82	0	6546	14.51917	-0.1486934	52.48575	
14:54:13	-6.729561	38.94575	129.472	0.5911828	-1.622262	0.04	3	83	0	6546	14.48961	-0.3560948	52.54185	
14:54:15	-6.729561	38.94575	129.112	0.7087913	3.285174	0.14	3	84	0	6546	14.48386	-0.07843962	52.40032	
14:54:18	-6.72956	38.94575	128.233	0.4958679	-10.91226	0.06	3	85	0	6546	14.62578	-0.3141475	52.95695	
14:54:22	-6.729561	38.94575	127.809	0.565969	-0.02560057	0.19	3	85	0	6547	14.81034	-0.02090336	53.0598	
14:54:23	-6.72956	38.94574	127.716	0.5282978	-2.660245	0.11	3	85	0	6546	14.38812	-0.2452783	53.29815	
14:54:25	-6.72956	38.94574	127.603	0.7972825	10.81843	0.11	3	86	0	6546	14.44279	-0.1693987	53.1708	
14:54:27	-6.72956	38.94574	127.481	1.109581	14.75555	0.16	3	87	0	6546	14.7474	-0.1981813	53.30091	
14:54:28	-6.72956	38.94574	127.513	1.19959	8.9116	0.17	3	87	0	6546	14.70859	-0.2157354	53.29566	
14:54:30	-6.729561	38.94574	127.651	0.9128183	-7.429948	0.19	3	87	0	6546	14.62415	-0.3203106	53.19623	
14:54:32	-6.729561	38.94574	127.69	0.8668306	-5.332712	0.11	3	88	0	6546	14.82021	-0.2491114	53.0728	
14:54:34	-6.729559	38.94574	127.698	0.8635437	-2.431123	0.09	3	88	0	6546	14.75869	-0.3087397	52.86725	
14:54:35	-6.729558	38.94574	127.901	0.8329775	-2.368201	0.09	3	88	0	6547	14.83561	-0.1949228	52.38385	
14:54:37	-6.729558	38.94574	128.151	0.5459614	-13.15078	0.21	3	89	0	6546	14.68004	-0.1660843	52.33298	
14:54:39	-6.72956	38.94574	128.458	0.6286681	-3.134626	0.07	3	89	0	6546	14.73918	-0.1607897	52.35446	
14:54:40	-6.729562	38.94575	128.653	0.8380965	5.455857	0.11	3	90	0	6546	14.63291	-0.1471698	52.57941	
14:54:42	-6.729563	38.94575	128.928	0.5279227	-8.504693	0.09	3	90	0	6546	14.7642	-0.2836235	52.5726	
14:54:45	-6.729562	38.94575	129.525	0.8794853	15.50698	0.08	3	90	0	6546	14.79824	-0.2908178	52.69167	
14:54:47	-6.729562	38.94575	129.621	0.7025211	-0.5254267	0.03	3	59	0	6546	14.67681	-0.1732813	52.73132	
14:54:49	-6.729561	38.94575	129.46	0.6601703	-2.620455	0.04	3	61	0	6546	14.63525	-0.1836201	52.95666	
14:54:51	-6.72956	38.94575	129.464	0.6154295	-3.973934	0.06	3	63	0	6546	14.80157	-0.184882	53.26253	
14:54:52	-6.729562	38.94576	129.399	0.6210375	-0.2093173	0.11	3	64	0	6546	14.85989	-0.164332	52.98649	
14:54:54	-6.729562	38.94576	129.665	0.848385	6.186675	0.19	3	65	0	6546	14.7577	-0.08256248	53.02816	
14:54:57	-6.729565	38.94576	129.734	0.6762408	0.1458968	0.19	3	68	0	6546	14.72308	0.06057227	53.08099	
14:54:59	-6.729566	38.94576	130.03	0.6864687	1.847019	0.09	3	69	0	6546	14.66419	-0.2727317	53.37372	
14:55:01	-6.729567	38.94576	130.123	0.8526116	6.085994	0.14	3	70	0	6546	14.64511	-0.2162011	53.36743	
14:55:02	-6.729568	38.94576	130.384	1.005664	9.630491	0.09	3	72	0	6546	14.47378	-0.2593691	53.28899	
14:55:04	-6.729569	38.94576	130.424	1.064265	5.756207	0.11	3	74	0	6546	14.61513	-0.05448015	53.28928	
14:55:06	-6.729569	38.94576	130.474	0.7880858	-8.200444	0.12	3	52	0	6546	14.70926	-0.1564738	53.54241	
14:55:07	-6.729569	38.94576	130.814	1.118615	9.148746	0.13	3	28	0	6546	14.61235	-0.1464457	53.37872	
14:55:09	-6.729569	38.94576	130.96	1.004237	-3.302574	0.12	3	30	0	6546	14.80924	-0.1736825	53.28823	
14:55:11	-6.729568	38.94576	131.149	0.6580688	-13.47023	0.16	3	32	0	6546	14.99477	-0.1176424	53.24662	
14:55:12	-6.729567	38.94576	131.309	0.4649051	-14.89917	0.04	3	33	0	6546	14.94645	-0.08547173	53.0856	
14:55:14	-6.729566	38.94576	131.576	0.5860833	-2.804746	0.02	3	35	0	6546	14.99063	-0.1331939	52.89349	
14:55:16	-6.729566	38.94576	131.686	0.9331054	10.88478	0.09	3	37	0	6546	14.84943	-0.0532076	52.90326	
14:55:18	-6.729568	38.94576	131.991	1.117539	10.77245	0.04	3	39	0	6546	15.00961	-0.1003987	52.82026	
14:55:19	-6.729569	38.94576	132.187	1.133386	4.331124	0.09	3	40	0	6546	14.76312	-0.1771767	52.63901	
14:55:21	-6.729569	38.94577	132.878	0.9494389	-4.866101	0.04	3	42	0	6546	14.59952	-0.237257	52.49741	
14:55:23	-6.729568	38.94577	133.425	1.021507	4.818089	0.11	3	44	0	6546	14.8209	-0.2661136	52.44241	
14:55:24	-6.729567	38.94577	133.767	1.313956	10.2913	0.07	3	46	0	6546	14.76376	-0.1686487	52.22068	
14:55:28	-6.729567	38.94577	133.869	1.226933	-4.537209	0.04	3	49	0	6546	14.85466	-0.05455443	52.46828	
14:55:29	-6.729567	38.94577	133.526	1.162531	-4.594413	0.19	3	51	0	6546	14.93271	-0.1667673	52.20004	
14:55:31	-6.729565	38.94576	133.322	1.157276	-1.677853	0.09	3	53	0	6546	14.53924	-0.1631794	52.17112	
14:55:33	-6.729564	38.94576	133.177	1.05817	-5.193282	0.12	3	54	0	6546	14.7411	-0.1034539	52.28304	
14:55:35	-6.729564	38.94576	132.778	0.9869997	-4.19383	0.13	3	56	0	6546	14.64319	-0.2467387	52.45692	
14:55:36	-6.729565	38.94576	132.371	0.999662	-0.287827	0.03	3	58	0	6546	14.72671	-0.1620785	52.41542	
14:55:38	-6.729565	38.94576	132.194	1.054863	1.25595	0.06	3	60	0	6546	14.79037	-0.278768	52.37456	
14:55:40	-6.729563	38.94576	131.844	0.7917885	-9.41163	0.02	3	61	0	6546	14.69814	-0.2646686	52.55573	
14:55:41	-6.729562	38.94576	131.749	1.005513	8.040926	0.09	3	63	0	6546	14.63828	-0.220374	52.28486	
14:55:43	-6.729562	38.94576	131.778	1.071444	6.415183	0.09	3	65	0	6546	14.57676	-0.3774619	52.42726	
14:55:45	-6.729562	38.94577	131.735	1.085511	4.199403	0.16	3	66	0	6546	14.41533	-0.1653032	52.53734	
14:55:46	-6.729562	38.94577	131.643	1.315161	10.59173	0.19	3	68	0	6546	14.77548	-0.4106401	52.53043	
14:55:48	-6.729562	38.94577	132.184	1.442223	7.464615	0.42	3	70	0	6546	14.12889	0.01167493	52.54172	
14:55:50	-6.729562	38.94577	132.337	1.53381	7.176124	0.24	3	71	0	6546	14.57053	-0.3917033	52.936	
14:55:51	-6.729562	38.94577	132.526	1.494319	2.869375	0.14	3	73	0	6546	14.50356	-0.2422235	52.80115	
14:55:53	-6.729562	38.94577	132.525	1.592735	2.246249	0.12	3	74	0	6546	14.57269	-0.1984336	52.77583	
14:55:55	-6.729562	38.94577	132.616	1.688199	5.771994	0.06	3	75	0	6546	14.44882	-0.2051276	53.02782	
14:55:57	-6.729563	38.94577	132.648	1.491741	-7.531017	0.01	3	76	0	6546	14.2879	-0.1744881	53.45332	
14:55:58	-6.729563	38.94577	132.68	1.3798	-1.707286	0.16	3	77	0	6546	14.58603	-0.2917501	53.61356	
14:56:00	-6.729562	38.94577	132.766	1.417006	-2.555082	0.04	3	79	0	6546	14.4213	-0.2194412	53.62914	
14:56:02	-6.729562	38.94577	132.989	1.231408	-4.068907	0.03	3	80	0	6546	14.50814	-0.0759863	53.64664	
14:56:03	-6.729561	38.94577	133.59	1.28612	-2.173967	0.06	3	80	0	6546	14.45506	0.1030287	53.48307	
14:56:05	-6.729559	38.94577	134.097	1.491157	6.901116	0.09	3	81	0	6546	14.44584	0.02783259	54.01398	
14:56:08	-6.729556	38.94576	134.541	1.597538	6.094084	0.17	3	83	0	6546	14.73366	-0.1147793	53.66619	
14:56:10	-6.729555	38.94576	134.812	1.447121	-6.158871	0.12	3	84	0	6546	14.84012	0.007467958	53.72969	
14:56:12	-6.729554	38.94576	135.045	1.408417	-4.879863	0.22	3	85	0	6546	14.43449	0.190426	53.93438	
14:56:13	-6.729552	38.94576	135.474	1.278682	-7.567628	0.09	3	86	0	6546	14.84789	-0.1048639	54.17485	
14:56:15	-6.729551	38.94576	135.59	1.220454	-5.914424	0.21	3	86	0	6546	14.59092	-0.07475985	53.75008	
14:56:17	-6.729549	38.94576	135.597	1.246235	-2.122176	0.09	3	87	0	6546	14.44817	-0.08645954	53.97273	
14:56:19	-6.729548	38.94576	135.569	1.315939	1.936482	0.07	3	87	0	6546	14.26108	-0.03220434	53.89627	
14:56:20	-6.729546	38.94576	135.531	1.609244	12.81856	0.13	3	87	0	6546	14.51786	0.0120079	53.81162	
14:56:22	-6.729546	38.94576	135.35	1.656392	5.792712	0.12	3	88	0	6546	14.64394	-0.1438981	53.8756	
14:56:24	-6.729545	38.94576	135.309	1.630361	0.9430315	0.03	3	89	0	6546	14.61672	-0.1542941	53.74404	
14:56:25	-6.729544	38.94576	135.654	1.581526	-0.5519634	0.07	3	90	0	6546	14.66166	0.02048886	53.39169	
14:56:27	-6.729547	38.94576	135.7	1.613042	0.586791	0.07	3	90	0	6546	14.7723	-0.0533203	53.34726	
14:56:29	-6.729547	38.94576	135.588	1.556671	-3.216367	0.12	3	91	0	6546	14.75439	0.0542808	53.52874	
14:56:30	-6.729547	38.94576	135.602	1.563275	-0.8660117	0.12	3	90	0	6546	14.64623	-0.1219202	53.23666	
14:56:32	-6.729548	38.94576	135.454	1.711946	6.587741	0.03	3	91	0	6546	14.69846	-0.1105147	53.418	
14:56:34	-6.729549	38.94576	135.03	1.566018	-0.7875209	0.11	3	91	0	6546	14.61259	-0.1839245	53.24208	
14:56:35	-6.729551	38.94576	134.902	1.252751	-12.51335	0.09	3	90	0	6546	14.68382	-0.002508386	53.04113	
14:56:37	-6.729553	38.94576	134.528	1.340172	-2.619641	0.06	3	91	0	6546	14.62549	-0.1388545	53.04124	
14:56:39	-6.729554	38.94575	134.236	1.473544	4.177295	0.09	3	91	0	6546	14.5894	-0.3051247	53.17036	
14:56:41	-6.729557	38.94575	133.741	1.548084	1.988365	0.06	3	91	0	6546	14.64491	-0.252979	53.02196	
14:56:42	-6.729559	38.94575	133.323	1.676432	4.841666	0.04	3	91	0	6546	14.7028	-0.1077574	53.10285	
14:56:44	-6.729562	38.94575	133.066	1.136227	-17.62349	0.09	3	92	0	6546	14.67346	-0.2556599	53.1487	
14:56:46	-6.729564	38.94575	132.58	1.052019	-13.10911	0.07	3	92	0	6546	14.76458	-0.1430905	52.83776	
14:56:47	-6.729566	38.94575	132.273	1.218271	-0.3257737	0.04	3	93	0	6546	14.7405	-0.2186882	52.73016	
14:56:49	-6.729567	38.94575	131.665	1.593557	15.03899	0.04	3	92	0	6546	14.62978	-0.3033625	52.89292	
14:56:51	-6.729569	38.94575	131.04	1.634816	6.30148	0.09	3	93	0	6546	14.79944	-0.1055372	52.65286	
14:56:52	-6.729572	38.94574	130.385	1.57311	-0.188272	0.14	3	91	0	6546	14.79123	-0.1868879	52.7513	
14:56:54	-6.729573	38.94574	129.86	1.496989	-2.532857	0.04	3	92	0	6546	14.69338	-0.3275196	52.73524	
14:56:56	-6.729574	38.94574	129.545	1.185885	-12.8688	0.12	3	92	0	6546	14.76218	-0.1735353	52.63679	
14:56:58	-6.729575	38.94574	129.354	1.535764	7.544161	0.11	3	92	0	6546	14.57176	-0.06558903	52.27129	
14:56:59	-6.729577	38.94574	128.875	1.624716	6.736809	0.21	3	92	0	6546	14.77036	-0.1428446	52.46593	
14:57:01	-6.729578	38.94574	128.538	1.82409	11.07808	0.21	3	92	0	6546	14.75292	-0.1654667	52.59492	
14:57:03	-6.729578	38.94574	128.164	2.175444	19.936	0.09	3	93	0	6546	14.65072	-0.1018625	52.60796	
14:57:04	-6.729577	38.94574	127.865	1.710565	-9.426405	0.16	3	93	0	6546	14.62823	-0.2352003	52.33271	
14:57:06	-6.729577	38.94574	127.567	1.452469	-13.02423	0.03	3	92	0	6546	14.65131	-0.3378456	52.81293	
14:57:09	-6.729577	38.94574	127.095	1.520993	6.177995	0.06	3	91	0	6546	14.59131	-0.09326328	52.43949	
14:57:11	-6.729577	38.94574	126.991	1.694558	5.580675	0.08	3	91	0	6546	14.52776	-0.2100147	52.68336	
14:57:13	-6.729576	38.94574	126.824	1.65704	1.686083	0.09	3	91	0	6546	14.42024	-0.2177427	52.85138	
14:57:14	-6.729576	38.94574	126.608	1.584796	0.765834	0.03	3	91	0	6546	14.55622	-0.211382	52.85176	
14:57:16	-6.729577	38.94574	126.406	1.488335	-5.243554	0.02	3	92	0	6546	14.6164	-0.2632193	52.67911	
14:57:18	-6.729576	38.94574	126.231	1.449078	-3.375185	0.02	3	92	0	6546	14.51075	-0.2958185	52.85922	
14:57:20	-6.729575	38.94574	125.916	1.692854	6.863147	0.06	3	93	0	6546	14.60339	-0.1235095	52.97856	
14:57:21	-6.729574	38.94574	125.739	1.678048	0.7729155	0.09	3	93	0	6546	14.60835	-0.376621	52.90594	
14:57:23	-6.729571	38.94574	125.785	1.709799	2.678612	0.04	3	93	0	6546	14.65064	-0.2859295	52.76178	
14:57:25	-6.729568	38.94574	126.026	1.422716	-8.352985	0.06	3	94	0	6546	14.68181	-0.2579296	52.37513	
14:57:26	-6.729567	38.94574	126.18	1.335825	-5.083322	0.07	3	94	0	6546	14.61805	-0.2643988	52.63599	
14:57:28	-6.729567	38.94575	126.441	1.375522	-1.600065	0.07	3	94	0	6546	14.58025	-0.259624	52.49973	
14:57:30	-6.729564	38.94575	126.912	1.754106	13.64499	0.13	3	94	0	6546	14.60957	-0.1586223	52.40192	
14:57:31	-6.729563	38.94576	127.255	1.54128	0.6087412	0.21	3	94	0	6546	14.60852	-0.1716126	52.70809	
14:57:33	-6.729562	38.94576	127.635	0.9322013	-22.4097	0.03	3	94	0	6546	14.47486	-0.0302428	53.1428	
14:57:35	-6.729562	38.94576	127.866	1.092079	-2.851187	0.02	3	94	0	6546	14.5661	-0.2806856	53.09061	
14:57:36	-6.729559	38.94576	128.17	1.541608	16.26079	0.06	3	94	0	6546	14.44455	-0.2376977	52.98671	
14:57:38	-6.729558	38.94576	128.469	2.027599	23.04859	0.09	3	94	0	6546	14.64628	-0.2324487	52.86238	
14:57:40	-6.729556	38.94576	128.756	1.53793	-7.374722	0.07	3	93	0	6546	14.52726	-0.1313536	53.1987	
14:57:42	-6.729554	38.94576	128.892	1.316393	-10.40229	0.07	3	94	0	6546	14.40788	-0.2590507	53.24714	
14:57:43	-6.72955	38.94576	129.137	1.556424	5.342403	0.08	3	94	0	6546	14.63211	-0.2724368	53.24402	
14:57:45	-6.729548	38.94576	129.393	1.659637	5.707956	0.06	3	94	0	6546	14.52601	-0.1929165	53.39886	
14:57:47	-6.729545	38.94577	129.696	1.700374	4.804881	0.21	3	94	0	6546	14.54683	-0.1354188	53.24732	
14:57:48	-6.729542	38.94577	129.923	1.67866	1.533605	0.11	3	94	0	6547	14.6141	-0.2211022	53.21821	
14:57:50	-6.72954	38.94577	130.23	1.708365	0.8129398	0.07	3	93	0	6546	14.69969	-0.1525136	53.29692	
14:57:52	-6.729536	38.94577	130.347	1.614174	-2.46097	0.06	3	93	0	6546	14.6661	-0.1676165	53.036	
14:57:53	-6.729532	38.94576	130.382	1.600001	-0.9398808	0.07	3	92	0	6546	14.47569	0.005141851	52.89239	
14:57:55	-6.729529	38.94576	130.154	1.635045	0.8380807	0.02	3	92	0	6546	14.523	-0.194061	52.91762	
14:57:57	-6.729527	38.94576	129.517	1.652644	-0.4077335	0.09	3	93	0	6546	14.31541	0.005886342	53.11433	
14:57:58	-6.729525	38.94576	129.34	1.812213	6.775219	0.12	3	93	0	6546	14.47724	-0.184339	53.10584	
14:58:00	-6.729522	38.94575	129.122	1.621084	-6.823791	0.16	3	93	0	6546	14.53178	-0.1123165	53.06895	
14:58:02	-6.729521	38.94575	128.897	1.699303	2.483696	0.09	3	93	0	6546	14.61444	-0.2395584	53.25352	
14:58:04	-6.729521	38.94574	128.824	1.683434	0.9252502	0.07	3	93	0	6547	14.64795	-0.1380766	53.21365	
14:58:05	-6.729519	38.94574	128.482	1.999752	12.0095	0.07	3	93	0	6546	14.59079	-0.166072	53.11092	
14:58:07	-6.729519	38.94574	128.026	1.709463	-5.797791	0.07	3	93	0	6546	14.46438	-0.08625463	53.70916	
14:58:09	-6.729518	38.94574	127.974	1.571666	-6.107654	0.07	3	93	0	6546	14.60992	-0.1206955	53.51835	
14:58:10	-6.729517	38.94574	127.574	1.640876	-0.08156863	0.07	3	93	0	6546	14.41645	-0.130204	53.70823	
14:58:12	-6.729517	38.94573	127.145	1.874014	8.983068	0.14	3	93	0	6546	14.51518	-0.1416779	53.89977	
14:58:14	-6.729517	38.94573	127.03	1.933706	4.72428	0.04	3	94	0	6546	14.56639	-0.1077109	53.86085	
14:58:15	-6.729517	38.94573	126.83	1.981461	1.602101	0.04	3	94	0	6546	14.47781	-0.1146358	53.91836	
14:58:17	-6.729517	38.94573	126.619	1.900035	-2.880588	0.02	3	93	0	6546	14.6135	-0.2653601	53.47887	
14:58:19	-6.729517	38.94572	126.119	1.832191	-3.002103	0.16	3	94	0	6546	14.77728	-0.1150051	53.38209	
14:58:20	-6.729516	38.94572	125.851	1.740595	-4.569042	0.09	3	93	0	6546	14.61008	-0.1311555	53.17476	
14:58:22	-6.729515	38.94572	125.519	1.925974	4.499462	0.08	3	93	0	6546	14.53473	0.06418585	53.15104	
14:58:24	-6.729515	38.94572	125.198	1.723795	-7.37307	0.07	3	94	0	6546	14.70722	-0.02789534	53.38552	
14:58:26	-6.729514	38.94572	125.075	1.41221	-13.5802	0.07	3	94	0	6546	14.61789	0.03333132	52.91628	
14:58:29	-6.729514	38.94572	125.323	1.415981	-4.293434	0.02	3	94	0	6546	14.705	-0.0213405	52.76106	
14:58:31	-6.729514	38.94572	125.227	1.455605	-1.142355	0.13	3	95	0	6546	14.75884	0.03588537	52.65338	
14:58:32	-6.729514	38.94572	125.041	1.323927	-7.598672	0.08	3	94	0	6546	14.80538	-0.1339414	52.75051	
14:58:34	-6.729514	38.94572	124.864	1.336201	-3.914224	0.12	3	94	0	6546	14.82427	-0.2653456	52.73237	
14:58:36	-6.729514	38.94572	124.446	1.574758	8.306495	0.09	3	94	0	6546	14.65962	-0.3248724	52.69571	
14:58:37	-6.729513	38.94572	124.331	1.701751	9.953044	0.08	3	94	0	6546	14.71458	-0.2422811	52.78735	
14:58:39	-6.729512	38.94572	124.33	1.649805	1.429727	0.06	3	94	0	6546	14.62271	-0.1693466	52.99316	
14:58:41	-6.729513	38.94572	124.549	1.637905	1.657594	0.11	3	94	0	6546	14.68543	-0.2650023	52.76684	
14:58:42	-6.729515	38.94572	124.766	1.752484	3.997294	0.12	3	94	0	6546	14.64787	-0.1255522	52.56455	
14:58:44	-6.729515	38.94572	124.979	1.550065	-7.092151	0.09	3	94	0	6546	14.73003	-0.1786238	52.68891	
14:58:46	-6.729517	38.94572	125.128	1.302543	-12.10391	0.01	3	94	0	6546	14.61248	-0.262491	52.729	
14:58:48	-6.729517	38.94572	125.263	1.494524	4.500499	0.06	3	94	0	6546	14.84026	-0.3033386	52.31643	
14:58:49	-6.729517	38.94572	125.347	1.775784	13.77633	0.24	3	94	0	6546	14.51075	-0.3433492	52.57948	
14:58:51	-6.729517	38.94572	125.447	1.595555	0.3365379	0.04	3	94	0	6546	14.59318	-0.3749053	52.5521	
14:58:53	-6.729517	38.94572	125.31	1.570415	-0.3743612	0.07	3	94	0	6546	14.65828	-0.3688622	52.34409	
14:58:54	-6.729518	38.94572	125.337	1.783733	6.985949	0.14	3	93	0	6546	14.6106	-0.3434065	52.35835	
14:58:56	-6.729519	38.94572	125.319	1.605298	-5.681364	0.12	3	94	0	6546	14.61981	-0.2950194	52.48037	
14:58:59	-6.729521	38.94572	125.355	1.979736	9.111616	0.12	3	93	0	6546	14.5643	-0.234469	52.61135	
14:59:01	-6.729521	38.94572	125.315	1.9306	3.357264	0.07	3	93	0	6547	14.5734	-0.2815428	52.82535	
14:59:03	-6.729522	38.94572	125.462	1.542171	-13.53673	0.09	3	94	0	6546	14.54481	-0.2550341	52.88592	
14:59:04	-6.729523	38.94572	125.743	1.740298	1.671225	0.04	3	94	0	6546	14.48308	-0.1419729	52.77295	
14:59:06	-6.729525	38.94572	125.732	2.007288	10.99253	0.02	3	95	0	6546	14.73191	-0.1982363	52.83302	
14:59:08	-6.729526	38.94572	125.917	1.862004	-1.952811	0.06	3	95	0	6546	14.6031	-0.177808	52.85528	
14:59:10	-6.729527	38.94572	126.001	2.000633	4.560781	0.17	3	95	0	6546	14.66702	-0.2096142	52.51287	
14:59:11	-6.729528	38.94573	126.199	2.298021	12.22056	0.04	3	96	0	6546	14.58554	-0.2386962	52.83419	
14:59:13	-6.729529	38.94573	126.382	2.048039	-4.63543	0.14	3	96	0	6546	14.46023	-0.1157585	52.9712	
14:59:15	-6.729529	38.94573	126.522	1.951104	-4.351282	0.08	3	96	0	6546	14.62348	-0.2048523	52.68275	
14:59:16	-6.729529	38.94573	126.862	1.943197	-1.915874	0.08	3	96	0	6546	14.65316	-0.1869798	52.78516	
14:59:18	-6.729529	38.94573	126.953	2.025301	3.844543	0.04	3	97	0	6546	14.75913	-0.2712223	52.76096	
14:59:20	-6.72953	38.94573	127.257	1.76425	-10.4013	0.08	3	97	0	6546	14.79349	-0.1035615	52.62541	
14:59:21	-6.729531	38.94573	127.375	2.071306	7.967367	0.13	3	97	0	6546	14.92002	-0.2130089	52.38807	
14:59:23	-6.729531	38.94573	127.683	2.160341	4.937755	0.08	3	97	0	6546	14.85315	-0.2489859	52.47546	
14:59:25	-6.729531	38.94573	127.893	2.029797	-4.100835	0.11	3	97	0	6546	14.82553	-0.1913829	52.4224	
14:59:26	-6.729531	38.94573	128.292	1.864234	-9.864305	0.12	3	97	0	6546	14.60813	0.03746657	52.46997	
14:59:28	-6.729532	38.94573	128.6	1.789356	-5.587522	0.03	3	98	0	6546	14.73795	-0.1779335	52.72216	
14:59:30	-6.729533	38.94572	129.122	1.831674	-3.184687	0.07	3	97	0	6546	14.71684	-0.2439166	52.73111	
14:59:32	-6.729533	38.94572	129.485	1.755164	-3.090918	0.12	3	98	0	6546	14.7588	-0.1086884	52.49398	
14:59:33	-6.729534	38.94572	129.894	1.662816	-4.599574	0.06	3	98	0	6546	14.6499	-0.03114694	52.65009	
14:59:35	-6.729534	38.94572	130.382	1.896529	9.335581	0.09	3	98	0	6546	14.65895	-0.1982296	52.96056	
14:59:37	-6.729535	38.94572	130.804	1.629769	-7.862685	0.21	3	98	0	6546	14.58287	-0.1141035	53.01311	
14:59:38	-6.729535	38.94572	131.122	1.69526	2.861653	0.11	3	98	0	6546	14.35384	-0.3380643	53.29722	
14:59:40	-6.729536	38.94572	131.209	2.096877	15.33342	0.04	3	97	0	6546	14.72009	-0.3885396	53.47982	
14:59:42	-6.729537	38.94572	131.441	2.117037	5.921074	0.14	3	95	0	6546	15.35277	-0.1150119	52.00592	
14:59:43	-6.729538	38.94571	131.89	2.255702	6.415151	0.13	3	96	0	6546	15.22649	-0.2272132	51.27337	
14:59:45	-6.729539	38.94571	132.328	2.307369	4.47204	0.09	3	95	0	6546	14.95927	-0.1162332	51.09848	
14:59:47	-6.729541	38.94571	132.491	1.931166	-10.92615	0.07	3	95	0	6546	14.97329	0.09544209	50.98799	
14:59:49	-6.729542	38.94571	132.832	2.035424	-3.597205	0.16	3	95	0	6546	14.82852	-0.06976015	51.24179	
14:59:50	-6.729542	38.94571	132.874	1.929505	-7.193698	0.06	3	95	0	6546	14.84381	-0.08240026	51.3211	
14:59:52	-6.729544	38.94571	132.879	1.702788	-10.03253	0.04	3	95	0	6546	14.9403	-0.2796768	51.33854	
14:59:54	-6.729544	38.94571	132.952	1.696841	-4.015444	0.07	3	95	0	6547	14.79453	-0.3392475	51.41698	
14:59:55	-6.729544	38.94571	133.045	1.637218	-3.059142	0.18	3	95	0	6546	14.82784	-0.3419093	51.49596	
14:59:57	-6.729543	38.94571	132.999	1.772602	4.483294	0.13	3	95	0	6546	14.54671	-0.3629761	51.33746	
14:59:59	-6.729542	38.94571	133.01	1.865707	4.927134	0.04	3	95	0	6546	14.63542	-0.2735821	51.40113	
15:00:00	-6.729541	38.94571	132.883	1.825894	0.9215711	0.14	3	96	0	6546	14.6763	-0.2648043	51.55384	
15:00:02	-6.72954	38.94571	132.697	2.169097	14.36263	0.04	3	96	0	6546	14.6958	-0.3431136	51.78173	
15:00:04	-6.729539	38.94571	132.5	2.027923	-0.1037879	0.09	3	96	0	6546	14.49926	-0.2395102	51.88649	
15:00:05	-6.729538	38.94571	132.45	1.777516	-6.688451	0.07	3	96	0	6546	14.63705	-0.4509359	52.22921	
15:00:07	-6.729537	38.94571	132.242	1.690262	-8.695477	0.06	3	97	0	6546	14.45278	-0.3327981	52.4278	
15:00:09	-6.729537	38.94571	132.043	1.965591	7.746408	0.06	3	97	0	6546	14.59581	-0.1671849	52.30807	
15:00:11	-6.729537	38.94572	131.859	1.955557	0.9122728	0.09	3	97	0	6546	14.40552	-0.1879069	52.80096	
15:00:12	-6.729538	38.94572	131.721	2.155438	8.021749	0.06	3	97	0	6546	14.66697	-0.2796235	53.24649	
15:00:14	-6.729537	38.94572	131.718	2.335696	9.422183	0.04	3	97	0	6546	14.57299	-0.001240533	53.2062	
15:00:16	-6.729537	38.94572	131.433	2.335436	4.133767	0.07	3	97	0	6546	14.52462	0.09899891	53.26503	
15:00:17	-6.729537	38.94572	131.38	2.281548	-0.138932	0.08	3	97	0	6546	14.71691	-0.02889469	53.54172	
15:00:19	-6.729537	38.94572	131.576	2.334738	-0.4066712	0.16	3	97	0	6547	14.73104	-0.2001988	53.38575	
15:00:21	-6.729537	38.94572	131.637	2.397749	3.649262	0.04	3	97	0	6546	14.87053	-0.05934282	53.53391	
15:00:23	-6.729537	38.94572	131.734	2.375835	-1.393638	0.07	3	97	0	6546	14.62139	-0.1613493	53.7324	
15:00:24	-6.729537	38.94572	132.077	2.352142	-1.514962	0.07	3	96	0	6546	14.69188	-0.1124907	53.47549	
15:00:26	-6.729536	38.94572	132.275	2.302437	-3.596793	0.09	3	97	0	6546	14.70767	-0.1452479	53.48617	
15:00:28	-6.729535	38.94572	132.329	2.218692	-3.270555	0.04	3	97	0	6546	14.58927	-0.132046	53.52485	
15:00:29	-6.729533	38.94572	132.414	2.301786	0.722544	0.14	3	95	0	6546	14.60258	0.04954235	53.69624	
15:00:31	-6.729533	38.94572	132.072	1.937472	-12.82335	0.08	3	95	0	6546	14.78197	-0.137783	53.53781	
15:00:34	-6.729534	38.94572	131.541	2.298569	6.32647	0.11	3	94	0	6546	14.60641	-0.09750484	53.54684	
15:00:36	-6.729535	38.94572	131.467	2.447646	8.41287	0.03	3	94	0	6546	14.56962	-0.07224506	53.27789	
15:00:38	-6.729536	38.94572	131.503	2.362583	0.1587711	0.08	3	95	0	6546	14.53691	0.01090909	53.48271	
15:00:39	-6.729537	38.94572	131.288	2.139815	-10.30265	0.06	3	95	0	6546	14.65341	-0.06862889	53.65919	
15:00:41	-6.729538	38.94572	130.983	1.679171	-22.92881	0.17	3	94	0	6546	14.61757	-0.01952239	53.70484	
15:00:43	-6.729539	38.94572	130.645	1.975978	1.737915	0.12	3	95	0	6546	14.72116	-0.1021284	53.71824	
15:00:45	-6.729542	38.94572	130.39	2.103897	6.24546	0.04	3	94	0	6546	14.5871	-0.02571566	53.61378	
15:00:46	-6.729544	38.94572	130.101	1.745149	-10.95593	0.03	3	94	0	6546	14.74534	0.03988787	53.45701	
15:00:48	-6.729544	38.94572	129.93	1.959722	3.645913	0.03	3	94	0	6546	14.59935	-0.2181017	53.40792	
15:00:50	-6.729544	38.94572	129.991	2.227212	10.9467	0.26	3	95	0	6546	14.29944	-0.0008499317	53.35157	
15:00:51	-6.729544	38.94572	129.648	2.455105	13.1693	0.13	3	95	0	6546	14.66966	-0.2571881	53.6515	
15:00:53	-6.729545	38.94572	129.475	2.619802	13.3981	0.09	3	95	0	6546	14.48995	-0.1629967	53.34555	
15:00:55	-6.729546	38.94572	129.396	2.637066	4.122117	0.04	3	96	0	6546	14.46471	-0.0323085	53.43489	
15:00:56	-6.729548	38.94572	129.585	2.100351	-18.714	0.02	3	95	0	6546	14.51896	-0.1787762	53.42984	
15:00:58	-6.729549	38.94572	129.855	1.934199	-12.99881	0.04	3	96	0	6546	14.51004	-0.0487223	53.13263	
15:01:00	-6.729552	38.94572	130.586	2.234561	3.669815	0.09	3	95	0	6546	14.60059	-0.04516163	53.4221	
15:01:02	-6.729554	38.94572	130.816	2.363652	6.683757	0.11	3	94	0	6546	14.74008	-0.162011	53.35429	
15:01:05	-6.729556	38.94573	131.554	2.38394	0.06858003	0.01	3	94	0	6546	14.68386	0.04975196	52.89061	
15:01:07	-6.729558	38.94573	131.823	2.300593	-7.678842	0.13	3	94	0	6546	14.70183	-0.2427111	53.13084	
15:01:08	-6.729558	38.94573	132.268	2.142638	-7.391883	0.07	3	94	0	6546	14.80064	-0.0715505	52.71469	
15:01:10	-6.729557	38.94573	132.226	2.258524	1.608065	0.09	3	94	0	6546	14.83214	-0.0269754	52.94349	
15:01:12	-6.729558	38.94573	132.389	2.166035	-3.697886	0.04	3	95	0	6546	14.74755	-0.08805653	53.00433	
15:01:13	-6.729558	38.94573	132.737	2.287665	4.528283	0.09	3	95	0	6546	14.68742	-0.151156	52.88227	
15:01:15	-6.729558	38.94573	132.799	2.089521	-6.463978	0.14	3	95	0	6546	14.64577	-0.2605738	53.09742	
15:01:18	-6.729555	38.94573	133.273	2.14199	1.261142	0.07	3	95	0	6546	14.59029	-0.2986022	52.91176	
15:01:20	-6.729554	38.94573	133.355	2.335931	7.571999	0.03	3	95	0	6546	14.42065	-0.3584297	52.92166	
15:01:22	-6.729553	38.94573	133.427	2.269656	2.552824	0.02	3	95	0	6546	14.49837	-0.2136834	52.83966	
15:01:23	-6.729552	38.94573	133.555	2.155307	-5.042766	0.11	3	95	0	6546	14.74644	-0.2807031	52.86481	
15:01:25	-6.729552	38.94573	133.408	1.867817	-15.46639	0.04	3	95	0	6546	14.66743	-0.2835697	52.73984	
15:01:27	-6.72955	38.94572	133.448	1.987606	0.1368245	0.02	3	96	0	6546	14.51195	-0.132128	52.66685	
15:01:29	-6.729549	38.94572	133.577	2.173943	6.201063	0.04	3	96	0	6546	14.60878	-0.2161448	52.52217	
15:01:30	-6.729548	38.94572	133.553	2.185647	3.775212	0.02	3	96	0	6546	14.69996	-0.1525225	52.28404	
15:01:32	-6.729547	38.94572	133.169	2.047444	-3.751015	0.09	3	96	0	6546	14.57469	-0.2515848	52.28419	
15:01:34	-6.729547	38.94572	132.575	1.872188	-8.84528	0.04	3	96	0	6546	14.75136	-0.2592394	52.24515	
15:01:35	-6.729547	38.94572	132.067	1.842295	-3.784969	0.04	3	96	0	6546	14.71902	-0.2915171	52.10191	
15:01:37	-6.729547	38.94572	131.385	2.355401	16.76056	0.12	3	96	0	6546	14.58295	-0.2025595	52.1133	
15:01:39	-6.729545	38.94572	131.113	2.398328	7.749102	0.07	3	96	0	6546	14.66749	-0.08672039	52.18592	
15:01:40	-6.729545	38.94572	130.715	2.028754	-11.37263	0.08	3	96	0	6546	14.71566	-0.1992856	52.19439	
15:01:42	-6.729544	38.94572	130.284	2.165308	-0.183369	0.22	3	96	0	6546	14.55999	0.2270966	52.3212	
15:01:44	-6.729544	38.94573	130.143	2.260087	5.322721	0.08	3	95	0	6546	14.61674	-0.09280951	52.98757	
15:01:45	-6.729544	38.94573	129.9	2.093111	-4.786097	0.04	3	95	0	6546	14.68544	-0.2097628	53.04349	
15:01:47	-6.729544	38.94574	129.879	1.756593	-13.89968	0.09	3	96	0	6546	14.64578	-0.1331508	53.03458	
15:01:49	-6.729545	38.94574	129.912	2.113485	11.0447	0.09	3	96	0	6546	14.71503	-0.0623289	52.96274	
15:01:51	-6.729545	38.94574	130.144	2.268998	8.414679	0.11	3	96	0	6546	14.59026	-0.2648961	52.96929	
15:01:52	-6.729544	38.94574	130.54	2.348057	8.816056	0.11	3	96	0	6546	14.52372	-0.02907824	53.03278	
15:01:54	-6.729544	38.94574	130.946	2.180943	-0.6382326	0.04	3	96	0	6546	14.51623	-0.0983347	53.29883	
15:01:56	-6.729544	38.94575	130.939	1.986948	-6.266143	0.14	3	95	0	6546	14.62267	-0.04697634	53.33262	
15:01:59	-6.729544	38.94575	131.178	2.227586	11.28334	0.13	3	95	0	6546	14.61788	-0.1723916	53.31524	
15:02:01	-6.729544	38.94575	131.278	2.249862	5.432941	0.02	3	95	0	6546	14.66393	-0.2180911	53.38217	
15:02:02	-6.729545	38.94575	131.234	2.252299	4.879576	0.03	3	95	0	6546	14.71355	-0.2686816	53.19101	
15:02:04	-6.729546	38.94575	131.119	2.277916	1.36641	0.04	3	95	0	6546	14.62167	-0.1559121	52.80746	
15:02:06	-6.729547	38.94575	130.968	2.145351	-5.414319	0.28	3	95	0	6546	14.76303	-0.2867001	52.96016	
15:02:07	-6.729549	38.94575	130.771	1.92549	-8.172142	0.08	3	96	0	6546	14.84683	-0.1615952	52.68417	
15:02:09	-6.729549	38.94575	130.878	1.756909	-11.48668	0.06	3	95	0	6546	14.78039	-0.07291613	52.47573	
15:02:11	-6.729549	38.94575	130.807	1.889012	0.2344783	0.03	3	94	0	6546	14.81085	-0.05297964	52.61949	
15:02:13	-6.729549	38.94575	130.483	1.751204	-8.890759	0.03	3	94	0	6546	14.69107	-0.07153173	52.89866	
15:02:14	-6.729549	38.94575	130.574	1.807041	1.348681	0.04	3	95	0	6546	14.80017	-0.164017	52.50847	
15:02:16	-6.729549	38.94575	130.753	2.075947	10.02454	0.06	3	94	0	6546	14.79139	-0.2578272	52.57662	
15:02:18	-6.729548	38.94575	131.127	2.130296	9.581192	0.08	3	94	0	6546	14.72757	-0.1213512	52.63657	
15:02:19	-6.729547	38.94575	131.237	2.066819	1.036745	0.03	3	94	0	6546	14.67986	-0.1832731	52.21714	
15:02:23	-6.729547	38.94575	131.409	2.316416	14.4336	0.04	3	94	0	6546	14.65756	-0.3087345	51.95848	
15:02:24	-6.729547	38.94575	131.423	2.127873	1.791712	0.07	3	93	0	6546	14.76993	-0.1926983	51.7138	
15:02:26	-6.729546	38.94575	131.559	2.170102	1.141228	0.04	3	92	0	6546	14.71751	-0.2422073	51.69672	
15:02:28	-6.729546	38.94575	131.639	1.898979	-12.01293	0.08	3	92	0	6546	14.67804	-0.2401019	51.7732	
15:02:29	-6.729545	38.94575	131.864	1.783369	-11.07092	0.04	3	91	0	6546	14.54355	-0.2225297	51.73417	
15:02:31	-6.729543	38.94575	132.165	1.970194	4.501707	0.16	3	92	0	6546	14.52845	-0.3537975	51.88559	
15:02:33	-6.729542	38.94575	132.26	2.179604	9.925597	0.09	3	92	0	6546	14.3032	-0.23249	52.07615	
15:02:35	-6.729542	38.94575	132.3	2.062959	-0.8331981	0.14	3	93	0	6546	14.52648	-0.2470525	52.17462	
15:02:36	-6.729541	38.94575	132.324	2.064036	0.1595857	0.06	3	93	0	6546	14.49911	-0.2591139	52.06266	
15:02:38	-6.72954	38.94575	132.28	1.937505	-5.298393	0.08	3	94	0	6546	14.57106	-0.4025392	52.2546	
15:02:40	-6.729541	38.94575	132.099	1.857908	-6.818391	0.09	3	94	0	6546	14.61206	-0.2705064	52.35207	
15:02:41	-6.729541	38.94575	132.161	1.873749	0.2333621	0.12	3	95	0	6546	14.59227	-0.3198082	52.39977	
15:02:43	-6.729541	38.94575	132.092	2.043258	9.192893	0.09	3	95	0	6546	14.60124	-0.315751	52.54752	
15:02:45	-6.729541	38.94576	131.934	2.375073	16.64492	0.04	3	95	0	6546	14.63927	-0.2963354	52.62797	
15:02:46	-6.729542	38.94576	131.698	2.098641	-3.404637	0.06	3	95	0	6546	14.59589	-0.2241878	52.39481	
15:02:48	-6.729542	38.94575	131.468	2.050599	-0.9154161	0.04	3	95	0	6546	14.67672	-0.116284	52.46581	
15:02:50	-6.729543	38.94575	131.344	2.258381	5.410267	0.02	3	94	0	6546	14.62552	-0.2647151	52.44396	
15:02:52	-6.729543	38.94575	131.264	2.003475	-7.780655	0.08	3	95	0	6546	14.63749	-0.2040805	52.38078	
15:02:53	-6.729544	38.94575	131.319	1.993759	-6.821979	0.09	3	95	0	6546	14.63056	-0.1350048	52.42638	
15:02:55	-6.729544	38.94575	131.475	2.12587	2.695604	0.09	3	95	0	6546	14.68863	-0.305038	52.78401	
15:02:57	-6.729543	38.94575	131.469	2.325485	9.075584	0.16	3	95	0	6546	14.6798	-0.272914	52.75214	
