Date	Latitude(deg) 	Longitude(deg)	hamsl(m)	hafl(m)	climbrate(cm/s)	GroundSpeed(m/s)	Airspeed(m/s)	Mav_Link(%)	Rssi_Link(%)	Throttle	Roll(deg)	Pitch(deg)	Yaw(deg)
18:32:05	0	0	0	0	0	0	0	100	0	0	0	0	0	
18:32:06	0	0	0	0.2113687	-0.1322651	0	3	100	0	50	4.072984	1.26053	-81.88603	
18:32:06	0	0	0	0.1664606	-3.206585	0	3	100	0	50	4.072628	1.266918	-81.89864	
18:32:06	0	0	0	0.09642611	-7.305096	0	3	100	0	50	4.075626	1.270473	-81.9032	
18:32:06	0	0	0	-0.1392681	-20.57004	0	3	100	0	50	4.067246	1.272207	-81.9012	
18:32:06	0	0	0	-0.4327381	-35.33451	0	3	100	0	50	4.050251	1.259141	-81.90295	
18:32:06	0	0	0	-0.5902176	-40.9385	0	3	100	0	50	4.052046	1.243357	-81.90419	
18:32:07	0	0	0	-0.529649	-34.21132	0	3	100	0	50	4.050076	1.244976	-81.90123	
18:32:07	0	0	0	-0.3945606	-24.99326	0	3	100	0	50	4.054831	1.24104	-81.90351	
18:32:07	0	0	0	-0.1598524	-11.19404	0	3	100	0	50	4.06894	1.251249	-81.88102	
18:32:07	0	0	0	0.06912369	1.474604	0	3	100	0	50	4.070004	1.236568	-81.8732	
18:32:07	0	0	0	0.2525668	10.41546	0	3	100	0	50	4.06504	1.23156	-81.87955	
18:32:08	0	0	0	0.3590946	14.11177	0	3	100	0	50	4.064489	1.23616	-81.8717	
18:32:08	0	0	0	0.4138917	15.08787	0	3	100	0	50	4.069483	1.248883	-81.86165	
18:32:08	0	0	0	0.4614276	15.60449	0	3	100	0	50	4.064629	1.23853	-81.87077	
18:32:08	0	0	0	0.5104176	15.5223	0	3	100	0	50	4.077274	1.246436	-81.86593	
18:32:08	0	0	0	0.5428582	14.43251	0	3	100	0	50	4.072255	1.243629	-81.86935	
18:32:09	0	0	0	0.5538664	13.05502	0	3	100	0	50	4.078362	1.23681	-81.86031	
18:32:09	0	0	0	0.5685835	11.91588	0	3	100	0	50	4.075653	1.224352	-81.83882	
18:32:09	0	0	0	0.5921355	11.60387	0	3	100	0	50	4.080022	1.23062	-81.82652	
18:32:09	0	0	0	0.6091596	11.30439	0	3	100	0	50	4.067543	1.238514	-81.82541	
18:32:09	0	0	0	0.6422752	11.24125	0	3	100	0	50	4.063589	1.245527	-81.82092	
18:32:10	0	0	0	0.6685569	10.20822	0	3	100	0	50	4.062949	1.234146	-81.81909	
18:32:10	0	0	0	0.701529	10.31794	0	3	100	0	50	4.062062	1.23342	-81.81184	
18:32:10	0	0	0	0.7261052	9.989871	0	3	100	0	50	4.049793	1.230147	-81.79742	
18:32:10	0	0	0	0.7517228	9.746669	0	3	100	0	50	4.044554	1.21775	-81.79274	
18:32:10	0	0	0	0.7721322	9.303902	0	3	100	0	50	4.053843	1.23997	-81.79279	
18:32:11	0	0	0	0.6627085	1.744893	0	3	100	0	50	4.044646	1.230438	-81.78133	
18:32:11	0	0	0	0.5605148	-4.318538	0	3	100	0	50	4.054241	1.229898	-81.77991	
18:32:11	0	0	0	0.505075	-7.491076	0	3	100	0	50	4.057584	1.230901	-81.77838	
18:32:11	0	0	0	0.4594441	-9.352858	0	3	100	0	50	4.059922	1.236727	-81.77229	
18:32:12	0	0	0	0.4371859	-10.19703	0	3	100	0	50	4.054207	1.227846	-81.77138	
18:32:12	0	0	0	0.4178216	-10.32802	0	3	100	0	50	4.051912	1.224827	-81.77377	
18:32:12	0	0	0	0.3850902	-11.24922	0	3	100	0	50	4.045514	1.211019	-81.77561	
18:32:12	0	0	0	0.3589423	-12.40176	0	3	100	0	50	4.05029	1.205125	-81.76971	
18:32:12	0	0	0	0.3680342	-11.15212	0	3	100	0	50	4.053187	1.205669	-81.77326	
18:32:13	0	0	0	0.3774479	-10.27217	0	3	100	0	50	4.064956	1.216417	-81.76791	
18:32:13	0	0	0	0.3539346	-11.11278	0	3	100	0	50	4.062944	1.209177	-81.77984	
18:32:13	0	0	0	0.3341541	-11.30012	0	3	100	0	50	4.06893	1.224071	-81.77204	
18:32:13	0	0	0	0.3556903	-9.963014	0	3	100	0	50	4.060818	1.232551	-81.77106	
18:32:13	0	0	0	0.3740901	-8.448188	0	3	100	0	50	4.0584	1.222832	-81.75437	
18:32:14	0	0	0	0.396379	-6.750525	0	3	100	0	50	4.068883	1.227328	-81.74158	
18:32:14	0	0	0	0.4174986	-5.279575	0	3	100	0	50	4.064404	1.23724	-81.74767	
18:32:14	0	0	0	0.4230004	-5.227839	0	3	100	0	50	4.061646	1.245854	-81.73398	
18:32:14	0	0	0	0.4272753	-4.887736	0	3	100	0	50	4.066433	1.237811	-81.72865	
18:32:14	0	0	0	0.4325367	-4.736881	0	3	100	0	50	4.063327	1.229939	-81.72433	
18:32:15	0	0	0	0.4395086	-3.874782	0	3	100	0	50	4.057384	1.222374	-81.71125	
18:32:15	0	0	0	0.4353195	-3.94212	0	3	100	0	50	4.052905	1.245997	-81.7057	
18:32:15	0	0	0	0.4176789	-3.814904	0	3	100	0	50	4.057912	1.230433	-81.69864	
18:32:15	0	0	0	0.4150408	-3.974723	0	3	100	0	50	4.049291	1.242763	-81.69167	
18:32:15	0	0	0	0.4194359	-3.863371	0	3	100	0	50	4.045586	1.270807	-81.68265	
18:32:16	0	0	0	0.4277737	-3.737616	0	3	100	0	50	4.052877	1.265298	-81.6801	
18:32:16	0	0	0	0.4399264	-3.488709	0	3	100	0	50	4.0651	1.239818	-81.66499	
18:32:16	0	0	0	0.4465047	-3.254753	0	3	100	0	50	4.077529	1.256271	-81.66	
18:32:16	0	0	0	0.4483536	-2.925339	0	3	100	0	50	4.080051	1.264872	-81.64085	
18:32:16	0	0	0	0.4579085	-3.032399	0	3	100	0	50	4.074408	1.290098	-81.63872	
18:32:17	0	0	0	0.4774096	-2.175809	0	3	100	0	50	4.066642	1.277188	-81.65092	
18:32:17	0	0	0	0.4789715	-2.186892	0	3	100	0	50	4.066977	1.282809	-81.64999	
18:32:17	0	0	0	0.455207	-3.731247	0	3	100	0	50	4.073717	1.281659	-81.6458	
18:32:17	0	0	0	0.4359519	-4.796194	0	3	100	0	50	4.087094	1.300706	-81.64568	
18:32:17	0	0	0	0.4186235	-5.784708	0	3	100	0	50	4.094689	1.313321	-81.65647	
18:32:18	0	0	0	0.3998042	-6.677279	0	3	100	0	50	4.094814	1.304061	-81.66037	
18:32:18	0	0	0	0.3800504	-7.7944	0	3	100	0	50	4.093996	1.302834	-81.65406	
18:32:18	0	0	0	0.3805322	-7.827388	0	3	100	0	50	4.093904	1.302293	-81.64523	
18:32:18	0	0	0	0.3944086	-7.107736	0	3	100	0	50	4.082694	1.292032	-81.64779	
18:32:18	0	0	0	0.3878466	-7.18603	0	3	100	0	50	4.080624	1.27272	-81.67216	
18:32:19	0	0	0	0.3550144	-8.247292	0	3	100	0	50	4.080216	1.27295	-81.68551	
18:32:19	0	0	0	0.3228088	-9.424898	0	3	100	0	50	4.07711	1.263027	-81.67723	
18:32:19	0	0	0	0.2869334	-10.57917	0	3	100	0	50	4.081021	1.225881	-81.68471	
18:32:19	0	0	0	0.2593805	-11.041	0	3	100	0	50	4.086495	1.238321	-81.69394	
18:32:19	0	0	0	0.2426042	-11.11623	0	3	100	0	50	4.090726	1.255253	-81.69885	
18:32:20	0	0	0	0.2285079	-11.52589	0	3	100	0	50	4.086623	1.243785	-81.71459	
18:32:20	0	0	0	0.2096551	-11.93672	0	3	100	0	50	4.102646	1.254999	-81.71418	
18:32:20	0	0	0	0.1950097	-12.19834	0	3	100	0	50	4.101913	1.255205	-81.70953	
18:32:20	0	0	0	0.2069105	-11.04182	0	3	100	0	50	4.110138	1.264266	-81.70474	
18:32:20	0	0	0	0.2184173	-10.01496	0	3	100	0	50	4.112865	1.261702	-81.71212	
18:32:21	0	0	0	0.2129931	-9.357767	0	3	100	0	50	4.10923	1.257242	-81.71317	
18:32:21	0	0	0	0.2089279	-9.09239	0	3	100	0	50	4.110354	1.240689	-81.70657	
18:32:21	0	0	0	0.2195732	-7.740167	0	3	100	0	50	4.114377	1.241026	-81.70908	
18:32:21	0	0	0	0.2309146	-6.383538	0	3	100	0	50	4.111893	1.242336	-81.70773	
18:32:22	0	0	0	0.2249445	-6.489279	0	3	99	0	50	4.1192	1.235183	-81.69257	
18:32:22	0	0	0	0.181467	-9.337385	0	3	99	0	50	4.134269	1.258968	-81.69596	
18:32:22	0	0	0	0.1442805	-10.84179	0	3	99	0	50	4.12484	1.27159	-81.70195	
18:32:22	0	0	0	0.1265115	-11.01444	0	3	99	0	50	4.15474	1.282255	-81.71167	
18:32:22	0	0	0	0.1139519	-10.32407	0	3	99	0	50	4.106879	1.276862	-81.7185	
18:32:23	0	0	0	0.135171	-8.284917	0	3	99	0	50	2.843652	1.261039	-81.80533	
18:32:23	0	0	0	0.1551113	-7.051087	0	3	99	0	50	4.076875	1.115458	-81.77229	
18:32:23	0	0	0	0.1821067	-6.399466	0	3	99	0	50	9.180722	0.6732684	-81.60898	
18:32:23	0	0	0	0.2071802	-4.760684	0	3	99	0	50	0.6001522	1.129815	-81.83843	
18:32:23	0	0	0	0.1622159	-8.520847	0	3	99	0	50	10.6547	0.5067003	-81.55229	
18:32:24	0	0	0	0.1198807	-9.387318	0	3	99	0	50	0.01634929	1.218798	-81.91747	
18:32:24	0	0	0	0.08966392	-12.07403	0	3	99	0	50	8.145539	0.8152639	-81.61665	
18:32:24	0	0	0	0.06176318	-12.74681	0	3	99	0	50	2.988868	1.294076	-81.70274	
18:32:24	0	0	0	0.04560524	-13.89041	0	3	99	0	50	3.279035	1.258898	-81.70855	
18:32:24	0	0	0	0.03873991	-13.78947	0	3	99	0	50	6.787052	0.8677366	-81.53852	
18:32:25	0	0	0	0.01454558	-14.75368	0	3	99	0	50	10.83148	0.4157082	-81.44135	
18:32:25	0	0	0	-0.03477524	-17.9569	0	3	99	0	50	1.414176	1.17638	-81.6488	
18:32:25	0	0	0	-0.04377798	-19.1067	0	3	99	0	50	13.95825	0.08690309	-81.28493	
18:32:25	0	0	0	-0.02145655	-15.8798	0	3	99	0	50	0.9134078	1.097735	-81.62302	
18:32:25	0	0	0	-0.023981	-14.66169	0	3	99	0	50	10.16531	0.6166215	-81.24016	
18:32:26	0	0	0	-0.04354284	-15.98349	0	3	99	0	50	2.828528	1.080736	-81.45767	
18:32:26	0	0	0	-0.04085636	-15.72943	0	3	99	0	50	9.023085	0.7558358	-81.20978	
18:32:26	0	0	0	-0.02825382	-15.74553	0	3	99	0	50	2.547002	1.262254	-81.43567	
18:32:26	0	0	0	-0.0107367	-14.82311	0	3	99	0	50	6.440404	1.003626	-81.39642	
18:32:26	0	0	0	0.01116696	-14.68267	0	3	99	0	50	4.784305	1.137575	-81.40883	
18:32:27	0	0	0	0.02151059	-13.19022	0	3	99	0	50	4.828922	1.129309	-81.41649	
18:32:27	0	0	0	0.01554579	-12.54746	0	3	99	0	50	4.986521	1.103493	-81.42377	
18:32:27	0	0	0	0.03773929	-9.867604	0	3	99	0	50	4.978189	1.133326	-81.42351	
18:32:27	0	0	0	0.07711056	-6.874658	0	3	99	0	50	4.969984	1.164167	-81.43233	
18:32:27	0	0	0	0.07019923	-5.935709	0	3	99	0	50	4.982554	1.161095	-81.44713	
18:32:28	0	0	0	0.03706741	-7.05743	0	3	99	0	50	5.006411	1.148025	-81.45597	
18:32:28	0	0	0	0.01269652	-7.757922	0	3	99	0	50	5.023126	1.158226	-81.45831	
18:32:28	0	0	0	-0.009658165	-8.623652	0	3	99	0	50	5.037305	1.188308	-81.47079	
18:32:28	0	0	0	-0.05501146	-10.0142	0	3	99	0	50	5.033981	1.18403	-81.48248	
18:32:28	0	0	0	-0.1160914	-11.89931	0	3	99	0	50	5.05436	1.18514	-81.49495	
18:32:29	0	0	0	-0.1521268	-11.98212	0	3	99	0	50	5.060258	1.196688	-81.494	
18:32:29	0	0	0	-0.1662183	-11.56512	0	3	99	0	50	5.066484	1.199975	-81.49691	
18:32:29	0	0	0	-0.1767472	-11.23136	0	3	99	0	50	5.067022	1.19232	-81.5041	
18:32:29	0	0	0	-0.1812436	-10.5689	0	3	99	0	50	5.073513	1.194204	-81.51263	
18:32:29	0	0	0	-0.1845364	-9.828039	0	3	99	0	50	5.078861	1.201632	-81.51822	
18:32:30	0	0	0	-0.2097585	-10.10658	0	3	99	0	50	5.080624	1.203192	-81.5202	
18:32:30	0	0	0	-0.2288839	-10.46887	0	3	99	0	50	5.077175	1.181678	-81.5369	
18:32:30	0	0	0	-0.2345184	-9.454671	0	3	99	0	50	5.070795	1.179513	-81.55381	
18:32:30	0	0	0	-0.2365104	-8.074404	0	3	99	0	50	5.068945	1.1781	-81.5561	
18:32:30	0	0	0	-0.1765463	-3.941812	0	3	99	0	50	5.067122	1.168323	-81.5591	
18:32:31	0	0	0	-0.1310688	-1.440811	0	3	99	0	50	5.073287	1.139152	-81.56141	
18:32:31	0	0	0	-0.03067556	3.105421	0	3	99	0	50	5.063037	1.139582	-81.56619	
18:32:31	0	0	0	0.05188233	7.292425	0	3	99	0	50	5.060556	1.120889	-81.59109	
18:32:31	-6.79881	38.99208	-825.34	0.06754459	7.470586	192.6	3	99	0	50	5.058628	1.115886	-81.5984	
18:32:31	-6.798488	38.99134	-721.584	0.08084642	7.351593	151.86	3	99	0	50	5.064011	1.124854	-81.60666	
18:32:32	-6.798003	38.9902	-557.004	0.08433962	6.750626	114.73	3	99	0	50	5.066646	1.127032	-81.61023	
18:32:32	-6.797597	38.98925	-419.138	0.08621633	6.419247	147.61	3	99	0	50	5.058214	1.126693	-81.61035	
18:32:32	-6.797721	38.98955	-460.869	0.09970706	6.28264	61.44	3	99	0	50	5.071155	1.13115	-81.61492	
18:32:32	-6.798076	38.99038	-579.887	0.1102456	6.22976	52.34	3	99	0	50	5.074132	1.1483	-81.60474	
18:32:32	-6.798454	38.99128	-707.964	0.12863	6.474791	19.21	3	99	0	50	5.076068	1.16994	-81.60726	
18:32:33	-6.798872	38.99226	-849.554	0.1442577	6.963051	10.53	3	99	0	50	5.075183	1.147126	-81.62155	
18:32:33	-6.798881	38.99229	-852.778	0.2419425	10.99167	14.44	3	99	0	50	5.077014	1.150925	-81.61876	
18:32:33	-6.798856	38.99223	-844.395	0.3365646	14.59516	27.54	3	99	0	50	5.089659	1.132816	-81.62877	
18:32:33	-6.798941	38.99243	-874.237	0.441517	17.95019	4.27	3	99	0	50	5.071293	1.136831	-81.62585	
18:32:33	-6.798941	38.99243	-874.237	0.5331606	21.31738	15.29	3	99	0	50	5.084312	1.139353	-81.63132	
18:32:34	-6.798826	38.99216	-835.569	0.6126295	23.22394	2.49	3	99	0	50	5.075594	1.133044	-81.64711	
18:32:34	-6.798678	38.99181	-785.507	0.673809	24.53446	6.58	3	99	0	50	5.081586	1.134166	-81.65099	
18:32:34	-6.798454	38.99128	-709.286	0.7082806	23.78431	17.45	3	99	0	50	5.08548	1.139339	-81.65052	
18:32:34	-6.79854	38.99148	-739.109	0.6739017	17.24798	21.24	3	99	0	50	5.078172	1.142902	-81.65942	
18:32:35	-6.798606	38.99164	-762.679	0.6225409	12.88713	45.93	3	99	0	50	5.082847	1.157686	-81.66707	
18:32:35	-6.798685	38.99183	-789.671	0.5744463	9.102581	56.74	3	99	0	50	5.090932	1.153433	-81.66055	
18:32:35	-6.798852	38.99222	-847.154	0.5373549	6.202003	81.14	3	99	0	50	5.107624	1.157738	-81.66982	
18:32:35	-6.798493	38.99137	-724.682	0.5082898	3.700497	51.19	3	99	0	50	5.120716	1.151064	-81.68027	
18:32:35	-6.798035	38.99029	-569.117	0.483826	1.481644	38.98	3	99	0	50	5.126233	1.113318	-81.69849	
18:32:36	-6.797879	38.98992	-516.461	0.4601287	-0.2296248	30.87	3	99	0	50	5.121881	1.090885	-81.70306	
18:32:36	-6.797476	38.98897	-380.316	0.4403232	-1.260211	32.39	3	99	0	50	5.12463	1.109566	-81.69466	
18:32:36	-6.797322	38.98861	-328.768	0.423888	-1.876414	35.25	3	99	0	50	5.136481	1.115653	-81.69279	
18:32:36	-6.797302	38.98856	-321.962	0.4144956	-2.201563	32.71	3	99	0	50	5.137489	1.131188	-81.69337	
18:32:36	-6.797362	38.9887	-342.507	0.413995	-2.129871	19.52	3	99	0	50	5.140427	1.15802	-81.74948	
18:32:37	-6.797114	38.98811	-259.111	0.4253737	-0.9705128	11.92	3	99	0	50	5.136849	1.21063	-82.25908	
18:32:37	-6.797069	38.988	-244.529	0.4319135	0.3161734	13.46	3	99	0	50	5.125526	1.263864	-82.75613	
18:32:37	-6.796843	38.98747	-169.026	0.4341531	0.5798357	7.39	3	99	0	50	5.120955	1.310503	-83.23181	
18:32:37	-6.796598	38.9869	-86.841	0.3646867	-3.503071	1.13	3	99	0	50	5.118807	1.357685	-83.7204	
18:32:37	-6.796319	38.98624	7.585	0.2579415	-8.47669	0.93	3	99	0	50	5.126013	1.321317	-83.65681	
18:32:38	-6.796143	38.98582	66.693	0.1779456	-11.3994	6.29	3	99	0	50	5.11779	1.284775	-83.59403	
18:32:38	-6.795954	38.98538	130.092	0.1230467	-13.57941	9.26	3	99	0	50	5.101569	1.339097	-84.19559	
18:32:38	-6.796101	38.98572	79.539	0.07981054	-14.75607	30.82	3	99	0	50	5.088679	1.379383	-84.7723	
18:32:38	-6.796103	38.98573	78.471	0.05954363	-14.16192	42.62	3	99	0	50	5.088818	1.433325	-85.36973	
18:32:38	-6.795899	38.98525	146.687	0.03501798	-14.24693	51.37	3	99	0	50	5.086037	1.483941	-85.99644	
18:32:39	-6.79579	38.98499	182.451	0.008949474	-14.928	59.62	3	99	0	50	5.063777	1.561876	-86.63484	
18:32:39	-6.795399	38.98407	314.562	-0.01273077	-14.61354	52.19	3	99	0	50	5.045745	1.639511	-87.30709	
18:32:39	-6.795204	38.98361	379.172	-0.04689095	-15.03709	58.85	3	99	0	50	5.029667	1.696853	-87.99941	
18:32:39	-6.794981	38.98309	453.947	-0.07559738	-15.69635	58.65	3	99	0	50	5.024946	1.714561	-88.70751	
18:32:39	-6.794826	38.98272	506.416	-0.04935669	-12.58271	57.87	3	99	0	50	5.0145	1.740613	-89.44344	
18:32:40	-6.794538	38.98204	603.676	-0.02221145	-9.743351	46.83	3	99	0	50	5.003735	1.782727	-90.23367	
18:32:40	-6.794353	38.98161	665.145	0.006346084	-6.998714	43.79	3	99	0	50	4.976076	1.84363	-91.02628	
18:32:40	-6.794305	38.98149	680.934	0.03651426	-5.244932	43.31	3	99	0	50	4.968264	1.89534	-91.82502	
18:32:40	-6.794269	38.98141	692.233	0.08563469	-2.078526	46.01	3	99	0	50	4.955239	1.943979	-92.62303	
18:32:40	-6.794262	38.9814	693.791	0.1348002	0.3949433	48.56	3	99	0	50	4.928982	2.00503	-93.47748	
18:32:41	-6.794091	38.98099	751.548	0.1941895	3.375208	39.82	3	99	0	50	4.894057	2.05609	-94.35866	
18:32:41	-6.793829	38.98037	840.98	0.2472017	5.79583	25.87	3	99	0	50	4.866375	2.112398	-95.29584	
18:32:41	-6.793867	38.98046	828.576	0.239421	4.99871	28.09	3	99	0	50	4.847097	2.143008	-96.24473	
18:32:41	-6.793922	38.98059	808.464	0.2308574	3.741834	32.43	3	99	0	50	4.820932	2.186172	-97.25089	
18:32:41	-6.793807	38.98032	846.956	0.212754	2.929637	25.97	3	99	0	50	4.80216	2.225931	-98.28027	
18:32:42	-6.793738	38.98016	869.49	0.1979548	1.658277	23.18	3	99	0	50	4.769357	2.260077	-99.50307	
18:32:42	-6.793874	38.98048	822.302	0.1954041	1.351995	32.55	3	99	0	50	4.747795	2.329062	-100.7758	
18:32:42	-6.793801	38.98031	846.505	0.1931387	1.540041	31.57	3	99	0	50	4.70577	2.4082	-102.0448	
18:32:42	-6.793661	38.97998	893.733	0.2386322	3.868615	25.3	3	99	0	50	4.662451	2.463348	-103.3882	
18:32:42	-6.793644	38.97993	899.184	0.2800335	5.869894	23.87	3	99	0	50	4.626009	2.520245	-104.7169	
18:32:43	-6.79375	38.98019	862.886	0.3056432	6.357269	29.09	3	99	0	50	4.57668	2.575297	-106.1478	
18:32:43	-6.79363	38.9799	903.559	0.324822	6.518811	23.42	3	99	0	50	4.538573	2.627107	-107.5986	
18:32:43	-6.793494	38.97958	949.448	0.3668858	8.222983	17	3	99	0	50	4.498506	2.698271	-109.1552	
18:32:43	-6.793318	38.97917	1008.521	0.4044839	9.976364	11.28	3	99	0	50	4.449275	2.755548	-110.6883	
18:32:43	-6.793246	38.979	1032.815	0.4488482	11.01331	9.49	3	99	0	50	4.395629	2.796719	-112.2482	
18:32:44	-6.793184	38.97885	1053.848	0.48264	11.40389	9.07	3	99	0	50	4.354284	2.873601	-113.8841	
18:32:44	-6.793173	38.97882	1057.177	0.4980158	10.84011	9.95	3	99	0	50	4.307511	2.956496	-115.5478	
18:32:44	-6.793104	38.97866	1079.052	0.4851241	8.82602	5.42	3	99	0	50	4.254607	3.016267	-117.2071	
18:32:44	-6.793122	38.97871	1071.751	0.4572141	6.540296	6.35	3	99	0	50	4.207355	3.084281	-118.9199	
18:32:44	-6.792998	38.97841	1113.908	0.4233057	4.559944	1.5	3	99	0	50	4.165566	3.102849	-120.3586	
18:32:45	-6.79296	38.97832	1126.441	0.3901516	2.462792	1.29	3	99	0	50	4.265632	2.957449	-119.28	
18:32:45	-6.79278	38.9779	1187.145	0.3681566	0.8238223	10.35	3	99	0	50	4.359564	2.807035	-118.1479	
18:32:45	-6.79285	38.97807	1162.421	0.319915	-1.228991	7.45	3	99	0	50	4.472482	2.643336	-116.7625	
18:32:45	-6.7929	38.97819	1145.414	0.2680285	-3.920103	5.17	3	99	0	50	4.569288	2.475644	-115.4146	
18:32:45	-6.792983	38.97839	1115.902	0.2186965	-6.193925	3.55	3	99	0	50	4.67262	2.311926	-114.1084	
18:32:46	-6.79298	38.97838	1116.274	0.1766843	-7.706	3.89	3	99	0	50	4.754969	2.164263	-112.8212	
18:32:46	-6.79298	38.97838	1115.892	0.1538533	-8.132057	3.51	3	99	0	50	4.823232	2.018841	-111.5681	
18:32:46	-6.792953	38.97831	1124.655	0.1547125	-6.584374	4.71	3	99	0	50	4.878122	1.917557	-110.568	
18:32:46	-6.792859	38.97809	1156.388	0.1563803	-5.64143	8.97	3	99	0	50	4.910874	1.828206	-109.7365	
18:32:46	-6.792709	38.97774	1207.559	0.1570672	-4.98395	14.66	3	99	0	50	4.95392	1.744935	-108.9139	
18:32:47	-6.792812	38.97798	1172.44	0.160294	-4.518316	11.78	3	99	0	50	4.994583	1.657029	-108.0917	
18:32:47	-6.793006	38.97844	1106.191	0.16542	-3.782415	5.28	3	99	0	50	5.039245	1.569019	-107.2873	
18:32:47	-6.792906	38.9782	1140.345	0.1591698	-3.615154	9.09	3	99	0	50	5.077248	1.451529	-106.5132	
18:32:47	-6.793084	38.97862	1079.704	0.1468723	-3.731615	4.04	3	99	0	50	5.11409	1.359465	-105.7604	
18:32:47	-6.793109	38.97868	1070.599	0.1432545	-4.106697	5.33	3	99	0	50	5.152182	1.251499	-105.0291	
18:32:48	-6.793097	38.97865	1074.107	0.1456077	-3.272611	6.21	3	99	0	50	5.178959	1.156981	-104.3155	
18:32:48	-6.793205	38.9789	1037.183	0.159264	-1.858478	2.09	3	99	0	50	5.205367	1.064493	-103.6116	
18:32:48	-6.793427	38.97942	961.03	0.1827488	-0.2423852	4.17	3	99	0	50	5.226837	1.002547	-102.9365	
18:32:48	-6.79342	38.97941	963.069	0.2040287	0.4826354	4.83	3	99	0	50	5.244153	0.9231614	-102.2686	
18:32:48	-6.793245	38.979	1022.03	0.2236195	1.42465	1.19	3	99	0	50	5.253366	0.8436007	-101.6276	
18:32:49	-6.79329	38.9791	1006.571	0.2411283	2.433988	1.22	3	99	0	50	5.265606	0.7843109	-101.0064	
18:32:49	-6.793479	38.97955	941.809	0.2395431	2.393924	8.38	3	99	0	50	5.277975	0.7234084	-100.3856	
18:32:49	-6.793449	38.97948	951.39	0.2376769	1.910645	7.91	3	99	0	50	5.296796	0.6821232	-99.79247	
18:32:49	-6.793475	38.97954	942.204	0.2305103	1.314617	8.66	3	99	0	50	5.296759	0.6056206	-99.22169	
18:32:49	-6.79334	38.97922	987.919	0.2234629	0.6165771	5.23	3	99	0	50	5.310121	0.5689996	-98.66895	
18:32:50	-6.793231	38.97896	1024.84	0.2792227	3.239204	2.81	3	99	0	50	5.320046	0.5159005	-98.12469	
18:32:50	-6.792955	38.97831	1118.909	0.3284445	5.000828	5.06	3	99	0	50	5.32209	0.4806555	-97.59811	
18:32:50	-6.792947	38.97829	1121.713	0.2600029	1.2796	5.15	3	99	0	50	5.336396	0.4404047	-97.08429	
18:32:50	-6.792861	38.97808	1151.376	0.1910565	-1.833816	7.23	3	99	0	50	5.342606	0.3997145	-96.60228	
18:32:50	-6.792839	38.97803	1158.431	0.1146384	-5.903992	7.64	3	99	0	50	5.345541	0.3759717	-96.12	
18:32:51	-6.792758	38.97784	1186.439	0.05329072	-8.544622	8.41	3	99	0	50	5.352232	0.3594832	-95.64523	
18:32:51	-6.792824	38.97799	1163.956	0.0170657	-9.936221	5.16	3	99	0	50	5.369109	0.3638113	-95.20308	
18:32:51	-6.79268	38.97765	1212.856	-0.02189025	-11.17309	8.29	3	99	0	50	5.380019	0.3364761	-94.78442	
18:32:51	-6.79268	38.97765	1212.856	-0.03249926	-10.46683	8.29	3	99	0	50	5.392257	0.3318331	-94.37827	
18:32:51	-6.79268	38.97765	1212.856	-0.03945447	-10.18051	8.29	3	99	0	50	5.39578	0.3262247	-93.99519	
18:32:52	-6.79268	38.97765	1212.856	-0.07856645	-11.09846	8.29	3	99	0	50	5.391028	0.280792	-93.49413	
18:32:52	-6.79268	38.97765	1212.856	-0.1117375	-11.97091	8.29	3	99	0	50	5.391169	0.2473954	-92.93526	
18:32:52	-6.79268	38.97765	1212.856	-0.09990349	-10.80349	8.29	3	99	0	50	5.393789	0.2373261	-92.40083	
18:32:52	-6.79268	38.97765	1212.856	-0.08767469	-9.095866	8.29	3	99	0	50	5.393504	0.2067136	-91.88652	
18:32:52	-6.79268	38.97765	1212.856	-0.07409135	-7.741209	8.29	3	99	0	50	5.390424	0.1860768	-91.37914	
18:32:53	-6.79268	38.97765	1212.856	-0.06119057	-6.322172	8.29	3	99	0	50	5.390185	0.1694096	-90.89468	
18:32:53	-6.79268	38.97765	1212.856	-0.01504221	-3.497007	8.29	3	99	0	50	5.390172	0.1454108	-90.41026	
18:32:53	-6.79268	38.97765	1212.856	0.02716942	-1.376203	8.29	3	99	0	50	5.397765	0.1417785	-89.96564	
18:32:53	-6.79268	38.97765	1212.856	0.06729277	0.1781528	8.29	3	99	0	50	5.393679	0.141654	-89.5361	
18:32:53	-6.79268	38.97765	1212.856	0.09990568	1.555147	8.29	3	99	0	50	5.407429	0.1487428	-89.12916	
18:32:54	-6.79268	38.97765	1212.856	0.1287936	3.04838	8.29	3	99	0	50	5.407168	0.1539928	-88.73196	
18:32:54	-6.79268	38.97765	1212.856	0.1489287	3.462257	8.29	3	99	0	50	5.420347	0.151853	-88.34682	
18:32:54	-6.79268	38.97765	1212.856	0.1663765	3.82036	8.29	3	99	0	50	5.428627	0.1345859	-87.99067	
18:32:54	-6.79268	38.97765	1212.856	0.1805155	3.330341	8.29	3	99	0	50	5.424891	0.1505907	-87.62619	
18:32:54	-6.79268	38.97765	1212.856	0.2046039	4.430694	8.29	3	99	0	50	5.42928	0.1530146	-87.29155	
18:32:55	-6.79268	38.97765	1212.856	0.233115	5.580339	8.29	3	99	0	50	5.427965	0.1453762	-86.96111	
18:32:55	-6.79268	38.97765	1212.856	0.2394398	4.977283	8.29	3	99	0	50	5.419803	0.1426865	-86.64946	
18:32:55	-6.79268	38.97765	1212.856	0.2322139	4.292043	8.29	3	99	0	50	5.416072	0.1392643	-86.35947	
18:32:55	-6.79268	38.97765	1212.856	0.2289853	3.193476	8.29	3	99	0	50	5.406012	0.1543803	-86.07138	
18:32:55	-6.79268	38.97765	1212.856	0.2282111	3.418518	8.29	3	99	0	50	5.413127	0.168176	-85.79118	
18:32:56	-6.79268	38.97765	1212.856	0.2208457	2.575084	8.29	3	99	0	50	5.420959	0.1857347	-85.53131	
18:32:56	-6.79268	38.97765	1212.856	0.2041626	1.079159	8.29	3	99	0	50	5.428565	0.2159579	-85.26892	
18:32:56	-6.79268	38.97765	1212.856	0.1805535	0.2949071	8.29	3	99	0	50	5.431622	0.246091	-85.01489	
18:32:56	-6.79268	38.97765	1212.856	0.1477933	-1.08802	8.29	3	99	0	50	5.428382	0.2504911	-84.79124	
18:32:56	-6.79268	38.97765	1212.856	0.1043415	-3.539017	8.29	3	99	0	50	5.431529	0.244118	-84.5667	
18:32:57	-6.79268	38.97765	1212.856	0.0602508	-5.956479	8.29	3	99	0	50	5.420974	0.2748756	-84.34149	
18:32:57	-6.79268	38.97765	1212.856	0.01315883	-8.20095	8.29	3	99	0	50	5.415639	0.2809652	-84.05584	
18:32:57	-6.79268	38.97765	1212.856	-0.03374677	-9.945026	8.29	3	99	0	50	5.41454	0.3149451	-83.77954	
18:32:57	-6.79268	38.97765	1212.856	-0.06803299	-10.62886	8.29	3	99	0	50	5.427454	0.3385652	-83.51477	
18:32:57	-6.79268	38.97765	1212.856	-0.09072664	-10.91074	8.29	3	99	0	50	5.437775	0.3629404	-83.26804	
18:32:58	-6.792501	38.97723	1273.67	-0.1095507	-10.64791	11.74	3	99	0	50	5.438535	0.3857051	-83.0324	
18:32:58	-6.792519	38.97729	1264.07	-0.1209157	-10.04449	9.14	3	99	0	50	5.434105	0.3819315	-82.8151	
18:32:58	-6.79259	38.97745	1240.489	-0.1183509	-8.621	8.55	3	99	0	50	5.430845	0.3728961	-82.59567	
18:32:58	-6.792619	38.97751	1229.775	-0.09832861	-6.841011	8.97	3	99	0	50	5.431445	0.3843555	-82.38264	
18:32:59	-6.792722	38.97775	1194.131	-0.07682635	-4.873807	7.83	3	99	0	50	5.424145	0.4124128	-82.18022	
18:32:59	-6.792758	38.97784	1180.591	-0.06742226	-3.981241	8.97	3	99	0	50	5.424365	0.4443809	-81.99673	
18:32:59	-6.792912	38.9782	1127.127	-0.05811686	-3.338711	7.41	3	99	0	50	5.411223	0.4356514	-81.82156	
18:32:59	-6.792912	38.9782	1127.127	-0.02352558	-0.782803	7.41	3	99	0	50	5.41428	0.4451909	-81.64658	
18:32:59	-6.792912	38.9782	1127.127	0.005032653	0.5253304	7.41	3	99	0	50	5.41691	0.4608229	-81.56425	
18:32:59	-6.792912	38.9782	1127.127	0.02019011	1.531885	7.41	3	99	0	50	5.422345	0.5040006	-81.31674	
18:33:00	-6.792912	38.9782	1127.127	0.03449301	2.603823	7.41	3	99	0	50	5.412374	0.5118908	-81.17039	
18:33:00	-6.792912	38.9782	1127.127	0.001491723	0.2509128	7.41	3	99	0	50	5.409739	0.5297588	-81.02613	
18:33:00	-6.792912	38.9782	1127.127	-0.0290443	-0.86606	7.41	3	99	0	50	5.410094	0.5425071	-80.88668	
18:33:00	-6.792912	38.9782	1127.127	-0.04130084	-1.376716	7.41	3	99	0	50	5.401126	0.5643649	-80.76812	
18:33:00	-6.792912	38.9782	1127.127	-0.05188255	-2.390565	7.41	3	99	0	50	5.406813	0.577849	-80.65144	
18:33:01	-6.792912	38.9782	1127.127	-0.07641564	-3.205571	7.41	3	99	0	50	5.409467	0.5756853	-80.53042	
18:33:01	-6.792914	38.9782	1125.176	-0.1030314	-4.656582	8.55	3	99	0	50	5.401884	0.5965036	-80.42494	
18:33:01	-6.795897	38.98523	114.551	-0.1134193	-4.749349	0.39	3	99	0	50	5.390476	0.6064382	-80.32133	
18:33:01	-6.795902	38.98523	112.962	-0.1217266	-4.84079	0.85	3	99	0	50	5.396237	0.6263098	-80.21703	
18:33:01	-6.795905	38.98524	112.926	-0.1196142	-4.400287	0.31	3	99	0	50	5.397335	0.6412637	-80.12603	
18:33:02	-6.795908	38.98524	112.938	-0.1171863	-4.140198	0.55	3	99	0	50	5.396557	0.6579019	-80.04031	
18:33:02	-6.79591	38.98524	112.899	-0.1274645	-3.922515	0.32	3	99	0	50	5.388295	0.6878467	-79.9461	
18:33:02	-6.795912	38.98524	113.265	-0.1341826	-3.228822	0.34	3	99	0	50	5.38263	0.7166517	-79.85101	
18:33:02	-6.795914	38.98524	113.644	-0.1774373	-5.26523	0.11	3	99	0	50	5.378849	0.7316148	-79.75322	
18:33:02	-6.795915	38.98524	113.956	-0.2125209	-6.47219	0.36	3	99	0	50	5.375347	0.7443395	-79.66944	
18:33:03	-6.795915	38.98524	113.987	-0.2415091	-7.288233	0.14	3	99	0	50	5.369249	0.7396088	-79.59421	
18:33:03	-6.795917	38.98525	114.592	-0.2664298	-7.57959	0.39	3	99	0	50	5.367477	0.7600456	-79.52798	
18:33:03	-6.795917	38.98525	114.343	-0.277942	-7.268415	0.41	3	99	0	50	5.355861	0.7955092	-79.45648	
18:33:03	-6.795917	38.98525	114.581	-0.285963	-7.223573	0.19	3	99	0	50	5.359883	0.8244995	-79.39417	
18:33:03	-6.795918	38.98525	114.63	-0.2881582	-6.112652	0.39	3	99	0	50	5.371904	0.8474441	-79.33078	
18:33:04	-6.79592	38.98526	114.649	-0.2822665	-5.012241	0.69	3	99	0	50	5.377053	0.8804619	-79.26881	
18:33:04	-6.79592	38.98526	114.366	-0.2678495	-3.273328	0.32	3	99	0	50	5.372287	0.9014348	-79.22145	
18:33:04	-6.795921	38.98526	114.151	-0.2460462	-1.313848	0.28	3	99	0	50	5.383126	0.9294617	-79.17774	
18:33:04	-6.795922	38.98526	114.074	-0.193278	1.787716	0.29	3	99	0	50	5.373129	0.9198557	-79.1382	
18:33:04	-6.79592	38.98526	113.161	-0.1280322	5.085787	0.52	3	99	0	50	5.363124	0.9378855	-79.10151	
18:33:05	-6.79592	38.98526	112.761	-0.1048968	5.665236	0.42	3	99	0	50	5.354733	0.9479407	-79.05665	
18:33:05	-6.79592	38.98526	112.625	-0.1077733	5.067215	0.25	3	99	0	50	5.350665	0.9719326	-79.01254	
18:33:05	-6.795922	38.98527	112.606	-0.1033286	4.791652	1.15	3	99	0	50	5.348179	0.9801278	-78.9925	
18:33:05	-6.795922	38.98527	112.7	-0.09564924	4.655263	0.14	3	99	0	50	5.347904	1.008298	-78.9527	
18:33:05	-6.795924	38.98528	112.882	-0.08365351	4.419459	0.31	3	99	0	50	5.341003	1.030491	-78.92602	
18:33:06	-6.795925	38.98528	112.872	-0.06529269	4.930975	0.37	3	98	0	50	5.342093	1.05469	-78.90016	
18:33:06	-6.795925	38.98528	113.033	-0.03372988	5.76729	1.11	3	98	0	50	5.336765	1.075058	-78.88674	
18:33:06	-6.795925	38.98528	112.966	0.02118101	7.965737	0.69	3	98	0	50	5.327978	1.087168	-78.87062	
18:33:06	-6.795924	38.98528	113.207	0.07340182	10.11423	1.66	3	98	0	50	5.321742	1.101361	-78.8539	
18:33:06	-6.795926	38.98528	112.578	0.1251038	12.02588	1.04	3	98	0	50	5.328127	1.106471	-78.83521	
18:33:07	-6.795926	38.98528	112.078	0.1528535	11.8125	0.47	3	98	0	50	5.328582	1.113287	-78.83102	
18:33:07	-6.795925	38.98528	111.715	0.1594121	11.11143	0.29	3	98	0	50	5.322957	1.12261	-78.81309	
18:33:07	-6.795925	38.98528	111.22	0.1520513	9.695639	0.19	3	99	0	50	5.321151	1.127612	-78.80616	
18:33:07	-6.795926	38.98529	110.769	0.133932	7.771531	0.61	3	99	0	50	5.326192	1.152624	-78.81411	
18:33:07	-6.795926	38.98529	110.522	0.1134367	5.990232	0.17	3	99	0	50	5.319675	1.169181	-78.83901	
18:33:08	-6.795925	38.98529	110.027	0.09353652	4.674504	0.17	3	99	0	50	5.309461	1.169999	-78.84972	
18:33:08	-6.795926	38.98529	109.267	0.08384144	3.99583	0.96	3	99	0	50	5.299956	1.180482	-78.84921	
18:33:08	-6.795923	38.98529	108.365	0.08820164	3.597073	0.88	3	99	0	50	5.299866	1.194221	-78.85736	
18:33:08	-6.795919	38.98528	106.573	0.09052213	3.155552	2.57	3	99	0	50	5.308167	1.194852	-78.8699	
18:33:08	-6.795914	38.98528	104.647	0.1687976	7.469141	3.56	3	99	0	50	5.308155	1.210222	-78.88446	
18:33:09	-6.79591	38.98527	102.61	0.2385236	10.24942	3.1	3	98	0	50	5.314607	1.220043	-78.92165	
18:33:09	-6.79591	38.98527	102.61	0.4018079	16.40446	3.1	3	98	0	50	5.315391	1.239798	-78.92693	
18:33:09	-6.79591	38.98527	102.61	0.4665299	18.28846	3.1	3	98	0	50	5.321672	1.242363	-78.93819	
18:33:10	-6.79591	38.98527	102.61	0.5228162	19.70626	3.1	3	98	0	50	5.311384	1.250022	-78.96662	
18:33:10	-6.795908	38.98527	100.689	0.4957857	16.0679	1.19	3	98	0	50	5.319705	1.237315	-78.97014	
18:33:10	-6.795912	38.98527	98.444	0.4675231	13.41036	1.25	3	98	0	50	5.319005	1.223414	-78.98254	
18:33:10	-6.795911	38.98527	98.574	0.4841993	12.877	0.07	3	98	0	50	5.32525	1.23853	-78.99126	
18:33:10	-6.79591	38.98527	99.274	0.4948872	12.05411	1.3	3	98	0	50	5.315331	1.237809	-78.99491	
18:33:11	-6.795911	38.98527	99.759	0.472266	9.31149	1.32	3	98	0	50	5.307626	1.217918	-79.00166	
18:33:11	-6.795909	38.98526	99.508	0.4494159	7.12091	2.59	3	98	0	50	5.315177	1.208172	-79.00579	
18:33:11	-6.795908	38.98526	98.925	0.4264452	5.606707	1.76	3	98	0	50	5.314863	1.199311	-79.01301	
18:33:11	-6.795909	38.98527	97.562	0.4069586	4.310404	0.94	3	98	0	50	5.309921	1.193092	-79.03195	
18:33:11	-6.795911	38.98527	97.255	0.3926671	3.055395	1.14	3	98	0	50	5.30244	1.2053	-79.03522	
18:33:12	-6.795913	38.98528	97.563	0.3812847	2.116889	0.52	3	98	0	50	5.297661	1.214591	-79.0295	
18:33:12	-6.795914	38.98528	98.289	0.3302924	-0.9119951	0.26	3	98	0	50	5.305576	1.221614	-79.0414	
18:33:12	-6.795916	38.98528	98.858	0.2880205	-2.976825	0.13	3	98	0	50	5.298324	1.235563	-79.04898	
18:33:12	-6.795914	38.98528	98.516	0.2720295	-3.295204	1.33	3	98	0	50	5.293374	1.262548	-79.08728	
18:33:12	-6.795914	38.98528	98.101	0.2580732	-3.915264	0.29	3	98	0	50	5.298355	1.265164	-79.11485	
18:33:13	-6.795914	38.98528	97.565	0.1680795	-8.151306	0.38	3	98	0	50	5.300094	1.270533	-79.15028	
18:33:13	-6.795915	38.98528	97.867	0.08870217	-11.53644	0.18	3	98	0	50	5.296506	1.280994	-79.17738	
18:33:13	-6.795914	38.98528	97.863	0.006861486	-14.45554	1.11	3	98	0	50	5.282006	1.320034	-79.2177	
18:33:13	-6.795912	38.98528	96.699	-0.05840483	-16.5614	0.72	3	98	0	50	5.274329	1.317102	-79.26422	
18:33:13	-6.795914	38.98528	96.67	-0.122667	-17.97449	0.56	3	98	0	50	5.266436	1.330301	-79.28156	
18:33:13	-6.795914	38.98528	95.977	-0.1813885	-19.70732	0.59	3	98	0	50	5.262604	1.35282	-79.31296	
18:33:14	-6.795914	38.98528	95.266	-0.2314081	-20.631	0.65	3	98	0	50	5.264991	1.362174	-79.34198	
18:33:14	-6.795912	38.98528	94.332	-0.2742366	-21.29446	1.45	3	98	0	50	5.265892	1.370802	-79.37273	
18:33:14	-6.795909	38.98528	94.755	-0.3029593	-20.88554	3.79	3	98	0	50	5.260689	1.379573	-79.40284	
18:33:14	-6.795906	38.98527	94.344	-0.315569	-19.58168	3.9	3	98	0	50	5.247768	1.396326	-79.42426	
18:33:14	-6.795905	38.98527	93.96	-0.3403096	-18.93646	1.3	3	98	0	50	5.248515	1.429518	-79.46078	
18:33:15	-6.795904	38.98527	94.348	-0.3703259	-18.91508	1.78	3	98	0	50	5.248072	1.417371	-79.5015	
18:33:15	-6.795904	38.98527	94.348	-0.39304	-18.53074	0.84	3	98	0	50	5.249045	1.437313	-79.53501	
18:33:15	-6.795905	38.98527	94.758	-0.4092001	-17.2476	0.34	3	98	0	50	5.251019	1.426976	-79.56612	
18:33:15	-6.795905	38.98527	94.263	-0.4187761	-16.04059	0.48	3	98	0	50	5.258205	1.423556	-79.58995	
18:33:15	-6.795903	38.98527	93.057	-0.4233777	-14.84237	0.51	3	98	0	50	5.259202	1.416615	-79.61456	
18:33:16	-6.795903	38.98527	91.733	-0.4196209	-13.09161	0.85	3	98	0	50	5.258988	1.422124	-79.64068	
18:33:16	-6.795904	38.98528	91.842	-0.4050167	-10.78877	1.04	3	98	0	50	5.259687	1.42522	-79.65005	
18:33:16	-6.795904	38.98528	92.561	-0.382844	-8.831271	0.47	3	98	0	50	5.261035	1.422743	-79.67445	
18:33:16	-6.795904	38.98528	93.447	-0.3530899	-6.099828	0.19	3	98	0	50	5.260238	1.432254	-79.70268	
18:33:17	-6.795905	38.98528	94.284	-0.3140357	-3.459939	0.21	3	98	0	50	5.25876	1.43169	-79.72865	
18:33:17	-6.795906	38.98528	93.69	-0.2714193	-0.5975367	0.62	3	98	0	50	5.252494	1.430958	-79.74705	
18:33:17	-6.795906	38.98528	93.848	-0.2185227	2.504621	0.17	3	98	0	50	5.257886	1.42726	-79.76568	
18:33:17	-6.795907	38.98528	93.11	-0.1346451	6.547096	0.47	3	98	0	50	5.255027	1.423989	-79.7999	
18:33:17	-6.795907	38.98529	92.114	-0.09273706	7.958691	0.41	3	98	0	50	5.254993	1.439264	-79.84957	
18:33:18	-6.795906	38.98528	92.136	-0.07831744	8.086838	0.95	3	99	0	50	5.244582	1.428234	-79.90204	
18:33:18	-6.795907	38.98529	91.79	-0.06820251	8.006888	0.42	3	99	0	50	5.23603	1.443905	-79.93579	
18:33:18	-6.795907	38.98529	90.998	-0.06140308	8.060144	0.9	3	99	0	50	5.230108	1.436613	-79.98188	
18:33:18	-6.795907	38.98529	91.852	-0.05732111	7.558262	1.26	3	98	0	50	5.226691	1.4299	-80.05147	
18:33:19	-6.795905	38.98528	92.611	-0.04475309	7.288984	3.26	3	98	0	50	5.22762	1.443813	-80.07977	
18:33:19	-6.795902	38.98528	91.998	0.01913429	10.33054	3.11	3	98	0	50	5.232014	1.452739	-80.11621	
18:33:19	-6.795903	38.98528	90.584	0.07064524	12.48041	0.85	3	98	0	50	5.224796	1.467698	-80.16293	
18:33:19	-6.795902	38.98528	90.927	0.1312465	14.27751	1.12	3	98	0	50	5.220332	1.464247	-80.20606	
18:33:19	-6.795901	38.98528	92.06	0.1831302	15.31976	2.38	3	98	0	50	5.21874	1.465339	-80.2299	
18:33:20	-6.7959	38.98528	92.06	0.245684	16.80225	1.74	3	98	0	50	5.227089	1.468561	-80.25854	
18:33:20	-6.795901	38.98528	92.272	0.2989643	17.85501	0.71	3	98	0	50	5.234218	1.479348	-80.29596	
18:33:20	-6.795899	38.98528	92.612	0.3463482	18.46165	1.88	3	98	0	50	5.243619	1.479421	-80.33562	
18:33:20	-6.795899	38.98528	93.438	0.3816336	18.5011	0.39	3	98	0	50	5.242751	1.469983	-80.37351	
18:33:20	-6.795899	38.98528	93.438	0.4073158	17.98129	1.9	3	98	0	50	5.248439	1.49246	-80.39181	
18:33:21	-6.795899	38.98528	93.369	0.4275025	17.63152	0.84	3	98	0	50	5.252522	1.480131	-80.41927	
18:33:21	-6.7959	38.98528	93.835	0.4368254	16.33668	0.64	3	98	0	50	5.244606	1.505075	-80.44788	
18:33:21	-6.795901	38.98528	93.884	0.4416076	15.01632	0.08	3	98	0	50	5.25218	1.52392	-80.48621	
18:33:21	-6.795901	38.98528	93.844	0.4097449	11.97595	0.44	3	98	0	50	5.26318	1.543742	-80.51582	
18:33:21	-6.795904	38.98529	94.418	0.3754278	8.80113	0.79	3	98	0	50	5.258109	1.550818	-80.53551	
18:33:22	-6.795905	38.98529	94.947	0.3286823	5.723913	0.29	3	98	0	50	5.273233	1.55895	-80.55949	
18:33:22	-6.795905	38.98529	94.947	0.2857752	3.5543	0.29	3	98	0	50	5.264884	1.5681	-80.60116	
18:33:22	-6.795907	38.98529	94.752	0.2351978	0.9548234	0.22	3	98	0	50	5.261746	1.578173	-80.63191	
18:33:22	-6.795907	38.98529	95.158	0.1933418	-1.715663	1.02	3	98	0	50	5.256494	1.575295	-80.64832	
18:33:22	-6.795908	38.98529	94.788	0.113041	-5.345961	0.42	3	98	0	50	5.253945	1.562447	-80.69136	
18:33:23	-6.795908	38.98529	94.788	0.04821659	-8.251892	0.42	3	98	0	50	5.255792	1.56514	-80.73714	
18:33:23	-6.795909	38.9853	95.564	0.02961667	-8.413566	0.13	3	98	0	50	5.247234	1.57006	-80.7835	
18:33:23	-6.79591	38.9853	95.956	0.01561249	-8.833965	0.94	3	98	0	50	5.263534	1.579932	-80.83325	
18:33:23	-6.79591	38.9853	96.219	-0.01187587	-9.057785	0.66	3	98	0	50	5.264046	1.593132	-80.87287	
18:33:23	-6.795911	38.9853	96.328	-0.05507459	-10.39248	0.79	3	98	0	50	5.264902	1.597255	-80.91711	
18:33:24	-6.795912	38.98531	96.629	-0.07529051	-9.644124	0.33	3	98	0	50	5.27007	1.61869	-80.97524	
18:33:24	-6.795912	38.98531	96.892	-0.0673783	-7.97457	0.29	3	98	0	50	5.264372	1.621805	-81.02094	
18:33:24	-6.795912	38.98531	96.999	-0.05198628	-5.640243	0.38	3	99	0	50	5.25976	1.644641	-81.03979	
18:33:24	-6.795911	38.98531	97.827	-0.03441706	-4.28057	0.96	3	99	0	50	5.264381	1.64049	-81.0822	
18:33:24	-6.795911	38.98531	98.177	-0.01128445	-2.368841	0.45	3	99	0	50	5.253998	1.629723	-81.12065	
18:33:25	-6.795912	38.98531	99.068	0.01457535	-0.9301836	0.09	3	98	0	50	5.237678	1.639299	-81.15352	
18:33:25	-6.795912	38.98531	99.097	0.04710145	0.7836746	1.33	3	98	0	50	5.237569	1.632115	-81.19038	
18:33:25	-6.795912	38.98531	99.79	0.07903916	2.571157	0.87	3	98	0	50	5.238633	1.630411	-81.21954	
18:33:25	-6.795913	38.98531	100.361	0.119556	4.269983	0.06	3	98	0	50	5.232572	1.629074	-81.25011	
18:33:25	-6.795914	38.98532	101.028	0.1676582	6.027359	0.76	3	98	0	50	5.226589	1.62105	-81.28534	
18:33:26	-6.795914	38.98532	101.555	0.2234319	7.837836	1.04	3	98	0	50	5.234151	1.627803	-81.30083	
18:33:26	-6.795914	38.98532	102.231	0.2922586	11.42824	0.71	3	98	0	50	5.225686	1.645069	-81.32905	
18:33:26	-6.795917	38.98532	102.751	0.345927	12.66415	1.04	3	98	0	50	5.22904	1.642821	-81.34867	
18:33:26	-6.795918	38.98532	102.987	0.3777118	13.46742	0.69	3	98	0	50	5.226153	1.629472	-81.38551	
18:33:26	-6.795921	38.98533	103.028	0.3739101	11.62039	1	3	98	0	50	5.225927	1.630948	-81.40903	
18:33:27	-6.795921	38.98533	103.168	0.3481266	8.859194	1.09	3	98	0	50	5.235332	1.640777	-81.4215	
18:33:27	-6.79592	38.98533	103.902	0.3250755	7.058256	1.18	3	98	0	50	5.250417	1.634601	-81.42273	
18:33:27	-6.795919	38.98532	105.045	0.3061485	5.479675	2.21	3	98	0	50	5.246603	1.631766	-81.44417	
18:33:27	-6.79592	38.98533	105.052	0.2764899	3.54506	0.66	3	98	0	50	5.248167	1.632027	-81.46568	
18:33:27	-6.795922	38.98533	105.342	0.2343735	0.8313298	0.61	3	98	0	50	5.24663	1.635224	-81.48037	
18:33:28	-6.795922	38.98533	105.375	0.1998199	-0.9499217	0.12	3	98	0	50	5.243931	1.609446	-81.50887	
18:33:28	-6.795923	38.98533	106.169	0.1749118	-2.045399	0.59	3	98	0	50	5.225012	1.605387	-81.54309	
18:33:28	-6.795923	38.98533	106.665	0.1500183	-2.978331	1.05	3	98	0	50	5.227016	1.595919	-81.58422	
18:33:28	-6.795923	38.98533	107.191	0.1002888	-4.938778	1.35	3	98	0	50	5.219025	1.59938	-81.62899	
18:33:28	-6.795922	38.98533	108.423	0.05612364	-6.542932	1.66	3	98	0	50	5.213264	1.602263	-81.64954	
18:33:29	-6.795923	38.98533	108.557	0.008261645	-8.468258	0.9	3	98	0	50	5.212903	1.589476	-81.68132	
18:33:29	-6.795924	38.98534	108.811	-0.02937216	-9.511479	0.29	3	98	0	50	5.207751	1.587236	-81.71638	
18:33:29	-6.795925	38.98534	108.568	-0.07867824	-11.38535	0.35	3	98	0	50	5.200205	1.569488	-81.75175	
18:33:29	-6.795927	38.98534	109.402	-0.1215911	-12.92455	0.52	3	98	0	50	5.210763	1.574249	-81.77322	
18:33:29	-6.795928	38.98534	109.47	-0.1091182	-11.14024	1.16	3	98	0	50	5.20546	1.558631	-81.79572	
18:33:30	-6.795929	38.98535	109.46	-0.09545148	-9.306468	0.79	3	98	0	50	5.20552	1.547231	-81.81877	
18:33:30	-6.79593	38.98535	110.33	-0.1115082	-8.684428	0.58	3	98	0	50	5.207256	1.555113	-81.83525	
18:33:30	-6.795931	38.98535	110.73	-0.1224416	-8.659847	0.68	3	98	0	50	5.204911	1.565319	-81.85413	
18:33:30	-6.795931	38.98535	110.938	-0.1457756	-9.046038	0.22	3	98	0	50	5.208162	1.564793	-81.87759	
18:33:30	-6.795933	38.98536	111.269	-0.1645805	-8.786222	0.94	3	98	0	50	5.203988	1.569426	-81.89919	
18:33:31	-6.795934	38.98536	112.386	-0.1784277	-8.308421	2.1	3	98	0	50	5.195965	1.560043	-81.91842	
18:33:31	-6.795936	38.98537	113.247	-0.1879465	-8.111513	4	3	98	0	50	5.184197	1.554498	-81.93942	
18:33:31	-6.795938	38.98537	113.955	-0.1982986	-8.066125	3.28	3	98	0	50	5.178241	1.564422	-82.266	
18:33:31	-6.795938	38.98538	114.234	-0.2058616	-7.106019	1.91	3	98	0	50	5.174679	1.590377	-82.5037	
18:33:31	-6.795938	38.98538	114.911	-0.2200715	-7.168269	1.07	3	98	0	50	5.181622	1.577896	-82.50224	
18:33:32	-6.79594	38.98538	115.513	-0.231339	-7.033196	1.91	3	98	0	50	5.184173	1.577726	-82.49735	
18:33:32	-6.79594	38.98538	115.844	-0.2075617	-4.925046	0.22	3	98	0	50	5.191532	1.581046	-82.49338	
18:33:32	-6.795939	38.98538	117.038	-0.1866297	-3.336396	0.64	3	98	0	50	5.178498	1.537384	-82.48574	
18:33:32	-6.795939	38.98538	117.403	-0.1404477	0.01230487	0.63	3	98	0	50	5.174894	1.524008	-82.47057	
18:33:32	-6.79594	38.98538	117.196	-0.09732077	2.348648	0.53	3	98	0	50	5.177297	1.503244	-82.4732	
18:33:33	-6.795941	38.98538	118.001	-0.06946336	2.993617	0.45	3	98	0	50	5.178113	1.518277	-82.47462	
18:33:33	-6.795939	38.98538	118.13	-0.04596743	3.449231	1.7	3	98	0	50	5.176032	1.514593	-82.46998	
18:33:33	-6.795938	38.98538	118.719	-0.03933901	3.101891	1.75	3	99	0	50	5.176627	1.501457	-82.47642	
18:33:33	-6.795938	38.98538	118.7	-0.04587998	2.282507	1.28	3	99	0	50	5.179148	1.502194	-82.4692	
18:33:33	-6.795938	38.98538	118.935	-0.0966443	-1.020613	0.37	3	99	0	50	5.182788	1.479674	-82.47873	
18:33:34	-6.79594	38.98538	118.829	-0.2043708	-6.633765	1.38	3	99	0	50	5.188657	1.463203	-82.46942	
18:33:34	-6.795939	38.98538	119.262	-0.2979217	-10.62294	1.01	3	99	0	50	5.193747	1.463828	-82.44888	
18:33:34	-6.795941	38.98538	119.628	-0.3588249	-12.65147	0.21	3	99	0	50	5.194165	1.458025	-82.43913	
18:33:34	-6.795942	38.98539	119.575	-0.3964097	-13.56048	1.18	3	99	0	50	5.190065	1.444454	-82.44719	
18:33:34	-6.795943	38.98539	120.061	-0.4165671	-13.59396	1.83	3	99	0	50	5.192084	1.46385	-82.43447	
18:33:35	-6.795944	38.98539	120.479	-0.4194949	-12.43692	0.64	3	99	0	50	5.19591	1.465102	-82.42316	
18:33:35	-6.795945	38.98539	121.544	-0.4072074	-10.71558	0.7	3	99	0	50	5.193863	1.460508	-82.41656	
18:33:35	-6.795945	38.98539	122.16	-0.4186333	-10.53932	0.69	3	99	0	50	5.186237	1.431429	-82.41853	
18:33:35	-6.795944	38.98539	123.108	-0.4580108	-11.1247	1.88	3	99	0	50	5.187178	1.420473	-82.42538	
18:33:35	-6.795942	38.98538	123.081	-0.4784977	-11.10803	1.67	3	99	0	50	5.185556	1.421035	-82.41982	
18:33:36	-6.795942	38.98538	123.34	-0.4772212	-10.27994	2.14	3	99	0	50	5.189249	1.418087	-82.41296	
18:33:36	-6.795942	38.98538	124.092	-0.4770005	-9.363766	1.54	3	99	0	50	5.17873	1.399452	-82.41191	
18:33:36	-6.795942	38.98538	124.143	-0.4766228	-8.422855	0.5	3	99	0	50	5.171432	1.396171	-82.41172	
18:33:36	-6.795943	38.98538	124.335	-0.4730373	-7.396101	0.65	3	99	0	50	5.167282	1.363119	-82.4178	
18:33:36	-6.795942	38.98538	124.302	-0.4681974	-6.820695	0.96	3	99	0	50	5.175023	1.362897	-82.40891	
18:33:37	-6.795942	38.98538	124.53	-0.4534922	-4.939249	1.51	3	99	0	50	5.162338	1.35721	-82.38744	
18:33:37	-6.795942	38.98538	124.875	-0.432226	-3.531955	0.39	3	99	0	50	5.167588	1.355285	-82.3846	
18:33:37	-6.795945	38.98538	125.012	-0.4215183	-2.851959	1.13	3	99	0	50	5.169086	1.384696	-82.3727	
18:33:37	-6.795947	38.98538	124.749	-0.4265105	-2.35783	0.88	3	99	0	50	5.180025	1.377698	-82.36764	
18:33:37	-6.795947	38.98538	125.482	-0.4218811	-2.040528	0.58	3	99	0	50	5.164858	1.370213	-82.34655	
18:33:38	-6.795947	38.98538	125.874	-0.408174	-1.068988	1.11	3	99	0	50	5.170079	1.364294	-82.32925	
18:33:38	-6.795948	38.98538	125.921	-0.3966692	-0.6477581	0.37	3	99	0	50	5.175868	1.377291	-82.30402	
18:33:38	-6.795947	38.98538	126.554	-0.4003007	-0.3935686	1.96	3	99	0	50	5.18224	1.375038	-82.29631	
18:33:38	-6.795946	38.98538	126.651	-0.4034585	-0.4750591	1.99	3	99	0	50	5.174081	1.380878	-82.27646	
18:33:38	-6.795947	38.98538	127.251	-0.3883807	0.3734765	1.15	3	99	0	50	5.181066	1.390837	-82.26275	
18:33:39	-6.795947	38.98538	127.927	-0.3761714	0.9390951	0.72	3	99	0	50	5.188766	1.391427	-82.26407	
18:33:39	-6.795945	38.98537	128.389	-0.3617054	1.779104	3.34	3	99	0	50	5.199547	1.375859	-82.25753	
18:33:39	-6.795945	38.98537	128.626	-0.3482547	2.756325	1.07	3	99	0	50	5.199261	1.388577	-82.25753	
18:33:39	-6.795944	38.98537	128.248	-0.2775958	6.416707	1.35	3	99	0	50	5.18931	1.38368	-82.25936	
18:33:39	-6.795945	38.98537	128.622	-0.2136187	9.42431	0.63	3	99	0	50	5.184856	1.38593	-82.25288	
18:33:40	-6.795946	38.98537	128.583	-0.1056527	13.9076	0.89	3	99	0	50	5.177464	1.39727	-82.25678	
18:33:40	-6.795945	38.98537	128.375	-0.02000165	16.62031	0.66	3	99	0	50	5.183331	1.395254	-82.26198	
18:33:40	-6.795945	38.98537	128.82	-0.06110727	12.79563	0.24	3	99	0	50	5.165456	1.413103	-82.25626	
18:33:40	-6.795943	38.98537	129.213	-0.1005171	9.638594	1.39	3	99	0	50	5.153045	1.397149	-82.2472	
18:33:40	-6.795944	38.98537	129.738	-0.1005171	9.638594	0.16	3	98	0	50	5.162096	1.40054	-82.24239	
18:33:41	-6.795947	38.98538	129.687	-0.2612004	0.4839886	2.8	3	98	0	50	5.169766	1.416612	-82.23603	
18:33:41	-6.795948	38.98538	129.608	-0.3583613	-5.093769	1.79	3	99	0	50	5.163139	1.405299	-82.22869	
18:33:41	-6.795949	38.98539	130.018	-0.4461106	-8.84521	1.13	3	99	0	50	5.15384	1.386728	-82.23026	
18:33:41	-6.79595	38.98539	130.59	-0.4956458	-10.48668	1.74	3	99	0	50	5.134151	1.367473	-82.22436	
18:33:41	-6.79595	38.98539	130.577	-0.5392716	-11.85954	0.91	3	99	0	50	5.133092	1.376932	-82.22688	
18:33:42	-6.795951	38.9854	130.927	-0.5519034	-11.32473	1.4	3	99	0	50	5.145407	1.346369	-82.21945	
18:33:42	-6.795952	38.9854	131.836	-0.5603986	-10.90826	0.31	3	99	0	50	5.148886	1.339535	-82.20378	
18:33:42	-6.795952	38.9854	131.902	-0.5796052	-10.74196	0.39	3	99	0	50	5.151786	1.319821	-82.20531	
18:33:42	-6.795953	38.9854	132.162	-0.5947326	-10.51905	0.26	3	99	0	50	5.149045	1.328663	-82.20329	
18:33:42	-6.795954	38.9854	132.444	-0.6031554	-10.06114	0.26	3	99	0	50	5.158398	1.343715	-82.20091	
18:33:43	-6.795954	38.9854	132.958	-0.608781	-9.460822	0.97	3	99	0	50	5.151865	1.329035	-82.19194	
18:33:43	-6.795955	38.9854	133.047	-0.6148221	-8.825409	0.42	3	99	0	50	5.146528	1.327892	-82.18472	
18:33:43	-6.795956	38.9854	133.47	-0.6218348	-8.507446	0.55	3	99	0	50	5.148327	1.323299	-82.18097	
18:33:43	-6.795957	38.9854	133.406	-0.6195065	-7.368646	0.41	3	99	0	50	5.149407	1.308661	-82.1789	
18:33:44	-6.795959	38.98541	133.699	-0.5612733	-3.298934	1.56	3	98	0	50	5.149755	1.30816	-82.13404	
18:33:44	-6.79596	38.98541	133.876	-0.5042341	0.116728	0.91	3	98	0	50	5.158216	1.310029	-82.11977	
18:33:44	-6.795962	38.98542	133.915	-0.4583322	2.684613	1.96	3	98	0	50	5.15934	1.312783	-82.11276	
18:33:44	-6.795963	38.98542	134.208	-0.4234051	3.718601	0.66	3	98	0	50	5.157413	1.328214	-82.10093	
18:33:44	-6.795962	38.98542	134.189	-0.3542571	6.545419	0.38	3	98	0	50	5.162078	1.322715	-82.09709	
18:33:45	-6.795963	38.98542	134.426	-0.2763932	9.937674	0.58	3	98	0	50	5.175553	1.320122	-82.09782	
18:33:45	-6.795964	38.98542	134.899	-0.2191277	12.11815	0.58	3	98	0	50	5.173554	1.334494	-82.10384	
18:33:45	-6.795965	38.98542	135.077	-0.1984911	11.8127	0.64	3	98	0	50	5.166289	1.339444	-82.10986	
18:33:45	-6.795964	38.98542	135.712	-0.1746257	12.47445	1.42	3	98	0	50	5.172832	1.346444	-82.10135	
18:33:45	-6.795964	38.98542	135.365	-0.1530687	13.10695	0.78	3	98	0	50	5.171877	1.336275	-82.10197	
18:33:46	-6.795964	38.98542	135.57	-0.1305304	13.42167	0.12	3	98	0	50	5.16398	1.334611	-82.10736	
18:33:46	-6.795965	38.98542	135.856	-0.1142442	12.91886	0.75	3	99	0	50	5.165801	1.341223	-82.10858	
18:33:46	-6.795965	38.98542	136.239	-0.08277386	13.53901	0.07	3	99	0	50	5.163357	1.357054	-82.10707	
18:33:46	-6.795966	38.98542	136.021	-0.04480408	13.91234	1.04	3	99	0	50	5.157336	1.350465	-82.09678	
18:33:46	-6.795966	38.98542	136.386	-0.01762249	14.45346	0.14	3	99	0	50	5.162351	1.352684	-82.08503	
18:33:47	-6.795967	38.98542	136.39	0.006254771	14.25558	0.94	3	99	0	50	5.164722	1.33491	-82.08263	
18:33:47	-6.795967	38.98542	136.36	0.002219972	12.52884	0.93	3	99	0	50	5.166519	1.328655	-82.09241	
18:33:47	-6.795967	38.98542	136.262	-0.0370061	9.336051	1	3	99	0	50	5.161383	1.312002	-82.08696	
18:33:47	-6.795967	38.98542	135.891	-0.07256031	6.69304	0.35	3	99	0	50	5.172365	1.310682	-82.07869	
18:33:47	-6.795966	38.98542	136.428	-0.108126	3.932008	0.65	3	99	0	50	5.175231	1.323916	-82.07594	
18:33:48	-6.795965	38.98542	136.166	-0.13822	2.054373	0.48	3	99	0	50	5.178481	1.304069	-82.07529	
18:33:48	-6.795965	38.98542	136.508	-0.1768245	-0.4464982	0.22	3	99	0	50	5.173954	1.294298	-82.08208	
18:33:48	-6.795965	38.98542	137.018	-0.2120036	-2.264439	0.21	3	99	0	50	5.178257	1.319301	-82.07288	
18:33:48	-6.795965	38.98542	137.026	-0.2224093	-2.742186	0.66	3	99	0	50	5.175401	1.307208	-82.06924	
18:33:48	-6.795967	38.98542	136.669	-0.2303541	-2.609697	1.58	3	99	0	50	5.165989	1.269338	-82.07622	
18:33:49	-6.795966	38.98542	137.027	-0.2122519	-1.663112	0.32	3	99	0	50	5.161031	1.303085	-82.06097	
18:33:49	-6.795966	38.98542	136.824	-0.1937608	-0.1907067	0.14	3	99	0	50	5.163875	1.291798	-82.05134	
18:33:49	-6.795966	38.98542	136.965	-0.1901494	0.2705091	0.19	3	99	0	50	5.166496	1.286189	-82.04315	
18:33:49	-6.795966	38.98542	137.471	-0.186243	0.4080887	0.41	3	99	0	50	5.169992	1.308816	-82.03611	
18:33:49	-6.795966	38.98542	137.702	-0.1709158	1.137871	0.35	3	99	0	50	5.165267	1.302119	-82.03204	
18:33:50	-6.795965	38.98542	137.47	-0.1571757	1.588924	0.58	3	99	0	50	5.183207	1.292443	-82.04145	
18:33:50	-6.795965	38.98542	137.32	-0.1486408	1.539013	0.72	3	99	0	50	5.189586	1.295004	-82.02374	
18:33:50	-6.795965	38.98542	137.437	-0.1413538	1.782777	0.03	3	99	0	50	5.191504	1.275705	-82.0257	
18:33:50	-6.795965	38.98542	137.756	-0.1212761	3.117158	0.07	3	99	0	50	5.191474	1.286494	-82.03531	
18:33:50	-6.795965	38.98542	137.816	-0.1013245	3.827563	0.22	3	99	0	50	5.185355	1.265036	-82.0408	
18:33:51	-6.795965	38.98541	137.847	-0.1239919	2.203598	0.26	3	99	0	50	5.184824	1.243702	-82.0322	
18:33:51	-6.795965	38.98541	137.78	-0.1453404	0.8568241	0.26	3	99	0	50	5.184131	1.233491	-82.0239	
18:33:51	-6.795965	38.98541	137.962	-0.2212045	-2.972104	0.19	3	99	0	50	5.184753	1.238598	-82.01654	
18:33:51	-6.795965	38.98541	137.842	-0.282911	-5.78327	0.12	3	99	0	50	5.192437	1.262995	-82.00448	
18:33:51	-6.795965	38.98541	138.026	-0.3596112	-9.642603	0.26	3	99	0	50	5.192026	1.253357	-81.99279	
18:33:52	-6.795965	38.98541	137.938	-0.4280756	-12.27422	0.19	3	99	0	50	5.182644	1.239508	-81.99183	
18:33:52	-6.795965	38.9854	137.868	-0.4633271	-12.68228	0.38	3	99	0	50	5.179031	1.235579	-81.98704	
18:33:52	-6.795965	38.9854	137.933	-0.4924926	-13.03854	0.29	3	99	0	50	5.170714	1.221648	-81.98788	
18:33:52	-6.795965	38.9854	137.82	-0.47963	-11.27657	0.22	3	99	0	50	5.175959	1.216473	-81.97913	
18:33:52	-6.795965	38.9854	137.824	-0.4670593	-9.38911	0.08	3	99	0	50	5.174488	1.210108	-81.97509	
18:33:53	-6.795965	38.9854	137.836	-0.4627431	-7.883267	0.26	3	99	0	50	5.17816	1.208577	-81.9701	
18:33:53	-6.795965	38.9854	137.855	-0.4723898	-7.257467	0.12	3	99	0	50	5.17312	1.195034	-81.96295	
18:33:53	-6.795965	38.9854	137.938	-0.5101931	-8.158825	0.29	3	99	0	50	5.173252	1.199135	-81.95278	
18:33:53	-6.795965	38.9854	137.998	-0.5878502	-11.25107	0.29	3	99	0	50	5.178215	1.204614	-81.94841	
18:33:53	-6.795965	38.9854	138.132	-0.649886	-13.69984	0.74	3	99	0	50	5.174761	1.215827	-81.92762	
18:33:54	-6.795964	38.9854	138.064	-0.6852883	-14.03184	0.44	3	99	0	50	5.177485	1.24093	-81.91219	
18:33:54	-6.795964	38.9854	137.998	-0.7348652	-15.16561	0.53	3	99	0	50	5.168986	1.252148	-81.91348	
18:33:54	-6.795964	38.9854	137.969	-0.7894458	-16.69604	0.45	3	99	0	50	5.168655	1.249929	-81.90945	
18:33:54	-6.795964	38.9854	138.133	-0.8122781	-16.52079	0.14	3	99	0	50	5.172019	1.267959	-81.90248	
18:33:54	-6.795964	38.9854	138.35	-0.8079572	-14.87823	0.11	3	99	0	50	5.179807	1.2686	-81.89203	
18:33:55	-6.795963	38.9854	138.129	-0.7949257	-12.43452	0.24	3	99	0	50	5.182544	1.304852	-81.88951	
18:33:55	-6.795963	38.9854	138.083	-0.7757102	-10.38889	0.06	3	99	0	50	5.184344	1.316171	-81.89576	
18:33:55	-6.795963	38.98539	137.937	-0.7595621	-8.405239	0.39	3	99	0	50	5.187776	1.325984	-81.89263	
18:33:55	-6.795962	38.98539	137.734	-0.7486799	-7.148997	0.35	3	99	0	50	5.198757	1.323818	-81.89533	
18:33:55	-6.795962	38.98539	137.637	-0.7241869	-5.098175	0.45	3	99	0	50	5.199181	1.306678	-81.91342	
18:33:56	-6.795962	38.98539	137.602	-0.6935872	-3.18963	0.39	3	99	0	50	5.205227	1.293038	-81.9229	
18:33:56	-6.795961	38.98539	137.496	-0.6481286	-0.8813138	0.19	3	99	0	50	5.221594	1.302172	-81.91976	
18:33:56	-6.795961	38.98539	137.557	-0.5959132	1.773062	0.26	3	99	0	50	5.217531	1.308687	-81.91366	
18:33:56	-6.795961	38.98539	137.562	-0.548488	4.088151	0.25	3	99	0	50	5.225622	1.310404	-81.90814	
18:33:56	-6.79596	38.98539	137.495	-0.4967539	6.259661	0.71	3	99	0	50	5.221043	1.311047	-81.90269	
18:33:57	-6.79596	38.98539	137.616	-0.4494008	8.057153	0.19	3	99	0	50	5.224447	1.320294	-81.91057	
18:33:57	-6.795959	38.98539	137.61	-0.4060505	9.35443	0.19	3	99	0	50	5.226213	1.292292	-81.90803	
18:33:57	-6.795959	38.98539	137.916	-0.3529935	11.38025	0.09	3	99	0	50	5.232551	1.297768	-81.91035	
18:33:57	-6.795959	38.98539	138.043	-0.279578	14.25469	0.26	3	99	0	50	5.243029	1.280574	-81.92345	
18:33:57	-6.795958	38.98538	138.115	-0.2210334	16.05535	0.26	3	99	0	50	5.248019	1.292118	-81.92393	
18:33:58	-6.795958	38.98538	138.21	-0.2131223	15.06618	0.52	3	99	0	50	5.247776	1.303582	-81.91811	
18:33:58	-6.795957	38.98538	138.3	-0.2089487	13.32314	0.22	3	99	0	50	5.247067	1.29871	-81.89842	
18:33:58	-6.795956	38.98538	138.596	-0.2229219	10.95717	0.28	3	99	0	50	5.244626	1.291555	-81.89892	
18:33:58	-6.795956	38.98538	138.871	-0.239825	8.700305	0.39	3	99	0	50	5.2258	1.280989	-81.89046	
18:33:58	-6.795955	38.98538	139.139	-0.2809981	5.359158	0.52	3	99	0	50	5.221777	1.292569	-81.90056	
18:33:59	-6.795955	38.98538	139.189	-0.3240851	2.558405	0.18	3	99	0	50	5.219576	1.302051	-81.89771	
18:33:59	-6.795954	38.98538	139.382	-0.3220208	1.616744	0.75	3	99	0	50	5.220194	1.293081	-81.89289	
18:33:59	-6.795954	38.98538	139.538	-0.321424	1.432032	0.04	3	99	0	50	5.213518	1.277097	-81.90536	
18:33:59	-6.795954	38.98538	139.571	-0.3087946	1.843379	0.09	3	99	0	50	5.216755	1.252593	-81.91986	
18:33:59	-6.795954	38.98538	139.798	-0.2987345	2.417749	0.22	3	99	0	50	5.218029	1.272788	-81.91247	
18:34:00	-6.795954	38.98538	139.821	-0.293346	2.594277	0.29	3	99	0	50	5.219137	1.261216	-81.91024	
18:34:00	-6.795954	38.98538	139.806	-0.2897304	1.734903	0.55	3	99	0	50	5.214978	1.247816	-81.91482	
18:34:00	-6.795954	38.98538	139.646	-0.2910116	1.537115	0.38	3	99	0	50	5.207123	1.239946	-81.9149	
18:34:00	-6.795954	38.98538	139.707	-0.2916651	1.779738	0.19	3	99	0	50	5.197954	1.253972	-81.91462	
18:34:00	-6.795954	38.98538	139.78	-0.3013168	1.301684	0.47	3	99	0	50	5.187491	1.25856	-81.90813	
18:34:01	-6.795954	38.98538	139.666	-0.3099443	1.041124	0.47	3	99	0	50	5.182479	1.279355	-81.91927	
18:34:01	-6.795954	38.98539	139.659	-0.3535006	-1.197382	0.24	3	99	0	50	5.178396	1.290152	-81.92059	
18:34:01	-6.795955	38.98539	139.91	-0.3925295	-2.574276	0.04	3	99	0	50	5.167313	1.309568	-81.91988	
18:34:01	-6.795955	38.98539	140.062	-0.430016	-4.070831	0.58	3	99	0	50	5.175839	1.324664	-81.92985	
18:34:01	-6.795956	38.98539	140.231	-0.4596515	-5.138209	0.74	3	99	0	50	5.179896	1.310886	-81.92895	
18:34:02	-6.795956	38.98539	140.466	-0.467261	-5.287094	0.38	3	99	0	50	5.181472	1.316178	-81.92197	
18:34:02	-6.795957	38.9854	140.709	-0.4739088	-5.479286	0.16	3	99	0	50	5.169782	1.297084	-81.92538	
18:34:02	-6.795957	38.9854	140.809	-0.4936333	-5.889531	0.14	3	99	0	50	5.177103	1.301564	-81.92554	
18:34:02	-6.795958	38.9854	140.845	-0.5090678	-6.535156	0.33	3	99	0	50	5.189127	1.322299	-81.92094	
18:34:02	-6.795958	38.9854	140.895	-0.5109946	-5.737013	0.14	3	99	0	50	5.199538	1.31608	-81.91824	
18:34:03	-6.795958	38.9854	140.931	-0.4925602	-3.618826	0.22	3	99	0	50	5.195013	1.317291	-81.91069	
18:34:03	-6.795958	38.9854	140.802	-0.492962	-3.291502	0.45	3	99	0	50	5.193507	1.311836	-81.9116	
18:34:03	-6.795958	38.9854	140.817	-0.5110983	-3.923055	0.08	3	99	0	50	5.19553	1.314344	-81.91216	
18:34:03	-6.795958	38.9854	140.825	-0.5315593	-5.100772	0.26	3	99	0	50	5.204266	1.308022	-81.91213	
18:34:03	-6.795959	38.9854	140.88	-0.5491366	-5.335272	0.06	3	99	0	50	5.207282	1.296109	-81.90987	
18:34:04	-6.795958	38.9854	140.916	-0.6135241	-8.000866	0.51	3	99	0	50	5.208988	1.285507	-81.90955	
18:34:04	-6.795958	38.9854	140.935	-0.7180964	-12.47535	0.52	3	99	0	50	5.199355	1.271873	-81.91574	
18:34:04	-6.795958	38.98541	141.099	-0.8024882	-16.04228	0.22	3	99	0	50	5.192899	1.244878	-81.91953	
18:34:04	-6.795958	38.98541	141.167	-0.8626508	-18.53574	0.34	3	99	0	50	5.203767	1.257182	-81.91536	
18:34:04	-6.795958	38.98541	141.244	-0.9153498	-19.11277	0.26	3	99	0	50	5.204227	1.23484	-81.91287	
18:34:05	-6.795957	38.98541	141.226	-0.9503887	-19.26576	0.29	3	99	0	50	5.210759	1.244931	-81.90376	
18:34:05	-6.795957	38.98541	141.189	-0.9734793	-18.22863	0.24	3	99	0	50	5.208736	1.241981	-81.89214	
18:34:05	-6.795956	38.98542	141.218	-0.9830068	-16.74733	0.29	3	99	0	50	5.212868	1.247278	-81.88381	
18:34:05	-6.795956	38.98542	141.385	-0.9893644	-15.25229	0.04	3	99	0	50	5.197063	1.22918	-81.87966	
18:34:06	-6.795956	38.98542	141.714	-0.9918505	-14.01797	0.37	3	98	0	50	5.203786	1.228819	-81.87177	
18:34:06	-6.795956	38.98542	141.725	-1.086805	-16.99457	0.13	3	98	0	50	5.205135	1.241523	-81.85838	
18:34:06	-6.795956	38.98542	141.877	-1.134264	-17.97757	0.11	3	98	0	50	5.215273	1.256152	-81.85625	
18:34:06	-6.795956	38.98542	142.05	-1.16992	-18.58693	0.42	3	98	0	50	5.211093	1.281395	-81.84657	
18:34:06	-6.795956	38.98542	142.34	-1.178991	-17.421	0.42	3	98	0	50	5.199025	1.282734	-81.8516	
18:34:07	-6.795956	38.98542	142.289	-1.146362	-13.92283	0.12	3	98	0	50	5.19321	1.265013	-81.85649	
18:34:07	-6.795956	38.98542	142.323	-1.084538	-9.656717	0.14	3	98	0	50	5.20052	1.256574	-81.85445	
18:34:07	-6.795956	38.98542	142.485	-0.9946722	-4.085094	0.42	3	98	0	50	5.209098	1.242519	-81.85619	
18:34:07	-6.795956	38.98542	142.617	-0.9127007	0.01486242	0.14	3	98	0	50	5.192528	1.238454	-81.87561	
18:34:07	-6.795956	38.98542	142.609	-0.8330064	4.273564	0.11	3	98	0	50	5.195292	1.232989	-81.87396	
18:34:08	-6.795957	38.98543	142.591	-0.7619529	7.51202	0.51	3	99	0	50	5.191436	1.230133	-81.85557	
18:34:08	-6.795957	38.98543	142.6	-0.6992596	10.31105	0.18	3	99	0	50	5.194909	1.227844	-81.85569	
18:34:08	-6.795957	38.98543	142.632	-0.6489654	11.92419	0.06	3	99	0	50	5.187585	1.237959	-81.84648	
18:34:08	-6.795957	38.98543	142.691	-0.6219491	12.08199	0.19	3	99	0	50	5.196276	1.247652	-81.85591	
18:34:08	-6.795958	38.98544	142.355	-0.5997426	12.2714	1.53	3	99	0	50	5.190179	1.24493	-81.84606	
18:34:09	-6.795958	38.98544	142.363	-0.5905125	11.30656	0.34	3	99	0	50	5.185619	1.25285	-81.85274	
18:34:09	-6.795958	38.98544	142.267	-0.5853372	10.83436	0.29	3	99	0	50	5.184256	1.272174	-81.8477	
18:34:09	-6.795958	38.98544	142.438	-0.5878903	9.148891	0.12	3	99	0	50	5.180618	1.296643	-81.84869	
18:34:09	-6.795957	38.98544	142.664	-0.5922542	8.129366	0.44	3	99	0	50	5.175217	1.307689	-81.8479	
18:34:10	-6.795957	38.98544	142.871	-0.5717916	8.589089	0.25	3	99	0	50	5.174074	1.313867	-81.84385	
18:34:10	-6.795958	38.98544	143.013	-0.5543685	9.073458	0.45	3	99	0	50	5.170264	1.284795	-81.84991	
18:34:10	-6.795958	38.98544	143.025	-0.5123651	9.61965	0.26	3	99	0	50	5.181789	1.287186	-81.85529	
18:34:10	-6.795958	38.98544	143.121	-0.4807636	10.59515	0.19	3	99	0	50	5.173037	1.284334	-81.86338	
18:34:10	-6.795958	38.98545	143.127	-0.4627801	10.69713	0.16	3	99	0	50	5.160741	1.275353	-81.86665	
18:34:10	-6.795957	38.98545	143.128	-0.4486141	10.48012	0.09	3	99	0	50	5.159	1.277256	-81.85983	
18:34:11	-6.795957	38.98545	143.069	-0.4314791	10.28643	0.08	3	99	0	50	5.151952	1.287239	-81.8531	
18:34:11	-6.795957	38.98545	143.154	-0.4171656	10.72705	0.21	3	99	0	50	5.150208	1.278972	-81.85272	
18:34:11	-6.795957	38.98545	143.186	-0.3674036	12.17049	0.13	3	99	0	50	5.145338	1.292245	-81.85489	
18:34:11	-6.795956	38.98545	143.026	-0.3288133	12.93891	0.38	3	99	0	50	5.152808	1.283979	-81.8661	
18:34:11	-6.795955	38.98545	143.029	-0.3252476	11.93966	0.13	3	99	0	50	5.156996	1.279311	-81.8674	
18:34:12	-6.795955	38.98545	143.024	-0.3243516	10.73232	0.12	3	99	0	50	5.161683	1.26861	-81.87089	
18:34:12	-6.795954	38.98545	143.01	-0.2938828	11.14957	0.28	3	99	0	50	5.162915	1.265103	-81.86342	
18:34:12	-6.795954	38.98545	142.991	-0.2708989	11.56338	0.14	3	99	0	50	5.173009	1.265412	-81.8532	
18:34:12	-6.795954	38.98545	142.991	-0.2649395	10.59881	0.26	3	99	0	50	5.169106	1.252695	-81.85931	
18:34:12	-6.795953	38.98545	143.055	-0.2862853	8.398752	0.25	3	99	0	50	5.167791	1.24969	-81.86526	
18:34:13	-6.795953	38.98545	143.119	-0.3109081	6.068137	0.31	3	99	0	50	5.157051	1.243292	-81.86657	
