Date	Latitude(deg) 	Longitude(deg)	hamsl(m)	hafl(m)	climbrate(cm/s)	GroundSpeed(m/s)	Airspeed(m/s)	Mav_Link(%)	Rssi_Link(%)	Throttle	Roll(deg)	Pitch(deg)	Yaw(deg)
20:17:51	0	0	0	0	0	0	0	100	0	0	2.510271	1.583031	-139.2608	
20:17:51	0	0	0	-0.3917493	-0.5713378	0	3	100	0	50	2.502967	1.590168	-139.269	
20:17:51	0	0	0	-0.581157	-11.03414	0	3	100	0	50	2.502592	1.564499	-139.1696	
20:17:51	0	0	0	-0.7544705	-19.35806	0	3	100	0	50	2.498542	1.560073	-139.0838	
20:17:51	0	0	0	-0.9594467	-28.74794	0	3	100	0	50	2.483739	1.525915	-139.0679	
20:17:52	0	0	0	-1.160221	-36.8297	0	3	100	0	50	2.482095	1.52701	-139.0725	
20:17:52	0	0	0	-1.13296	-32.52995	0	3	100	0	50	2.483421	1.529884	-139.0836	
20:17:52	0	0	0	-1.10265	-28.4842	0	3	100	0	50	2.488387	1.530211	-138.9528	
20:17:52	0	0	0	-1.005851	-21.33953	0	3	100	0	50	2.489132	1.516871	-138.9269	
20:17:52	0	0	0	-0.9147289	-14.93406	0	3	100	0	50	2.479074	1.513953	-138.9554	
20:17:53	0	0	0	-0.7645625	-6.374718	0	3	100	0	50	2.474757	1.514142	-138.9702	
20:17:53	0	0	0	-0.6119878	1.364188	0	3	100	0	50	2.475003	1.500858	-138.9133	
20:17:53	0	0	0	-0.5180171	5.63416	0	3	100	0	50	2.476967	1.494029	-138.8641	
20:17:53	0	0	0	-0.501963	5.900273	0	3	100	0	50	2.478835	1.466893	-138.8846	
20:17:53	0	0	0	-0.4627422	6.611525	0	3	100	0	50	2.469201	1.456179	-138.8761	
20:17:54	0	0	0	-0.4084471	8.259903	0	3	100	0	50	2.463985	1.436197	-138.8687	
20:17:54	0	0	0	-0.3697393	9.627286	0	3	100	0	50	2.460339	1.442004	-138.7031	
20:17:54	0	0	0	-0.3419402	9.548479	0	3	100	0	50	2.458886	1.481784	-138.6859	
20:17:54	0	0	0	-0.335171	8.513874	0	3	100	0	50	2.461434	1.512612	-138.6864	
20:17:54	0	0	0	-0.3404997	6.914115	0	3	100	0	50	2.465982	1.523911	-138.6967	
20:17:55	0	0	0	-0.3465313	5.22748	0	3	100	0	50	2.476734	1.525943	-138.5348	
20:17:55	0	0	0	-0.3506207	4.568846	0	3	100	0	50	2.4794	1.507173	-138.4472	
20:17:55	0	0	0	-0.410976	0.4351817	0	3	100	0	50	2.462854	1.505379	-138.4589	
20:17:55	0	0	0	-0.5091195	-4.575365	0	3	100	0	50	2.479337	1.504684	-138.481	
20:17:55	0	0	0	-0.5922424	-8.823303	0	3	100	0	50	2.48666	1.505749	-138.471	
20:17:56	0	0	0	-0.6331095	-10.2892	0	3	100	0	50	2.492889	1.483359	-138.3483	
20:17:56	0	0	0	-0.6526946	-9.846965	0	3	100	0	50	2.485912	1.483613	-138.2997	
20:17:56	0	0	0	-0.6580408	-9.388391	0	3	100	0	50	2.47608	1.486661	-138.3147	
20:17:56	0	0	0	-0.6300219	-7.595036	0	3	100	0	50	2.470292	1.496286	-138.3446	
20:17:56	0	0	0	-0.5835683	-4.907122	0	3	100	0	50	2.477823	1.473227	-138.1628	
20:17:57	0	0	0	-0.5601459	-3.394756	0	3	100	0	50	2.472629	1.46283	-138.1337	
20:17:57	0	0	0	-0.556657	-3.081002	0	3	100	0	50	2.476854	1.453124	-138.1399	
20:17:57	0	0	0	-0.5405979	-2.058517	0	3	100	0	50	2.473678	1.454326	-138.1537	
20:17:57	0	0	0	-0.5144981	-0.9363821	0	3	100	0	50	2.468177	1.465627	-138.0961	
20:17:57	0	0	0	-0.4782125	0.4463035	0	3	100	0	50	2.458523	1.480841	-137.9789	
20:17:58	0	0	0	-0.4333628	3.066155	0	3	100	0	50	2.459295	1.485054	-137.9925	
20:17:58	0	0	0	-0.3928365	4.309539	0	3	100	0	50	2.459198	1.484067	-138.0324	
20:17:58	0	0	0	-0.4303182	1.595742	0	3	100	0	50	2.458305	1.481867	-138.0671	
20:17:58	0	0	0	-0.4691032	-0.421701	0	3	100	0	50	2.451561	1.460905	-137.8526	
20:17:58	0	0	0	-0.5198666	-3.475951	0	3	100	0	50	2.450744	1.471435	-137.7972	
20:17:59	0	0	0	-0.5668271	-6.293108	0	3	100	0	50	2.453295	1.465686	-137.7997	
20:17:59	0	0	0	-0.6077043	-8.416455	0	3	100	0	50	2.447593	1.45124	-137.7866	
20:17:59	0	0	0	-0.6474217	-10.03999	0	3	100	0	50	2.452506	1.436624	-137.6907	
20:17:59	0	0	0	-0.679553	-11.20321	0	3	100	0	50	2.453881	1.452558	-137.5324	
20:17:59	0	0	0	-0.7073262	-11.88393	0	3	100	0	50	2.445238	1.449931	-137.5229	
20:18:00	0	0	0	-0.7044072	-11.21031	0	3	100	0	50	2.433974	1.462019	-137.5376	
20:18:00	0	0	0	-0.7003553	-10.03864	0	3	100	0	50	2.425909	1.456497	-137.5517	
20:18:00	0	0	0	-0.685399	-8.228449	0	3	100	0	50	2.429338	1.45623	-137.4365	
20:18:00	0	0	0	-0.6695981	-6.36316	0	3	100	0	50	2.421611	1.470912	-137.3978	
20:18:00	0	0	0	-0.638649	-4.304516	0	3	100	0	50	2.429079	1.488939	-137.4102	
20:18:01	0	0	0	-0.607249	-2.723828	0	3	100	0	50	2.431275	1.49885	-137.4177	
20:18:01	0	0	0	-0.6253264	-3.952103	0	3	100	0	50	2.434008	1.49008	-137.3445	
20:18:01	0	0	0	-0.6419457	-4.826572	0	3	100	0	50	2.43569	1.468757	-137.2435	
20:18:01	0	0	0	-0.6360558	-4.050515	0	3	100	0	50	2.422903	1.438885	-137.256	
20:18:01	0	0	0	-0.6294878	-3.670021	0	3	100	0	50	2.419587	1.433974	-137.2807	
20:18:02	0	0	0	-0.6497114	-4.671642	0	3	100	0	50	2.420583	1.422891	-137.295	
20:18:02	0	0	0	-0.6683621	-5.904072	0	3	100	0	50	2.439002	1.425818	-137.1557	
20:18:02	0	0	0	-0.7052622	-7.303653	0	3	100	0	50	2.438102	1.440574	-137.1597	
20:18:02	0	0	0	-0.7383189	-8.401017	0	3	100	0	50	2.435731	1.462286	-137.1758	
20:18:02	0	0	0	-0.6795561	-4.706052	0	3	100	0	50	2.429981	1.479393	-137.1915	
20:18:03	0	0	0	-0.6188002	-1.32635	0	3	100	0	50	2.434782	1.474266	-137.1149	
20:18:03	0	0	0	-0.5943566	0.2623648	0	3	100	0	50	2.436606	1.484701	-137.1064	
20:18:03	0	0	0	-0.6161529	-0.90392	0	3	100	0	50	2.429996	1.507388	-137.1444	
20:18:03	0	0	0	-0.6065593	-0.3754036	0	3	100	0	50	2.419496	1.504866	-137.1732	
20:18:03	0	0	0	-0.5516253	2.199815	0	3	100	0	50	2.418445	1.511659	-137.1969	
20:18:04	0	0	0	-0.5478613	2.250858	0	3	100	0	50	2.419184	1.501178	-137.0964	
20:18:04	0	0	0	-0.5719419	0.7139463	0	3	100	0	50	2.425172	1.519189	-137.0979	
20:18:04	0	0	0	-0.5951427	-0.3811549	0	3	100	0	50	2.428993	1.526341	-137.1075	
20:18:04	0	0	0	-0.6172667	-1.730667	0	3	100	0	50	2.433714	1.52489	-137.1189	
20:18:05	0	0	0	-0.640879	-2.769275	0	3	100	0	50	2.439807	1.513431	-136.9509	
20:18:05	0	0	0	-0.6700189	-4.349632	0	3	100	0	50	2.440059	1.499075	-136.9202	
20:18:05	0	0	0	-0.7226001	-6.844428	0	3	100	0	50	2.438129	1.514004	-136.9188	
20:18:05	0	0	0	-0.7949482	-10.1817	0	3	100	0	50	2.427643	1.521278	-136.9345	
20:18:05	0	0	0	-0.8647766	-13.30462	0	3	100	0	50	2.429495	1.50118	-136.9083	
20:18:06	0	0	0	-0.9182316	-14.65648	0	3	100	0	50	2.437883	1.507912	-136.7326	
20:18:06	0	0	0	-0.9471945	-15.25497	0	3	100	0	50	2.430624	1.512609	-136.7368	
20:18:06	0	0	0	-0.9550067	-14.50381	0	3	100	0	50	2.435149	1.526746	-136.7643	
20:18:06	0	0	0	-0.9397937	-12.58719	0	3	100	0	50	2.44349	1.527849	-136.7725	
20:18:06	0	0	0	-0.9082153	-9.82942	0	3	100	0	50	2.461865	1.52295	-136.6075	
20:18:06	0	0	0	-0.8690775	-6.843057	0	3	100	0	50	2.46669	1.545668	-136.6017	
20:18:07	0	0	0	-0.8374438	-4.716054	0	3	100	0	50	2.461539	1.554176	-136.629	
20:18:07	0	0	0	-0.8117338	-3.354657	0	3	100	0	50	2.459373	1.563426	-136.664	
20:18:07	0	0	0	-0.7980694	-2.726931	0	3	100	0	50	2.454152	1.565168	-136.5524	
20:18:07	0	0	0	-0.7747928	-0.8373847	0	3	100	0	50	2.455824	1.566217	-136.4684	
20:18:07	0	0	0	-0.7446408	1.035228	0	3	100	0	50	2.442989	1.553389	-136.5004	
20:18:08	0	0	0	-0.7176555	1.89677	0	3	100	0	50	2.431672	1.563807	-136.5302	
20:18:08	0	0	0	-0.6988508	1.86333	0	3	100	0	50	2.417055	1.558064	-136.5457	
20:18:08	0	0	0	-0.6831271	2.253318	0	3	100	0	50	2.42378	1.540755	-136.2766	
20:18:08	0	0	0	-0.6903776	1.578411	0	3	100	0	50	2.426461	1.521843	-136.2735	
20:18:08	0	0	0	-0.6982158	1.363661	0	3	100	0	50	2.420172	1.506416	-136.3152	
20:18:09	0	0	0	-0.743839	-2.096866	0	3	100	0	50	2.406055	1.498378	-136.3545	
20:18:09	0	0	0	-0.7865523	-4.259393	0	3	100	0	50	2.410193	1.481924	-136.1757	
20:18:09	0	0	0	-0.801903	-4.591469	0	3	100	0	50	2.405199	1.468349	-136.1414	
20:18:09	0	0	0	-0.8145717	-4.664555	0	3	100	0	50	2.407093	1.456948	-136.1639	
20:18:10	0	0	0	-0.7555017	-0.9946807	0	3	100	0	50	2.412755	1.458552	-136.1963	
20:18:10	0	0	0	-0.7024185	1.159539	0	3	100	0	50	2.407636	1.455039	-136.194	
20:18:10	0	0	0	-0.6390549	4.245829	0	3	100	0	50	2.405223	1.443522	-135.9497	
20:18:10	0	0	0	-0.5818976	6.834319	0	3	100	0	50	2.407276	1.444274	-135.9622	
20:18:10	0	0	0	-0.5320121	9.361361	0	3	100	0	50	2.403154	1.458262	-135.9975	
20:18:10	0	0	0	-0.4831665	10.94848	0	3	100	0	50	2.396385	1.461559	-136.0371	
20:18:11	0	0	0	-0.5248803	6.971034	0	3	100	0	50	2.401805	1.453637	-135.985	
20:18:11	0	0	0	-0.5652651	3.778652	0	3	100	0	50	2.396127	1.468981	-135.9947	
20:18:11	0	0	0	-0.568553	3.289454	0	3	100	0	50	2.390549	1.479883	-136.0222	
20:18:11	0	0	0	-0.5731532	2.229848	0	3	100	0	50	2.397653	1.492618	-136.0746	
20:18:12	0	0	0	-0.5825457	1.84119	0	3	100	0	50	2.39409	1.493372	-136.0832	
20:18:12	0	0	0	-0.5917104	0.7578555	0	3	100	0	50	2.401923	1.484613	-135.9081	
20:18:12	0	0	0	-0.6027539	-0.0008337898	0	3	100	0	50	2.386394	1.484188	-135.939	
20:18:12	0	0	0	-0.6128895	-0.39639	0	3	100	0	50	2.383581	1.508311	-135.9719	
20:18:12	0	0	0	-0.6055231	0.5496392	0	3	100	0	50	2.378986	1.523906	-136.0184	
20:18:13	0	0	0	-0.5979286	0.6195138	0	3	100	0	50	2.371708	1.509351	-135.8657	
20:18:13	0	0	0	-0.59223	0.9298313	0	3	100	0	50	2.37145	1.498254	-135.8773	
20:18:13	0	0	0	-0.5882813	1.016996	0	3	100	0	50	2.367975	1.505785	-135.9171	
20:18:13	0	0	0	-0.5886832	0.9861956	0	3	100	0	50	2.357965	1.486833	-135.9579	
20:18:13	0	0	0	-0.59313	0.2758949	0	3	100	0	50	2.351908	1.467588	-135.9974	
20:18:14	0	0	0	-0.5880101	0.08442393	0	3	100	0	50	2.352903	1.470445	-136.039	
20:18:14	0	0	0	-0.5778048	0.2870554	0	3	100	0	50	2.35708	1.472509	-136.0664	
20:18:14	0	0	0	-0.554141	1.523473	0	3	100	0	50	2.364432	1.476834	-136.0884	
20:18:14	0	0	0	-0.5235501	3.135808	0	3	100	0	50	2.372573	1.483875	-136.1048	
20:18:14	0	0	0	-0.5010998	3.443017	0	3	100	0	50	2.37484	1.466245	-135.9485	
20:18:15	0	0	0	-0.4816394	3.964413	0	3	100	0	50	2.377418	1.477548	-135.8868	
20:18:15	0	0	0	-0.4727625	3.898094	0	3	100	0	50	2.373979	1.477277	-135.9111	
20:18:15	0	0	0	-0.4736826	3.290334	0	3	100	0	50	2.371443	1.475458	-135.9436	
20:18:15	0	0	0	-0.463589	3.400162	0	3	100	0	50	2.370434	1.49334	-135.9393	
20:18:15	0	0	0	-0.4438171	3.493124	0	3	100	0	50	2.372714	1.470971	-135.7741	
20:18:16	0	0	0	-0.4301937	3.932327	0	3	100	0	50	2.379076	1.468102	-135.8088	
20:18:16	0	0	0	-0.4205927	3.991831	0	3	100	0	50	2.377415	1.460309	-135.843	
20:18:16	0	0	0	-0.4155237	3.907816	0	3	100	0	50	2.39619	1.469616	-135.8648	
20:18:16	0	0	0	-0.4139636	3.447257	0	3	100	0	50	2.41367	1.490238	-135.7277	
20:18:16	0	0	0	-0.4275447	2.837663	0	3	100	0	50	2.405468	1.484248	-135.631	
20:18:17	0	0	0	-0.4518228	1.363733	0	3	100	0	50	2.407642	1.494805	-135.6665	
20:18:17	0	0	0	-0.4796514	-0.3587821	0	3	100	0	50	2.413781	1.502574	-135.7135	
20:18:17	0	0	0	-0.5039004	-1.116529	0	3	100	0	50	2.423072	1.519915	-135.7217	
20:18:17	0	0	0	-0.5162886	-1.580878	0	3	100	0	50	2.436383	1.540575	-135.5615	
20:18:17	0	0	0	-0.5192562	-2.285597	0	3	100	0	50	2.429887	1.542083	-135.5522	
20:18:18	0	0	0	-0.5227267	-2.789812	0	3	100	0	50	2.438628	1.545196	-135.6119	
20:18:18	0	0	0	-0.503585	-1.969016	0	3	100	0	50	2.430299	1.538001	-135.6551	
20:18:18	0	0	0	-0.4842966	-0.532371	0	3	100	0	50	2.423166	1.517443	-135.3803	
20:18:18	0	0	0	-0.4911092	-1.104422	0	3	100	0	50	2.417611	1.519956	-135.3867	
20:18:18	0	0	0	-0.4971809	-1.232356	0	3	100	0	50	2.425287	1.520645	-135.4309	
20:18:19	0	0	0	-0.5232633	-2.977861	0	3	100	0	50	2.432874	1.530256	-135.4878	
20:18:19	0	0	0	-0.5473818	-4.078312	0	3	100	0	50	2.434207	1.507403	-135.3948	
20:18:19	0	0	0	-0.6098085	-7.668289	0	3	100	0	50	2.436599	1.504296	-135.3194	
20:18:19	0	0	0	-0.6609779	-9.984086	0	3	100	0	50	2.44262	1.514138	-135.35	
20:18:19	0	0	0	-0.7448608	-13.21625	0	3	100	0	50	2.436479	1.507076	-135.3931	
20:18:20	0	0	0	-0.8192081	-16.1496	0	3	100	0	50	2.445117	1.522988	-135.4311	
20:18:20	0	0	0	-0.9046939	-18.89802	0	3	100	0	50	2.456817	1.540827	-135.2488	
20:18:20	0	0	0	-0.9793635	-21.05378	0	3	100	0	50	2.439909	1.546647	-135.2661	
20:18:20	0	0	0	-0.9781419	-19.08782	0	3	100	0	50	2.433409	1.557427	-135.3186	
20:18:20	0	0	0	-0.9730286	-16.86864	0	3	100	0	50	2.443991	1.550179	-135.369	
20:18:21	0	0	0	-1.00607	-16.60572	0	3	100	0	50	2.454494	1.560452	-135.2827	
20:18:21	0	0	0	-1.032311	-16.27483	0	3	100	0	50	2.455433	1.5601	-135.2849	
20:18:21	0	0	0	-1.011026	-14.19533	0	3	100	0	50	2.440244	1.576122	-135.3206	
20:18:21	0	0	0	-0.987758	-11.85884	0	3	100	0	50	2.435775	1.56659	-135.367	
20:18:21	0	0	0	-0.9449856	-8.603924	0	3	100	0	50	2.419222	1.570456	-135.4178	
20:18:22	0	0	0	-0.9049937	-6.050845	0	3	100	0	50	2.408563	1.592193	-135.3732	
20:18:22	0	0	0	-0.8460583	-2.18435	0	3	100	0	50	2.401544	1.601846	-135.3841	
20:18:22	0	0	0	-0.7913724	0.6017103	0	3	100	0	50	2.398959	1.621905	-135.4289	
20:18:22	0	0	0	-0.7352437	3.413797	0	3	100	0	50	2.39495	1.618114	-135.4789	
20:18:22	0	0	0	-0.6801085	5.891558	0	3	100	0	50	2.390918	1.616963	-135.419	
20:18:23	0	0	0	-0.6410663	7.126967	0	3	100	0	50	2.37975	1.599713	-135.3673	
20:18:23	0	0	0	-0.6223375	7.65589	0	3	100	0	50	2.368373	1.605698	-135.4218	
20:18:23	0	0	0	-0.6175371	7.681384	0	3	100	0	50	2.36454	1.608612	-135.4775	
20:18:23	0	0	0	-0.6330181	5.528204	0	3	100	0	50	2.36961	1.594706	-135.5278	
20:18:23	0	0	0	-0.6424528	4.515118	0	3	100	0	50	2.371669	1.567799	-135.3262	
20:18:24	0	0	0	-0.6483383	4.203321	0	3	100	0	50	2.364499	1.546042	-135.3454	
20:18:24	0	0	0	-0.6439971	3.565732	0	3	100	0	50	2.349556	1.542783	-135.4009	
20:18:24	0	0	0	-0.6347951	3.362656	0	3	100	0	50	2.343925	1.540761	-135.4412	
20:18:24	0	0	0	-0.6072752	4.448835	0	3	100	0	50	2.345753	1.535758	-135.3384	
20:18:24	0	0	0	-0.5481575	6.686629	0	3	100	0	50	2.34903	1.526296	-135.2666	
20:18:25	0	0	0	-0.4915487	8.731565	0	3	100	0	50	2.357589	1.519191	-135.3242	
20:18:25	0	0	0	-0.4383691	10.36026	0	3	100	0	50	2.365912	1.527006	-135.3818	
20:18:25	0	0	0	-0.3590381	13.54595	0	3	100	0	50	2.36272	1.548541	-135.4042	
20:18:25	0	0	0	-0.2723147	16.65439	0	3	100	0	50	2.344928	1.562773	-135.298	
20:18:25	0	0	0	-0.2273024	17.30875	0	3	100	0	50	2.353439	1.598377	-135.3343	
20:18:26	0	0	0	-0.2087339	16.53084	0	3	100	0	50	2.349474	1.603427	-135.3856	
20:18:26	0	0	0	-0.2308975	13.56471	0	3	100	0	50	2.358728	1.603347	-135.4283	
20:18:26	0	0	0	-0.27246	10.35627	0	3	100	0	50	2.362345	1.605778	-135.3504	
20:18:26	0	0	0	-0.3129491	7.502493	0	3	100	0	50	2.374706	1.626223	-135.3151	
20:18:26	0	0	0	-0.3473522	4.789544	0	3	100	0	50	2.377637	1.624414	-135.3817	
20:18:27	0	0	0	-0.3729272	2.772532	0	3	100	0	50	2.3838	1.613038	-135.4367	
20:18:27	0	0	0	-0.386297	1.970737	0	3	100	0	50	2.389679	1.633145	-135.4826	
20:18:27	0	0	0	-0.396538	0.6708129	0	3	100	0	50	2.391091	1.641114	-135.3901	
20:18:27	0	0	0	-0.4009832	0.446995	0	3	100	0	50	2.411299	1.640403	-135.4319	
20:18:27	0	0	0	-0.4062164	-0.07904197	0	3	100	0	50	2.412941	1.612734	-135.4813	
20:18:28	0	0	0	-0.3779033	1.399112	0	3	100	0	50	2.412872	1.596907	-135.528	
20:18:28	0	0	0	-0.3526241	2.212076	0	3	100	0	50	2.405185	1.595322	-135.3972	
20:18:28	0	0	0	-0.2920736	5.221323	0	3	100	0	50	2.417332	1.607188	-135.3831	
20:18:28	0	0	0	-0.2259045	8.344928	0	3	100	0	50	2.419097	1.599369	-135.4187	
20:18:28	0	0	0	-0.1941521	9.135306	0	3	100	0	50	2.424052	1.622958	-135.4437	
20:18:29	0	0	0	-0.1641859	9.788094	0	3	100	0	50	2.432722	1.62429	-135.3382	
20:18:29	0	0	0	-0.1202733	11.10948	0	3	100	0	50	2.438208	1.62578	-135.2418	
20:18:29	0	0	0	-0.07928428	11.98047	0	3	100	0	50	2.430544	1.618979	-135.2881	
20:18:29	0	0	0	-0.08003142	11.53032	0	3	100	0	50	2.431141	1.626395	-135.3486	
20:18:29	0	0	0	-0.08244342	10.27225	0	3	100	0	50	2.427028	1.645861	-135.3967	
20:18:30	0	0	0	-0.09103242	8.54748	0	3	100	0	50	2.440284	1.647928	-135.2533	
20:18:30	0	0	0	-0.09990905	7.340366	0	3	100	0	50	2.436765	1.657451	-135.2565	
20:18:30	0	0	0	-0.1196428	5.527762	0	3	100	0	50	2.429	1.645	-135.3173	
20:18:30	0	0	0	-0.1401912	3.860279	0	3	100	0	50	2.43043	1.65755	-135.3738	
20:18:30	0	0	0	-0.2711999	-3.951989	0	3	100	0	50	2.438181	1.63788	-135.2266	
20:18:31	0	0	0	-0.3905055	-10.46801	0	3	100	0	50	2.440944	1.641154	-135.2035	
20:18:31	0	0	0	-0.5105175	-15.98516	0	3	100	0	50	2.427336	1.642812	-135.249	
20:18:31	0	0	0	-0.6169773	-19.96195	0	3	100	0	50	2.413937	1.646294	-135.2903	
20:18:31	0	0	0	-0.6466275	-20.07542	0	3	100	0	50	2.412654	1.666652	-135.355	
20:18:31	0	0	0	-0.6704606	-19.86403	0	3	100	0	50	2.409327	1.655274	-135.1973	
20:18:32	0	0	0	-0.6755359	-18.38828	0	3	100	0	50	2.416886	1.638487	-135.1961	
20:18:32	0	0	0	-0.6766986	-16.40629	0	3	100	0	50	2.423768	1.612582	-135.2508	
20:18:32	0	0	0	-0.6251698	-12.16088	0	3	100	0	50	2.430119	1.587949	-135.3078	
20:18:32	0	0	0	-0.5697874	-7.922985	0	3	100	0	50	2.436845	1.56878	-135.2588	
20:18:32	0	0	0	-0.5392001	-5.693665	0	3	100	0	50	2.432019	1.566874	-135.1677	
20:18:33	0	0	0	-0.5414276	-5.17131	0	3	100	0	50	2.4236	1.55622	-135.2005	
20:18:33	0	0	0	-0.5413995	-4.329926	0	3	100	0	50	2.418325	1.567096	-135.2486	
20:18:33	0	0	0	-0.539482	-3.761841	0	3	100	0	50	2.41879	1.601195	-135.2987	
20:18:33	0	0	0	-0.539372	-4.214114	0	3	100	0	50	2.422132	1.592183	-135.0802	
20:18:33	0	0	0	-0.5399189	-3.948071	0	3	100	0	50	2.415277	1.57233	-135.015	
20:18:34	0	0	0	-0.531657	-3.321924	0	3	100	0	50	2.406045	1.578462	-135.076	
20:18:34	0	0	0	-0.5168514	-2.220938	0	3	100	0	50	2.400352	1.578924	-135.1581	
20:18:34	0	0	0	-0.4947316	-1.202692	0	3	100	0	50	2.394835	1.594473	-135.1171	
20:18:34	0	0	0	-0.4672372	0.6126788	0	3	100	0	50	2.400195	1.612304	-135.0842	
20:18:34	0	0	0	-0.4449654	2.013906	0	3	100	0	50	2.399527	1.59286	-135.1436	
20:18:35	0	0	0	-0.4300345	2.148439	0	3	100	0	50	2.406055	1.579747	-135.197	
20:18:35	0	0	0	-0.410582	3.072443	0	3	100	0	50	2.40158	1.58103	-135.2629	
20:18:35	0	0	0	-0.3911165	3.208219	0	3	100	0	50	2.397976	1.583545	-135.3294	
20:18:35	0	0	0	-0.3799852	3.706234	0	3	100	0	50	2.395388	1.589103	-135.3534	
20:18:35	0	0	0	-0.3728213	4.058494	0	3	100	0	50	2.386718	1.614623	-135.4031	
20:18:36	0	0	0	-0.3777054	3.576116	0	3	100	0	50	2.375519	1.613914	-135.442	
20:18:36	0	0	0	-0.3919088	2.211483	0	3	100	0	50	2.388801	1.62257	-135.3159	
20:18:36	0	0	0	-0.4025484	1.292022	0	3	100	0	50	2.383693	1.609637	-135.3039	
20:18:36	0	0	0	-0.4066452	0.7737132	0	3	100	0	50	2.384322	1.612888	-135.3496	
20:18:36	0	0	0	-0.4022166	1.340647	0	3	100	0	50	2.375	1.62211	-135.4076	
20:18:37	0	0	0	-0.3874995	1.518565	0	3	100	0	50	2.376728	1.624282	-135.4184	
20:18:37	0	0	0	-0.3470396	3.848326	0	3	100	0	50	2.379333	1.626351	-135.4122	
20:18:37	0	0	0	-0.2862278	7.107902	0	3	100	0	50	2.391096	1.642758	-135.4515	
20:18:37	0	0	0	-0.2318298	8.881103	0	3	100	0	50	2.39348	1.66165	-135.4799	
20:18:37	0	0	0	-0.1881123	10.58666	0	3	100	0	50	2.386867	1.670541	-135.5277	
20:18:38	0	0	0	-0.1501808	11.83291	0	3	100	0	50	2.382569	1.67281	-135.3211	
20:18:38	0	0	0	-0.07372205	15.21581	0	3	100	0	50	2.384677	1.673073	-135.2543	
20:18:38	0	0	0	0.0006511952	17.33735	0	3	100	0	50	2.389842	1.694453	-135.3097	
20:18:38	0	0	0	-0.004409597	15.58488	0	3	100	0	50	2.393009	1.68189	-135.3635	
20:18:38	0	0	0	-0.01165006	13.96305	0	3	100	0	50	2.396485	1.696476	-135.3254	
20:18:39	0	0	0	-0.04491547	10.95539	0	3	100	0	50	2.401268	1.698427	-135.3046	
20:18:39	0	0	0	-0.07467613	8.263501	0	3	100	0	50	2.408209	1.700934	-135.3509	
20:18:39	0	0	0	-0.1013415	6.144469	0	3	100	0	50	2.415536	1.724601	-135.4026	
20:18:39	0	0	0	-0.1268109	4.11413	0	3	100	0	50	2.424057	1.718111	-135.4549	
20:18:39	0	0	0	-0.1526155	2.003866	0	3	100	0	50	2.413175	1.695534	-135.3434	
20:18:40	0	0	0	-0.1750548	0.05235229	0	3	100	0	50	2.418226	1.695608	-135.3699	
20:18:40	0	0	0	-0.1854556	-0.8183342	0	3	100	0	50	2.42355	1.698031	-135.4228	
20:18:40	0	0	0	-0.1933524	-1.192613	0	3	100	0	50	2.423868	1.697604	-135.4784	
20:18:40	0	0	0	-0.2197903	-2.744468	0	3	100	0	50	2.43528	1.683597	-135.4158	
20:18:40	0	0	0	-0.2437566	-3.704387	0	3	100	0	50	2.432372	1.683858	-135.3024	
20:18:41	0	0	0	-0.2648411	-4.573158	0	3	100	0	50	2.420036	1.678127	-135.3563	
20:18:41	0	0	0	-0.2808772	-4.287841	0	3	100	0	50	2.425952	1.681312	-135.4073	
20:18:41	0	0	0	-0.2980738	-4.829875	0	3	100	0	50	2.417793	1.669168	-135.4621	
20:18:41	0	0	0	-0.3125469	-5.151516	0	3	100	0	50	2.41395	1.659496	-135.4063	
20:18:41	0	0	0	-0.3604866	-7.362334	0	3	100	0	50	2.414089	1.663103	-135.4448	
20:18:42	0	0	0	-0.40247	-8.699423	0	3	100	0	50	2.410276	1.695525	-135.4955	
20:18:42	0	0	0	-0.4403392	-10.17051	0	3	100	0	50	2.415324	1.729004	-135.5508	
20:18:42	0	0	0	-0.4777852	-11.40247	0	3	100	0	50	2.420414	1.751608	-135.4556	
20:18:42	0	0	0	-0.5282473	-12.89079	0	3	100	0	50	2.416563	1.747969	-135.4582	
20:18:42	0	0	0	-0.5997152	-15.96236	0	3	100	0	50	2.415202	1.730838	-135.5001	
20:18:43	0	0	0	-0.6524097	-16.69711	0	3	100	0	50	2.424068	1.737702	-135.5562	
20:18:43	0	0	0	-0.6767537	-16.29963	0	3	100	0	50	2.426906	1.737002	-135.6145	
20:18:43	0	0	0	-0.7230068	-16.64577	0	3	100	0	50	2.442915	1.738091	-135.5595	
20:18:43	0	0	0	-0.7816377	-18.47845	0	3	100	0	50	2.44421	1.757766	-135.5874	
20:18:43	0	0	0	-0.8256711	-18.40347	0	3	100	0	50	2.441352	1.754018	-135.6382	
20:18:44	0	0	0	-0.8441082	-17.67995	0	3	100	0	50	2.433997	1.76342	-135.6912	
20:18:44	0	0	0	-0.8363927	-15.63943	0	3	100	0	50	2.427809	1.739043	-135.6909	
20:18:44	0	0	0	-0.8060563	-12.77833	0	3	100	0	50	2.426849	1.730694	-135.722	
20:18:44	0	0	0	-0.7440832	-8.254848	0	3	100	0	50	2.420079	1.735343	-135.7708	
20:18:44	0	0	0	-0.6456776	-2.404061	0	3	100	0	50	2.413353	1.734116	-135.8207	
20:18:45	0	0	0	-0.5551616	2.255904	0	3	100	0	50	2.412358	1.743242	-135.7845	
20:18:45	0	0	0	-0.4879928	5.509892	0	3	100	0	50	2.418827	1.748065	-135.7056	
20:18:45	0	0	0	-0.438618	7.679262	0	3	100	0	50	2.427886	1.739552	-135.7579	
20:18:45	0	0	0	-0.4022058	8.43219	0	3	100	0	50	2.426053	1.762302	-135.8043	
20:18:45	0	0	0	-0.3675246	9.214914	0	3	100	0	50	2.424608	1.7648	-135.8596	
20:18:46	0	0	0	-0.3387272	10.00853	0	3	100	0	50	2.43317	1.754241	-135.786	
20:18:46	0	0	0	-0.3026255	11.12276	0	3	100	0	50	2.424392	1.757981	-135.7961	
20:18:46	0	0	0	-0.2567357	11.74381	0	3	100	0	50	2.412074	1.736292	-135.8389	
20:18:46	0	0	0	-0.2346937	11.85972	0	3	100	0	50	2.41443	1.727044	-135.8938	
20:18:46	0	0	0	-0.2265009	11.25037	0	3	100	0	50	2.408195	1.717069	-135.9293	
20:18:47	0	0	0	-0.2202743	10.45147	0	3	100	0	50	2.418146	1.720526	-135.8497	
20:18:47	0	0	0	-0.2164124	10.09665	0	3	100	0	50	2.421098	1.686711	-135.8765	
20:18:47	0	0	0	-0.2141429	9.341553	0	3	100	0	50	2.429004	1.69513	-135.9189	
20:18:47	0	0	0	-0.2115796	8.562073	0	3	100	0	50	2.437587	1.688093	-135.9564	
20:18:47	0	0	0	-0.210675	8.314446	0	3	100	0	50	2.455151	1.68658	-135.8388	
20:18:48	0	0	0	-0.1713191	10.12172	0	3	100	0	50	2.454807	1.683792	-135.8068	
20:18:48	0	0	0	-0.1328813	10.72499	0	3	100	0	50	2.466025	1.694504	-135.8428	
20:18:48	0	0	0	-0.1219951	10.38414	0	3	100	0	50	2.455259	1.694228	-135.8783	
20:18:48	0	0	0	-0.1139329	9.9172	0	3	100	0	50	2.443918	1.679694	-135.8544	
20:18:48	0	0	0	-0.1271383	8.263998	0	3	100	0	50	2.44232	1.663245	-135.6465	
20:18:49	0	0	0	-0.1414816	6.977186	0	3	100	0	50	2.430513	1.648301	-135.6521	
20:18:49	0	0	0	-0.1626869	5.142855	0	3	100	0	50	2.428046	1.65379	-135.6965	
20:18:49	0	0	0	-0.183065	3.585069	0	3	100	0	50	2.423169	1.65591	-135.7437	
20:18:49	0	0	0	-0.2167058	1.76957	0	3	100	0	50	2.40481	1.643821	-135.5883	
20:18:49	0	0	0	-0.2476373	-0.2321913	0	3	100	0	50	2.392615	1.642373	-135.5989	
20:18:50	0	0	0	-0.2736925	-2.015313	0	3	100	0	50	2.401776	1.634733	-135.6375	
20:18:50	0	0	0	-0.3005124	-3.431637	0	3	100	0	50	2.395252	1.605209	-135.6817	
20:18:50	0	0	0	-0.3547407	-6.028515	0	3	100	0	50	2.393017	1.616007	-135.637	
20:18:50	0	0	0	-0.3985656	-7.464791	0	3	100	0	50	2.394983	1.617097	-135.4997	
20:18:50	0	0	0	-0.4359712	-8.953255	0	3	100	0	50	2.391996	1.609807	-135.557	
20:18:51	0	0	0	-0.4760081	-10.00984	0	3	100	0	50	2.382059	1.616754	-135.6065	
20:18:51	0	0	0	-0.501068	-10.63346	0	3	100	0	50	2.391179	1.625386	-135.6564	
20:18:51	0	0	0	-0.5217907	-10.49344	0	3	100	0	50	2.397299	1.640991	-135.586	
20:18:51	0	0	0	-0.5136638	-9.011486	0	3	100	0	50	2.401933	1.633089	-135.5699	
20:18:51	0	0	0	-0.5020383	-7.306976	0	3	100	0	50	2.401093	1.617341	-135.6257	
20:18:52	0	0	0	-0.47216	-5.058017	0	3	100	0	50	2.40009	1.622191	-135.6801	
20:18:52	0	0	0	-0.438214	-2.704473	0	3	100	0	50	2.392739	1.601156	-135.5772	
20:18:52	0	0	0	-0.4240859	-1.544958	0	3	100	0	50	2.392621	1.603085	-135.5217	
20:18:52	0	0	0	-0.4250841	-0.8157752	0	3	100	0	50	2.394856	1.63393	-135.5637	
20:18:52	0	0	0	-0.4087354	-0.09643496	0	3	100	0	50	2.400947	1.64135	-135.601	
20:18:53	0	0	0	-0.3674823	1.510836	0	3	100	0	50	2.410163	1.649776	-135.6119	
20:18:53	0	0	0	-0.3417055	2.925603	0	3	100	0	50	1.261196	1.603095	-135.55	
20:18:53	0	0	0	-0.3237631	2.711749	0	3	100	0	50	4.966761	1.499045	-135.5424	
20:18:53	0	0	0	-0.2998778	1.983422	0	3	100	0	50	-0.5371227	1.440143	-135.6	
20:18:53	0	0	0	-0.2720138	1.24232	0	3	100	0	50	3.828574	1.35451	-135.9001	
20:18:54	0	0	0	-0.2428133	1.398346	0	3	100	0	50	1.845685	1.41044	-135.6332	
20:18:54	0	0	0	-0.1994069	3.593793	0	3	100	0	50	5.765601	1.336033	-135.6918	
20:18:54	0	0	0	-0.1919951	1.841293	0	3	100	0	50	-0.6340857	1.413393	-135.6323	
20:18:54	0	0	0	-0.2294833	-1.057851	0	3	100	0	50	7.998371	1.253757	-135.554	
20:18:54	0	0	0	-0.2620229	-4.489093	0	3	100	0	50	-0.5893887	1.537256	-135.5854	
20:18:55	0	0	0	-0.2907778	-8.046402	0	3	100	0	50	3.809544	1.531706	-135.5223	
20:18:55	0	0	0	-0.2931133	-6.291326	0	3	100	0	50	2.833549	1.563074	-135.5178	
20:18:55	0	0	0	-0.2798553	-5.293971	0	3	100	0	50	2.637474	1.557512	-135.503	
20:18:55	0	0	0	-0.2636219	-3.77573	0	3	100	0	50	2.800968	1.5373	-135.509	
20:18:55	0	0	0	-0.2456422	-2.150417	0	3	100	0	50	2.782719	1.552653	-135.32	
20:18:56	0	0	0	-0.2479555	-2.407408	0	3	100	0	50	2.748683	1.550089	-135.2996	
20:18:56	0	0	0	-0.273273	-4.025581	0	3	100	0	50	2.734048	1.570867	-135.3076	
20:18:56	0	0	0	-0.3126311	-5.71282	0	3	100	0	50	2.714875	1.572877	-135.3396	
20:18:56	0	0	0	-0.3702752	-7.975062	0	3	100	0	50	2.704389	1.573471	-135.3603	
20:18:56	0	0	0	-0.3989159	-7.499886	0	3	100	0	50	2.695384	1.571644	-135.3503	
20:18:57	0	0	0	-0.3933651	-6.181175	0	3	100	0	50	2.685647	1.57423	-135.3635	
20:18:57	0	0	0	-0.3867517	-5.119092	0	3	100	0	50	2.683509	1.57624	-135.3718	
20:18:57	0	0	0	-0.413937	-6.318241	0	3	100	0	50	2.674355	1.589126	-135.3822	
20:18:57	0	0	0	-0.4381255	-7.258789	0	3	100	0	50	2.670821	1.575736	-135.309	
20:18:57	0	0	0	-0.4547039	-7.117691	0	3	100	0	50	2.660133	1.557493	-135.1638	
20:18:58	0	0	0	-0.4699481	-7.100467	0	3	100	0	50	2.650389	1.580421	-135.182	
20:18:58	0	0	0	-0.440618	-5.066646	0	3	100	0	50	2.653821	1.588115	-135.2071	
20:18:58	0	0	0	-0.4093104	-2.214505	0	3	100	0	50	2.658645	1.593169	-135.2239	
20:18:58	0	0	0	-0.3575229	0.7035644	0	3	100	0	50	2.668741	1.632054	-135.0551	
20:18:58	0	0	0	-0.3051748	3.581837	0	3	100	0	50	2.662561	1.629549	-135.0688	
20:18:59	0	0	0	-0.2460083	6.421175	0	3	100	0	50	2.653392	1.638416	-135.1065	
20:18:59	0	0	0	-0.1983265	8.79189	0	3	100	0	50	2.655639	1.641249	-135.1601	
20:18:59	0	0	0	-0.2220992	7.144991	0	3	100	0	50	2.662468	1.645267	-134.9893	
20:18:59	0	0	0	-0.242572	5.592999	0	3	100	0	50	2.670164	1.665346	-134.9696	
20:18:59	0	0	0	-0.2418633	4.504096	0	3	100	0	50	2.673807	1.646857	-135.0145	
20:19:00	0	0	0	-0.2437874	3.633035	0	3	100	0	50	2.677913	1.651571	-135.0553	
20:19:00	0	0	0	-0.2658365	2.16336	0	3	100	0	50	2.680532	1.646569	-135.0313	
20:19:00	0	0	0	-0.2863945	0.7182337	0	3	100	0	50	2.669713	1.648791	-134.9617	
20:19:00	0	0	0	-0.3327602	-1.763613	0	3	100	0	50	2.674706	1.630857	-134.981	
20:19:00	0	0	0	-0.3826507	-3.502255	0	3	100	0	50	2.673185	1.637301	-135.0178	
20:19:01	0	0	0	-0.38834	-2.979085	0	3	100	0	50	2.662367	1.641749	-135.0555	
20:19:01	0	0	0	-0.3923723	-2.966898	0	3	100	0	50	2.659265	1.658628	-134.8799	
20:19:01	0	0	0	-0.3847406	-1.987289	0	3	100	0	50	2.647295	1.672082	-134.8432	
20:19:01	0	0	0	-0.3773449	-1.133247	0	3	100	0	50	2.630548	1.682361	-134.8867	
20:19:01	0	0	0	-0.3350173	1.555555	0	3	100	0	50	2.627298	1.684641	-134.9419	
20:19:02	0	0	0	-0.2913709	3.860591	0	3	100	0	50	2.627148	1.682448	-134.8546	
20:19:02	0	0	0	-0.2829466	3.821529	0	3	100	0	50	2.624462	1.662346	-134.7888	
20:19:02	0	0	0	-0.318844	1.78019	0	3	100	0	50	2.62445	1.666121	-134.8425	
20:19:02	0	0	0	-0.3438154	0.08118252	0	3	100	0	50	2.601228	1.673283	-134.9069	
20:19:02	0	0	0	-0.3517615	-0.2664566	0	3	100	0	50	2.595911	1.67125	-134.9658	
20:19:03	0	0	0	-0.3506564	0.1682028	0	3	100	0	50	2.591835	1.656776	-134.7442	
20:19:03	0	0	0	-0.3439355	0.1730128	0	3	100	0	50	2.584831	1.658879	-134.7616	
20:19:03	0	0	0	-0.3403216	0.2431053	0	3	100	0	50	2.572472	1.663873	-134.8241	
20:19:03	0	0	0	-0.3382411	0.4024988	0	3	100	0	50	2.559762	1.661783	-134.8891	
20:19:03	0	0	0	-0.3273461	1.233639	0	3	100	0	50	2.565125	1.659605	-134.8241	
20:19:04	0	0	0	-0.3033017	2.484567	0	3	100	0	50	2.56659	1.674222	-134.827	
20:19:04	0	0	0	-0.3145578	1.373614	0	3	100	0	50	2.558616	1.667799	-134.8882	
20:19:04	0	0	0	-0.3722568	-2.1752	0	3	100	0	50	2.557962	1.690081	-134.9482	
20:19:04	0	0	0	-0.4145163	-4.304952	0	3	100	0	50	2.550427	1.691793	-134.9836	
20:19:04	0	0	0	-0.4308839	-4.234451	0	3	100	0	50	2.550246	1.691448	-134.9029	
20:19:05	0	0	0	-0.4419253	-4.403321	0	3	100	0	50	2.544842	1.69248	-134.922	
20:19:05	0	0	0	-0.449309	-4.375265	0	3	100	0	50	2.532516	1.70795	-134.9757	
20:19:05	0	0	0	-0.4457023	-3.625293	0	3	100	0	50	2.530354	1.705856	-135.0379	
20:19:05	0	0	0	-0.4363108	-2.684097	0	3	100	0	50	2.521001	1.691327	-134.9333	
20:19:05	0	0	0	-0.410742	-0.7408467	0	3	100	0	50	2.515205	1.704474	-134.9263	
20:19:06	0	0	0	-0.3777116	1.136906	0	3	100	0	50	2.523575	1.706732	-134.9876	
20:19:06	0	0	0	-0.3388815	2.856698	0	3	100	0	50	2.521009	1.710519	-135.0466	
20:19:06	0	0	0	-0.3045163	4.339262	0	3	100	0	50	2.529316	1.704587	-135.0652	
20:19:06	0	0	0	-0.2686388	6.127075	0	3	100	0	50	2.544959	1.691942	-134.8954	
20:19:06	0	0	0	-0.2321751	7.380949	0	3	100	0	50	2.541465	1.680998	-134.9339	
20:19:07	0	0	0	-0.1996409	8.447439	0	3	100	0	50	2.529691	1.676896	-134.9896	
20:19:07	0	0	0	-0.2236951	7.130562	0	3	100	0	50	2.538584	1.678338	-135.0509	
20:19:07	0	0	0	-0.2458506	5.770965	0	3	100	0	50	2.544499	1.681541	-135.0314	
20:19:07	0	0	0	-0.2372987	5.672902	0	3	100	0	50	2.536844	1.674159	-135.0664	
20:19:07	0	0	0	-0.2301795	5.074756	0	3	100	0	50	2.525547	1.686064	-135.1154	
20:19:08	0	0	0	-0.2800436	1.767738	0	3	100	0	50	2.52263	1.679103	-135.17	
20:19:08	0	0	0	-0.3261693	-0.9298647	0	3	100	0	50	2.50674	1.668964	-135.2145	
20:19:08	0	0	0	-0.3623544	-2.840045	0	3	100	0	50	2.516963	1.70165	-135.114	
20:19:08	0	0	0	-0.3972964	-3.91289	0	3	100	0	50	2.513609	1.700095	-135.1624	
20:19:08	0	0	0	-0.4747854	-7.404994	0	3	100	0	50	2.501926	1.701877	-135.2083	
20:19:09	0	0	0	-0.5443506	-10.25109	0	3	100	0	50	2.497266	1.695481	-135.266	
20:19:09	0	0	0	-0.5395119	-8.726397	0	3	100	0	50	2.501054	1.667612	-135.156	
20:19:09	0	0	0	-0.5328735	-7.540259	0	3	100	0	50	2.495385	1.663715	-135.1511	
20:19:09	0	0	0	-0.4850678	-4.616888	0	3	100	0	50	2.49729	1.660447	-135.1947	
20:19:09	0	0	0	-0.4363764	-1.63835	0	3	100	0	50	2.495929	1.651187	-135.2468	
20:19:10	0	0	0	-0.4417356	-1.559182	0	3	100	0	50	2.49209	1.637242	-135.2352	
20:19:10	0	0	0	-0.4459555	-1.527272	0	3	100	0	50	2.487616	1.629364	-135.1308	
20:19:10	0	0	0	-0.4451489	-1.275114	0	3	100	0	50	2.480699	1.629243	-135.0897	
20:19:10	0	0	0	-0.4441651	-1.381113	0	3	100	0	50	2.476757	1.655839	-135.1374	
20:19:10	0	0	0	-0.4025091	0.9922322	0	3	100	0	50	2.466311	1.631825	-135.1894	
20:19:11	0	0	0	-0.3640329	3.122512	0	3	100	0	50	2.471745	1.632391	-135.0353	
20:19:11	0	0	0	-0.3445859	4.611631	0	3	100	0	50	2.474764	1.637214	-135.0567	
20:19:11	0	0	0	-0.3262	5.396347	0	3	100	0	50	2.47034	1.637367	-135.1151	
20:19:11	0	0	0	-0.2989622	6.30235	0	3	100	0	50	2.464627	1.636678	-135.1795	
20:19:11	0	0	0	-0.2722839	7.135448	0	3	100	0	50	2.460232	1.62833	-135.1511	
20:19:12	0	0	0	-0.2664756	6.710295	0	3	100	0	50	2.461378	1.622123	-135.049	
20:19:12	0	0	0	-0.2879743	5.49201	0	3	100	0	50	2.464311	1.621931	-135.0941	
20:19:12	0	0	0	-0.2743916	5.861431	0	3	100	0	50	2.462048	1.61322	-135.1589	
20:19:12	0	0	0	-0.2325448	7.825765	0	3	100	0	50	2.456056	1.624685	-135.209	
20:19:12	0	0	0	-0.2042398	8.529966	0	3	100	0	50	2.456976	1.631755	-135.0406	
20:19:13	0	0	0	-0.1853758	9.132772	0	3	100	0	50	2.452461	1.620611	-135.0897	
20:19:13	0	0	0	-0.1599284	9.588093	0	3	100	0	50	2.4502	1.618634	-135.1442	
20:19:13	0	0	0	-0.1260364	10.8386	0	3	100	0	50	2.44741	1.619392	-135.2017	
20:19:13	0	0	0	-0.09888858	10.76644	0	3	100	0	50	2.449336	1.598016	-135.1399	
20:19:13	0	0	0	-0.07759797	10.661	0	3	100	0	50	2.444641	1.614548	-135.1117	
20:19:14	0	0	0	-0.08085604	9.299932	0	3	100	0	50	2.43585	1.595584	-135.16	
20:19:14	0	0	0	-0.1012286	6.906568	0	3	100	0	50	2.437038	1.585973	-135.2124	
20:19:14	0	0	0	-0.1095623	5.31103	0	3	100	0	50	2.428447	1.585819	-135.2191	
20:19:14	0	0	0	-0.09930983	4.994773	0	3	100	0	50	2.43361	1.581743	-135.1218	
20:19:14	0	0	0	-0.1330393	2.012084	0	3	100	0	50	2.423853	1.588761	-135.1748	
20:19:15	0	0	0	-0.1925683	-1.623423	0	3	100	0	50	2.415582	1.574771	-135.2184	
20:19:15	0	0	0	-0.2505473	-4.295212	0	3	100	0	50	2.408845	1.582523	-135.2668	
20:19:15	0	0	0	-0.2991787	-6.446795	0	3	100	0	50	2.418366	1.581315	-135.1638	
20:19:15	0	0	0	-0.3560214	-8.768621	0	3	100	0	50	2.4209	1.581771	-135.1178	
20:19:15	0	0	0	-0.418239	-11.47232	0	3	100	0	50	2.426067	1.592307	-135.1652	
20:19:16	0	0	0	-0.4776396	-13.38975	0	3	100	0	50	2.424402	1.586286	-135.2206	
20:19:16	0	0	0	-0.5352799	-14.61489	0	3	100	0	50	2.436544	1.565982	-135.2677	
20:19:16	0	0	0	-0.5622196	-14.54554	0	3	100	0	50	2.455593	1.554112	-135.0797	
20:19:16	0	0	0	-0.5527428	-12.77799	0	3	100	0	50	2.467196	1.558826	-135.1247	
20:19:17	0	0	0	-0.5411377	-10.36981	0	3	100	0	50	2.469648	1.561679	-135.1845	
20:19:17	0	0	0	-0.4923825	-6.378935	0	3	100	0	50	2.46904	1.544392	-135.2277	
20:19:17	0	0	0	-0.4459606	-3.001733	0	3	100	0	50	2.469337	1.533674	-135.1025	
20:19:17	0	0	0	-0.3777647	1.028567	0	3	100	0	50	2.469106	1.539721	-135.0968	
20:19:17	0	0	0	-0.3086442	4.076409	0	3	100	0	50	2.450743	1.560731	-135.1503	
20:19:18	0	0	0	-0.3262968	2.530717	0	3	100	0	50	2.444938	1.542106	-135.2015	
20:19:18	0	0	0	-0.3400256	1.673599	0	3	100	0	50	2.452683	1.544197	-135.259	
20:19:18	0	0	0	-0.3726105	-0.2897511	0	3	100	0	50	2.438419	1.557207	-135.1688	
20:19:18	0	0	0	-0.4048376	-1.554655	0	3	100	0	50	2.446068	1.556509	-135.2178	
20:19:18	0	0	0	-0.4368795	-2.871281	0	3	100	0	50	2.431871	1.566027	-135.2777	
20:19:18	0	0	0	-0.4653006	-4.108176	0	3	100	0	50	2.421365	1.549168	-135.3222	
20:19:19	0	0	0	-0.4240745	-1.108378	0	3	100	0	50	2.424532	1.567784	-135.1576	
20:19:19	0	0	0	-0.3854137	1.404427	0	3	100	0	50	2.421511	1.56361	-135.084	
20:19:19	0	0	0	-0.3174559	5.126656	0	3	100	0	50	2.423722	1.570514	-135.1255	
20:19:19	0	0	0	-0.2490477	8.629773	0	3	100	0	50	2.420902	1.560329	-135.1815	
20:19:19	0	0	0	-0.19248	10.82343	0	3	100	0	50	2.428899	1.56171	-135.1927	
20:19:20	0	0	0	-0.1426571	12.20928	0	3	100	0	50	2.439112	1.577215	-135.2154	
20:19:20	0	0	0	-0.09041003	14.2982	0	3	100	0	50	2.44008	1.575369	-135.2679	
20:19:20	0	0	0	-0.04063798	15.55447	0	3	100	0	50	2.439728	1.587389	-135.3344	
20:19:20	0	0	0	-0.07210316	12.06415	0	3	100	0	50	2.436183	1.593203	-135.3764	
20:19:21	0	0	0	-0.1045815	8.717333	0	3	100	0	50	2.438328	1.605037	-135.2171	
20:19:21	0	0	0	-0.08075789	8.84469	0	3	100	0	50	2.42861	1.626118	-135.2367	
20:19:21	0	0	0	-0.06072734	9.243351	0	3	100	0	50	2.423945	1.655454	-135.2925	
20:19:21	0	0	0	-0.05584735	8.66587	0	3	100	0	50	2.421282	1.660293	-135.3648	
20:19:21	0	0	0	-0.05249981	8.060433	0	3	100	0	50	2.418159	1.640145	-135.3218	
20:19:22	0	0	0	-0.07278147	5.843465	0	3	100	0	50	2.432873	1.623918	-135.252	
20:19:22	0	0	0	-0.1233604	3.302775	0	3	100	0	50	2.431432	1.600203	-135.3035	
20:19:22	0	0	0	-0.1618976	1.137958	0	3	100	0	50	2.426802	1.59848	-135.359	
20:19:22	0	0	0	-0.1895371	-0.5823877	0	3	100	0	50	2.431282	1.612995	-135.423	
20:19:22	0	0	0	-0.2319424	-2.846564	0	3	100	0	50	2.434228	1.618668	-135.2826	
20:19:23	0	0	0	-0.2824149	-5.165799	0	3	100	0	50	2.446617	1.631104	-135.3014	
20:19:23	0	0	0	-0.3405181	-8.364059	0	3	100	0	50	2.453772	1.653341	-135.3585	
20:19:23	0	0	0	-0.399441	-10.29816	0	3	100	0	50	2.451308	1.666165	-135.4225	
20:19:23	0	0	0	-0.4316833	-10.83025	0	3	100	0	50	2.453867	1.679052	-135.3351	
20:19:23	0	0	0	-0.4430536	-10.78988	0	3	100	0	50	2.438069	1.6797	-135.3175	
20:19:24	0	0	0	-0.4432943	-9.724745	0	3	100	0	50	2.447229	1.67951	-135.3725	
20:19:24	0	0	0	-0.4283223	-7.927015	0	3	100	0	50	2.435977	1.672316	-135.4276	
20:19:24	0	0	0	-0.4029694	-5.993335	0	3	100	0	50	2.432301	1.65247	-135.4832	
20:19:24	0	0	0	-0.3704535	-3.510939	0	3	100	0	50	2.423509	1.633851	-135.3124	
20:19:24	0	0	0	-0.3233958	-0.6323331	0	3	100	0	50	2.419382	1.642429	-135.3531	
20:19:25	0	0	0	-0.2771036	1.508964	0	3	100	0	50	2.420871	1.648605	-135.4172	
20:19:25	0	0	0	-0.2549632	2.388973	0	3	100	0	50	2.424279	1.656534	-135.4714	
20:19:25	0	0	0	-0.2486472	2.045198	0	3	100	0	50	2.423114	1.629967	-135.3206	
20:19:25	0	0	0	-0.2352015	2.286097	0	3	100	0	50	2.420254	1.640925	-135.2926	
20:19:25	0	0	0	-0.2130619	2.985712	0	3	100	0	50	2.411852	1.644758	-135.359	
20:19:26	0	0	0	-0.2203828	2.233029	0	3	100	0	50	2.400105	1.630207	-135.4318	
20:19:26	0	0	0	-0.2520513	0.9063562	0	3	100	0	50	2.400939	1.639649	-135.4442	
20:19:26	0	0	0	-0.2688028	-0.4298496	0	3	100	0	50	2.39793	1.61395	-135.3336	
20:19:26	0	0	0	-0.2675963	-0.2430807	0	3	100	0	50	2.396835	1.607713	-135.3721	
20:19:26	0	0	0	-0.2663684	-0.2342543	0	3	100	0	50	2.394809	1.609297	-135.4192	
20:19:27	0	0	0	-0.3877872	-6.394437	0	3	100	0	50	2.402426	1.601418	-135.4746	
20:19:27	0	0	0	-0.4972442	-11.82487	0	3	100	0	50	2.417082	1.576785	-135.315	
20:19:27	0	0	0	-0.5589805	-14.09039	0	3	100	0	50	2.428039	1.595228	-135.3203	
20:19:27	0	0	0	-0.6196084	-15.96778	0	3	100	0	50	2.436495	1.589447	-135.3664	
20:19:27	0	0	0	-0.6141214	-14.36695	0	3	100	0	50	2.438592	1.590499	-135.4214	
20:19:28	0	0	0	-0.606199	-12.3546	0	3	100	0	50	2.434614	1.581461	-135.4121	
20:19:28	0	0	0	-0.535178	-7.603019	0	3	100	0	50	2.424177	1.570296	-135.3736	
20:19:28	0	0	0	-0.4632229	-2.658852	0	3	100	0	50	2.407923	1.595122	-135.4109	
20:19:28	0	0	0	-0.38992	1.728588	0	3	100	0	50	2.393703	1.584462	-135.4547	
20:19:28	0	0	0	-0.3235409	4.803166	0	3	100	0	50	2.394792	1.578901	-135.5073	
20:19:29	0	0	0	-0.2920061	5.819823	0	3	100	0	50	2.394518	1.579621	-135.4518	
20:19:29	0	0	0	-0.2649617	6.445687	0	3	100	0	50	2.394167	1.585732	-135.431	
20:19:29	0	0	0	-0.2509232	6.578761	0	3	100	0	50	2.389519	1.565774	-135.4771	
20:19:29	0	0	0	-0.2403033	6.446306	0	3	100	0	50	2.397887	1.576467	-135.5105	
20:19:29	0	0	0	-0.2662753	4.173949	0	3	100	0	50	2.39855	1.572609	-135.5368	
20:19:30	0	0	0	-0.2907176	2.778881	0	3	100	0	50	2.427562	1.578888	-135.4459	
20:19:30	0	0	0	-0.343488	-0.5568265	0	3	100	0	50	2.431123	1.576232	-135.4885	
20:19:30	0	0	0	-0.3961546	-3.150057	0	3	100	0	50	2.438038	1.574041	-135.5378	
20:19:30	0	0	0	-0.4420163	-5.043683	0	3	100	0	50	2.439115	1.556822	-135.5791	
20:19:30	0	0	0	-0.4825258	-6.787557	0	3	100	0	50	2.447821	1.534433	-135.4395	
20:19:31	0	0	0	-0.4910328	-6.845047	0	3	100	0	50	2.452859	1.540601	-135.4165	
20:19:31	0	0	0	-0.4981769	-6.947638	0	3	100	0	50	2.440393	1.530954	-135.4454	
20:19:31	0	0	0	-0.4630857	-4.610058	0	3	100	0	50	2.437356	1.542445	-135.4819	
20:19:31	0	0	0	-0.4269238	-2.464087	0	3	100	0	50	2.456321	1.541657	-135.4329	
20:19:31	0	0	0	-0.3890431	-0.4557231	0	3	100	0	50	2.463032	1.522012	-135.2944	
20:19:32	0	0	0	-0.3478357	1.90005	0	3	100	0	50	2.464394	1.537565	-135.3362	
20:19:32	0	0	0	-0.2960012	4.303174	0	3	100	0	50	2.467165	1.536113	-135.3901	
20:19:32	0	0	0	-0.2430376	6.220374	0	3	100	0	50	2.463995	1.567815	-135.4278	
20:19:32	0	0	0	-0.213551	6.679679	0	3	100	0	50	2.475712	1.575438	-135.2779	
20:19:32	0	0	0	-0.1941854	6.826424	0	3	100	0	50	2.471641	1.58291	-135.2176	
20:19:33	0	0	0	-0.2208855	4.933656	0	3	100	0	50	2.473225	1.605949	-135.2735	
20:19:33	0	0	0	-0.2728948	1.387589	0	3	100	0	50	2.469989	1.618132	-135.3145	
20:19:33	0	0	0	-0.3161452	-0.912168	0	3	100	0	50	2.457231	1.608777	-135.2788	
20:19:33	0	0	0	-0.3588037	-2.610564	0	3	100	0	50	2.460561	1.590925	-135.16	
20:19:33	0	0	0	-0.4150533	-4.898587	0	3	100	0	50	2.452632	1.617677	-135.2008	
20:19:34	0	0	0	-0.4921665	-8.62747	0	3	100	0	50	2.456976	1.645269	-135.2455	
20:19:34	0	0	0	-0.556446	-11.26548	0	3	100	0	50	2.463025	1.642005	-135.2974	
20:19:34	0	0	0	-0.594336	-11.80569	0	3	100	0	50	2.468603	1.627337	-135.1134	
20:19:34	0	0	0	-0.6288631	-12.5329	0	3	100	0	50	2.460229	1.631349	-135.1166	
20:19:34	0	0	0	-0.6599026	-12.5592	0	3	100	0	50	2.467156	1.659805	-135.1792	
20:19:35	0	0	0	-0.6784611	-12.30571	0	3	100	0	50	2.459287	1.651351	-135.2447	
20:19:35	0	0	0	-0.6874548	-11.48986	0	3	100	0	50	2.468037	1.638308	-135.174	
20:19:35	0	0	0	-0.7089947	-11.20869	0	3	100	0	50	2.466923	1.658365	-135.1372	
20:19:35	0	0	0	-0.7465816	-11.87778	0	3	100	0	50	2.459728	1.661231	-135.1934	
20:19:35	0	0	0	-0.7823582	-12.61007	0	3	100	0	50	2.464441	1.646443	-135.2447	
20:19:36	0	0	0	-0.81846	-13.61006	0	3	100	0	50	2.467331	1.657204	-135.2552	
20:19:36	0	0	0	-0.8430892	-13.56962	0	3	100	0	50	2.46424	1.65503	-135.18	
20:19:36	0	0	0	-0.8529214	-13.31948	0	3	100	0	50	2.468607	1.659263	-135.2281	
20:19:36	0	0	0	-0.8596611	-12.43326	0	3	100	0	50	2.466022	1.662409	-135.287	
20:19:36	0	0	0	-0.8410122	-10.48357	0	3	100	0	50	2.480439	1.668825	-135.3488	
20:19:37	0	0	0	-0.8218725	-8.458295	0	3	100	0	50	2.482979	1.660343	-135.3262	
20:19:37	0	0	0	-0.7725999	-5.380542	0	3	100	0	50	2.489298	1.682827	-135.2757	
20:19:37	0	0	0	-0.7211475	-2.206508	0	3	100	0	50	2.467004	1.672689	-135.3286	
20:19:37	0	0	0	-0.679013	-0.0150057	0	3	100	0	50	2.465386	1.671544	-135.3701	
20:19:37	0	0	0	-0.640007	2.12497	0	3	100	0	50	2.465142	1.656353	-135.4255	
20:19:38	0	0	0	-0.6170083	2.677996	0	3	100	0	50	2.471738	1.636676	-135.2861	
20:19:38	0	0	0	-0.5949196	3.442064	0	3	100	0	50	2.480259	1.623255	-135.3455	
20:19:38	0	0	0	-0.6000443	3.200559	0	3	100	0	50	2.484821	1.616446	-135.4113	
20:19:38	0	0	0	-0.6044965	2.86563	0	3	100	0	50	2.468432	1.616766	-135.4532	
20:19:38	0	0	0	-0.6564097	-0.1485378	0	3	100	0	50	2.475452	1.615382	-135.3117	
20:19:39	0	0	0	-0.7043049	-3.018485	0	3	100	0	50	2.481772	1.622189	-135.2776	
20:19:39	0	0	0	-0.749358	-5.011706	0	3	100	0	50	2.486858	1.64198	-135.3202	
20:19:39	0	0	0	-0.7936543	-6.591348	0	3	100	0	50	2.48594	1.654888	-135.3694	
20:19:39	0	0	0	-0.8190089	-7.048882	0	3	100	0	50	2.492321	1.656261	-135.4035	
20:19:39	0	0	0	-0.8425646	-7.757714	0	3	100	0	50	2.489228	1.635453	-135.2916	
20:19:40	0	0	0	-0.8198614	-5.093837	0	3	100	0	50	2.478131	1.626718	-135.3235	
20:19:40	0	0	0	-0.7971645	-3.323438	0	3	100	0	50	2.478233	1.615465	-135.3771	
20:19:40	0	0	0	-0.7646483	-1.199802	0	3	100	0	50	2.477624	1.594898	-135.4144	
20:19:40	0	0	0	-0.7349881	0.5317001	0	3	100	0	50	2.478941	1.587212	-135.257	
20:19:40	0	0	0	-0.735518	0.2575521	0	3	100	0	50	2.482917	1.5856	-135.2676	
20:19:41	0	0	0	-0.7361662	-0.07197158	0	3	100	0	50	2.477208	1.571178	-135.3103	
20:19:41	0	0	0	-0.7366438	0.1892755	0	3	100	0	50	2.476131	1.575891	-135.3449	
20:19:41	0	0	0	-0.7373989	-0.3055942	0	3	100	0	50	2.473471	1.568854	-135.3002	
20:19:41	0	0	0	-0.6878738	2.128418	0	3	100	0	50	2.473611	1.567928	-135.2826	
20:19:41	0	0	0	-0.5704824	8.409424	0	3	100	0	50	2.466764	1.552999	-135.3299	
20:19:42	0	0	0	-0.431608	14.80299	0	3	100	0	50	2.468735	1.55058	-135.3642	
20:19:42	0	0	0	-0.2957899	20.82065	0	3	100	0	50	2.466424	1.561475	-135.4169	
20:19:42	0	0	0	-0.208262	23.47178	0	3	100	0	50	2.478046	1.56436	-135.2525	
20:19:42	0	0	0	-0.1640452	23.94216	0	3	100	0	50	2.484176	1.553651	-135.2676	
20:19:42	0	0	0	-0.1466475	22.76666	0	3	100	0	50	2.486711	1.556419	-135.3229	
20:19:43	0	0	0	-0.1466053	20.82179	0	3	100	0	50	2.499675	1.576605	-135.364	
20:19:43	0	0	0	-0.1442681	18.24204	0	3	100	0	50	2.503598	1.580633	-135.2685	
20:19:43	0	0	0	-0.1394426	16.97374	0	3	100	0	50	2.496206	1.560378	-135.2824	
20:19:43	0	0	0	-0.1448057	14.92488	0	3	100	0	50	2.481271	1.557883	-135.3294	
20:19:43	0	0	0	-0.1627061	12.72205	0	3	100	0	50	2.473716	1.553926	-135.3645	
20:19:44	0	0	0	-0.1837248	10.21137	0	3	100	0	50	2.471323	1.529399	-135.398	
20:19:44	0	0	0	-0.2035297	7.822209	0	3	100	0	50	2.473722	1.518665	-135.3463	
20:19:44	0	0	0	-0.2662642	3.452622	0	3	100	0	50	2.463921	1.508818	-135.3568	
20:19:44	0	0	0	-0.3514607	-1.803727	0	3	100	0	50	2.458873	1.526866	-135.3991	
20:19:44	0	0	0	-0.4099031	-4.184613	0	3	100	0	50	2.455622	1.517008	-135.4356	
20:19:45	0	0	0	-0.4460839	-5.619953	0	3	100	0	50	2.465136	1.513938	-135.3252	
20:19:45	0	0	0	-0.4809775	-7.137053	0	3	100	0	50	2.475132	1.526851	-135.2692	
20:19:45	0	0	0	-0.5107838	-8.201373	0	3	100	0	50	2.482216	1.546046	-135.3179	
20:19:45	0	0	0	-0.5038392	-6.723553	0	3	100	0	50	2.485802	1.551568	-135.3699	
20:19:45	0	0	0	-0.4634603	-4.042192	0	3	100	0	50	2.489584	1.561567	-135.4054	
20:19:46	0	0	0	-0.3934575	0.5291854	0	3	100	0	50	2.50199	1.55037	-135.2391	
20:19:46	0	0	0	-0.3113851	4.654078	0	3	100	0	50	2.492341	1.537927	-135.2616	
20:19:46	0	0	0	-0.2379124	7.880617	0	3	100	0	50	2.49165	1.541105	-135.2946	
20:19:46	0	0	0	-0.2757953	5.271152	0	3	100	0	50	2.494096	1.545519	-135.3377	
20:19:46	0	0	0	-0.3110953	2.890485	0	3	100	0	50	2.502094	1.525419	-135.1555	
20:19:47	0	0	0	-0.3195758	1.7774	0	3	100	0	50	2.501552	1.523741	-135.1283	
20:19:47	0	0	0	-0.3271497	1.638374	0	3	100	0	50	2.512948	1.538642	-135.165	
20:19:47	0	0	0	-0.3688166	-0.7674154	0	3	100	0	50	2.508187	1.537626	-135.2094	
20:19:47	0	0	0	-0.4062036	-2.659321	0	3	100	0	50	2.500034	1.524943	-135.1962	
20:19:47	0	0	0	-0.3944314	-2.259436	0	3	100	0	50	2.507962	1.525225	-135.0037	
20:19:48	0	0	0	-0.3823488	-1.265101	0	3	100	0	50	2.503804	1.522066	-135.02	
20:19:48	0	0	0	-0.3263809	2.045455	0	3	100	0	50	2.50232	1.499765	-135.0678	
20:19:48	0	0	0	-0.2750351	4.603014	0	3	100	0	50	2.506603	1.495685	-135.1233	
20:19:48	0	0	0	-0.2345814	6.342	0	3	100	0	50	2.508532	1.490012	-134.9738	
20:19:48	0	0	0	-0.1991034	7.383452	0	3	100	0	50	2.504201	1.487345	-134.8893	
20:19:49	0	0	0	-0.1488351	9.264346	0	3	100	0	50	2.515528	1.490802	-134.954	
20:19:49	0	0	0	-0.1087379	10.80571	0	3	100	0	50	2.507442	1.49869	-134.9982	
20:19:49	0	0	0	-0.1242694	8.917574	0	3	100	0	50	2.506715	1.518534	-134.9971	
20:19:49	0	0	0	-0.142061	7.060909	0	3	100	0	50	2.51035	1.499748	-134.9319	
20:19:49	0	0	0	-0.1148084	7.500646	0	3	100	0	50	2.492869	1.486964	-134.9725	
20:19:50	0	0	0	-0.08573326	8.903774	0	3	100	0	50	2.488306	1.473159	-135.0204	
20:19:50	0	0	0	-0.09228173	8.180819	0	3	100	0	50	2.495294	1.49727	-135.0597	
20:19:50	0	0	0	-0.09919751	7.343663	0	3	100	0	50	2.504196	1.514189	-134.9783	
20:19:50	0	0	0	-0.06351496	8.804907	0	3	100	0	50	2.501989	1.509332	-135.0016	
20:19:50	0	0	0	-0.03245295	9.408714	0	3	100	0	50	2.512677	1.525495	-135.0468	
20:19:51	0	0	0	0.003450198	10.54375	0	3	100	0	50	2.503481	1.530499	-135.1115	
20:19:51	0	0	0	0.03094186	10.82315	0	3	100	0	50	2.500633	1.537556	-135.0835	
20:19:51	0	0	0	0.02917585	9.24506	0	3	100	0	50	2.509309	1.549992	-135.0409	
20:19:51	0	0	0	-0.01278016	6.962696	0	3	100	0	50	2.520583	1.589063	-135.0684	
20:19:51	0	0	0	-0.03383913	5.292547	0	3	100	0	50	2.517676	1.594218	-135.1208	
20:19:52	0	0	0	-0.02918613	5.612248	0	3	100	0	50	2.505695	1.580514	-135.1626	
20:19:52	0	0	0	-0.04710794	3.848646	0	3	100	0	50	2.51611	1.57073	-134.9684	
20:19:52	0	0	0	-0.07799439	2.005996	0	3	100	0	50	2.521502	1.580994	-134.9905	
20:19:52	0	0	0	-0.1000055	0.9351184	0	3	100	0	50	2.517924	1.602	-135.0388	
20:19:52	0	0	0	-0.114617	-0.01300648	0	3	100	0	50	2.511201	1.608466	-135.0927	
20:19:53	0	0	0	-0.1239927	-0.3963373	0	3	100	0	50	2.506779	1.611628	-135.0015	
20:19:53	0	0	0	-0.1258452	-0.9642147	0	3	100	0	50	2.50492	1.618286	-134.9708	
20:19:53	0	0	0	-0.1641398	-3.052947	0	3	100	0	50	2.510784	1.624631	-135.0244	
20:19:53	0	0	0	-0.2485636	-6.950634	0	3	100	0	50	2.509222	1.624662	-135.0677	
20:19:53	0	0	0	-0.3218944	-9.643533	0	3	100	0	50	2.504886	1.624966	-135.1328	
20:19:54	0	0	0	-0.3703148	-10.8051	0	3	100	0	50	2.503546	1.624035	-135.0549	
20:19:54	0	0	0	-0.3924339	-11.0137	0	3	100	0	50	2.487426	1.630688	-135.0878	
20:19:54	0	0	0	-0.3981469	-10.48085	0	3	100	0	50	2.492524	1.642987	-135.1332	
20:19:54	0	0	0	-0.3963609	-10.31094	0	3	100	0	50	2.492937	1.646689	-135.1664	
20:19:54	0	0	0	-0.3907846	-9.386307	0	3	100	0	50	2.499043	1.648651	-135.1626	
20:19:55	0	0	0	-0.38932	-8.450513	0	3	100	0	50	2.504514	1.658099	-135.1048	
20:19:55	0	0	0	-0.3938465	-7.783209	0	3	100	0	50	2.495319	1.666318	-135.1613	
20:19:55	0	0	0	-0.4052545	-7.870853	0	3	100	0	50	2.486162	1.67892	-135.2283	
20:19:55	0	0	0	-0.425112	-8.15896	0	3	100	0	50	2.487992	1.67553	-135.2838	
20:19:55	0	0	0	-0.4534208	-8.418627	0	3	100	0	50	2.500925	1.661596	-135.0663	
20:19:56	0	0	0	-0.4852038	-9.061094	0	3	100	0	50	2.486804	1.665501	-135.1	
20:19:56	0	0	0	-0.5127568	-9.738622	0	3	100	0	50	2.488541	1.634536	-135.1494	
20:19:56	0	0	0	-0.5830873	-12.84344	0	3	100	0	50	2.486724	1.634958	-135.1944	
20:19:56	0	0	0	-0.6453152	-14.87601	0	3	100	0	50	2.487642	1.634208	-135.0487	
20:19:56	0	0	0	-0.6775537	-15.12572	0	3	100	0	50	2.473395	1.627743	-135.019	
20:19:57	0	0	0	-0.7077781	-15.58835	0	3	100	0	50	2.475209	1.63213	-135.0616	
20:19:57	0	0	0	-0.6798552	-12.35568	0	3	100	0	50	2.477468	1.628286	-135.1154	
20:19:57	0	0	0	-0.6518054	-10.01082	0	3	100	0	50	2.472245	1.633626	-135.1172	
20:19:57	0	0	0	-0.6064973	-6.920773	0	3	100	0	50	2.477349	1.639799	-135.0093	
20:19:57	0	0	0	-0.5600837	-3.836338	0	3	100	0	50	2.474709	1.641987	-135.0528	
20:19:58	0	0	0	-0.5230058	-1.467934	0	3	100	0	50	2.482802	1.634381	-135.1078	
20:19:58	0	0	0	-0.489165	0.07344929	0	3	100	0	50	2.47696	1.632093	-135.1566	
20:19:58	0	0	0	-0.4862964	-0.5855328	0	3	100	0	50	2.475918	1.598232	-134.8968	
20:19:58	0	0	0	-0.4841502	-0.2765886	0	3	100	0	50	2.479272	1.6072	-134.9243	
20:19:58	0	0	0	-0.4870276	0.1864545	0	3	100	0	50	2.480754	1.604616	-134.9949	
20:19:59	0	0	0	-0.4895375	0.05017115	0	3	100	0	50	2.471858	1.6249	-135.0561	
20:19:59	0	0	0	-0.5544195	-3.204651	0	3	100	0	50	2.465863	1.615274	-134.9778	
20:19:59	0	0	0	-0.6136088	-6.360343	0	3	100	0	50	2.463159	1.598779	-134.9541	
20:19:59	0	0	0	-0.644089	-7.610771	0	3	100	0	50	2.456973	1.591819	-134.9748	
20:19:59	0	0	0	-0.6735616	-8.709678	0	3	100	0	50	2.452799	1.567843	-135.0288	
20:20:00	0	0	0	-0.7198828	-10.11347	0	3	100	0	50	2.444643	1.55651	-135.0536	
20:20:00	0	0	0	-0.7601634	-11.47944	0	3	100	0	50	2.439729	1.527051	-134.9586	
20:20:00	0	0	0	-0.802317	-12.67635	0	3	100	0	50	2.4496	1.534498	-135.007	
20:20:00	0	0	0	-0.8378006	-13.059	0	3	100	0	50	2.454143	1.569795	-135.0527	
20:20:00	0	0	0	-0.7913305	-9.657218	0	3	100	0	50	2.4677	1.565707	-135.0872	
20:20:01	0	0	0	-0.7432414	-6.792613	0	3	100	0	50	2.464152	1.577012	-135.0737	
20:20:01	0	0	0	-0.6891398	-3.626728	0	3	100	0	50	2.462576	1.566122	-135.0934	
20:20:01	0	0	0	-0.6257305	-0.3963327	0	3	100	0	50	2.466039	1.570825	-135.1344	
20:20:01	0	0	0	-0.5667177	2.755317	0	3	100	0	50	2.467253	1.580899	-135.1752	
20:20:01	0	0	0	-0.5217805	5.023152	0	3	100	0	50	2.477642	1.590437	-135.2072	
20:20:02	0	0	0	-0.4776165	6.808994	0	3	100	0	50	2.466399	1.567308	-134.9878	
20:20:02	0	0	0	-0.4355891	8.436587	0	3	100	0	50	2.456945	1.562415	-135.0016	
20:20:02	0	0	0	-0.401739	9.489514	0	3	100	0	50	2.443632	1.555565	-135.0606	
20:20:02	0	0	0	-0.3752909	9.834904	0	3	100	0	50	2.449525	1.570063	-135.1203	
20:20:02	0	0	0	-0.3616317	9.545078	0	3	100	0	50	2.438115	1.574508	-135.0468	
20:20:03	0	0	0	-0.359206	8.475622	0	3	100	0	50	2.441438	1.592075	-135.0388	
20:20:03	0	0	0	-0.3608993	7.657992	0	3	100	0	50	2.436917	1.584047	-135.1021	
20:20:03	0	0	0	-0.3673342	6.266552	0	3	100	0	50	2.433223	1.593532	-135.1647	
20:20:03	0	0	0	-0.3705199	5.165309	0	3	100	0	50	2.42632	1.594993	-135.1834	
20:20:03	0	0	0	-0.369467	4.523345	0	3	100	0	50	2.433209	1.591105	-135.1065	
20:20:04	0	0	0	-0.3474334	5.20114	0	3	100	0	50	2.43559	1.575683	-135.1566	
20:20:04	0	0	0	-0.3140255	6.763866	0	3	100	0	50	2.432982	1.567307	-135.2177	
20:20:04	0	0	0	-0.2690938	8.472951	0	3	100	0	50	2.438497	1.568759	-135.276	
20:20:04	0	0	0	-0.2249839	10.13768	0	3	100	0	50	2.441743	1.561346	-135.2096	
20:20:04	0	0	0	-0.1776883	11.1849	0	3	100	0	50	2.44846	1.546335	-135.1367	
20:20:05	0	0	0	-0.1394493	12.50423	0	3	100	0	50	2.450444	1.539668	-135.1925	
20:20:05	0	0	0	-0.1240427	12.02519	0	3	100	0	50	2.449263	1.550408	-135.2474	
20:20:05	0	0	0	-0.1286684	10.59631	0	3	100	0	50	2.449104	1.53546	-135.3048	
20:20:05	0	0	0	-0.117811	9.887898	0	3	100	0	50	2.448713	1.525151	-135.256	
20:20:05	0	0	0	-0.09205752	10.20873	0	3	100	0	50	2.447809	1.527579	-135.28	
20:20:06	0	0	0	-0.07052718	10.49284	0	3	100	0	50	2.442416	1.517492	-135.324	
20:20:06	0	0	0	-0.1684351	3.914096	0	3	100	0	50	2.435981	1.50893	-135.3686	
20:20:06	0	0	0	-0.2590417	-1.14883	0	3	100	0	50	2.441932	1.509867	-135.2523	
20:20:06	0	0	0	-0.3029359	-2.940903	0	3	100	0	50	2.444372	1.507296	-135.1813	
20:20:06	0	0	0	-0.3473417	-5.198644	0	3	100	0	50	2.446025	1.518896	-135.2119	
20:20:07	0	0	0	-0.3532166	-4.974926	0	3	100	0	50	2.454191	1.495431	-135.2552	
20:20:07	0	0	0	-0.3580948	-5.462286	0	3	100	0	50	2.436027	1.501064	-135.2682	
20:20:07	0	0	0	-0.3311786	-3.298018	0	3	100	0	50	2.438197	1.509438	-135.2104	
20:20:07	0	0	0	-0.3035022	-1.765054	0	3	100	0	50	2.438152	1.508211	-135.2302	
20:20:07	0	0	0	-0.3065604	-1.839943	0	3	100	0	50	2.449413	1.510023	-135.278	
20:20:08	0	0	0	-0.3085564	-1.39285	0	3	100	0	50	2.450203	1.506112	-135.3257	
20:20:08	0	0	0	-0.3487292	-4.05648	0	3	100	0	50	2.442691	1.496451	-135.1309	
20:20:08	0	0	0	-0.3857904	-6.089965	0	3	100	0	50	2.433772	1.481948	-135.1609	
20:20:08	0	0	0	-0.379347	-5.309106	0	3	100	0	50	2.4191	1.496809	-135.2098	
20:20:08	0	0	0	-0.3720107	-4.740564	0	3	100	0	50	2.421337	1.493585	-135.2454	
20:20:09	0	0	0	-0.3856168	-5.000031	0	3	100	0	50	2.420474	1.501446	-135.1276	
20:20:09	0	0	0	-0.3968069	-5.241063	0	3	100	0	50	2.416141	1.492597	-135.1255	
20:20:09	0	0	0	-0.3975256	-5.136178	0	3	100	0	50	2.412085	1.504675	-135.1731	
20:20:09	0	0	0	-0.3974618	-4.654137	0	3	100	0	50	2.419837	1.502035	-135.218	
20:20:09	0	0	0	-0.3935885	-4.143619	0	3	100	0	50	2.415748	1.484319	-135.2075	
20:20:10	0	0	0	-0.3895927	-3.697548	0	3	100	0	50	2.413307	1.483953	-135.0829	
20:20:10	0	0	0	-0.4041013	-4.259373	0	3	100	0	50	2.42675	1.494467	-135.1175	
20:20:10	0	0	0	-0.4167561	-4.49212	0	3	100	0	50	2.418973	1.482532	-135.1689	
20:20:10	0	0	0	-0.35762	-0.9352376	0	3	100	0	50	2.430543	1.505523	-135.2328	
20:20:10	0	0	0	-0.2962393	3.035513	0	3	100	0	50	2.440426	1.514212	-135.1723	
20:20:11	0	0	0	-0.2451449	5.157206	0	3	100	0	50	2.443081	1.511672	-135.1996	
20:20:11	0	0	0	-0.2034199	6.361575	0	3	100	0	50	2.443148	1.499635	-135.2408	
20:20:11	0	0	0	-0.1671884	7.743628	0	3	100	0	50	2.436223	1.514363	-135.2809	
20:20:11	0	0	0	-0.1199513	9.165316	0	3	100	0	50	2.438033	1.52372	-135.2812	
20:20:11	0	0	0	-0.115384	8.494078	0	3	100	0	50	2.445789	1.512692	-135.1493	
20:20:12	0	0	0	-0.1339507	6.641584	0	3	100	0	50	2.451197	1.532798	-135.1952	
20:20:12	0	0	0	-0.1597972	4.813761	0	3	100	0	50	2.454387	1.534487	-135.2617	
20:20:12	0	0	0	-0.1877587	3.600821	0	3	100	0	50	2.441935	1.514757	-135.3181	
20:20:12	0	0	0	-0.1912207	2.71726	0	3	100	0	50	2.432526	1.512533	-135.2148	
20:20:12	0	0	0	-0.1751735	3.243144	0	3	100	0	50	2.422781	1.510993	-135.2097	
20:20:13	0	0	0	-0.1404564	4.908964	0	3	100	0	50	2.419868	1.521928	-135.2702	
20:20:13	0	0	0	-0.07751808	7.684159	0	3	100	0	50	2.41882	1.523567	-135.3143	
20:20:13	0	0	0	-0.02249523	10.54711	0	3	100	0	50	2.430807	1.560761	-135.296	
20:20:13	0	0	0	0.02987055	12.27351	0	3	100	0	50	2.439626	1.582284	-135.2518	
20:20:14	0	0	0	0.05442437	12.9715	0	3	100	0	50	2.443767	1.591573	-135.2885	
20:20:14	0	0	0	0.06111845	12.4304	0	3	100	0	50	2.441779	1.591172	-135.3329	
20:20:14	0	0	0	0.06180301	11.27731	0	3	100	0	50	2.426127	1.571486	-135.3833	
20:20:14	0	0	0	0.0588472	10.15387	0	3	100	0	50	2.429112	1.55222	-135.2214	
20:20:14	0	0	0	0.03962451	7.887581	0	3	100	0	50	2.417516	1.519779	-135.244	
20:20:15	0	0	0	0.001240374	5.108698	0	3	100	0	50	2.411524	1.50205	-135.3088	
20:20:15	0	0	0	-0.05089189	1.614488	0	3	100	0	50	2.397935	1.502413	-135.3613	
20:20:15	0	0	0	-0.108256	-2.148233	0	3	100	0	50	2.390245	1.498932	-135.4108	
20:20:15	0	0	0	-0.1491599	-4.480283	0	3	100	0	50	2.391987	1.516661	-135.4126	
20:20:15	0	0	0	-0.1747403	-5.539126	0	3	100	0	50	2.387328	1.52085	-135.4615	
20:20:15	0	0	0	-0.1972491	-6.266926	0	3	100	0	50	2.395176	1.523914	-135.5038	
20:20:16	0	0	0	-0.2015322	-5.917626	0	3	100	0	50	2.401771	1.512833	-135.5261	
20:20:16	0	0	0	-0.2042562	-5.691633	0	3	100	0	50	2.411787	1.50677	-135.3845	
20:20:16	0	0	0	-0.1996956	-4.856558	0	3	100	0	50	2.422831	1.482675	-135.3211	
20:20:16	0	0	0	-0.1952056	-4.358929	0	3	100	0	50	2.427553	1.498899	-135.357	
20:20:16	0	0	0	-0.1837168	-4.240377	0	3	100	0	50	2.442039	1.522982	-135.3902	
20:20:17	0	0	0	-0.1735024	-3.572883	0	3	100	0	50	2.44996	1.532045	-135.407	
20:20:17	0	0	0	-0.2163838	-5.781929	0	3	100	0	50	2.463735	1.55337	-135.3186	
20:20:17	0	0	0	-0.2590018	-7.766832	0	3	100	0	50	2.461818	1.560179	-135.3636	
20:20:17	0	0	0	-0.2641046	-7.230022	0	3	100	0	50	2.467573	1.564292	-135.402	
20:20:17	0	0	0	-0.2675942	-6.950313	0	3	100	0	50	2.461812	1.577563	-135.4422	
20:20:18	0	0	0	-0.2801029	-7.183251	0	3	100	0	50	2.453872	1.561754	-135.4027	
20:20:18	0	0	0	-0.2901777	-7.008593	0	3	100	0	50	2.441838	1.56149	-135.4168	
20:20:18	0	0	0	-0.275337	-5.80338	0	3	100	0	50	2.442934	1.567502	-135.4598	
20:20:18	0	0	0	-0.2593709	-4.458122	0	3	100	0	50	2.447124	1.571839	-135.4986	
20:20:18	0	0	0	-0.279476	-5.599731	0	3	100	0	50	2.451854	1.564471	-135.4195	
20:20:19	0	0	0	-0.2973872	-6.358748	0	3	100	0	50	2.45119	1.549174	-135.3744	
20:20:19	0	0	0	-0.2947592	-6.021182	0	3	100	0	50	2.446581	1.559443	-135.4045	
20:20:19	0	0	0	-0.2919917	-5.723629	0	3	100	0	50	2.436169	1.559119	-135.4571	
20:20:19	0	0	0	-0.2867389	-5.228725	0	3	100	0	50	2.430359	1.572578	-135.498	
20:20:19	0	0	0	-0.2794843	-3.838772	0	3	100	0	50	2.424539	1.567667	-135.3808	
20:20:20	0	0	0	-0.2757933	-3.694931	0	3	100	0	50	2.420766	1.582966	-135.3349	
20:20:20	0	0	0	-0.2717625	-2.571931	0	3	100	0	50	2.417235	1.577303	-135.3823	
20:20:20	0	0	0	-0.2855712	-2.864724	0	3	100	0	50	2.411596	1.568731	-135.4295	
20:20:20	0	0	0	-0.2994202	-3.66781	0	3	100	0	50	2.424684	1.568824	-135.3181	
20:20:21	0	0	0	-0.2848969	-2.566431	0	3	100	0	50	2.427668	1.540173	-135.2608	
20:20:21	0	0	0	-0.2321296	1.072553	0	3	100	0	50	2.418369	1.547866	-135.2904	
20:20:21	0	0	0	-0.1847101	3.566417	0	3	100	0	50	2.405688	1.535716	-135.3341	
20:20:21	0	0	0	-0.1398637	5.985062	0	3	100	0	50	2.398049	1.54585	-135.3461	
20:20:21	0	0	0	-0.1037316	7.503599	0	3	100	0	50	2.403776	1.546375	-135.2609	
20:20:22	0	0	0	-0.07331885	7.720198	0	3	100	0	50	2.398344	1.554579	-135.3036	
20:20:22	0	0	0	-0.05223006	8.559312	0	3	100	0	50	2.386382	1.552425	-135.3617	
20:20:22	0	0	0	-0.03858653	8.622429	0	3	100	0	50	2.388573	1.555765	-135.413	
20:20:22	0	0	0	-0.04805571	7.552049	0	3	100	0	50	2.39769	1.54563	-135.2545	
20:20:22	0	0	0	-0.08539795	5.005	0	3	100	0	50	2.410872	1.535221	-135.2511	
20:20:23	0	0	0	-0.1312428	2.339858	0	3	100	0	50	2.402423	1.52258	-135.3046	
20:20:23	0	0	0	-0.1836864	-0.8987068	0	3	100	0	50	2.396247	1.521083	-135.3413	
20:20:23	0	0	0	-0.2196577	-2.02652	0	3	100	0	50	2.404885	1.51708	-135.3457	
20:20:23	0	0	0	-0.2298411	-2.259196	0	3	100	0	50	2.414624	1.529793	-135.2082	
20:20:23	0	0	0	-0.2677099	-3.829605	0	3	100	0	50	2.420526	1.550123	-135.242	
20:20:23	0	0	0	-0.3189715	-6.164424	0	3	100	0	50	2.414689	1.566421	-135.3002	
20:20:24	0	0	0	-0.3592566	-7.937263	0	3	100	0	50	2.409906	1.587351	-135.364	
20:20:24	0	0	0	-0.3876347	-8.499023	0	3	100	0	50	2.419518	1.594643	-135.2001	
20:20:24	0	0	0	-0.4052826	-8.701112	0	3	100	0	50	2.432593	1.605666	-135.126	
20:20:24	0	0	0	-0.4076587	-8.21242	0	3	100	0	50	2.436598	1.612351	-135.1684	
20:20:25	0	0	0	-0.3999173	-6.784302	0	3	100	0	50	2.431567	1.615346	-135.2304	
20:20:25	0	0	0	-0.3841162	-5.343469	0	3	100	0	50	2.43225	1.633448	-135.2843	
20:20:25	0	0	0	-0.3588484	-3.287499	0	3	100	0	50	2.426162	1.631689	-135.1639	
20:20:25	0	0	0	-0.3258945	-1.185961	0	3	100	0	50	2.436224	1.627818	-135.1993	
20:20:25	0	0	0	-0.2959464	0.5048085	0	3	100	0	50	2.44144	1.635455	-135.2517	
20:20:26	0	0	0	-0.2835042	1.48021	0	3	100	0	50	2.444098	1.63017	-135.2943	
20:20:26	0	0	0	-0.2718404	2.00017	0	3	100	0	50	2.447993	1.623076	-135.2618	
20:20:26	0	0	0	-0.2188095	4.525356	0	3	100	0	50	2.451037	1.620186	-135.3056	
20:20:26	0	0	0	-0.1657674	6.615596	0	3	100	0	50	2.448869	1.607502	-135.3521	
