Date	Latitude(deg) 	Longitude(deg)	hamsl(m)	hafl(m)	climbrate(cm/s)	GroundSpeed(m/s)	Airspeed(m/s)	Mav_Link(%)	Rssi_Link(%)	Throttle	Roll(deg)	Pitch(deg)	Yaw(deg)
10:41:26	-6.795943	38.98547	130.659	1.773181	-2.230814	0.13	3	100	0	50	1.559878	0.6936499	-47.01577	
10:41:28	-6.79595	38.98548	129.555	1.336681	-10.73164	0.29	3	100	0	50	1.495074	1.419428	-47.14361	
10:41:29	-6.795948	38.98548	130.477	1.620437	-2.993687	0.26	3	100	0	50	1.417156	0.5103647	-46.95026	
10:41:31	-6.795953	38.98548	130.49	1.378581	-16.37219	0.55	3	100	0	50	1.295441	0.356121	-46.78103	
10:41:33	-6.795959	38.98549	130.56	1.606406	-4.205434	0.18	3	100	0	50	2.425566	-0.2514574	-46.76337	
10:41:35	-6.795967	38.98549	130.352	1.388833	-16.18644	0.09	3	100	0	50	2.374696	0.2032615	-46.82852	
10:41:36	-6.795967	38.9855	130.857	1.173418	-20.79217	0.22	3	100	0	50	2.390239	-0.2074463	-46.83007	
10:41:38	-6.795969	38.9855	131.091	1.184425	-12.68939	0.28	3	100	0	50	2.165846	-0.4234819	-46.82495	
10:41:40	-6.795977	38.9855	130.042	1.500372	2.99012	0.16	3	100	0	50	2.158665	-0.7053502	-46.65443	
10:41:41	-6.795979	38.9855	129.96	1.534759	-1.708334	0.26	3	100	0	50	2.294291	-0.03501078	-46.46459	
10:41:43	-6.795978	38.9855	130.543	1.578459	-2.717488	0.04	3	100	0	50	1.973772	0.2329149	-46.4531	
10:41:45	-6.795979	38.98551	130.321	1.471024	-10.51198	0.47	3	100	0	50	1.86374	0.04726169	-46.69541	
10:41:46	-6.79598	38.9855	128.919	1.396894	-11.5373	0.44	3	100	0	50	2.038478	-0.1911478	-46.27944	
10:41:48	-6.795975	38.9855	128.153	1.353777	-10.65585	0.12	3	100	0	50	1.799433	-0.9340904	-46.20273	
10:41:50	-6.795971	38.98549	126.987	1.35361	-6.0138	0.28	3	100	0	50	2.328565	-0.02355357	-46.31116	
10:41:51	-6.795973	38.98549	125.849	1.122785	-15.60048	0.77	3	100	0	50	1.748396	-0.2839433	-46.46587	
10:41:53	-6.795974	38.98549	126.214	1.142115	-6.574398	0.04	3	100	0	50	1.297297	0.1885672	-46.30733	
10:41:55	-6.795976	38.9855	125.375	1.238167	0.3095295	1.38	3	100	0	50	2.054702	-1.15012	-46.46449	
10:41:56	-6.795972	38.9855	124.926	1.607255	13.44107	0.79	3	100	0	50	3.766235	0.06057222	-46.12405	
10:41:58	-6.795975	38.9855	124.644	1.8569	13.89843	0.39	3	100	0	50	2.552682	0.3154157	-46.7238	
10:42:00	-6.795976	38.9855	125.445	1.866711	4.193012	1.66	3	100	0	50	3.190251	1.049991	-47.57398	
10:42:02	-6.795975	38.98551	125.959	1.557898	-12.17097	0.65	3	100	0	50	2.698186	-0.8143366	-48.02634	
10:42:03	-6.795974	38.9855	125.745	1.693378	-1.78573	0.95	3	100	0	50	2.280288	-1.789302	-47.5745	
10:42:05	-6.795967	38.98548	126.246	1.824509	3.731527	0.7	3	100	0	50	3.11208	-0.456886	-46.87371	
10:42:07	-6.795965	38.98548	126.869	2.137919	10.31919	0.78	3	100	0	50	2.513003	-0.9524292	-47.03975	
10:42:08	-6.795965	38.98549	127.465	1.787931	-11.40535	0.61	3	100	0	50	2.959198	-1.293451	-47.02561	
10:42:10	-6.795963	38.98549	128.287	1.371833	-19.56674	0.26	3	100	0	50	3.192465	-1.479684	-46.25707	
10:42:12	-6.795956	38.98549	128.728	1.490177	-7.395154	0.37	3	100	0	50	2.76184	-0.6025949	-46.00407	
10:42:13	-6.795954	38.98549	128.864	1.628312	2.452126	0.29	3	100	0	50	2.519593	0.1852052	-46.21262	
10:42:15	-6.795952	38.98547	128.423	1.747804	5.625447	0.21	3	100	0	50	2.143943	0.3784732	-46.121	
10:42:17	-6.795947	38.98546	128.211	1.898103	10.29309	0.41	3	100	0	50	1.790446	0.7227867	-46.61657	
10:42:18	-6.795945	38.98545	127.91	1.892983	4.888849	0.66	3	100	0	50	1.483661	0.7818736	-46.82332	
10:42:20	-6.795944	38.98545	128.166	1.88114	-0.4284419	0.56	3	100	0	50	1.863501	0.8376135	-47.00007	
10:42:22	-6.795941	38.98545	128.075	1.70891	-5.777324	0.14	3	100	0	50	1.582933	1.054614	-47.2048	
10:42:23	-6.795942	38.98545	127.606	1.529197	-6.337167	0.41	3	100	0	50	1.879066	1.546388	-47.9926	
10:42:25	-6.795939	38.98545	126.771	1.660835	0.7308418	0.72	3	100	0	50	1.739778	1.572163	-48.29757	
10:42:27	-6.795938	38.98545	126.97	1.892068	12.37558	0.29	3	100	0	50	1.520278	1.354768	-48.77328	
10:42:28	-6.795938	38.98545	126.741	1.818601	3.699675	0.26	3	100	0	50	1.845582	2.325876	-49.24645	
10:42:30	-6.795935	38.98545	125.82	1.688086	-4.421965	1.02	3	100	0	50	2.156371	2.702415	-49.69872	
10:42:32	-6.795934	38.98545	126.504	1.726843	1.056115	1.25	3	100	0	50	2.3851	2.956605	-50.30913	
10:42:34	-6.79593	38.98546	126.105	2.012829	10.25157	0.38	3	100	0	50	2.1961	3.232085	-50.85874	
10:42:35	-6.79593	38.98546	126.087	2.047061	6.724362	0.28	3	100	0	50	2.001069	3.136893	-51.15737	
10:42:37	-6.795931	38.98546	126.298	2.058707	1.187558	0.26	3	100	0	50	1.99281	2.305834	-51.18932	
10:42:39	-6.795929	38.98546	125.864	1.947657	-4.737817	0.76	3	100	0	50	2.161996	2.558191	-51.20338	
10:42:40	-6.795929	38.98546	126.437	1.480631	-21.24606	0.98	3	100	0	50	2.496672	3.045818	-51.62985	
10:42:42	-6.795927	38.98547	126.056	1.531505	-6.509839	0.34	3	100	0	50	2.709726	3.15464	-51.807	
10:42:44	-6.795925	38.98547	126.214	1.644191	1.532887	0.17	3	100	0	50	2.097322	2.551426	-51.87391	
10:42:45	-6.795923	38.98545	126.446	1.903194	11.00518	0.47	3	100	0	50	1.938157	1.588427	-51.38126	
10:42:47	-6.795922	38.98545	125.903	1.984127	7.483194	0.52	3	100	0	50	2.559534	2.292141	-51.14931	
10:42:49	-6.795921	38.98546	126.024	1.854741	-0.8265353	0.25	3	100	0	50	1.962898	2.100618	-50.97272	
10:42:50	-6.795922	38.98545	125.949	2.120816	8.425707	0.21	3	100	0	50	1.813816	1.922413	-50.58572	
10:42:52	-6.795922	38.98545	126.432	1.857758	-6.251482	0.38	3	100	0	50	1.723478	1.752751	-50.14444	
10:42:54	-6.795922	38.98545	125.81	1.646836	-11.10165	0.53	3	100	0	50	1.360548	1.215546	-49.54618	
10:42:55	-6.79592	38.98545	124.213	1.464661	-9.81027	0.44	3	100	0	50	1.198967	0.7626263	-49.27006	
10:42:57	-6.795918	38.98546	123.379	1.625935	0.9460305	0.79	3	100	0	50	1.794779	1.613018	-48.87188	
10:42:59	-6.795915	38.98546	122.383	1.794293	5.20243	0.36	3	100	0	50	1.52647	1.191018	-48.71693	
10:43:01	-6.795914	38.98546	121.809	1.519923	-7.182396	0.19	3	100	0	50	1.132751	1.193696	-48.25737	
10:43:02	-6.795917	38.98546	121.779	1.665545	3.207411	0.37	3	100	0	50	1.723084	1.579517	-47.94503	
10:43:04	-6.795918	38.98545	121.706	2.125994	18.00321	0.5	3	100	0	50	1.033779	0.8842721	-47.49862	
10:43:06	-6.795918	38.98545	122.343	2.225891	9.800694	0.29	3	100	0	50	1.739154	1.485815	-47.37541	
10:43:07	-6.795922	38.98545	123.367	2.050159	-1.947178	0.58	3	100	0	50	0.9441509	0.6903845	-47.28421	
10:43:09	-6.795926	38.98545	123.432	1.961448	-5.804011	0.87	3	100	0	50	1.028675	1.208945	-47.11315	
10:43:11	-6.795927	38.98545	123.777	1.800711	-8.272534	0.18	3	100	0	50	1.202333	0.6573679	-46.73132	
10:43:12	-6.795931	38.98544	124.175	1.853413	-1.955632	0.24	3	100	0	50	0.8240626	1.283128	-46.63742	
10:43:14	-6.795933	38.98544	123.798	1.664561	-7.534517	0.22	3	99	0	50	1.479163	1.008899	-46.73785	
10:43:16	-6.795935	38.98544	124.229	1.858725	2.438017	0.07	3	99	0	50	1.095975	1.021201	-47.02165	
10:43:17	-6.795933	38.98544	123.437	1.785423	-0.9786865	0.11	3	97	0	50	1.128373	1.068869	-47.01398	
10:43:19	-6.79593	38.98544	122.071	1.839114	1.579102	0.19	3	97	0	50	1.127151	1.097781	-47.4868	
10:43:21	-6.795928	38.98544	119.852	2.024524	6.902314	0.22	3	97	0	50	2.816735	2.087893	-47.92088	
10:43:22	-6.795924	38.98545	117.267	1.948662	-2.512815	0.26	3	97	0	50	2.265528	1.69224	-48.51311	
10:43:24	-6.79592	38.98545	115.45	2.354415	14.38572	0.07	3	96	0	50	2.546135	1.76165	-48.80439	
10:43:26	-6.795917	38.98545	112.99	2.180041	-3.706712	0.29	3	96	0	50	2.020838	1.905997	-49.30173	
10:43:28	-6.795913	38.98547	110.723	1.809252	-12.88928	0.57	3	95	0	50	2.285401	1.746519	-49.4664	
10:43:29	-6.795905	38.98547	108.076	1.939859	2.585707	0.32	3	95	0	50	2.235387	1.41467	-49.51114	
10:43:31	-6.7959	38.98548	106.223	2.226701	8.671844	0.45	3	95	0	50	2.124601	1.000367	-49.4466	
10:43:33	-6.795897	38.98548	106.045	2.260879	3.923142	0.93	3	95	0	50	2.176508	1.376933	-49.49181	
10:43:34	-6.795894	38.98549	104.419	2.157157	-2.176608	0.5	3	95	0	50	2.083445	1.317573	-49.46615	
10:43:36	-6.79589	38.98549	103.835	2.088763	-5.037456	0.72	3	96	0	50	2.236698	1.24663	-49.32779	
10:43:38	-6.795889	38.98549	104.141	1.963471	-8.223457	0.29	3	96	0	50	1.555763	1.091735	-49.23186	
10:43:39	-6.795887	38.98549	104.19	1.939368	-4.81944	0.37	3	96	0	50	0.9725519	1.318504	-49.01258	
10:43:41	-6.795885	38.9855	103.743	1.90927	-4.083659	0.66	3	96	0	50	1.599996	1.315214	-48.68577	
10:43:43	-6.795878	38.9855	102.197	2.069887	7.030724	0.25	3	97	0	50	0.5947524	0.4763741	-48.40376	
10:43:44	-6.795877	38.98551	102.14	2.18267	5.76643	0.48	3	97	0	50	1.302842	1.098369	-47.99318	
10:43:46	-6.79588	38.9855	103.245	1.891794	-8.102271	0.97	3	97	0	50	1.186693	0.9145496	-47.65952	
10:43:48	-6.795882	38.9855	105.878	1.823381	-5.395367	0.5	3	97	0	50	1.365599	1.029826	-47.38641	
10:43:49	-6.795877	38.9855	105.339	2.03563	8.018961	0.14	3	97	0	50	1.306267	0.9632847	-47.27428	
10:43:51	-6.795872	38.9855	104.022	2.301604	12.2057	0.18	3	97	0	50	0.9567865	1.090501	-47.29263	
10:43:53	-6.795867	38.98551	102.744	2.307499	4.714871	0.68	3	98	0	50	2.052782	1.068104	-47.41713	
10:43:54	-6.795865	38.98552	102.455	2.154668	-2.58442	0.22	3	98	0	50	1.767824	1.70922	-47.84045	
10:43:56	-6.795863	38.98553	100.809	1.735659	-14.57584	0.76	3	97	0	50	2.058351	1.339604	-47.95469	
10:43:58	-6.795865	38.98553	100.599	2.002553	5.162073	0.21	3	98	0	50	0.5970138	0.4837925	-47.71196	
10:44:00	-6.795861	38.98553	99.853	1.945913	-0.6295732	0.14	3	98	0	50	1.997961	1.315904	-47.35138	
10:44:01	-6.795859	38.98553	99.521	2.086073	7.00304	0.21	3	98	0	50	0.9553288	1.121636	-47.13053	
10:44:03	-6.79586	38.9855	101.223	1.983999	-1.35122	1.33	3	98	0	50	12.94159	-1.612475	-47.64922	
10:44:05	-6.795864	38.98548	104.19	1.966004	-1.897379	0.25	3	98	0	50	0.1263034	0.004295637	-48.2543	
10:44:06	-6.795868	38.98546	105.806	2.138708	10.362	0.13	3	98	0	50	8.413809	-0.2569984	-48.89979	
10:44:08	-6.795869	38.98545	107.343	1.701477	0.6136624	0.16	3	98	0	50	1.868917	-0.2586111	-49.04257	
10:44:10	-6.795869	38.98543	105.716	1.437488	-10.43503	0.91	3	98	0	50	0.5095447	-0.9701366	-47.53652	
10:44:11	-6.79587	38.98542	106.203	1.61745	1.632182	0.18	3	98	0	50	1.111517	0.1026442	-46.65662	
10:44:13	-6.795871	38.98542	107.012	1.68495	2.221074	0.34	3	99	0	50	0.7674896	-0.1846545	-46.19274	
10:44:15	-6.795871	38.98542	106.571	1.362504	-13.34045	0.17	3	99	0	50	1.295257	0.2130205	-45.57804	
10:44:16	-6.79587	38.98542	106.907	1.41092	-2.866266	1.59	3	99	0	50	0.6318231	0.2885437	-45.21244	
10:44:18	-6.795867	38.98539	103.914	1.45069	-2.624944	1.36	3	99	0	50	0.3472335	-0.1724409	-44.24716	
10:44:20	-6.795863	38.98536	102.677	1.281001	-8.945052	0.41	3	99	0	50	1.174158	1.204081	-43.95469	
10:44:21	-6.795864	38.98536	104.936	1.52474	6.218238	0.02	3	99	0	50	1.125166	1.033929	-44.61512	
10:44:23	-6.795865	38.98536	106.653	1.547079	2.653085	0.14	3	99	0	50	1.019383	0.9518659	-45.01229	
10:44:25	-6.795863	38.98536	108.204	1.442526	-3.472392	0.24	3	99	0	50	1.186996	1.085537	-45.54443	
10:44:26	-6.795862	38.98536	109.432	1.907625	17.08788	0.22	3	99	0	50	1.080376	1.113963	-45.74641	
10:44:28	-6.79586	38.98535	110.745	1.522424	-9.436868	0.16	3	99	0	50	0.9330751	1.001109	-45.83937	
10:44:30	-6.795859	38.98535	111.692	1.306231	-12.38007	0.03	3	99	0	50	1.027517	1.243069	-46.25655	
10:44:32	-6.795859	38.98535	112.259	1.865549	17.29985	0.14	3	99	0	50	1.001586	0.9275054	-46.39603	
10:44:33	-6.795858	38.98534	112.619	1.980989	13.20635	0.17	3	99	0	50	0.6161326	1.102963	-46.26171	
10:44:35	-6.795856	38.98534	113.664	1.691128	-7.181797	0.13	3	99	0	50	0.9558587	1.223054	-46.68321	
10:44:37	-6.795855	38.98534	115.345	1.34351	-15.8631	0.39	3	99	0	50	0.947221	1.135617	-46.88013	
10:44:38	-6.795853	38.98534	116.716	1.228299	-12.80054	0.18	3	99	0	50	0.8921869	1.225647	-46.80882	
10:44:40	-6.795852	38.98534	118.216	1.499399	5.770797	0.28	3	99	0	50	1.265127	1.403603	-47.14417	
10:44:42	-6.795851	38.98534	119.657	1.543228	2.652302	0.13	3	99	0	50	1.155042	1.240127	-47.50384	
10:44:43	-6.795852	38.98534	121.078	1.501674	-2.04852	0.21	3	99	0	50	1.131747	1.042566	-47.46289	
10:44:45	-6.795853	38.98534	121.831	1.464837	-1.479191	0.33	3	99	0	50	0.7635804	0.8140702	-47.14753	
10:44:47	-6.795854	38.98534	123.316	1.650496	5.86101	0.11	3	99	0	50	1.254514	0.399192	-46.90611	
10:44:48	-6.795852	38.98534	124.322	1.519952	-3.508131	0.42	3	99	0	50	1.78031	0.07452416	-46.8773	
10:44:50	-6.795852	38.98535	123.912	1.257924	-11.97421	0.42	3	99	0	50	2.371196	0.1436162	-46.8131	
10:44:52	-6.795854	38.98536	123.859	1.254064	-5.621415	0.42	3	99	0	50	2.142178	-0.073575	-46.87395	
10:44:53	-6.795853	38.98536	123.834	1.683614	12.66281	0.45	3	99	0	50	1.90779	0.04537932	-46.85368	
10:44:55	-6.79585	38.98535	124.191	1.638176	3.589983	0.26	3	99	0	50	2.14236	-0.6454792	-46.56458	
10:44:57	-6.795852	38.98535	125.085	1.333696	-9.701608	0.35	3	99	0	50	2.38503	-0.567241	-46.43373	
10:44:59	-6.795849	38.98536	124.298	1.479052	1.025946	0.17	3	99	0	50	2.77631	-1.020844	-46.33829	
10:45:00	-6.795847	38.98536	124.372	1.27849	-7.514802	0.17	3	99	0	50	2.722638	-0.6015893	-46.35252	
10:45:02	-6.795845	38.98536	123.825	1.750723	14.00109	0.16	3	99	0	50	2.358522	-0.9552946	-46.11856	
10:45:04	-6.795842	38.98536	123.227	1.717078	3.460962	0.14	3	99	0	50	2.830149	-0.7300544	-46.06116	
10:45:05	-6.795838	38.98536	122.611	1.860003	5.644905	0.37	3	99	0	50	3.520591	-1.050305	-46.18175	
10:45:07	-6.795841	38.98536	121.552	1.59121	-8.776378	0.26	3	99	0	50	2.760018	-0.8735685	-46.18512	
10:45:09	-6.795838	38.98536	120.124	1.405642	-13.34163	0.14	3	99	0	50	4.288961	-0.9841825	-46.49812	
10:45:10	-6.795837	38.98536	119.338	1.240818	-14.89445	0.13	3	99	0	50	4.573116	-1.321022	-46.84406	
10:45:12	-6.795835	38.98537	118.312	1.491951	4.492626	0.18	3	99	0	50	4.200253	-1.626125	-47.0533	
10:45:14	-6.79583	38.98537	118.015	1.581056	2.516116	0.28	3	99	0	50	3.598574	-1.084627	-46.92725	
10:45:15	-6.795832	38.98537	116.954	1.691818	8.338604	0.59	3	99	0	50	3.429077	-1.216819	-46.94999	
10:45:17	-6.79583	38.98537	116.179	1.759466	4.579759	0.14	3	99	0	50	3.697387	-1.041846	-46.93164	
10:45:19	-6.79583	38.98537	117.282	1.901519	7.030299	0.26	3	99	0	50	2.814905	-0.7127038	-46.83275	
10:45:20	-6.795832	38.98536	118.958	1.998502	7.481365	0.66	3	98	0	50	3.320652	-1.304917	-46.91883	
10:45:22	-6.795834	38.98536	120.379	1.726918	-8.504671	0.53	3	98	0	50	2.941967	-0.4877728	-46.83795	
10:45:24	-6.79583	38.98536	121.341	1.85152	1.8094	0.21	3	98	0	50	3.332489	-0.2205175	-46.96059	
10:45:26	-6.795834	38.98535	122.031	1.627692	-5.073161	0.76	3	98	0	50	3.204224	0.02827779	-47.32572	
10:45:27	-6.795834	38.98534	122.351	1.806169	2.064403	0.28	3	98	0	50	3.759341	-0.4428487	-47.52057	
10:45:29	-6.795833	38.98534	123.132	1.981957	6.618281	0.66	3	98	0	50	3.545144	0.04882453	-47.84692	
10:45:31	-6.795842	38.98534	126.14	2.107319	9.619403	0.35	3	98	0	50	2.620558	0.09528094	-48.01657	
10:45:32	-6.795846	38.98533	126.753	1.730348	-8.517731	0.64	3	98	0	50	3.392927	0.4596266	-48.03618	
10:45:34	-6.795847	38.98533	125.978	1.593475	-10.19441	0.41	3	99	0	50	3.444401	0.03381796	-48.30804	
10:45:36	-6.795859	38.98534	124.517	1.871883	7.080362	0.81	3	99	0	50	3.544839	0.4251344	-48.52441	
10:45:37	-6.79587	38.98534	122.474	1.830802	2.998727	0.57	3	99	0	50	3.648779	0.02442003	-48.92397	
10:45:39	-6.795874	38.98534	122.467	1.775098	0.8838308	0.22	3	99	0	50	3.771757	-0.5997513	-48.91095	
10:45:41	-6.795874	38.98534	120.066	2.058397	9.736052	0.11	3	99	0	50	4.084039	-1.475628	-48.60173	
10:45:42	-6.795882	38.98534	119.041	1.768656	-6.31232	0.84	3	99	0	50	3.799646	0.3088748	-48.27172	
10:45:44	-6.79591	38.98536	118.122	1.956158	5.75387	1.11	3	99	0	50	2.998595	0.9287338	-48.7517	
10:45:46	-6.795918	38.98537	116.577	1.846024	-5.158257	0.47	3	99	0	50	4.63071	-0.7785491	-48.79786	
10:45:47	-6.795918	38.98537	117.633	1.772016	-4.983284	0.44	3	99	0	50	4.412	-1.770861	-48.35978	
10:45:49	-6.795916	38.98537	118.516	1.729823	-4.976783	0.42	3	99	0	50	3.686444	-1.596222	-47.85032	
10:45:51	-6.795914	38.98536	118.835	1.860101	2.36402	0.11	3	99	0	50	3.455059	-1.701037	-47.29206	
10:45:52	-6.795911	38.98537	119.325	2.168248	12.07021	0.44	3	99	0	50	2.932899	-1.468877	-46.79898	
10:45:54	-6.795912	38.98536	119.674	1.951869	-0.3991378	0.76	3	99	0	50	2.543515	-1.860025	-46.21959	
10:45:56	-6.79591	38.98537	119.049	1.871472	-4.710602	0.07	3	99	0	50	2.94304	-0.9232797	-45.91196	
10:45:58	-6.795904	38.98538	117.13	1.984287	3.183099	1	3	99	0	50	3.226158	-0.7440743	-46.06911	
10:45:59	-6.795899	38.98538	116.799	2.366663	17.5409	0.5	3	99	0	50	2.574608	-1.040668	-46.05533	
10:46:01	-6.795896	38.98539	115.899	2.121673	-2.596676	1.02	3	99	0	50	2.885646	-0.06819352	-45.94739	
10:46:03	-6.795897	38.9854	113.606	1.880953	-6.255342	0.33	3	99	0	50	2.069469	0.2931092	-46.15025	
10:46:04	-6.795899	38.9854	112.71	2.077874	5.050728	0.66	3	99	0	50	1.96067	0.2013138	-46.25204	
10:46:06	-6.795899	38.9854	112.721	2.16091	5.174992	0.14	3	99	0	50	2.45049	0.01328258	-46.35126	
10:46:08	-6.795904	38.9854	111.546	2.081132	0.6611668	0.48	3	99	0	50	1.452477	0.4877486	-46.32757	
10:46:09	-6.795898	38.9854	111.12	1.80378	-10.07329	0.71	3	99	0	50	1.987119	0.006529019	-46.51177	
10:46:11	-6.795907	38.9854	110.142	1.980715	3.343892	0.22	3	99	0	50	1.329298	0.499061	-46.43834	
10:46:13	-6.795905	38.9854	110.118	1.972318	-1.535346	0.52	3	99	0	50	1.865967	0.6085115	-46.45824	
10:46:14	-6.795904	38.9854	110.023	1.548389	-15.81613	0.34	3	99	0	50	1.68205	-0.1305587	-46.33814	
10:46:16	-6.795905	38.9854	109.544	1.657128	-1.539958	0.19	3	99	0	50	1.213734	0.2339974	-46.29491	
10:46:18	-6.795897	38.9854	109.549	2.175123	20.99182	0.34	3	99	0	50	2.796254	-0.003303351	-46.26995	
10:46:19	-6.795889	38.9854	110.186	2.141547	8.984822	0.68	3	99	0	50	2.834193	-0.002296971	-46.50583	
10:46:21	-6.795897	38.9854	109.482	2.112944	1.064142	0.97	3	99	0	50	1.843755	0.4504706	-46.63353	
10:46:23	-6.795893	38.9854	108.569	1.880358	-9.127851	0.52	3	99	0	50	2.350181	-0.1206435	-46.70857	
10:46:24	-6.795889	38.9854	108.509	1.946216	-1.772169	0.31	3	99	0	50	4.581039	-0.728808	-46.84522	
10:46:26	-6.795876	38.98542	106.457	2.115477	3.123923	0.72	3	99	0	50	4.335616	-1.812599	-47.15277	
10:46:28	-6.795868	38.98541	106.514	1.913249	-9.298884	0.48	3	99	0	50	5.185291	-2.667155	-47.16657	
10:46:30	-6.795868	38.98542	105.793	1.876	-8.900242	0.19	3	99	0	50	5.466771	-1.749594	-47.21345	
10:46:31	-6.795869	38.98542	105.909	1.764484	-9.005923	0.52	3	99	0	50	5.320544	-1.897028	-47.44085	
10:46:33	-6.795875	38.98542	105.491	1.846749	-0.5038804	0.29	3	99	0	50	5.385528	-1.645898	-47.68981	
10:46:35	-6.795903	38.98543	104.955	2.081195	6.703833	0.29	3	99	0	50	5.778092	-1.406603	-47.74802	
10:46:36	-6.795902	38.98542	105.617	2.406278	9.158118	0.19	3	99	0	50	5.949007	-1.667954	-48.17619	
10:46:38	-6.795888	38.98542	107.302	1.927851	-15.08722	0.29	3	99	0	50	4.626348	-0.9039375	-48.38595	
10:46:40	-6.795879	38.98542	107.994	1.631874	-17.26159	0.26	3	99	0	50	3.648727	-1.385415	-48.30766	
10:46:41	-6.795871	38.9854	109.09	1.749307	-3.90719	0.52	3	99	0	50	3.230467	-1.290782	-48.05727	
10:46:43	-6.795866	38.98541	107.745	2.042853	10.26115	0.25	3	99	0	50	2.355882	-0.4392822	-47.68247	
10:46:45	-6.795862	38.98541	106.87	2.244543	11.76326	0.09	3	99	0	50	2.419408	-0.3173376	-47.38111	
10:46:46	-6.795859	38.98541	106.099	1.951172	-3.318209	0.5	3	99	0	50	1.698276	0.04751558	-46.97869	
10:46:48	-6.79586	38.98542	105.609	2.276016	15.33054	0.71	3	99	0	50	1.43973	0.9612898	-47.06216	
10:46:50	-6.79586	38.98542	108.086	2.228812	4.276995	0.42	3	99	0	50	2.103626	0.5368349	-47.25255	
10:46:51	-6.795859	38.98541	108.83	1.944975	-5.176095	0.39	3	99	0	50	1.561953	0.2002852	-47.08142	
10:46:53	-6.795858	38.98541	110.044	2.03998	1.522925	0.25	3	99	0	50	1.340973	-0.1080455	-46.7849	
10:46:55	-6.795855	38.98541	111.555	2.404821	15.34497	0.17	3	99	0	50	1.593177	-0.1042029	-46.31966	
10:46:56	-6.795848	38.9854	112.251	2.211062	-0.3221027	0.34	3	99	0	50	1.74602	0.5454167	-46.14305	
10:46:58	-6.795842	38.9854	113.861	2.14244	0.1868041	0.17	3	99	0	50	1.296518	0.3152987	-46.03936	
10:47:00	-6.795836	38.9854	114.617	2.129627	-1.125924	0.41	3	99	0	50	1.703765	-0.02915812	-46.04165	
10:47:02	-6.795842	38.9854	114.83	2.16634	3.151949	0.65	3	99	0	50	2.19697	0.6351093	-46.09279	
10:47:03	-6.795848	38.9854	114.399	2.369495	8.88745	0.68	3	99	0	50	3.455845	-0.05695409	-46.66609	
10:47:05	-6.795848	38.9854	113.667	2.243692	-2.120657	0.33	3	99	0	50	3.509733	0.2311777	-47.31879	
10:47:07	-6.795873	38.98541	112.758	2.433465	3.010653	1.28	3	99	0	50	4.260181	0.9484966	-48.05959	
10:47:08	-6.795909	38.98543	109.881	2.32078	-3.056223	0.97	3	99	0	50	4.811864	0.5303466	-51.64281	
10:47:10	-6.795927	38.98544	107.978	2.324053	-2.585183	0.69	3	99	0	50	4.443797	0.1329099	-51.56097	
10:47:12	-6.795939	38.98543	107.393	2.213515	-7.235028	0.71	3	99	0	50	4.31359	-0.7295544	-51.12511	
10:47:13	-6.795934	38.98544	105.808	2.140392	-7.659468	0.21	3	99	0	50	5.562665	-1.380662	-50.68113	
10:47:15	-6.795927	38.98543	105.758	2.33847	1.771025	1.26	3	99	0	50	4.90618	-1.397752	-49.95393	
10:47:17	-6.795927	38.98543	105.174	1.933828	-17.10325	0.07	3	99	0	50	4.714869	-0.7013201	-49.69269	
10:47:18	-6.795952	38.98544	103.26	1.871344	-8.514502	1.68	3	99	0	50	3.236795	-0.1393159	-49.41926	
10:47:20	-6.795974	38.98545	100.751	1.957313	-0.9861075	1.57	3	99	0	50	4.080102	-1.163347	-50.07953	
10:47:22	-6.795978	38.98544	100.053	1.99767	0.687961	0.59	3	99	0	50	4.105711	-0.7819365	-49.32389	
10:47:23	-6.795971	38.98544	100.484	1.90084	0.6088305	0.36	3	99	0	50	3.312445	-0.988822	-48.64535	
10:47:25	-6.795967	38.98544	100.728	1.987141	1.312075	0.11	3	99	0	50	3.863127	-2.448783	-47.77833	
10:47:27	-6.795968	38.98543	100.677	1.999406	5.242865	0.29	3	99	0	50	3.591005	-1.182532	-46.99722	
10:47:29	-6.795949	38.98542	102.809	2.103844	5.823878	0.24	3	99	0	50	2.92418	-0.8982099	-46.74844	
10:47:30	-6.795929	38.9854	104.326	2.15061	3.605878	0.37	3	99	0	50	2.270766	-0.5692303	-46.28004	
10:47:32	-6.795918	38.9854	105.078	1.975917	-4.922134	0.12	3	99	0	50	2.124159	-1.000482	-45.91698	
10:47:34	-6.795911	38.98539	105.479	2.163841	8.746158	0.19	3	99	0	50	1.525035	-0.1187765	-45.66994	
10:47:35	-6.795907	38.98539	105.989	2.330818	12.5526	0.14	3	99	0	50	1.779902	-0.09133042	-45.51713	
10:47:37	-6.795903	38.98538	106.932	2.230528	2.789116	0.03	3	99	0	50	1.649256	0.6040294	-45.42205	
10:47:39	-6.7959	38.98538	108.316	2.222657	1.314371	0.29	3	99	0	50	1.323204	0.33689	-45.53357	
10:47:40	-6.795897	38.98538	109.434	2.329016	6.467974	0.09	3	99	0	50	1.306684	0.3913936	-45.47638	
10:47:42	-6.795895	38.98538	110.472	2.266884	2.182322	0.18	3	99	0	50	1.163071	0.7183476	-45.51031	
10:47:44	-6.795891	38.98537	110.914	2.045365	-5.920183	0.55	3	99	0	50	1.123928	-0.2865067	-45.55237	
10:47:45	-6.795887	38.98537	111.673	2.21331	6.823971	0.39	3	99	0	50	1.494097	0.06185426	-45.57121	
10:47:47	-6.795883	38.98537	112.637	2.175504	1.501673	0.14	3	99	0	50	1.13506	0.2845397	-45.48443	
10:47:49	-6.795882	38.98536	114.01	2.247792	4.054263	0.22	3	99	0	50	1.444601	0.5626941	-45.45262	
10:47:50	-6.795881	38.98536	114.979	2.260087	2.478703	0.22	3	99	0	50	1.613164	0.1072489	-45.63974	
10:47:52	-6.795878	38.98536	116.288	2.240206	-0.09335666	0.39	3	99	0	50	1.369036	0.2367066	-45.59712	
10:47:54	-6.795879	38.98536	117.375	2.231555	0.350755	0.38	3	99	0	50	1.453095	0.2669977	-45.42481	
10:47:56	-6.795881	38.98536	118.874	2.154574	-2.974213	0.17	3	99	0	50	0.6254606	-0.5668808	-45.12318	
10:47:57	-6.795884	38.98536	118.428	2.007836	-6.807106	0.09	3	99	0	50	0.5846771	-0.3939259	-44.7537	
10:47:59	-6.795885	38.98536	119.458	1.855275	-9.11578	0.22	3	99	0	50	0.8721029	-0.3740951	-44.78283	
10:48:01	-6.795887	38.98535	120.467	1.805736	-5.609065	0.28	3	99	0	50	0.6906426	0.0154226	-44.69597	
10:48:02	-6.795889	38.98534	121.372	1.947424	3.384725	0.75	3	99	0	50	0.8152929	-0.1680165	-44.41352	
10:48:04	-6.795889	38.98534	121.789	2.103591	7.065605	0.16	3	99	0	50	0.4701176	0.09196494	-43.93491	
10:48:06	-6.795893	38.98534	121.682	2.540627	17.27805	0.09	3	99	0	50	-0.06972577	-0.2266299	-43.60792	
10:48:07	-6.795895	38.98534	122.405	2.576179	7.983488	0.45	3	99	0	50	0.6077908	0.2286015	-43.47058	
10:48:09	-6.795897	38.98534	123.004	2.551531	4.3681	0.25	3	99	0	50	-0.006606171	0.1482987	-43.52158	
10:48:11	-6.795897	38.98534	123.333	2.693352	5.961604	0.09	3	99	0	50	-0.1090675	-0.06795723	-43.57287	
10:48:12	-6.795897	38.98534	123.016	2.286833	-13.40714	0.33	3	99	0	50	0.4886098	0.3341182	-43.78815	
10:48:14	-6.795896	38.98534	122.408	2.368169	-3.558866	0.19	3	99	0	50	0.9191426	0.1741378	-43.96967	
10:48:16	-6.795895	38.98535	121.696	2.204392	-6.140471	0.29	3	99	0	50	0.9069761	0.2241064	-44.33938	
10:48:17	-6.795895	38.98535	121.137	1.995191	-10.4078	0.52	3	99	0	50	0.8786585	0.4318823	-44.64285	
10:48:19	-6.795894	38.98536	119.996	1.920892	-6.706581	0.19	3	98	0	50	0.8292319	-0.2049101	-44.72713	
10:48:21	-6.795893	38.98536	118.747	2.221004	10.19504	0.44	3	98	0	50	1.2848	0.6188933	-44.87071	
10:48:22	-6.795892	38.98537	117.857	2.444623	11.40317	0.22	3	98	0	50	1.187009	0.6126556	-45.17305	
10:48:24	-6.795893	38.98537	116.162	2.503	7.828184	0.22	3	98	0	50	1.143976	0.593596	-45.44618	
10:48:26	-6.795894	38.98539	114.826	2.394096	-0.6990482	0.26	3	97	0	50	0.8606837	0.06166726	-45.72906	
10:48:28	-6.795892	38.98539	113.582	2.363226	1.108566	0.32	3	97	0	50	1.092705	0.2546763	-45.86708	
10:48:29	-6.795892	38.98539	113.133	2.222231	-8.197226	0.33	3	97	0	50	0.8919774	0.6287729	-45.85175	
10:48:31	-6.795893	38.98539	113.575	2.298248	2.961265	0.24	3	98	0	50	1.188165	0.5354713	-45.93263	
10:48:33	-6.795892	38.98539	114.487	2.226328	-3.732931	0.26	3	98	0	50	1.194124	-0.3828061	-45.89161	
10:48:34	-6.795895	38.98536	120.577	2.402189	3.713704	1.12	3	98	0	50	0.3099357	-0.8686873	-45.10472	
10:48:36	-6.795897	38.98536	123.512	2.110717	-11.50791	0.42	3	98	0	50	1.036257	-0.4381361	-44.58261	
10:48:38	-6.795897	38.98536	124.242	2.021674	-8.652464	0.72	3	98	0	50	1.201068	-0.8857732	-44.4406	
10:48:39	-6.795898	38.98536	124.503	2.347682	9.285629	0.53	3	98	0	50	1.337607	-0.4805338	-44.63564	
10:48:41	-6.795901	38.98536	125.41	2.38777	4.530523	0.48	3	98	0	50	1.367178	-0.1724736	-44.78061	
10:48:43	-6.795905	38.98537	124.507	2.235891	-3.704425	0.19	3	98	0	50	1.255635	-0.05376515	-44.90036	
10:48:44	-6.795909	38.98537	125.889	2.476005	9.20916	0.31	3	98	0	50	0.9446439	-0.006216056	-45.14954	
10:48:46	-6.795909	38.98538	124.314	2.129612	-10.31723	0.16	3	99	0	50	1.284711	-0.395882	-45.0703	
10:48:48	-6.795908	38.98539	121.676	2.358522	4.00975	0.02	3	99	0	50	1.044311	-1.191313	-44.68476	
10:48:49	-6.795909	38.9854	118.993	2.493165	4.31952	0.34	3	98	0	50	0.6761283	-0.3351734	-44.57509	
10:48:51	-6.795907	38.9854	118.215	2.445865	1.612678	0.58	3	98	0	50	1.065193	-0.4049268	-44.57936	
10:48:53	-6.795911	38.98538	122.262	2.43987	-2.012459	0.79	3	98	0	50	0.7672095	-0.6155115	-44.20759	
10:48:55	-6.795909	38.98539	118.426	2.435388	-0.3720218	0.28	3	99	0	50	1.045151	-0.2437829	-44.30514	
10:48:56	-6.795912	38.9854	116.078	2.346881	-1.698083	0.22	3	99	0	50	1.074893	0.3257622	-44.80245	
10:48:58	-6.795914	38.9854	114.618	2.25061	-4.781034	0.19	3	99	0	50	1.50837	0.5060408	-45.29922	
10:49:00	-6.795914	38.98541	112.958	2.12624	-8.48034	0.11	3	99	0	50	1.044174	0.07761294	-45.44911	
10:49:01	-6.79591	38.98541	111.917	2.219181	2.288103	0.52	3	99	0	50	1.07305	0.06451711	-45.39191	
10:49:03	-6.795909	38.98541	111.545	2.343655	5.317803	0.41	3	99	0	50	1.040127	0.2579042	-45.5921	
10:49:05	-6.795911	38.98541	111.671	2.314038	0.5366281	0.45	3	99	0	50	1.44987	-0.06639269	-45.72064	
10:49:06	-6.795911	38.9854	112.839	2.600441	12.1343	0.37	3	99	0	50	1.732387	-0.096676	-45.90055	
10:49:08	-6.795909	38.9854	113.251	2.281052	-8.734579	0.22	3	99	0	50	2.04091	-0.5118315	-46.0741	
10:49:10	-6.795917	38.98539	116.08	2.426911	2.629746	0.5	3	99	0	50	2.267753	-0.7883005	-45.91579	
10:49:11	-6.795922	38.98539	118.554	2.506219	2.51136	0.41	3	99	0	50	3.510843	-0.9294273	-46.23599	
10:49:13	-6.795926	38.98538	121.364	2.454935	-0.1990477	0.09	3	99	0	50	3.703701	-1.134971	-46.62416	
10:49:15	-6.795929	38.98537	123.805	2.775522	10.83915	0.31	3	99	0	50	2.914396	-0.7018405	-46.75762	
10:49:16	-6.795929	38.98537	125.896	2.854793	5.060065	0.55	3	99	0	50	3.671261	-1.552736	-46.73841	
10:49:18	-6.795931	38.98536	128.247	2.511371	-9.829082	0.14	3	99	0	50	2.908072	-1.453248	-46.58762	
10:49:20	-6.79593	38.98536	130.387	2.738301	1.856774	0.48	3	99	0	50	3.289663	-2.65325	-46.12494	
10:49:21	-6.795927	38.98535	131.851	2.731116	-1.126744	0.06	3	99	0	50	2.481973	-2.302406	-45.72453	
10:49:23	-6.795929	38.98534	133.258	2.681079	-1.836097	0.52	3	99	0	50	2.293465	-1.465743	-45.29575	
10:49:25	-6.795931	38.98534	134.431	2.705123	0.7779859	0.36	3	99	0	50	1.446751	-1.257004	-45.4076	
10:49:27	-6.795934	38.98534	135.29	2.979196	9.349164	1.24	3	99	0	50	1.265928	-0.4923258	-45.27184	
10:49:28	-6.795934	38.98533	135.518	2.437989	-14.22769	0.29	3	99	0	50	2.612517	-0.5546094	-45.51501	
10:49:30	-6.79593	38.98533	137.079	2.420774	-7.434034	0.03	3	99	0	50	1.981596	0.2863342	-45.92826	
10:49:32	-6.795927	38.98533	136.884	2.399776	-0.9998641	0.12	3	99	0	50	1.527061	0.3913554	-46.0627	
10:49:33	-6.795922	38.98534	135.998	2.422559	0.9177325	0.34	3	99	0	50	1.438047	0.2476179	-46.16477	
10:49:35	-6.795918	38.98534	135.753	2.455284	2.309981	0.19	3	99	0	50	2.12311	0.2898052	-46.46798	
10:49:37	-6.795915	38.98534	134.805	2.404361	0.04446939	0.14	3	99	0	50	1.779164	0.6394022	-46.73714	
10:49:38	-6.795914	38.98534	133.554	2.24332	-4.798341	0.08	3	99	0	50	1.465804	0.7477419	-46.84183	
10:49:40	-6.79591	38.98535	132.036	2.345108	2.703668	0.29	3	99	0	50	1.852623	1.106628	-47.02502	
10:49:42	-6.795907	38.98535	130.941	2.71428	16.49441	0.22	3	99	0	50	1.39938	0.9924691	-47.15475	
10:49:43	-6.795904	38.98536	130.186	2.759243	8.501045	0.08	3	99	0	50	0.9124783	0.6067802	-47.28096	
10:49:45	-6.795902	38.98536	130.18	2.296131	-10.93208	0.42	3	99	0	50	1.187859	0.6824484	-47.23646	
10:49:47	-6.795898	38.98536	129.845	2.28073	-4.713051	0.24	3	99	0	50	0.7650634	1.041839	-47.30701	
10:49:48	-6.795895	38.98536	129.493	2.323164	-0.9562678	0.26	3	99	0	50	1.175295	1.121109	-47.1616	
10:49:50	-6.795892	38.98536	130.019	2.581375	10.89173	0.04	3	98	0	50	0.9202489	1.078087	-47.18472	
10:49:52	-6.795889	38.98536	130.633	2.59278	3.662838	0.18	3	98	0	50	0.9774883	1.324174	-47.22384	
10:49:54	-6.795886	38.98536	130.669	2.121664	-16.40958	0.29	3	98	0	50	1.297378	1.057985	-47.13812	
10:49:55	-6.795885	38.98536	131.243	2.22944	-3.054799	0.39	3	98	0	50	1.008765	1.335204	-47.22212	
10:49:57	-6.795882	38.98536	131.596	2.594796	11.84411	0.33	3	98	0	50	1.273664	1.363175	-47.30467	
10:49:59	-6.795882	38.98536	132.026	2.584661	5.333763	0.17	3	98	0	50	1.098508	1.046886	-47.13081	
10:50:00	-6.79588	38.98536	132.671	2.549495	1.643307	0.18	3	98	0	50	1.014734	1.248454	-47.2063	
10:50:02	-6.795878	38.98536	133.047	2.756015	10.47911	0.04	3	98	0	50	1.565534	1.612796	-47.47766	
10:50:04	-6.795876	38.98535	133.635	2.91638	7.775179	0.09	3	98	0	50	1.165224	1.426371	-47.67458	
10:50:05	-6.795876	38.98535	134.058	2.700125	-6.029438	0.07	3	98	0	50	1.204297	1.495989	-47.65358	
10:50:07	-6.795876	38.98535	134.088	2.52409	-6.022877	0.06	3	98	0	50	1.170227	1.260471	-47.66125	
10:50:10	-6.795874	38.98535	133.684	2.453732	-2.975807	0.19	3	97	0	50	1.356237	0.9246716	-47.62795	
10:50:12	-6.795871	38.98535	133.231	2.451692	-0.4019874	0.09	3	98	0	50	1.41162	0.8834117	-47.53399	
10:50:14	-6.79587	38.98535	133.522	2.449837	0.05828043	0.09	3	98	0	50	1.970081	0.7463262	-47.50804	
10:50:15	-6.79587	38.98536	133.994	2.400663	-0.8104522	0.14	3	97	0	50	1.851446	0.6063312	-47.57442	
10:50:17	-6.795867	38.98535	134.622	2.538234	6.87487	0.32	3	98	0	50	1.69721	0.6933558	-47.55423	
10:50:19	-6.795869	38.98535	135.114	2.620913	6.565858	0.19	3	98	0	50	1.677983	0.8357159	-47.48555	
10:50:20	-6.795869	38.98536	135.457	2.826595	12.71197	0.42	3	98	0	50	1.758745	0.5193915	-47.36241	
10:50:22	-6.79587	38.98536	135.445	2.512886	-8.000223	0.04	3	98	0	50	1.651113	0.5664908	-47.20247	
10:50:24	-6.79587	38.98536	135.601	2.370419	-8.784017	0.5	3	98	0	50	1.896216	0.3837003	-47.21243	
10:50:26	-6.795868	38.98536	135.753	2.17017	-10.3631	0.11	3	98	0	50	2.184672	-0.446707	-46.99224	
10:50:27	-6.79587	38.98536	136.033	2.261902	-2.283992	0.52	3	98	0	50	2.212711	-0.1449493	-46.89763	
10:50:29	-6.79587	38.98536	135.882	2.420125	2.826653	0.25	3	98	0	50	2.728908	-0.4638118	-46.68331	
10:50:31	-6.795867	38.98537	135.728	2.354195	-3.125966	0.08	3	97	0	50	2.431654	-0.7401919	-46.51431	
10:50:32	-6.795863	38.98537	135.578	2.260357	-0.9821056	0.26	3	97	0	50	1.865755	-0.4242787	-46.23695	
10:50:34	-6.795862	38.98536	135.816	2.786681	17.1227	0.26	3	97	0	50	1.923716	-0.2942317	-46.09436	
10:50:36	-6.79586	38.98536	136.141	2.671874	3.270111	0.34	3	97	0	50	2.191157	-0.7467232	-45.88174	
10:50:37	-6.795857	38.98536	136.099	2.413278	-9.137234	0.11	3	97	0	50	2.148123	-0.5723523	-45.84317	
10:50:39	-6.795857	38.98536	135.427	2.555705	1.646886	0.19	3	97	0	50	1.904273	-0.2402472	-45.87967	
10:50:41	-6.795859	38.98537	134.582	2.469166	-3.392559	0.61	3	98	0	50	1.756449	0.2958948	-46.05303	
10:50:42	-6.795858	38.98537	133.61	2.424767	-3.697409	0.19	3	98	0	50	2.178311	-0.85133	-45.78717	
10:50:44	-6.795859	38.98537	132.628	2.470012	-1.059591	0.11	3	98	0	50	1.282136	-1.02252	-45.35552	
10:50:46	-6.795861	38.98537	132.197	2.497019	-0.01106863	0.07	3	98	0	50	1.324447	-0.535304	-45.16355	
10:50:47	-6.795862	38.98538	131.231	2.96329	17.0101	0.25	3	98	0	50	2.229993	-0.5661751	-45.25325	
10:50:49	-6.795864	38.98538	131	3.068013	10.47644	0.16	3	98	0	50	1.485295	-0.4625721	-45.18694	
10:50:51	-6.795869	38.98538	130.795	2.877382	-3.747906	0.38	3	98	0	50	1.443353	-0.03494104	-45.19054	
10:50:53	-6.795869	38.98538	130.387	2.706036	-9.592901	0.41	3	98	0	50	2.198575	-0.1685896	-45.56261	
10:50:54	-6.795863	38.98538	130.137	2.932674	6.509822	0.03	3	98	0	50	2.344806	-0.2746025	-45.69789	
10:50:56	-6.795864	38.98538	129.676	2.868983	0.6501793	0.39	3	99	0	50	1.508398	0.6274427	-45.87705	
10:50:58	-6.795866	38.98538	129.636	2.909016	3.649176	0.22	3	99	0	50	2.40576	0.1553193	-46.07407	
10:50:59	-6.795864	38.98537	130.237	3.013802	3.183384	0.19	3	99	0	50	1.983365	0.1761913	-46.28016	
10:51:01	-6.795866	38.98537	130.326	2.755445	-7.984008	0.34	3	99	0	50	2.430431	0.4312018	-46.46034	
10:51:03	-6.795866	38.98537	130.629	2.811507	-3.007119	0.39	3	99	0	50	1.524869	0.585049	-46.98579	
10:51:04	-6.795865	38.98536	131.088	2.6508	-5.903884	0.28	3	99	0	50	1.654161	0.4138251	-47.05039	
10:51:06	-6.795866	38.98536	131.56	2.607051	-3.799676	0.17	3	99	0	50	1.874101	0.5128421	-47.00223	
10:51:08	-6.795863	38.98536	132.17	2.615505	-0.670543	0.33	3	99	0	50	1.958866	0.4540491	-47.31641	
10:51:09	-6.795862	38.98536	132.53	2.371592	-10.90688	0.34	3	99	0	50	1.96335	1.070334	-47.60138	
10:51:11	-6.795861	38.98536	131.995	2.164137	-9.769879	0.33	3	99	0	50	1.999711	1.118454	-47.74881	
10:51:13	-6.795862	38.98536	130.662	2.424779	3.547656	0.16	3	99	0	50	1.939315	1.266041	-48.04153	
10:51:14	-6.795865	38.98536	130.497	2.721739	12.68415	0.03	3	99	0	50	1.754876	1.707282	-48.44602	
10:51:16	-6.795867	38.98536	129.653	2.975574	15.21232	0.48	3	99	0	50	1.749082	0.9190202	-48.37652	
10:51:18	-6.795869	38.98536	128.674	3.087088	8.064023	0.42	3	99	0	50	1.738864	0.8759109	-48.29182	
10:51:19	-6.795868	38.98536	127.636	3.010311	-2.931489	0.28	3	99	0	50	2.106666	0.9865118	-48.32325	
10:51:21	-6.795868	38.98536	128.154	3.146892	5.734725	1.1	3	99	0	50	1.170277	0.7220997	-48.09687	
10:51:23	-6.795872	38.98535	128.869	3.187014	3.284312	0.22	3	99	0	50	1.400288	-0.3139291	-47.27729	
10:51:25	-6.795876	38.98534	129.587	3.001517	-5.230734	0.66	3	99	0	50	1.539083	-0.1919732	-46.69363	
10:51:26	-6.795873	38.98534	128.851	2.91717	-7.274811	0.48	3	99	0	50	2.161052	0.1922219	-46.55316	
10:51:28	-6.795869	38.98534	128.63	2.826299	-6.721234	0.85	3	99	0	50	2.002762	0.05568518	-46.38472	
10:51:30	-6.795866	38.98534	129.051	2.600314	-12.61567	0.55	3	99	0	50	1.500763	0.2083943	-46.32928	
10:51:31	-6.795858	38.98534	128.812	2.777949	1.411566	0.71	3	99	0	50	2.261922	-0.8294459	-45.96406	
10:51:33	-6.795846	38.98535	129.329	2.738365	-4.293318	0.35	3	99	0	50	0.7899117	-0.6713673	-45.40615	
10:51:35	-6.795844	38.98534	129.916	2.640538	-4.814989	0.26	3	99	0	50	0.8882768	0.1187556	-44.84289	
10:51:36	-6.795842	38.98534	130.286	2.825947	5.001861	0.36	3	99	0	50	1.378428	-0.653331	-44.8617	
10:51:38	-6.795841	38.98534	129.925	2.699036	-2.445746	0.63	3	99	0	50	1.142124	-0.4448246	-44.72063	
10:51:40	-6.795846	38.98534	128.737	2.613947	-2.995513	0.13	3	99	0	50	1.291598	-0.9713501	-44.72181	
10:51:41	-6.795848	38.98534	126.963	2.955538	12.35143	0.22	3	99	0	50	2.721636	-0.3823197	-44.87396	
10:51:43	-6.795848	38.98534	126.495	3.071059	10.21752	0.37	3	99	0	50	2.776667	-0.359624	-45.31316	
10:51:45	-6.795849	38.98534	126.453	2.756439	-6.294057	0.37	3	99	0	50	2.237958	0.0351967	-45.76842	
10:51:46	-6.795846	38.98533	126.705	2.710495	-5.978172	0.5	3	99	0	50	2.532499	0.4300373	-46.01063	
10:51:48	-6.795842	38.98534	126.184	2.89364	5.399225	0.09	3	99	0	50	3.356895	0.4506519	-46.90786	
10:51:50	-6.795841	38.98534	125.926	3.257412	13.98151	0.06	3	99	0	50	3.186863	0.2563135	-47.4972	
10:51:52	-6.795842	38.98533	126.112	3.317762	8.304549	0.21	3	99	0	50	2.740217	0.460034	-47.58955	
10:51:53	-6.795839	38.98534	126.107	2.868203	-11.96427	0.32	3	99	0	50	2.339108	0.322125	-47.80323	
10:51:55	-6.795842	38.98534	126.117	2.880312	-3.380239	0.24	3	99	0	50	1.634503	0.6211032	-47.7545	
10:51:57	-6.795843	38.98534	126.207	2.826586	-2.841407	0.35	3	99	0	50	1.896344	0.2622256	-47.3807	
10:51:58	-6.795844	38.98534	125.636	2.849475	-0.8403493	0.18	3	99	0	50	2.02664	0.3721479	-47.46943	
10:52:00	-6.795848	38.98534	125.491	2.947845	2.802259	1.25	3	99	0	50	1.835996	1.440637	-47.6139	
10:52:02	-6.79584	38.98534	123.979	2.77519	-4.007771	0.38	3	99	0	50	1.780037	-1.178454	-47.60282	
10:52:03	-6.795843	38.98534	123.234	2.805738	-2.198513	0.78	3	99	0	50	2.364676	0.8060606	-47.46862	
10:52:05	-6.795842	38.98534	122.812	2.739551	-1.387177	0.45	3	99	0	50	2.990227	-0.2381315	-47.72557	
10:52:07	-6.795839	38.98534	121.887	2.73253	-1.400095	1.06	3	99	0	50	2.048843	0.4607446	-47.74893	
10:52:08	-6.795842	38.98534	122.002	2.864754	4.405241	1.03	3	99	0	50	1.7793	-0.473507	-47.48051	
10:52:10	-6.795844	38.98533	120.852	3.18255	13.27977	0.89	3	99	0	50	2.009784	-0.05066598	-47.45433	
10:52:12	-6.795849	38.98533	119.528	3.083983	0.6482038	0.19	3	99	0	50	1.799206	-1.526872	-46.84209	
10:52:13	-6.795846	38.98532	119.634	3.085779	-1.513215	0.51	3	99	0	50	1.986264	-1.280808	-46.15976	
10:52:15	-6.795843	38.98532	119.806	2.86483	-9.906382	0.79	3	99	0	50	2.207055	-2.157243	-45.63687	
10:52:17	-6.795836	38.98531	120.498	3.012307	0.5473999	0.37	3	99	0	50	0.9592628	-0.7201657	-45.2972	
10:52:18	-6.795832	38.98532	120.913	3.022799	-0.1313196	0.35	3	99	0	50	1.720808	0.2889738	-45.18396	
10:52:20	-6.795847	38.98531	121.297	3.011822	-1.835308	0.59	3	99	0	50	0.05419121	-0.1690638	-44.99532	
10:52:22	-6.795838	38.98531	123.114	2.844305	-7.610303	0.83	3	99	0	50	2.61643	-0.5310858	-44.99799	
10:52:24	-6.795828	38.9853	120.561	2.684571	-8.314293	2.11	3.233728	99	0	50	2.499563	-3.000327	-44.5408	
10:52:25	-6.795827	38.98531	120.792	2.521596	-11.48532	0.79	3	99	0	50	1.604469	-1.008479	-44.44219	
10:52:27	-6.795824	38.98531	121.58	2.498905	-4.604151	1.03	3	99	0	50	2.196313	0.0375474	-44.30617	
10:52:29	-6.795823	38.98534	120.48	2.639434	2.867404	1.09	3	99	0	50	2.046562	1.045306	-43.71831	
10:52:30	-6.795822	38.98535	122.993	2.881965	9.33474	0.87	3	99	0	50	1.172906	0.5660818	-44.73995	
10:52:32	-6.79583	38.98536	121.879	2.714622	-2.56105	0.58	3	99	0	50	0.5143703	1.220152	-45.27155	
10:52:34	-6.795831	38.98536	123.283	2.242496	-17.4353	0.24	3	99	0	50	2.137704	0.4417607	-45.83473	
10:52:35	-6.795841	38.98537	120.873	2.414229	-0.6556765	0.09	3	99	0	50	1.630668	1.152369	-46.55962	
10:52:37	-6.795845	38.98537	120.152	2.843461	17.52349	0.22	3	99	0	50	1.527991	2.062445	-47.19345	
10:52:39	-6.795842	38.98536	121.829	2.881082	10.20321	1.04	3	99	0	50	1.341224	0.8407633	-47.29074	
10:52:40	-6.795852	38.98536	121.564	2.898435	6.194383	0.39	3	99	0	50	2.833979	1.690645	-47.64797	
10:52:42	-6.79586	38.98536	121.383	2.974713	4.930573	0.06	3	99	0	50	1.880284	1.937774	-48.40886	
10:52:44	-6.795861	38.98536	122.333	2.923113	1.52352	0.37	3	99	0	50	2.400963	0.9050079	-49.31273	
10:52:45	-6.795867	38.98536	121.2	2.994213	-3.301376	0.16	3	99	0	50	1.57892	0.02568778	-48.32135	
10:52:47	-6.795873	38.98537	120.218	2.738104	-12.26664	0.41	3	99	0	50	2.443625	0.5371684	-49.17062	
10:52:49	-6.795882	38.98537	118.428	2.375495	-17.75877	0.63	3	99	0	50	1.648202	0.8959604	-49.23735	
10:52:51	-6.795884	38.98537	116.138	2.298641	-9.3543	0.07	3	99	0	50	2.444978	-0.2807268	-49.79692	
10:52:52	-6.795888	38.98538	114.949	2.649322	10.55514	0.47	3	99	0	50	2.254423	0.5318874	-50.23248	
10:52:54	-6.795887	38.98538	114.878	2.819232	10.67089	0.45	3	99	0	50	1.890136	0.1766272	-49.51872	
10:52:56	-6.795887	38.98539	115.538	2.620056	-0.6742989	0.26	3	99	0	50	1.662108	0.4775258	-49.19195	
10:52:57	-6.795889	38.98538	115.731	3.088107	17.94111	0.53	3	99	0	50	1.328958	0.2342711	-48.66182	
10:52:59	-6.795889	38.98538	115.484	3.137601	7.967681	0.35	3	99	0	50	1.840172	-0.5637349	-47.94216	
10:53:01	-6.795886	38.98537	117.663	3.108464	3.552694	0.29	3	99	0	50	1.977086	-0.2098433	-47.63218	
10:53:02	-6.795885	38.98538	116.439	3.159813	0.02196392	0.35	3	99	0	50	2.50246	-0.4399265	-47.75145	
10:53:04	-6.795881	38.98538	116.844	2.791698	-17.80852	0.26	3	99	0	50	2.471985	0.1531076	-45.78959	
10:53:06	-6.795877	38.98538	118.673	2.908407	-6.734165	0.47	3	99	0	50	2.57781	0.333093	-46.79252	
10:53:07	-6.795875	38.98538	120.729	3.134829	7.182763	0.45	3	99	0	50	3.016103	0.5857795	-47.25408	
10:53:09	-6.79587	38.98538	122.64	3.317965	9.474327	0.45	3	99	0	50	1.58398	0.6021945	-47.32854	
10:53:11	-6.79587	38.98538	124.728	2.957324	-9.737159	0.18	3	99	0	50	2.056987	1.199084	-47.87837	
10:53:12	-6.795875	38.98538	126.171	2.6137	-14.03869	0.39	3	99	0	50	1.917007	1.180036	-48.94739	
10:53:14	-6.795875	38.98538	126.878	3.191031	17.86533	0.19	3	99	0	50	1.766572	0.4097269	-48.82826	
10:53:16	-6.795874	38.98538	126.438	3.245104	10.32134	0.55	3	99	0	50	1.202449	0.2029976	-48.52099	
10:53:17	-6.795872	38.98538	127.417	3.007841	-4.259617	0.5	3	99	0	50	1.944395	-0.4012035	-48.03294	
10:53:19	-6.795868	38.98538	130.095	2.863266	-5.994333	0.16	3	99	0	50	1.617987	-0.0303853	-47.64462	
10:53:21	-6.795863	38.98538	131.018	2.583808	-15.60175	0.42	3	99	0	50	1.335746	0.1040955	-47.24792	
10:53:23	-6.795862	38.98537	130.898	2.685778	-1.340834	0.41	3	99	0	50	1.355558	-0.2843071	-46.7834	
10:53:24	-6.795862	38.98538	131.123	2.974509	11.56198	0.26	3	99	0	50	1.144451	0.7263575	-46.81557	
10:53:26	-6.795862	38.98537	131.325	3.214186	13.71056	0.14	3	99	0	50	0.9812273	0.5235624	-46.82917	
10:53:28	-6.795866	38.98537	131.923	3.293065	9.017018	0.14	3	99	0	50	0.5775191	0.99414	-47.82048	
10:53:29	-6.795865	38.98538	131.795	3.336347	5.699576	0.68	3	99	0	50	1.075013	1.401229	-48.5231	
10:53:31	-6.795866	38.98537	129.813	3.173429	-6.6723	0.48	3	99	0	50	1.24911	-0.4016373	-48.82405	
10:53:33	-6.795866	38.98536	129.058	3.28472	-4.658263	1.16	3	99	0	50	2.481978	0.9053665	-49.25996	
10:53:34	-6.795868	38.98534	128.611	3.049746	-9.218394	1.17	3	99	0	50	1.994824	1.489074	-49.26978	
10:53:36	-6.795873	38.98534	128.172	3.13624	-0.6239425	0.09	3	99	0	50	2.811586	2.241876	-50.48047	
10:53:38	-6.79587	38.98534	127.807	3.147543	0.2492447	0.26	3	99	0	50	2.528094	2.580309	-51.63906	
10:53:39	-6.795873	38.98534	127.908	3.328987	6.811134	0.39	3	99	0	50	2.100941	1.600279	-52.26744	
10:53:41	-6.795877	38.98534	126.553	3.407467	7.530942	0.42	3	99	0	50	2.932442	0.8167622	-52.06555	
10:53:43	-6.795875	38.98533	125.452	3.39349	-1.314703	0.39	3	99	0	50	3.766984	1.903415	-51.89086	
10:53:44	-6.795874	38.98533	126.325	3.424601	0.3395817	0.42	3	99	0	50	3.459966	0.5478426	-52.48792	
10:53:46	-6.795874	38.98532	125.363	3.451629	9.446163	0.39	3	99	0	50	-3.332708	-7.778123	-60.92665	
10:53:48	-6.795875	38.98533	123.099	3.757045	-15.20489	0.48	3	99	0	50	13.43252	-5.522085	-60.43908	
10:53:50	-6.795877	38.98534	121.542	3.835263	0.2545084	0.18	3	99	0	50	3.655826	-2.765498	-45.75672	
10:53:51	-6.795882	38.98534	122.247	3.916059	5.304298	0.91	3	99	0	50	13.69466	-0.5939909	-47.53724	
10:53:53	-6.795882	38.98534	125.18	3.932098	6.953467	1.73	3	99	0	50	18.18998	0.2309039	-48.19772	
10:53:55	-6.795878	38.98534	124.424	3.967444	8.821769	0.68	3	99	0	50	14.4586	0.002077644	-51.44939	
10:53:56	-6.795875	38.98535	122.565	3.977726	7.840536	0.83	3	99	0	50	16.52174	-0.5909876	-53.28209	
10:53:58	-6.795877	38.98535	122.084	4.221995	13.59824	0.68	3	99	0	50	20.02004	0.9274864	-54.79834	
10:54:00	-6.79588	38.98536	121.962	4.026503	-0.5010436	0.18	3	99	0	50	15.94586	0.2786191	-56.50631	
10:54:01	-6.795879	38.98537	120.864	4.094036	4.201927	1.16	3	99	0	50	8.365173	1.624469	-57.17152	
10:54:03	-6.795885	38.98538	120.86	4.106098	1.185484	0.45	3	99	0	50	9.503687	0.8387137	-56.84892	
10:54:05	-6.795876	38.98538	120.634	3.792084	-6.617991	0.63	3	99	0	50	10.75938	0.1385764	-56.83443	
10:54:06	-6.795884	38.98537	120.769	3.710191	-5.768378	0.76	3	99	0	50	8.797399	-1.896337	-55.24975	
10:54:08	-6.795882	38.98537	121.44	4.050584	15.06347	1.16	3	99	0	50	14.99752	1.32427	-54.44675	
10:54:10	-6.795875	38.98537	121.618	4.412176	21.62969	0.39	3	99	0	50	10.31273	0.2585188	-56.04539	
10:54:11	-6.795869	38.98537	121.71	4.430523	12.26656	0.42	3	99	0	50	12.24228	-0.06023741	-55.63167	
10:54:13	-6.795869	38.98537	122.617	4.332474	3.551903	0.11	3	99	0	50	14.73514	-0.3609414	-56.29266	
10:54:15	-6.79587	38.98536	121.433	4.472923	7.617874	0.22	3	99	0	50	2.029285	-1.219812	-54.67605	
10:54:16	-6.795869	38.98536	119.316	4.318322	-6.753539	0.64	3	99	0	50	-4.971172	-1.24746	-52.25063	
10:54:18	-6.79587	38.98535	117.279	4.437766	-5.899091	0.12	3	99	0	50	-7.922271	-0.279814	-46.1794	
10:54:20	-6.795875	38.98535	114.961	4.214026	-16.49273	0.26	3	99	0	50	-8.735557	0.07090758	-41.42841	
10:54:22	-6.79588	38.98535	114.191	3.746118	-31.10765	0.45	3	99	0	50	-8.605082	0.1017724	-37.84496	
10:54:23	-6.795885	38.98534	115.216	3.992051	-7.91996	0.26	3	99	0	50	-8.395328	0.1439865	-34.90296	
10:54:25	-6.795891	38.98534	114.404	3.859995	-14.55096	0.37	3	99	0	50	-10.16682	-0.08247414	-35.92451	
10:54:27	-6.795895	38.98534	114.045	4.2613	6.326577	0.06	3	99	0	50	-5.879531	0.3242108	-42.60932	
10:54:28	-6.795899	38.98534	113.89	4.301204	-1.111786	0.29	3	99	0	50	-7.063007	-0.6087068	-41.93922	
10:54:30	-6.7959	38.98534	112.998	4.288573	-1.204027	0.06	3	99	0	50	0.08914535	2.11928	-36.42518	
10:54:32	-6.795897	38.98534	112.759	4.36328	4.673752	1.45	3	99	0	50	2.603976	3.777587	-39.21847	
10:54:33	-6.795897	38.98534	113.298	4.348449	5.270797	0.45	3	99	0	50	2.144376	3.898494	-42.82511	
10:54:35	-6.795903	38.98534	115.982	4.279499	-0.3963036	0.74	3	99	0	50	2.576613	3.375142	-46.35756	
10:54:37	-6.795909	38.98533	117.799	4.436702	6.239079	0.62	3	99	0	50	-0.869225	3.707549	-48.16774	
10:54:38	-6.795914	38.98532	118.306	4.399054	1.521994	1.25	3	99	0	50	-0.9155895	1.96265	-48.70429	
10:54:40	-6.795922	38.98531	123.342	4.279717	-4.397053	1.03	3	99	0	50	-2.340009	3.149749	-49.42064	
10:54:42	-6.795918	38.9853	123.53	4.124347	-9.187856	0.26	3	99	0	50	-2.121293	3.187295	-49.58809	
10:54:43	-6.795921	38.9853	123.975	4.156332	-7.183157	0.59	3	99	0	50	-1.993004	4.23082	-50.54878	
10:54:45	-6.79592	38.98529	124.515	4.036329	-11.51892	0.24	3	99	0	50	-2.803607	4.812677	-50.97372	
10:54:47	-6.795922	38.9853	121.498	4.034587	-4.495252	0.16	3	99	0	50	-2.86864	3.169167	-51.60483	
10:54:49	-6.795925	38.9853	118.432	3.902181	-10.9592	0.03	3	99	0	50	-2.435957	2.578059	-52.07337	
10:54:50	-6.795927	38.98531	116.321	3.99517	-1.435741	0.26	3	99	0	50	-1.601197	4.830567	-52.28225	
10:54:52	-6.795931	38.98532	114.06	4.139472	3.022065	1.36	3	99	0	50	-1.49314	3.951307	-53.20675	
10:54:54	-6.795938	38.98532	110.448	4.312912	4.451078	1.1	3	99	0	50	-1.901987	4.121552	-53.76825	
10:54:55	-6.795942	38.98533	109.996	3.95402	-15.65936	0.52	3	99	0	50	-4.616764	3.676173	-53.09008	
10:54:57	-6.795944	38.98534	110.09	4.049589	-3.236753	0.14	3	99	0	50	-3.738751	3.157256	-52.2966	
10:54:59	-6.795947	38.98534	108.697	4.028467	-1.838016	0.11	3	99	0	50	-1.778141	4.339933	-52.34532	
10:55:00	-6.795948	38.98535	108.581	4.014826	-3.871292	1.03	3	99	0	50	-1.965923	4.160395	-51.19061	
10:55:02	-6.795954	38.98536	106.472	3.965185	-5.052417	1.61	3	99	0	50	-2.060251	2.154094	-51.72214	
10:55:04	-6.79596	38.98536	106.136	4.387837	13.17626	0.59	3	99	0	50	-0.9225489	2.774929	-52.25527	
10:55:05	-6.79596	38.98535	109.82	4.424145	4.75198	0.14	3	99	0	50	-0.2373177	1.682767	-51.64011	
10:55:07	-6.795959	38.98534	113.429	4.313745	-1.483537	0.28	3	99	0	50	-2.055511	2.458953	-51.15645	
10:55:09	-6.79596	38.98534	116.38	4.139189	-8.96416	0.36	3	99	0	50	-2.895917	2.753004	-50.93823	
10:55:10	-6.795959	38.98532	119.141	4.232608	2.29701	0.11	3	99	0	50	-0.7544131	2.559563	-50.76912	
10:55:12	-6.795955	38.98532	122.559	4.270741	4.637069	0.24	3	99	0	50	0.7925923	3.327207	-50.94231	
10:55:14	-6.795954	38.98531	124.601	4.318324	4.432873	0.52	3	99	0	50	-1.204816	3.56273	-50.12453	
10:55:15	-6.795956	38.98531	125.605	4.242737	1.400438	0.5	3	99	0	50	0.7754441	2.417635	-52.60165	
10:55:17	-6.795954	38.98531	130.657	4.496898	11.07051	0.36	3	99	0	50	-0.9775692	0.9279509	-55.513	
10:55:19	-6.795949	38.9853	130.381	4.407787	-2.107777	0.31	3	99	0	50	-1.314936	1.072394	-53.88211	
10:55:21	-6.795949	38.9853	130.462	4.458961	-0.2954452	0.29	3	99	0	50	-1.709236	-0.320377	-52.26202	
10:55:22	-6.795949	38.9853	129.058	4.720286	5.887851	0.26	3	99	0	50	-1.91101	0.1972055	-51.10289	
10:55:24	-6.795946	38.98531	129.728	4.597367	-2.087487	0.37	3	99	0	50	-2.199296	-1.315012	-50.42546	
10:55:26	-6.795947	38.98532	128.564	4.208189	-15.96564	0.57	3	99	0	50	-1.755046	-0.1917201	-49.54449	
10:55:27	-6.795944	38.98532	127.452	4.245399	-4.121777	0.48	3	99	0	50	-1.405801	-1.285321	-48.41793	
10:55:29	-6.795943	38.98532	125.929	4.097511	-10.62127	0.19	3	99	0	50	-0.8741572	-1.754951	-47.92486	
10:55:31	-6.795945	38.98532	125.518	4.190615	-2.296263	0.47	3	99	0	50	-0.1543754	-0.6734818	-47.43263	
10:55:32	-6.795941	38.98532	124.611	4.273081	-0.9631487	0.42	3	99	0	50	0.8779672	-0.7151382	-47.7921	
10:55:34	-6.795941	38.98532	122.705	3.891575	-11.11679	0.34	3	99	0	50	2.55482	0.1475013	-48.31731	
10:55:36	-6.79594	38.98532	122.708	3.937296	-2.865089	0.48	3	99	0	50	2.329491	0.05971123	-49.17552	
10:55:37	-6.795941	38.98532	122.524	4.01403	5.656223	0.09	3	99	0	50	2.097137	0.6161175	-49.91489	
10:55:39	-6.795941	38.98532	121.992	4.480872	22.07167	0.17	3	100	0	50	2.559432	1.255411	-50.67254	
10:55:41	-6.795942	38.98533	121.062	4.539097	12.75584	0.48	3	100	0	50	1.107017	1.827747	-51.81562	
10:55:42	-6.795942	38.98533	121.062	4.26121	-2.203083	0.35	3	100	0	50	2.601673	1.541269	-52.56394	
10:55:44	-6.79594	38.98533	122.608	4.30653	4.31372	0.66	3	100	0	50	-1.228073	1.70479	-53.0971	
10:55:46	-6.795938	38.98533	122.993	3.866445	-13.9462	0.29	3	100	0	50	3.215699	0.1307644	-53.15365	
10:55:48	-6.79594	38.98533	123.166	3.818261	0.4367281	0.48	3	100	0	50	4.092586	0.4267432	-53.31179	
10:55:49	-6.795942	38.98533	122.725	4.439019	29.81312	0.71	3	100	0	50	5.434997	1.169537	-53.78724	
10:55:51	-6.795944	38.98533	122.727	4.722066	27.24862	0.28	3	100	0	50	8.574471	0.7203668	-54.37999	
10:55:53	-6.795947	38.98532	123.516	4.752461	16.5528	0.29	3	100	0	50	13.15555	0.5707005	-55.04703	
10:55:54	-6.795947	38.98532	122.649	4.6953	6.949708	0.64	3	100	0	50	-0.6891571	0.2823417	-55.50666	
10:55:56	-6.79595	38.98531	119.526	4.534156	-6.279797	0.24	3	100	0	50	-5.634388	0.5014847	-54.5354	
10:55:58	-6.79595	38.9853	117.306	4.279417	-16.87362	0.19	3	100	0	50	-4.019855	0.5511847	-52.94576	
10:55:59	-6.795952	38.98531	114.834	4.023256	-19.31036	0.39	3	100	0	50	-2.721133	0.2459493	-55.75114	
10:56:01	-6.795942	38.98531	114.682	4.374151	3.064579	0.47	3	100	0	50	-5.264932	0.02581405	-53.30806	
10:56:03	-6.795929	38.98531	119.338	4.472463	-0.297455	0.56	3	100	0	50	-5.430691	-0.3023486	-51.57125	
10:56:04	-6.795918	38.98531	120.314	4.022469	-21.92142	0.34	3	100	0	50	-1.827548	-0.03729474	-49.42778	
10:56:06	-6.795915	38.98532	119.345	3.796193	-17.29397	0.72	3	100	0	50	-10.49045	-0.4837251	-47.86913	
10:56:08	-6.795911	38.98534	114.386	3.994581	0.7025378	0.26	3	100	0	50	-9.119025	0.7076819	-45.38522	
10:56:09	-6.79591	38.98535	109.129	4.060648	2.722751	0.5	3	100	0	50	-8.517395	0.7398716	-43.75177	
10:56:11	-6.79591	38.98536	106.649	4.334573	8.971778	0.31	3	100	0	50	-13.13293	0.9750676	-42.56724	
10:56:13	-6.795906	38.98537	102.897	4.361712	4.153057	0.38	3	100	0	50	-8.351145	0.5208922	-41.03046	
10:56:15	-6.795899	38.98537	102.386	4.120664	-10.16531	0.39	3	100	0	50	-11.02072	0.2278796	-40.31995	
10:56:16	-6.795899	38.98538	100.484	4.361893	3.03266	0.26	3	100	0	50	-6.874297	-1.015572	-43.69215	
10:56:18	-6.795899	38.98539	99.563	4.629877	8.636327	0.14	3	100	0	50	-12.41754	0.2213546	-43.77863	
10:56:20	-6.795893	38.98538	105.201	4.477737	-2.346347	0.63	3	100	0	50	-11.40091	0.5377135	-42.51983	
10:56:21	-6.795889	38.98538	109.301	4.440291	5.774068	0.26	3	100	0	50	-14.9114	1.357051	-40.67773	
10:56:23	-6.795889	38.98538	111.784	4.513494	7.900463	0.32	3	100	0	50	-15.29735	1.827229	-39.52607	
10:56:25	-6.795883	38.98538	113.897	4.602219	12.40494	0.53	3	100	0	50	-13.56318	1.275909	-38.30026	
10:56:26	-6.795887	38.98538	114.159	4.461398	0.2679939	0.97	3	100	0	50	-12.4027	1.165962	-38.08567	
10:56:28	-6.795889	38.98538	115.042	4.375654	-2.324421	0.25	3	100	0	50	-12.76519	1.265427	-37.87075	
10:56:30	-6.795893	38.98539	114.575	4.314377	-3.944721	0.21	3	100	0	50	-11.04574	0.8150218	-38.74956	
10:56:31	-6.7959	38.98539	114.778	4.321522	-5.320822	0.69	3	100	0	50	-10.73388	0.4094895	-39.49072	
10:56:33	-6.795906	38.98539	114.548	4.390539	-0.3623547	0.66	3	100	0	50	24.27343	0.6735751	-39.05444	
10:56:35	-6.795902	38.9854	115.902	4.356925	6.088351	0.48	3	100	0	50	25.71902	4.54407	-46.37096	
10:56:36	-6.795904	38.9854	115.926	4.15949	1.284521	0.45	3	100	0	50	30.12379	6.971339	-52.43598	
10:56:38	-6.795905	38.9854	115.25	4.048393	0.5114763	0.52	3	100	0	50	27.24905	7.04502	-58.20078	
10:56:40	-6.795902	38.98539	114.696	4.366383	14.29342	0.44	3	100	0	50	30.61743	7.170704	-62.24083	
10:56:41	-6.795899	38.98539	114.363	4.216538	5.817067	0.19	3	100	0	50	31.70188	7.460282	-66.32768	
10:56:43	-6.7959	38.98539	114.53	4.190592	-0.2043254	0.12	3	100	0	50	9.170943	6.558051	-71.72233	
10:56:45	-6.7959	38.98538	114.936	3.99251	-10.7062	0.19	3	100	0	50	-5.727174	4.110677	-71.41563	
10:56:47	-6.795902	38.98538	115.335	4.099023	-6.631231	0.34	3	100	0	50	-4.945885	2.589504	-68.62542	
10:56:48	-6.795907	38.98538	115.624	3.967795	-11.58928	0.57	3	100	0	50	-6.612497	1.23645	-66.64153	
10:56:50	-6.795915	38.98539	116.286	4.019729	0.348133	1.13	3	100	0	50	0.1326265	-1.962012	-73.68906	
10:56:52	-6.795908	38.9854	114.813	4.305911	-10.04484	1	3	100	0	50	11.0875	-8.798811	-102.05	
10:56:53	-6.795905	38.98539	115.316	4.213561	9.178297	0.74	3	99	0	50	4.312468	0.1870789	-105.5043	
10:56:55	-6.795907	38.98538	117.453	4.125337	4.634944	0.38	3	99	0	50	3.406129	-0.2131213	-103.851	
10:56:57	-6.795907	38.98537	118.32	4.270975	14.29362	0.55	3	99	0	50	3.058871	-0.1143504	-102.2716	
10:56:58	-6.795908	38.98537	118.797	4.430602	14.34943	0.14	3	99	0	50	2.766994	0.6877297	-101.6968	
10:57:00	-6.795912	38.98536	117.153	4.513503	12.30149	0.25	3	99	0	50	2.993405	-0.251656	-100.9277	
10:57:02	-6.795912	38.98536	116.43	4.404267	2.33528	0.25	3	99	0	50	2.912989	-0.2304755	-99.84692	
10:57:03	-6.795914	38.98536	114.725	4.624232	13.05931	0.33	3	99	0	50	2.595273	0.08158623	-99.24167	
10:57:05	-6.795916	38.98535	113.993	4.697204	10.14695	0.08	3	99	0	50	2.340967	-0.1541694	-98.69682	
10:57:07	-6.795918	38.98536	115.403	4.841057	12.88168	0.25	3	99	0	50	2.59766	-0.1193046	-98.31949	
10:57:08	-6.795918	38.98536	114.864	4.623988	-3.654473	0.28	3	99	0	50	2.521499	0.5617418	-98.23232	
10:57:10	-6.79592	38.98536	115.585	4.360128	-7.026811	0.22	3	99	0	50	2.533021	-0.2200076	-98.24504	
10:57:12	-6.795915	38.98536	114.659	4.212929	-7.091466	0.19	3	99	0	50	2.893068	0.249237	-98.70737	
10:57:13	-6.795914	38.98536	114.213	4.036242	-9.31753	0.68	3	99	0	50	3.193204	-0.03807462	-98.68417	
10:57:15	-6.795914	38.98536	113.999	4.295278	8.038795	0.12	3	99	0	50	2.134271	0.6575152	-98.64776	
10:57:17	-6.795916	38.98536	112.247	4.494924	10.60958	0.36	3	99	0	50	2.363931	0.4113217	-98.92274	
10:57:19	-6.795916	38.98536	111.148	4.460614	6.256913	0.29	3	99	0	50	2.663026	1.104778	-99.05256	
10:57:20	-6.795917	38.98536	109.65	4.423693	2.003624	0.39	3	99	0	50	2.09217	0.2137775	-99.18209	
10:57:22	-6.795915	38.98536	109.314	4.048808	-11.70447	0.42	3	99	0	50	2.727348	-0.1251602	-99.0284	
10:57:24	-6.795914	38.98536	109.443	3.759926	-15.10489	0.22	3	99	0	50	2.86695	0.1664549	-98.7439	
10:57:25	-6.795914	38.98536	108.557	4.079715	7.497309	0.64	3	99	0	50	2.659747	0.5674843	-98.80766	
10:57:27	-6.795918	38.98536	108.474	4.45816	14.74492	0.31	3	99	0	50	1.629941	0.9066088	-99.14277	
10:57:29	-6.795918	38.98536	109.869	4.435246	5.831479	0.5	3	99	0	50	1.598673	0.976869	-99.41617	
10:57:30	-6.795918	38.98536	110.197	4.164904	-7.902167	0.14	3	99	0	50	1.744862	0.7251991	-99.79596	
10:57:32	-6.79592	38.98536	110.289	4.29118	6.645983	0.26	3	99	0	50	1.993256	0.3061895	-100.0587	
10:57:34	-6.795923	38.98536	110.839	4.473825	7.604598	0.59	3	99	0	50	2.192322	0.9194194	-100.0946	
10:57:35	-6.795925	38.98536	110.279	4.247149	-4.852724	0.35	3	99	0	50	1.736386	0.9989426	-100.6322	
10:57:37	-6.795925	38.98536	111.367	4.07547	-9.2336	0.34	3	99	0	50	1.97117	0.7205823	-101.0035	
10:57:39	-6.795927	38.98537	111.464	4.065816	-3.11105	0.13	3	99	0	50	2.146738	0.7813806	-101.1901	
10:57:40	-6.795929	38.98537	110.876	4.072227	8.806202	0.14	3	98	0	50	3.292285	-3.249527	-98.41738	
10:57:42	-6.795932	38.98537	111.588	4.33775	7.239473	0.95	3	98	0	50	-0.6046622	1.741472	-91.33293	
10:57:44	-6.795938	38.98537	111.917	4.826328	15.32014	0.09	3	97	0	50	-0.9325394	2.227664	-118.8287	
10:57:46	-6.795937	38.98538	113.389	4.962	4.239802	0.34	3	97	0	50	1.931794	3.58215	-161.5619	
10:57:47	-6.795929	38.98538	113.939	4.737679	-12.81666	0.48	3	97	0	50	0.8300841	4.149324	127.8589	
10:57:49	-6.79592	38.98538	117.804	4.812595	4.165992	0.19	3	97	0	50	6.950243	9.759035	102.4097	
10:57:51	-6.795911	38.98537	121.151	5.237265	15.28382	0.19	3	97	0	50	0.8286031	12.78917	92.34549	
10:57:52	-6.795909	38.98537	121.924	5.563474	19.17544	0.42	3	97	0	50	5.918518	20.05978	78.65521	
10:57:54	-6.795912	38.98537	121.095	5.164263	-1.303077	0.08	3	97	0	50	3.117766	25.63919	105.7136	
10:57:56	-6.795912	38.98536	122.15	5.315977	10.62331	0.48	3	97	0	50	3.389728	9.083696	147.1298	
10:57:57	-6.795911	38.98536	123.846	5.419368	3.778873	0.22	3	97	0	50	1.071813	16.43274	139.0077	
10:57:59	-6.795913	38.98536	124.382	5.302712	-3.275769	1.22	3	96	0	50	-1.890874	10.04299	100.2814	
10:58:01	-6.795909	38.98536	125.856	5.283069	-5.935607	0.77	3	95	0	50	-1.644032	10.63523	140.5839	
10:58:02	-6.795902	38.98534	125.718	4.932899	-16.13173	0.25	3	95	0	50	-11.26042	14.86743	-164.9489	
10:58:04	-6.795898	38.98534	126.458	4.86509	-12.33404	0.26	3	95	0	50	-6.068144	13.66222	-152.1275	
10:58:06	-6.795886	38.98532	130.19	4.856421	-6.935009	0.36	3	95	0	50	-6.430491	14.09979	-153.6444	
10:58:07	-6.795879	38.98531	132.655	5.030953	2.841322	0.11	3	95	0	50	-2.792883	18.95893	-159.7966	
10:58:09	-6.795875	38.98531	132.776	4.98892	-4.691629	0.56	3	94	0	50	-7.005873	18.65584	-154.6736	
10:58:11	-6.795868	38.98531	132.255	4.385266	-45.22047	0.53	3	95	0	50	2.561158	-1.713463	-164.2168	
10:58:12	-6.795866	38.98531	131.519	4.321999	-3.504843	0.08	3	95	0	50	-10.63871	-3.261386	-168.1865	
10:58:14	-6.795859	38.98532	130.84	4.286002	-3.887676	0.59	3	95	0	50	-12.8315	-1.275049	-173.6626	
10:58:16	-6.795857	38.98532	130.031	4.064922	-13.355	0.51	3	95	0	50	-11.80886	-0.9880872	179.9626	
10:58:18	-6.795855	38.98532	129.632	4.383012	3.76063	0.09	3	96	0	50	-12.17033	-1.399244	176.0396	
10:58:19	-6.795853	38.98532	129.338	4.395244	-0.7207105	0.35	3	96	0	50	-12.89303	-1.51291	171.9034	
10:58:21	-6.79585	38.98533	129.921	4.646569	7.081518	0.13	3	96	0	50	-13.42743	-1.880984	167.939	
10:58:23	-6.795849	38.98533	129.337	4.537331	-4.19628	0.29	3	96	0	50	-12.80289	-1.258267	165.17	
