Date	Latitude(deg) 	Longitude(deg)	hamsl(m)	hafl(m)	climbrate(cm/s)	GroundSpeed(m/s)	Airspeed(m/s)	Mav_Link(%)	Rssi_Link(%)	Throttle	Roll(deg)	Pitch(deg)	Yaw(deg)
15:05:53	-6.795903	38.98538	121.388	0	0	0.19	0	100	0	0	0.546453	0.9753458	-120.161	
15:05:54	-6.795905	38.98537	120.882	-0.07416435	-0.5447237	0.18	3	100	0	50	1.759225	1.077557	-120.2651	
15:05:54	-6.795906	38.98537	120.78	-0.1239321	-4.879813	0.14	3	100	0	50	1.783052	0.9372758	-120.3304	
15:05:54	-6.795906	38.98537	120.713	-0.188716	-10.35782	0.14	3	100	0	50	1.794396	1.00282	-120.3857	
15:05:54	-6.795906	38.98537	120.624	-0.3557438	-20.3105	0.14	3	100	0	50	1.502806	1.227999	-120.4654	
15:05:54	-6.795906	38.98537	120.389	-0.5354735	-29.74592	0.28	3	100	0	50	1.656246	1.079418	-120.5575	
15:05:55	-6.795906	38.98537	120.389	-0.4382695	-23.83587	0.22	3	100	0	50	1.755614	0.9480059	-120.6138	
15:05:55	-6.795906	38.98537	120.244	-0.2543851	-13.69701	0.12	3	100	0	50	1.840079	1.138404	-120.6638	
15:05:55	-6.795906	38.98537	120.254	-0.03449107	-2.835637	0.19	3	100	0	50	1.535522	1.393706	-120.742	
15:05:55	-6.795906	38.98537	120.349	0.2243794	8.860559	0.01	3	100	0	50	1.403079	1.294822	-120.8382	
15:05:55	-6.795907	38.98537	120.299	0.376007	14.01238	0.14	3	100	0	50	1.585876	1.315774	-120.9252	
15:05:56	-6.795907	38.98537	120.24	0.3724613	10.446	0.04	3	100	0	50	1.394869	1.276788	-121.001	
15:05:56	-6.795907	38.98538	120.296	0.3766238	8.48912	0.11	3	100	0	50	1.490074	1.264735	-121.0719	
15:05:56	-6.795907	38.98538	120.255	0.4063467	7.449986	0.12	3	100	0	50	1.418856	1.230582	-121.1372	
15:05:56	-6.795907	38.98538	120.267	0.4155837	5.830654	0.03	3	100	0	50	1.648693	1.249643	-121.1948	
15:05:56	-6.795907	38.98538	120.252	0.4010949	2.50055	0.09	3	100	0	50	1.493822	1.296312	-121.2532	
15:05:57	-6.795907	38.98538	120.271	0.3745795	-0.2341879	0.09	3	100	0	50	1.559695	1.40709	-121.304	
15:05:57	-6.795907	38.98538	120.281	0.333919	-3.591239	0.14	3	100	0	50	1.417044	1.366383	-121.3663	
15:05:57	-6.795907	38.98538	120.248	0.3086082	-5.974113	0.16	3	100	0	50	1.45537	1.515773	-121.4412	
15:05:57	-6.795907	38.98538	120.161	0.3132607	-6.871881	0.35	3	100	0	50	1.394848	1.51327	-121.5282	
15:05:57	-6.795907	38.98538	120.095	0.279209	-10.04286	0.33	3	100	0	50	1.712383	1.072798	-121.5777	
15:05:58	-6.795906	38.98538	120.016	0.172216	-16.0802	0.09	3	100	0	50	1.810601	1.274179	-121.5991	
15:05:58	-6.795906	38.98538	119.98	0.05793823	-21.81289	0.19	3	100	0	50	1.499073	1.332453	-121.6503	
15:05:58	-6.795906	38.98538	119.948	-0.0309876	-25.53968	0.12	3	100	0	50	1.259632	1.616882	-121.7096	
15:05:58	-6.795906	38.98538	119.944	-0.109432	-28.48386	0.21	3	100	0	50	1.28032	1.352773	-121.793	
15:05:58	-6.795906	38.98538	119.949	-0.1762133	-29.79201	0.11	3	100	0	50	1.346147	1.704885	-121.8615	
15:05:59	-6.795906	38.98538	119.976	-0.2123212	-29.99979	0.11	3	100	0	50	1.244069	1.337126	-121.944	
15:05:59	-6.795906	38.98538	120.026	-0.211271	-28.38953	0.14	3	100	0	50	1.391148	1.295754	-122.001	
15:05:59	-6.795906	38.98538	120.015	-0.2104787	-26.77464	0.07	3	100	0	50	1.15016	1.536311	-122.0652	
15:05:59	-6.795906	38.98538	119.995	-0.2173072	-25.93008	0.03	3	100	0	50	1.360185	1.398721	-122.1332	
15:05:59	-6.795906	38.98538	119.984	-0.231751	-25.33067	0.04	3	100	0	50	1.263061	1.444348	-122.1891	
15:06:00	-6.795906	38.98538	119.894	-0.2645023	-25.79285	0.25	3	100	0	50	1.335449	1.419439	-122.2355	
15:06:00	-6.795906	38.98538	119.785	-0.2860005	-25.83548	0.08	3	100	0	50	1.159697	1.631434	-122.2978	
15:06:00	-6.795906	38.98538	119.786	-0.2736789	-23.96634	0.08	3	100	0	50	1.445301	1.391136	-122.3475	
15:06:00	-6.795906	38.98538	119.692	-0.261259	-21.76205	0.17	3	100	0	50	1.410509	1.310836	-122.3828	
15:06:00	-6.795906	38.98538	119.683	-0.2612326	-20.73149	0.06	3	100	0	50	1.657076	1.288185	-122.4004	
15:06:01	-6.795906	38.98538	119.555	-0.2653255	-20.0984	0.34	3	100	0	50	1.470146	1.336833	-122.4182	
15:06:01	-6.795906	38.98538	119.516	-0.2494587	-18.62779	0.12	3	100	0	50	1.849129	1.112525	-122.3919	
15:06:01	-6.795906	38.98538	119.516	-0.2249455	-16.53816	0.04	3	100	0	50	1.613033	1.212673	-122.3623	
15:06:01	-6.795906	38.98538	119.456	-0.2172202	-15.99816	0.11	3	100	0	50	1.565542	1.417754	-122.3539	
15:06:01	-6.795906	38.98538	119.43	-0.2108074	-15.00633	0.22	3	100	0	50	1.462583	1.430424	-122.3665	
15:06:02	-6.795906	38.98538	119.492	-0.2174012	-14.31438	0.08	3	100	0	50	1.509683	1.188148	-122.3764	
15:06:02	-6.795905	38.98538	119.468	-0.2259094	-14.42215	0.13	3	100	0	50	1.395179	1.422121	-122.3751	
15:06:02	-6.795905	38.98538	119.492	-0.2728552	-16.40615	0.28	3	100	0	50	1.554431	1.389395	-122.3809	
15:06:02	-6.795906	38.98538	119.472	-0.3243576	-18.75955	0.07	3	100	0	50	1.172475	1.477113	-122.4098	
15:06:02	-6.795906	38.98538	119.437	-0.390427	-21.57172	0.19	3	100	0	50	1.383757	1.400429	-122.4365	
15:06:03	-6.795906	38.98538	119.463	-0.4525496	-23.82581	0.13	3	100	0	50	1.505375	1.224173	-122.4508	
15:06:03	-6.795906	38.98538	119.506	-0.4707264	-23.84478	0.09	3	100	0	50	1.501103	1.307737	-122.4431	
15:06:03	-6.795906	38.98538	119.629	-0.4762008	-22.44191	0.33	3	100	0	50	1.435632	1.373586	-122.4463	
15:06:03	-6.795906	38.98538	119.534	-0.4836682	-21.86149	0.11	3	100	0	50	1.13473	1.47148	-122.474	
15:06:03	-6.795906	38.98538	119.519	-0.4898813	-21.25179	0.14	3	100	0	50	1.471963	1.54177	-122.5069	
15:06:04	-6.795906	38.98538	119.399	-0.5014021	-21.0207	0.19	3	100	0	50	1.617513	1.481289	-122.5095	
15:06:04	-6.795906	38.98538	119.311	-0.5114117	-20.50711	0.09	3	100	0	50	1.567391	1.605124	-122.5156	
15:06:04	-6.795906	38.98538	119.298	-0.5000604	-19.2141	0.06	3	100	0	50	1.507654	1.392404	-122.5126	
15:06:04	-6.795906	38.98538	119.26	-0.482467	-17.4895	0.07	3	100	0	50	1.477127	1.50257	-122.5176	
15:06:04	-6.795906	38.98538	119.227	-0.4818025	-16.9476	0.12	3	100	0	50	1.411727	1.453487	-122.5428	
15:06:05	-6.795906	38.98538	119.27	-0.4844422	-16.67429	0.08	3	100	0	50	1.536914	1.509225	-122.5651	
15:06:05	-6.795906	38.98538	119.291	-0.473951	-15.55276	0.18	3	100	0	50	1.502783	1.381951	-122.5795	
15:06:05	-6.795906	38.98538	119.322	-0.4588175	-14.31358	0.12	3	100	0	50	1.509636	1.273693	-122.5751	
15:06:05	-6.795906	38.98538	119.323	-0.4313657	-12.53624	0.08	3	100	0	50	1.384753	1.339385	-122.5773	
15:06:05	-6.795906	38.98538	119.291	-0.3756554	-9.50752	0.06	3	100	0	50	1.514733	1.446073	-122.5641	
15:06:06	-6.795906	38.98538	119.301	-0.3166306	-5.903311	0.14	3	100	0	50	1.406208	1.374699	-122.5774	
15:06:06	-6.795906	38.98538	119.198	-0.2373111	-1.834251	0.07	3	100	0	50	1.482404	1.308043	-122.5775	
15:06:06	-6.795906	38.98538	119.229	-0.2050159	-0.8825423	0.13	3	100	0	50	1.47846	1.458775	-122.5539	
15:06:06	-6.795905	38.98538	119.337	-0.2245169	-2.680221	0.07	3	100	0	50	1.463229	1.482292	-122.5417	
15:06:06	-6.795905	38.98538	119.332	-0.2338134	-3.922644	0.02	3	100	0	50	1.454251	1.335247	-122.5154	
15:06:07	-6.795905	38.98538	119.371	-0.2297785	-4.192982	0.19	3	100	0	50	1.419358	1.363606	-122.4812	
15:06:07	-6.795905	38.98538	119.413	-0.2244855	-4.612893	0.11	3	100	0	50	1.369182	1.263491	-122.4605	
15:06:07	-6.795905	38.98538	119.384	-0.2152356	-4.07741	0.31	3	100	0	50	1.368504	1.606466	-122.4458	
15:06:07	-6.795905	38.98538	119.4	-0.1985098	-3.545669	0.26	3	100	0	50	1.227991	1.713131	-122.4784	
15:06:07	-6.795905	38.98538	119.404	-0.1644687	-2.4052	0.06	3	100	0	50	1.261868	1.581994	-122.5146	
15:06:08	-6.795905	38.98538	119.349	-0.1314093	-1.253437	0.24	3	100	0	50	1.408174	1.461785	-122.5109	
15:06:08	-6.795904	38.98538	119.393	-0.09148226	-0.00632127	0.14	3	100	0	50	1.384806	1.53412	-122.5058	
15:06:08	-6.795904	38.98538	119.511	-0.05024458	1.171208	0.17	3	100	0	50	1.474075	1.24115	-122.4691	
15:06:08	-6.795904	38.98538	119.462	-0.01130756	2.43281	0.16	3	100	0	50	1.45414	1.363094	-122.4339	
15:06:08	-6.795904	38.98538	119.475	0.01687058	2.356226	0.11	3	100	0	50	1.290013	1.593081	-122.4377	
15:06:09	-6.795904	38.98538	119.525	0.02919767	1.514237	0.26	3	100	0	50	1.139492	1.519454	-122.4567	
15:06:09	-6.795904	38.98538	119.55	0.03854942	1.080276	0.11	3	100	0	50	1.078981	1.459043	-122.4757	
15:06:09	-6.795905	38.98538	119.492	0.04326369	0.2060032	0.06	3	100	0	50	1.274575	1.422381	-122.4722	
15:06:09	-6.795904	38.98538	119.39	0.03662319	-0.8862044	0.21	3	100	0	50	1.454126	1.514141	-122.4797	
15:06:09	-6.795904	38.98538	119.374	-0.007044648	-4.068115	0.08	3	100	0	50	1.544274	1.510363	-122.4662	
15:06:10	-6.795904	38.98538	119.461	-0.04178155	-6.299043	0.18	3	100	0	50	1.388318	1.485783	-122.4723	
15:06:10	-6.795904	38.98538	119.44	-0.04845056	-7.057175	0.09	3	100	0	50	1.319853	1.383382	-122.4533	
15:06:10	-6.795905	38.98538	119.401	-0.05470392	-7.423958	0.04	3	100	0	50	1.238839	1.53291	-122.4454	
15:06:10	-6.795905	38.98538	119.473	-0.0449618	-7.06741	0.13	3	100	0	50	1.235546	1.502802	-122.4578	
15:06:10	-6.795905	38.98538	119.436	-0.03266516	-6.477485	0.19	3	100	0	50	1.275283	1.507058	-122.4606	
15:06:11	-6.795904	38.98538	119.414	-0.009007927	-4.938348	0.24	3	100	0	50	1.418427	1.698064	-122.4671	
15:06:11	-6.795904	38.98538	119.41	0.01910465	-3.340964	0.11	3	100	0	50	1.216443	1.694953	-122.4956	
15:06:11	-6.795904	38.98538	119.501	0.01268011	-4.353827	0.09	3	100	0	50	1.178848	1.440541	-122.4988	
15:06:11	-6.795904	38.98538	119.532	-0.001390821	-5.280727	0.08	3	100	0	50	1.268796	1.428898	-122.4643	
15:06:11	-6.795904	38.98538	119.532	-0.04857569	-7.673328	0.29	3	100	0	50	1.299186	1.611451	-122.4403	
15:06:12	-6.795904	38.98538	119.53	-0.1038103	-10.56393	0.22	3	100	0	50	1.174992	1.803552	-122.4563	
15:06:12	-6.795904	38.98538	119.393	-0.1283677	-11.95815	0.28	3	100	0	50	1.38574	1.678654	-122.457	
15:06:12	-6.795904	38.98538	119.379	-0.1491453	-12.31487	0.07	3	100	0	50	1.542862	1.47344	-122.4248	
15:06:12	-6.795903	38.98538	119.442	-0.1573639	-11.88387	0.16	3	100	0	50	1.291788	1.561116	-122.4052	
15:06:12	-6.795903	38.98538	119.581	-0.1619633	-11.76723	0.09	3	100	0	50	1.286985	1.622934	-122.4022	
15:06:13	-6.795903	38.98538	119.635	-0.1674594	-12.004	0.14	3	100	0	50	1.314474	1.49519	-122.3942	
15:06:13	-6.795902	38.98538	119.658	-0.1729811	-11.82996	0.21	3	100	0	50	1.507172	1.439523	-122.3619	
15:06:13	-6.795902	38.98538	119.711	-0.2368968	-14.8141	0.08	3	100	0	50	1.498215	1.389162	-122.3153	
15:06:13	-6.795902	38.98538	119.698	-0.2947475	-17.33586	0.28	3	100	0	50	1.256592	1.521492	-122.2845	
15:06:13	-6.795902	38.98538	119.618	-0.3031082	-16.90759	0.09	3	100	0	50	1.068132	1.639853	-122.2929	
15:06:14	-6.795902	38.98538	119.693	-0.2969525	-15.28918	0.06	3	100	0	50	1.131768	1.516159	-122.2959	
15:06:14	-6.795902	38.98538	119.687	-0.33855	-16.5025	0.19	3	100	0	50	1.259881	1.403233	-122.2945	
15:06:14	-6.795902	38.98538	119.724	-0.3854919	-17.66934	0.25	3	100	0	50	1.448998	1.226479	-122.2467	
15:06:14	-6.795902	38.98538	119.836	-0.4350607	-18.63679	0.24	3	100	0	50	1.304072	1.295935	-122.2118	
15:06:14	-6.795902	38.98538	119.864	-0.4789799	-19.42912	0.26	3	100	0	50	1.249168	1.38763	-122.2082	
15:06:15	-6.795902	38.98538	120.062	-0.4824237	-17.95776	0.26	3	100	0	50	1.482436	1.236082	-122.1731	
15:06:15	-6.795902	38.98538	120.016	-0.4733467	-15.87561	0.35	3	100	0	50	1.558632	1.233155	-122.1068	
15:06:15	-6.795902	38.98538	120.074	-0.4536457	-13.65648	0.07	3	100	0	50	1.73431	1.404768	-122.0566	
15:06:15	-6.795901	38.98538	120.043	-0.4019701	-10.1415	0.14	3	100	0	50	1.470316	1.508224	-122.0323	
15:06:15	-6.795901	38.98538	120	-0.3531326	-7.528584	0.26	3	100	0	50	1.571992	1.53048	-122.0313	
15:06:16	-6.795901	38.98538	119.996	-0.2999886	-4.560428	0.19	3	100	0	50	1.577153	1.340162	-122.0046	
15:06:16	-6.795901	38.98538	119.982	-0.269965	-3.072582	0.12	3	100	0	50	1.398776	1.430167	-121.9734	
15:06:16	-6.795901	38.98538	119.977	-0.2643627	-3.136465	0.31	3	100	0	50	1.40428	1.468399	-121.963	
15:06:16	-6.795901	38.98538	120.032	-0.246344	-2.359869	0.16	3	100	0	50	1.369802	1.337717	-121.9103	
15:06:16	-6.795901	38.98538	119.971	-0.2127632	-1.142674	0.16	3	100	0	50	1.304353	1.472188	-121.8864	
15:06:17	-6.795901	38.98538	120.051	-0.1821405	0.2840634	0.09	3	100	0	50	1.332921	1.518667	-121.852	
15:06:17	-6.795901	38.98538	120.087	-0.1441468	1.714479	0.12	3	100	0	50	1.270252	1.499401	-121.8303	
15:06:17	-6.795901	38.98538	120.234	-0.117999	3.066878	0.22	3	100	0	50	1.205044	1.439398	-121.81	
15:06:17	-6.795901	38.98538	120.241	-0.1260259	1.595527	0.04	3	100	0	50	1.151344	1.491283	-121.8105	
15:06:17	-6.795901	38.98538	120.222	-0.135156	1.314789	0.28	3	100	0	50	1.350885	1.450598	-121.798	
15:06:18	-6.795901	38.98538	120.378	-0.1497983	-0.2686074	0.14	3	100	0	50	1.400841	1.374675	-121.7458	
15:06:18	-6.795901	38.98538	120.304	-0.1659985	-1.783514	0.12	3	100	0	50	1.412176	1.479206	-121.7294	
15:06:18	-6.795901	38.98538	120.164	-0.1855447	-2.920766	0.08	3	100	0	50	1.553307	1.517614	-121.7071	
15:06:18	-6.7959	38.98538	120.261	-0.2194033	-5.073622	0.26	3	100	0	50	1.498756	1.409077	-121.6942	
15:06:18	-6.7959	38.98537	120.323	-0.2671763	-7.731102	0.29	3	100	0	50	1.580358	1.249554	-121.6384	
15:06:19	-6.7959	38.98537	120.542	-0.3074943	-9.710393	0.25	3	100	0	50	1.502517	1.26741	-121.5893	
15:06:19	-6.7959	38.98537	120.571	-0.3120109	-9.20731	0.17	3	100	0	50	1.449738	1.40183	-121.5427	
15:06:19	-6.7959	38.98537	120.54	-0.3086887	-8.637917	0.14	3	100	0	50	1.472534	1.677919	-121.5264	
15:06:19	-6.795899	38.98537	120.659	-0.280338	-6.468026	0.19	3	100	0	50	1.250546	1.747389	-121.5504	
15:06:19	-6.795899	38.98537	120.623	-0.2539441	-4.547898	0.45	3	100	0	50	1.159118	1.924588	-121.5812	
15:06:20	-6.795899	38.98537	120.586	-0.2302764	-3.839656	0.16	3	100	0	50	1.284953	1.913161	-121.6365	
15:06:20	-6.795899	38.98537	120.498	-0.2121041	-3.281445	0.25	3	100	0	50	1.382574	1.53469	-121.652	
15:06:20	-6.795899	38.98537	120.417	-0.2257813	-4.334812	0.01	3	100	0	50	1.27669	1.531783	-121.6323	
15:06:20	-6.795899	38.98537	120.275	-0.2510936	-5.636935	0.22	3	100	0	50	1.262533	1.797113	-121.6488	
15:06:20	-6.795898	38.98537	120.233	-0.2604691	-5.59424	0.17	3	100	0	50	1.181345	1.843177	-121.6971	
15:06:21	-6.795898	38.98537	120.198	-0.2670142	-6.146585	0.29	3	100	0	50	1.062186	1.858971	-121.7383	
15:06:21	-6.795898	38.98537	120.166	-0.2901363	-7.608669	0.17	3	100	0	50	1.162032	1.719651	-121.7756	
15:06:21	-6.795898	38.98537	120.126	-0.3149269	-8.198059	0.16	3	100	0	50	1.22734	1.462129	-121.7627	
15:06:21	-6.795898	38.98537	120.101	-0.3424882	-9.677378	0.09	3	100	0	50	1.205371	1.498541	-121.7509	
15:06:21	-6.795898	38.98537	119.947	-0.3702797	-10.24654	0.39	3	100	0	50	1.424525	1.441849	-121.7287	
15:06:22	-6.795898	38.98537	120.009	-0.3675585	-9.528966	0.19	3	100	0	50	1.375576	1.440492	-121.6747	
15:06:22	-6.795898	38.98537	120.25	-0.358156	-8.490493	0.22	3	100	0	50	1.10971	1.592052	-121.6695	
15:06:22	-6.795898	38.98537	120.282	-0.3579288	-8.305624	0.07	3	100	0	50	1.241486	1.574826	-121.6663	
15:06:22	-6.795898	38.98537	120.226	-0.3595641	-8.018016	0.04	3	100	0	50	1.408111	1.510564	-121.6276	
15:06:22	-6.795897	38.98537	120.228	-0.3518736	-6.870269	0.28	3	100	0	50	1.453403	1.384252	-121.5952	
15:06:23	-6.795897	38.98537	120.084	-0.3424711	-6.046388	0.17	3	100	0	50	1.525808	1.349557	-121.5459	
15:06:23	-6.795897	38.98537	120.085	-0.3475323	-6.089645	0.06	3	100	0	50	1.483086	1.525646	-121.5089	
15:06:23	-6.795897	38.98537	120.055	-0.3556065	-6.716944	0.09	3	100	0	50	1.325634	1.478138	-121.5004	
15:06:23	-6.795897	38.98537	120.067	-0.3449365	-6.144389	0.12	3	100	0	50	1.34822	1.512015	-121.4739	
15:06:23	-6.795897	38.98537	120.006	-0.3294255	-4.758406	0.12	3	100	0	50	1.393101	1.437482	-121.4584	
15:06:24	-6.795897	38.98537	119.962	-0.3033413	-3.499012	0.09	3	100	0	50	1.318336	1.33672	-121.4219	
15:06:24	-6.795897	38.98537	120.017	-0.2767543	-2.105814	0.02	3	100	0	50	1.295169	1.410378	-121.4048	
15:06:24	-6.795897	38.98537	120.125	-0.2348384	-0.09422754	0.12	3	100	0	50	1.2398	1.443352	-121.3913	
15:06:24	-6.795897	38.98537	120.146	-0.1926147	2.046891	0.02	3	100	0	50	1.227691	1.431996	-121.3717	
15:06:24	-6.795897	38.98537	120.25	-0.149983	4.242304	0.13	3	100	0	50	1.238006	1.422435	-121.3439	
15:06:25	-6.795897	38.98537	120.296	-0.1050943	5.635204	0.17	3	100	0	50	1.144728	1.467093	-121.3471	
15:06:25	-6.795897	38.98537	120.231	-0.09072317	5.036624	0.26	3	100	0	50	1.317042	1.400486	-121.3407	
15:06:25	-6.795897	38.98537	120.283	-0.16923	-0.05139848	0.12	3	100	0	50	1.363853	1.325343	-121.2977	
15:06:25	-6.795897	38.98537	120.365	-0.2419574	-3.781429	0.13	3	100	0	50	1.334554	1.365561	-121.2706	
15:06:25	-6.795896	38.98537	120.365	-0.3145595	-7.607717	0.09	3	100	0	50	1.354267	1.496425	-121.2479	
15:06:26	-6.795896	38.98537	120.372	-0.370519	-10.37892	0.14	3	100	0	50	1.273096	1.482537	-121.2452	
15:06:26	-6.795896	38.98537	120.479	-0.4161887	-12.42763	0.19	3	100	0	50	1.256105	1.352035	-121.2377	
15:06:26	-6.795896	38.98537	120.565	-0.4388683	-12.76071	0.08	3	100	0	50	1.237785	1.418937	-121.2143	
15:06:26	-6.795896	38.98537	120.644	-0.4329407	-11.6563	0.34	3	100	0	50	1.344565	1.342241	-121.1981	
15:06:26	-6.795896	38.98537	120.702	-0.4267801	-10.67152	0.19	3	100	0	50	1.267833	1.554798	-121.1565	
15:06:27	-6.795896	38.98537	120.708	-0.4194191	-9.418936	0.29	3	100	0	50	1.089669	1.799082	-121.1648	
15:06:27	-6.795895	38.98537	120.68	-0.4038481	-8.07739	0.19	3	100	0	50	1.263107	1.577229	-121.175	
15:06:27	-6.795895	38.98536	120.633	-0.3601385	-5.280447	0.26	3	100	0	50	1.472039	1.416301	-121.1429	
15:06:27	-6.795895	38.98536	120.623	-0.3181247	-2.989805	0.09	3	100	0	50	1.358292	1.440495	-121.1079	
15:06:27	-6.795895	38.98536	120.649	-0.2701414	-0.3981902	0.09	3	100	0	50	1.180297	1.555272	-121.1037	
15:06:28	-6.795895	38.98536	120.698	-0.2197873	2.547777	0.18	3	100	0	50	1.137252	1.672565	-121.1185	
15:06:28	-6.795895	38.98536	120.694	-0.1583138	5.443959	0.14	3	100	0	50	1.262159	1.62113	-121.1245	
15:06:28	-6.795894	38.98536	120.561	-0.1031464	7.396833	0.16	3	100	0	50	1.346821	1.581809	-121.1126	
15:06:28	-6.795894	38.98536	120.494	-0.02911175	10.19111	0.24	3	100	0	50	1.287251	1.300061	-121.1162	
15:06:28	-6.795894	38.98536	120.479	0.02257466	11.47007	0.19	3	100	0	50	1.134997	1.422571	-121.0796	
15:06:29	-6.795894	38.98536	120.574	0.06760529	12.68937	0.19	3	100	0	50	1.183348	1.301791	-121.0832	
15:06:29	-6.795893	38.98536	120.633	0.09455323	12.73557	0.26	3	100	0	50	0.9553452	1.474464	-121.0616	
15:06:29	-6.795893	38.98536	120.752	0.07094178	10.17255	0.22	3	100	0	50	0.8486456	1.594957	-121.0863	
15:06:29	-6.795893	38.98536	120.9	0.03987024	6.966895	0.06	3	100	0	50	0.9769495	1.571078	-121.0933	
15:06:30	-6.795893	38.98536	121.048	0.003075539	4.355006	0.35	3	100	0	50	0.8813772	1.749467	-121.1055	
15:06:30	-6.795893	38.98536	121.098	-0.03200102	1.830238	0.16	3	100	0	50	0.9636931	1.725647	-121.144	
15:06:30	-6.795892	38.98536	121.277	-0.06665143	-0.7007095	0.19	3	100	0	50	1.221947	1.502885	-121.159	
15:06:30	-6.795892	38.98536	121.287	-0.09918701	-2.442243	0.26	3	100	0	50	1.145478	1.60668	-121.1448	
15:06:30	-6.795891	38.98536	121.325	-0.1131489	-3.340302	0.16	3	100	0	50	1.297047	1.363112	-121.1531	
15:06:31	-6.795891	38.98536	121.296	-0.1235637	-3.849877	0.16	3	100	0	50	1.24693	1.154418	-121.1049	
15:06:31	-6.795891	38.98536	121.35	-0.1060679	-2.528628	0.18	3	100	0	50	1.264106	1.109402	-121.0391	
15:06:31	-6.795891	38.98536	121.37	-0.08358192	-1.515322	0.14	3	100	0	50	1.28213	1.128458	-120.9952	
15:06:31	-6.795891	38.98536	121.405	-0.06241101	-0.3620335	0.11	3	100	0	50	1.173134	1.298609	-120.9601	
15:06:31	-6.79589	38.98536	121.384	-0.04068048	0.5209128	0.03	3	100	0	50	1.206088	1.373757	-120.939	
15:06:32	-6.79589	38.98536	121.487	-0.01932132	1.299155	0.13	3	100	0	50	1.230118	1.262037	-120.9273	
15:06:32	-6.79589	38.98536	121.573	0.0005226212	2.351375	0.18	3	100	0	50	1.316724	1.179627	-120.9117	
15:06:32	-6.795889	38.98536	121.657	0.02481847	2.970944	0.29	3	100	0	50	1.380017	1.080082	-120.8556	
15:06:32	-6.795889	38.98536	121.73	0.04622573	3.54958	0.12	3	100	0	50	1.354673	1.276066	-120.7994	
15:06:32	-6.795889	38.98536	121.822	0.05804913	3.382876	0.09	3	100	0	50	1.189423	1.436651	-120.7835	
15:06:33	-6.795889	38.98536	121.877	0.06820438	3.326389	0.14	3	100	0	50	1.270841	1.371564	-120.7627	
15:06:33	-6.795889	38.98536	121.944	0.06584422	2.039773	0.18	3	100	0	50	1.141044	1.545531	-120.736	
15:06:33	-6.795889	38.98536	121.984	0.05915092	1.018896	0.12	3	100	0	50	1.219895	1.489886	-120.7312	
15:06:33	-6.795888	38.98536	122.116	0.0525802	-0.2229556	0.04	3	100	0	50	1.262313	1.520945	-120.7172	
15:06:33	-6.795887	38.98536	122.295	0.04517379	-0.7490551	0.11	3	100	0	50	1.294861	1.63415	-120.7068	
15:06:34	-6.795887	38.98536	122.295	0.02882057	-1.401821	0.11	3	100	0	50	1.302249	1.44636	-120.7099	
15:06:34	-6.795887	38.98536	122.361	0.01340296	-2.29003	0.09	3	100	0	50	1.188392	1.474934	-120.6984	
15:06:34	-6.795887	38.98536	122.353	-0.01159262	-3.150226	0.14	3	100	0	50	1.343058	1.391408	-120.694	
15:06:34	-6.795887	38.98536	122.388	-0.03467316	-4.080793	0.08	3	100	0	50	1.281593	1.491276	-120.6736	
15:06:34	-6.795887	38.98536	122.388	-0.03966105	-4.423753	0.08	3	100	0	50	1.203649	1.419711	-120.6746	
15:06:35	-6.795887	38.98536	122.404	-0.04233395	-4.558322	0.28	3	100	0	50	1.265876	1.160836	-120.6742	
15:06:35	-6.795887	38.98536	122.428	-0.04513277	-4.801739	0.04	3	100	0	50	1.315188	1.295824	-120.6354	
15:06:35	-6.795887	38.98536	122.561	-0.04760237	-4.731421	0.14	3	100	0	50	1.204431	1.483231	-120.6295	
15:06:35	-6.795887	38.98536	122.644	-0.04500681	-4.423289	0.09	3	100	0	50	1.170333	1.324799	-120.6282	
15:06:35	-6.795887	38.98536	122.604	-0.03168954	-3.708322	0.06	3	100	0	50	1.185611	1.356174	-120.6078	
15:06:36	-6.795886	38.98536	122.654	-0.05520819	-4.953065	0.14	3	100	0	50	1.259167	1.278658	-120.5984	
15:06:36	-6.795886	38.98536	122.73	-0.125029	-7.816273	0.02	3	100	0	50	1.138285	1.293237	-120.5681	
15:06:36	-6.795886	38.98536	122.799	-0.1936311	-10.74859	0.22	3	100	0	50	1.215618	1.326149	-120.5419	
15:06:36	-6.795886	38.98536	122.844	-0.2645905	-13.54561	0.19	3	100	0	50	1.080227	1.488348	-120.5321	
15:06:36	-6.795886	38.98536	122.919	-0.3187724	-14.81086	0.07	3	100	0	50	1.009884	1.345329	-120.5397	
15:06:37	-6.795886	38.98536	122.927	-0.3501486	-15.35819	0.17	3	100	0	50	1.166644	1.380802	-120.5434	
15:06:37	-6.795886	38.98536	122.927	-0.356914	-13.88507	0.17	3	100	0	50	1.382341	1.222192	-120.5337	
15:06:37	-6.795885	38.98536	122.841	-0.3218842	-10.304	0.22	3	100	0	50	1.412565	1.168889	-120.4896	
15:06:37	-6.795885	38.98536	122.954	-0.2871009	-8.45922	0.03	3	100	0	50	1.476864	1.11087	-120.4516	
15:06:37	-6.795885	38.98536	122.937	-0.2724265	-6.843896	0.11	3	100	0	50	1.327283	1.251536	-120.4061	
15:06:38	-6.795885	38.98536	122.987	-0.2694904	-6.534499	0.19	3	100	0	50	1.253132	1.175363	-120.3877	
15:06:38	-6.795885	38.98536	122.982	-0.2822396	-6.989245	0.08	3	100	0	50	1.209803	1.104869	-120.3578	
15:06:38	-6.795885	38.98536	123.09	-0.2926565	-7.11995	0.16	3	100	0	50	1.234931	1.186755	-120.3376	
15:06:38	-6.795885	38.98536	123.148	-0.3003701	-6.93414	0.21	3	100	0	50	1.26476	1.142042	-120.3171	
15:06:38	-6.795885	38.98536	123.183	-0.3117092	-7.444976	0.19	3	100	0	50	1.269822	1.101827	-120.2925	
15:06:39	-6.795885	38.98536	123.231	-0.3327271	-8.035957	0.09	3	100	0	50	1.155442	1.414255	-120.2725	
15:06:39	-6.795885	38.98536	123.221	-0.3678333	-10.18848	0.17	3	100	0	50	1.311783	1.298839	-120.2641	
15:06:39	-6.795885	38.98536	123.276	-0.433597	-13.19407	0.19	3	100	0	50	1.290052	1.165397	-120.2523	
15:06:39	-6.795885	38.98536	123.269	-0.4910944	-15.04924	0.41	3	100	0	50	1.083562	1.285838	-120.2489	
15:06:39	-6.795885	38.98536	123.2	-0.5380298	-16.47474	0.59	3	100	0	50	1.380683	1.076719	-120.2387	
15:06:40	-6.795885	38.98536	123.179	-0.5776759	-17.01335	0.09	3	100	0	50	1.570313	0.8705271	-120.1783	
15:06:40	-6.795884	38.98536	123.174	-0.6760986	-20.54222	0.09	3	100	0	50	1.154807	1.37806	-120.1327	
15:06:40	-6.795884	38.98536	123.23	-0.7759033	-23.57578	0.04	3	100	0	50	1.157902	1.420094	-120.1508	
15:06:40	-6.795884	38.98536	123.217	-0.7843984	-21.97411	0.04	3	100	0	50	1.040783	1.502771	-120.1776	
15:06:40	-6.795884	38.98536	123.29	-0.769897	-19.79824	0.08	3	100	0	50	1.016727	1.506696	-120.2226	
15:06:41	-6.795884	38.98536	123.31	-0.7531614	-16.94399	0.16	3	100	0	50	0.986526	1.520608	-120.2619	
15:06:41	-6.795883	38.98536	123.428	-0.7343065	-14.47618	0.13	3	100	0	50	1.174072	1.371907	-120.2808	
15:06:41	-6.795883	38.98536	123.47	-0.6662299	-9.092125	0.04	3	100	0	50	1.199963	1.353789	-120.2893	
15:06:41	-6.795883	38.98536	123.484	-0.5914604	-4.81898	0.35	3	100	0	50	1.129307	1.412777	-120.3023	
15:06:41	-6.795883	38.98536	123.497	-0.5253384	-0.8026665	0.06	3	100	0	50	0.9082928	1.699393	-120.3256	
15:06:42	-6.795883	38.98536	123.594	-0.4658437	2.007562	0.16	3	100	0	50	0.9995797	1.357178	-120.37	
15:06:42	-6.795883	38.98536	123.518	-0.4105896	4.001792	0.16	3	100	0	50	0.9336015	1.28302	-120.3645	
15:06:42	-6.795883	38.98536	123.541	-0.3609752	5.938605	0.29	3	100	0	50	1.047815	1.492137	-120.3646	
15:06:42	-6.795882	38.98536	123.579	-0.3335217	6.878273	0.38	3	100	0	50	0.8204904	1.421307	-120.388	
15:06:42	-6.795882	38.98536	123.497	-0.3168041	6.746957	0.22	3	100	0	50	1.275139	1.047458	-120.3852	
15:06:43	-6.795882	38.98536	123.463	-0.3234785	5.937871	0.16	3	100	0	50	1.311647	1.181075	-120.3376	
15:06:43	-6.795882	38.98536	123.405	-0.33519	4.225822	0.19	3	100	0	50	1.165815	1.207379	-120.317	
15:06:43	-6.795882	38.98536	123.397	-0.3392458	3.574689	0.39	3	100	0	50	1.163477	1.199538	-120.3142	
15:06:43	-6.795882	38.98536	123.303	-0.3410323	3.461805	0.11	3	100	0	50	1.36773	1.13428	-120.2798	
15:06:43	-6.795882	38.98536	123.245	-0.341536	2.3861	0.06	3	100	0	50	1.138475	1.514174	-120.2555	
15:06:44	-6.795882	38.98537	123.26	-0.342675	2.0108	0.38	3	100	0	50	1.026379	1.361608	-120.2682	
15:06:44	-6.795882	38.98537	123.195	-0.348529	1.634776	0.26	3	100	0	50	0.8389884	1.647338	-120.2977	
15:06:44	-6.795882	38.98537	123.087	-0.3558945	1.606384	0.19	3	100	0	50	0.8136981	1.364022	-120.3466	
15:06:44	-6.795882	38.98537	123.052	-0.4013624	-0.7825007	0.11	3	100	0	50	1.219353	1.35422	-120.3514	
15:06:44	-6.795882	38.98537	123.011	-0.4519663	-3.194288	0.09	3	100	0	50	1.101755	1.317378	-120.3414	
15:06:45	-6.795882	38.98537	122.929	-0.4851544	-4.900013	0.04	3	100	0	50	0.9332201	1.158569	-120.3418	
15:06:45	-6.795882	38.98537	122.847	-0.4876732	-5.116402	0.13	3	100	0	50	0.965304	1.152563	-120.3246	
15:06:45	-6.795882	38.98537	122.869	-0.4769079	-3.878466	0.09	3	100	0	50	1.02924	1.311004	-120.3152	
15:06:45	-6.795882	38.98537	122.822	-0.4370982	-1.836196	0.29	3	100	0	50	0.9310669	1.187724	-120.3212	
15:06:45	-6.795882	38.98537	122.749	-0.3972467	0.3989255	0.21	3	100	0	50	0.9539456	1.470551	-120.3232	
15:06:46	-6.795882	38.98537	122.666	-0.3562144	2.410119	0.12	3	100	0	50	1.228893	0.9695551	-120.3039	
15:06:46	-6.795882	38.98537	122.591	-0.3307062	3.156235	0.07	3	100	0	50	0.9604393	1.038765	-120.2756	
15:06:46	-6.795882	38.98537	122.488	-0.333148	2.240097	0.19	3	100	0	50	1.060239	1.10266	-120.2564	
15:06:46	-6.795882	38.98537	122.461	-0.3376599	1.368428	0.17	3	100	0	50	1.029694	1.424271	-120.2498	
15:06:46	-6.795882	38.98537	122.387	-0.3438313	1.032852	0.18	3	100	0	50	1.028319	1.015088	-120.2523	
15:06:47	-6.795882	38.98537	122.325	-0.3496846	0.494179	0.07	3	100	0	50	1.198067	1.133197	-120.2277	
15:06:47	-6.795882	38.98537	122.369	-0.3538377	0.5937984	0.14	3	100	0	50	0.9916406	1.121931	-120.2143	
15:06:47	-6.795882	38.98537	122.293	-0.3618971	-0.1916815	0.06	3	100	0	50	0.9992061	1.05113	-120.2008	
15:06:47	-6.795882	38.98537	122.253	-0.3895194	-1.272163	0.18	3	100	0	50	1.07206	1.213201	-120.1872	
15:06:47	-6.795882	38.98537	122.161	-0.4107611	-1.935064	0.16	3	100	0	50	1.052976	1.416309	-120.1827	
15:06:48	-6.795882	38.98537	122.071	-0.4280665	-2.857543	0.12	3	100	0	50	1.172405	1.266843	-120.1838	
15:06:48	-6.795882	38.98537	122.011	-0.4299703	-2.859914	0.04	3	100	0	50	1.014548	1.336813	-120.1779	
15:06:48	-6.795882	38.98537	121.929	-0.4120652	-2.675175	0.06	3	100	0	50	0.960663	1.233025	-120.183	
15:06:48	-6.795882	38.98537	121.878	-0.3984464	-2.025591	0.14	3	100	0	50	0.9618722	1.25006	-120.1781	
15:06:48	-6.795881	38.98537	121.977	-0.3902931	-1.3992	0.19	3	100	0	50	1.154374	1.224452	-120.1662	
15:06:49	-6.795881	38.98537	122.008	-0.3833085	-0.4769994	0.52	3	100	0	50	0.8185822	1.30257	-120.1616	
15:06:49	-6.795881	38.98538	121.954	-0.3851442	-1.053729	0.34	3	100	0	50	0.8054336	1.95661	-120.2009	
15:06:49	-6.795881	38.98538	121.91	-0.3983634	-1.244086	0.22	3	100	0	50	0.7622158	1.655874	-120.2755	
15:06:49	-6.79588	38.98538	121.922	-0.4339728	-3.038471	0.26	3	100	0	50	1.316522	1.574732	-120.2994	
15:06:49	-6.79588	38.98538	121.838	-0.4666174	-4.594719	0.13	3	100	0	50	1.353909	1.511101	-120.2941	
15:06:50	-6.79588	38.98538	121.807	-0.4960303	-5.515915	0.19	3	100	0	50	1.132187	1.359953	-120.3002	
15:06:50	-6.79588	38.98538	121.728	-0.5223894	-6.682601	0.12	3	100	0	50	1.062414	1.662618	-120.3224	
15:06:50	-6.79588	38.98538	121.658	-0.5291927	-6.611317	0.16	3	100	0	50	0.9406998	1.498537	-120.3688	
15:06:50	-6.795881	38.98538	121.622	-0.531228	-6.306989	0.16	3	100	0	50	0.9495907	1.28299	-120.3831	
15:06:50	-6.795881	38.98538	121.633	-0.4946881	-3.519245	0.17	3	100	0	50	0.9820404	1.288142	-120.3824	
15:06:51	-6.795881	38.98538	121.522	-0.4510181	-0.8185215	0.14	3	100	0	50	0.9158283	1.538537	-120.3973	
15:06:51	-6.79588	38.98538	121.422	-0.4129557	1.142995	0.19	3	100	0	50	1.119915	1.557348	-120.4182	
15:06:51	-6.79588	38.98538	121.415	-0.3755687	3.001638	0.18	3	100	0	50	1.240481	1.49648	-120.4247	
15:06:51	-6.79588	38.98538	121.246	-0.3453257	4.14563	0.07	3	100	0	50	0.891584	1.517593	-120.4409	
15:06:51	-6.79588	38.98538	121.157	-0.3118793	5.432152	0.11	3	100	0	50	1.07756	1.374212	-120.4641	
15:06:52	-6.79588	38.98538	121.03	-0.2885092	6.93385	0.06	3	100	0	50	1.029472	1.356129	-120.4699	
15:06:52	-6.79588	38.98538	120.947	-0.26928	6.858817	0.11	3	100	0	50	1.044681	1.509644	-120.4675	
15:06:52	-6.79588	38.98538	120.859	-0.2509604	6.925592	0.09	3	100	0	50	1.195427	1.529008	-120.4639	
15:06:52	-6.79588	38.98538	120.732	-0.2327228	7.287744	0.34	3	100	0	50	1.025541	1.563445	-120.4727	
15:06:52	-6.79588	38.98538	120.621	-0.2048909	8.188972	0.12	3	100	0	50	1.049693	1.850316	-120.5001	
15:06:53	-6.79588	38.98538	120.525	-0.1786662	8.71764	0.13	3	100	0	50	1.195635	1.558792	-120.5204	
15:06:53	-6.79588	38.98538	120.469	-0.1688441	8.253896	0.09	3	100	0	50	0.9610011	1.600368	-120.5365	
15:06:53	-6.79588	38.98538	120.334	-0.1648328	7.430863	0.08	3	100	0	50	1.082182	1.499049	-120.5532	
15:06:53	-6.79588	38.98538	120.327	-0.1654429	6.414959	0.08	3	100	0	50	1.076773	1.646482	-120.58	
15:06:53	-6.79588	38.98538	120.191	-0.1675925	5.706553	0.17	3	100	0	50	0.979259	1.536083	-120.5941	
15:06:54	-6.795881	38.98538	120.146	-0.174629	4.889221	0.13	3	100	0	50	1.043318	1.416651	-120.6038	
15:06:54	-6.795881	38.98538	119.976	-0.1832963	3.783846	0.16	3	100	0	50	1.099741	1.558395	-120.6122	
15:06:54	-6.795881	38.98538	119.834	-0.1860685	3.569844	0.09	3	100	0	50	1.145597	1.838341	-120.6383	
15:06:54	-6.795881	38.98538	119.871	-0.1871843	3.222782	0.22	3	100	0	50	1.034403	1.812844	-120.6769	
15:06:54	-6.795881	38.98538	119.786	-0.1866009	2.777254	0.19	3	100	0	50	0.9487582	1.792502	-120.7093	
15:06:55	-6.795881	38.98538	119.62	-0.180915	2.92993	0.17	3	100	0	50	1.214208	1.678759	-120.7238	
15:06:55	-6.79588	38.98538	119.697	-0.1701287	3.469504	0.28	3	100	0	50	1.009276	1.861209	-120.7469	
15:06:55	-6.795881	38.98539	119.667	-0.145034	4.191728	0.26	3	100	0	50	0.8583941	1.871036	-120.8041	
15:06:55	-6.795881	38.98539	119.592	-0.1081489	5.831871	0.09	3	100	0	50	1.021896	1.898104	-120.8411	
15:06:55	-6.795881	38.98539	119.632	-0.0488519	8.82124	0.25	3	100	0	50	1.102379	1.689842	-120.8647	
15:06:56	-6.795881	38.98539	119.535	0.002117617	10.42941	0.16	3	100	0	50	1.095536	1.940411	-120.9054	
15:06:56	-6.795881	38.98539	119.484	0.04424808	11.7002	0.22	3	100	0	50	1.114727	1.798653	-120.9333	
15:06:56	-6.795882	38.98539	119.456	0.07430518	12.14614	0.13	3	100	0	50	0.8863165	1.596454	-120.9638	
15:06:56	-6.795882	38.98539	119.38	0.09697474	12.30291	0.06	3	100	0	50	1.049468	1.478004	-120.9653	
15:06:56	-6.795882	38.98539	119.334	0.09552088	11.32445	0.17	3	100	0	50	1.122183	1.570546	-120.9497	
15:06:57	-6.795882	38.98539	119.317	0.04639531	7.621567	0.14	3	100	0	50	1.04536	1.721342	-120.9614	
15:06:57	-6.795882	38.98539	119.288	-0.002813482	4.493908	0.16	3	100	0	50	0.9695235	1.535885	-120.9716	
15:06:57	-6.795882	38.98539	119.195	-0.04239605	2.024652	0.09	3	100	0	50	0.9564025	1.692474	-120.9689	
15:06:57	-6.795882	38.98539	119.112	-0.0664891	1.220591	0.06	3	100	0	50	1.061781	1.6448	-120.9907	
15:06:57	-6.795882	38.98539	119.099	-0.07121982	0.5347548	0.09	3	100	0	50	1.163979	1.491252	-120.986	
15:06:58	-6.795882	38.98539	119.122	-0.08432877	-0.5468187	0.14	3	100	0	50	1.223923	1.495468	-120.9805	
15:06:58	-6.795882	38.98539	119.062	-0.1140009	-1.944751	0.18	3	100	0	50	1.112421	1.468026	-120.975	
15:06:58	-6.795882	38.98539	119.031	-0.1354302	-2.947308	0.02	3	100	0	50	0.9492169	1.631994	-120.9826	
15:06:58	-6.795882	38.98539	118.851	-0.1464022	-3.256987	0.41	3	100	0	50	1.129586	1.452196	-121.006	
15:06:58	-6.795882	38.98539	118.75	-0.1714086	-3.722962	0.07	3	100	0	50	1.234438	1.193264	-120.9726	
15:06:59	-6.795882	38.98539	118.751	-0.2539386	-7.850756	0.22	3	100	0	50	1.09555	1.572351	-120.9569	
15:06:59	-6.795882	38.98539	118.705	-0.3368039	-11.33383	0.21	3	100	0	50	1.039539	1.660989	-120.9844	
15:06:59	-6.795882	38.98539	118.679	-0.4059671	-13.63122	0.28	3	100	0	50	1.121953	1.342692	-120.9782	
15:06:59	-6.795883	38.98539	118.731	-0.4661049	-15.74341	0.19	3	100	0	50	0.9911581	1.274274	-120.9677	
15:06:59	-6.795883	38.98539	118.732	-0.5240061	-17.17858	0.26	3	100	0	50	1.128107	1.31637	-120.9427	
15:07:00	-6.795883	38.98539	118.748	-0.5741249	-17.99797	0.06	3	100	0	50	1.108004	1.352845	-120.9214	
15:07:00	-6.795883	38.98539	118.784	-0.6270453	-19.5252	0.11	3	100	0	50	1.009038	1.593162	-120.9272	
15:07:00	-6.795883	38.98539	118.701	-0.6827236	-21.28563	0.13	3	100	0	50	1.032509	1.668598	-120.9329	
15:07:00	-6.795883	38.98539	118.583	-0.7477157	-22.55276	0.33	3	100	0	50	1.180113	1.534551	-120.9478	
15:07:00	-6.795883	38.98539	118.62	-0.8063318	-23.60798	0.32	3	100	0	50	1.029466	1.362322	-120.9263	
15:07:01	-6.795883	38.98539	118.623	-0.8908259	-25.50774	0.08	3	100	0	50	0.8069019	1.65368	-120.9422	
15:07:01	-6.795883	38.98539	118.594	-0.9775164	-27.15082	0.18	3	100	0	50	1.058773	1.576509	-120.9558	
15:07:01	-6.795883	38.98539	118.522	-1.025972	-26.60671	0.13	3	100	0	50	1.219473	1.533906	-120.9582	
15:07:01	-6.795883	38.98539	118.468	-1.057772	-26.02817	0.34	3	100	0	50	1.148646	1.41131	-120.962	
15:07:01	-6.795884	38.98539	118.331	-1.090983	-25.27976	0.12	3	100	0	50	1.072104	1.424585	-120.9396	
15:07:02	-6.795884	38.98539	118.317	-1.114778	-24.10637	0.19	3	100	0	50	0.8206008	1.655168	-120.9609	
15:07:02	-6.795885	38.98539	118.241	-1.130133	-22.80267	0.26	3	100	0	50	0.7947111	1.72894	-120.9945	
15:07:02	-6.795885	38.98539	118.133	-1.142038	-21.65245	0.09	3	100	0	50	0.9033061	1.921031	-121.0363	
15:07:02	-6.795885	38.98539	118.107	-1.138377	-20.00305	0.12	3	100	0	50	1.008481	1.755076	-121.0736	
15:07:02	-6.795885	38.98539	117.937	-1.129175	-18.15656	0.22	3	100	0	50	0.8398806	1.71957	-121.1085	
15:07:03	-6.795886	38.98539	117.856	-1.080181	-14.02223	0.22	3	100	0	50	0.8153888	1.649968	-121.1285	
15:07:03	-6.795886	38.98539	117.745	-1.024099	-9.468767	0.06	3	100	0	50	0.9256183	1.737309	-121.1722	
15:07:03	-6.795886	38.98539	117.652	-0.9460373	-4.061134	0.08	3	100	0	50	1.127337	1.573653	-121.1793	
15:07:03	-6.795887	38.98539	117.674	-0.8748155	-0.8638738	0.26	3	100	0	50	1.040448	1.574078	-121.1704	
15:07:03	-6.795887	38.98539	117.715	-0.7970068	3.483325	0.08	3	100	0	50	0.9282545	1.58706	-121.1855	
15:07:04	-6.795887	38.98539	117.699	-0.7214882	7.671833	0.03	3	100	0	50	1.1065	1.502668	-121.1817	
15:07:04	-6.795887	38.98539	117.626	-0.6478602	11.07098	0.14	3	100	0	50	1.088053	1.468417	-121.167	
15:07:04	-6.795887	38.98539	117.595	-0.5699736	14.22968	0.09	3	100	0	50	1.053138	1.379218	-121.1463	
15:07:04	-6.795887	38.98539	117.622	-0.5105514	15.81766	0.04	3	100	0	50	1.088415	1.444197	-121.1248	
15:07:04	-6.795887	38.98539	117.601	-0.4880576	15.20148	0.17	3	100	0	50	1.098351	1.433052	-121.1258	
15:07:05	-6.795887	38.98539	117.62	-0.4634169	14.41276	0.26	3	100	0	50	1.162447	1.272338	-121.1071	
15:07:05	-6.795887	38.98539	117.716	-0.4100859	15.4914	0.06	3	100	0	50	1.182704	1.36163	-121.0613	
15:07:05	-6.795887	38.98539	117.734	-0.3726721	16.07274	0.14	3	100	0	50	1.166199	1.580818	-121.0479	
15:07:05	-6.795887	38.98539	117.724	-0.3474683	15.95173	0.17	3	100	0	50	1.177598	1.618703	-121.0305	
15:07:05	-6.795887	38.9854	117.721	-0.32522	15.31655	0.04	3	100	0	50	1.080634	1.638565	-121.0461	
15:07:06	-6.795887	38.9854	117.631	-0.305719	14.6112	0.37	3	100	0	50	1.055857	1.675068	-121.0519	
15:07:06	-6.795887	38.9854	117.599	-0.2885254	13.82997	0.39	3	100	0	50	0.9235539	1.887283	-121.08	
15:07:06	-6.795887	38.9854	117.435	-0.258518	13.93295	0.26	3	100	0	50	0.9224515	1.813092	-121.1265	
15:07:06	-6.795887	38.9854	117.378	-0.2386374	13.2177	0.12	3	100	0	50	0.9838147	1.636672	-121.1563	
15:07:06	-6.795887	38.9854	117.303	-0.2411734	11.53622	0.56	3	100	0	50	1.04916	1.751257	-121.1571	
15:07:07	-6.795887	38.9854	117.194	-0.2389077	10.63108	0.14	3	100	0	50	1.132925	1.654446	-121.183	
15:07:07	-6.795887	38.9854	117.135	-0.2106438	10.96629	0.25	3	100	0	50	1.352393	1.24858	-121.155	
15:07:07	-6.795887	38.9854	117.121	-0.1941098	10.78584	0.09	3	100	0	50	1.221762	1.248865	-121.0989	
15:07:07	-6.795887	38.9854	117.184	-0.1875961	10.22055	0.29	3	100	0	50	1.109106	1.105694	-121.0726	
15:07:07	-6.795887	38.9854	117.247	-0.1762371	9.77891	0.17	3	100	0	50	1.166271	1.233088	-121.014	
15:07:08	-6.795887	38.9854	117.205	-0.1584949	9.680398	0.26	3	100	0	50	1.054595	1.550153	-120.9957	
15:07:08	-6.795887	38.9854	117.156	-0.1431009	9.201286	0.24	3	100	0	50	0.9267198	1.581352	-121.0017	
15:07:08	-6.795887	38.9854	117.154	-0.1314306	8.684481	0.13	3	100	0	50	0.9638464	1.394047	-121.0097	
15:07:08	-6.795887	38.9854	117.156	-0.124053	8.154488	0.5	3	100	0	50	1.285004	1.209226	-120.9669	
15:07:08	-6.795887	38.9854	117.097	-0.1231445	8.219401	0.04	3	100	0	50	1.287798	1.286055	-120.9064	
15:07:09	-6.795887	38.9854	117.092	-0.1166856	8.269066	0.12	3	100	0	50	1.034141	1.338673	-120.8906	
15:07:09	-6.795887	38.9854	117.172	-0.100828	8.407812	0.09	3	100	0	50	1.049259	1.366301	-120.8609	
15:07:09	-6.795887	38.9854	117.172	-0.08450478	8.659431	0.14	3	100	0	50	1.067778	1.52083	-120.8602	
15:07:09	-6.795887	38.9854	116.979	-0.04238416	10.0408	0.41	3	100	0	50	0.8737461	1.738362	-120.8834	
15:07:09	-6.795887	38.9854	116.893	0.001312839	11.40285	0.16	3	100	0	50	0.9278883	1.694452	-120.9147	
15:07:10	-6.795887	38.9854	116.817	0.01257676	11.1039	0.12	3	100	0	50	0.9993975	1.454673	-120.9319	
15:07:10	-6.795887	38.9854	116.751	0.01544304	10.29047	0.19	3	100	0	50	0.8912281	1.31723	-120.919	
15:07:10	-6.795888	38.9854	116.717	-0.02378839	7.198305	0.28	3	100	0	50	0.8835358	1.181098	-120.9046	
15:07:10	-6.795888	38.9854	116.633	-0.07115545	3.979708	0.28	3	100	0	50	1.165505	1.154449	-120.8783	
15:07:10	-6.795889	38.9854	116.549	-0.1000393	2.192792	0.07	3	100	0	50	1.235723	1.281488	-120.8292	
15:07:11	-6.795889	38.9854	116.478	-0.1225885	0.6847808	0.18	3	100	0	50	1.099136	1.336268	-120.8049	
15:07:11	-6.795889	38.9854	116.467	-0.148125	-0.4615829	0.19	3	100	0	50	1.184677	1.500887	-120.7828	
15:07:11	-6.795889	38.9854	116.363	-0.1722833	-1.53203	0.33	3	100	0	50	1.092317	1.78434	-120.7963	
15:07:11	-6.795889	38.9854	116.287	-0.1791186	-1.642126	0.09	3	100	0	50	1.093922	1.722663	-120.8172	
15:07:11	-6.795889	38.9854	116.162	-0.1809062	-1.649071	0.06	3	100	0	50	1.094862	1.572353	-120.8181	
15:07:12	-6.795889	38.9854	116.12	-0.2087019	-2.65307	0.02	3	100	0	50	1.049454	1.546624	-120.8236	
15:07:12	-6.795889	38.9854	116.149	-0.2441366	-4.296157	0.28	3	100	0	50	0.9631497	1.709046	-120.8254	
15:07:12	-6.795889	38.9854	116.26	-0.2311858	-3.59721	0.44	3	100	0	50	0.754612	1.787346	-120.8652	
15:07:12	-6.795889	38.9854	116.348	-0.1997748	-1.595445	0.06	3	100	0	50	0.9127778	1.548724	-120.9074	
15:07:13	-6.795889	38.9854	116.314	-0.1721723	-0.4447853	0.11	3	100	0	50	1.118147	1.501913	-120.9003	
15:07:13	-6.795889	38.9854	116.229	-0.1498668	1.305379	0.16	3	100	0	50	1.049848	1.54234	-120.8945	
15:07:13	-6.795889	38.9854	116.21	-0.1240776	2.17946	0.37	3	100	0	50	0.9244601	1.641182	-120.907	
15:07:13	-6.795889	38.9854	116.243	-0.1007008	2.475008	0.37	3	100	0	50	1.282029	1.429188	-120.9133	
15:07:13	-6.795889	38.9854	116.174	-0.07582802	3.727182	0.09	3	100	0	50	1.367373	1.289521	-120.8774	
15:07:14	-6.795889	38.9854	116.209	-0.05266783	4.554189	0.34	3	100	0	50	1.069065	1.568504	-120.8494	
15:07:14	-6.795889	38.9854	116.143	-0.02735452	5.182466	0.18	3	100	0	50	1.181897	1.531717	-120.8649	
15:07:14	-6.795888	38.9854	116.088	0.003200892	6.610826	0.18	3	100	0	50	1.309232	1.436237	-120.8458	
15:07:14	-6.795888	38.9854	116.077	0.00945037	6.427228	0.14	3	100	0	50	1.100967	1.440971	-120.827	
15:07:14	-6.795888	38.9854	116.034	-0.01849303	4.35953	0.07	3	100	0	50	1.184271	1.484899	-120.8188	
15:07:15	-6.795888	38.9854	116.109	-0.04050193	2.031674	0.12	3	100	0	50	1.151491	1.510273	-120.8048	
15:07:15	-6.795888	38.9854	116.116	-0.0417424	1.25956	0.12	3	100	0	50	1.090533	1.434861	-120.7994	
15:07:15	-6.795889	38.9854	116.001	-0.05786075	-0.04192726	0.04	3	100	0	50	1.183434	1.481332	-120.8045	
15:07:15	-6.795889	38.9854	116.054	-0.09322266	-2.023855	0.29	3	100	0	50	1.098355	1.672495	-120.8083	
15:07:15	-6.795888	38.9854	116.1	-0.1324031	-4.050322	0.02	3	100	0	50	1.158298	1.504084	-120.8202	
15:07:16	-6.795888	38.9854	116.02	-0.1779756	-6.316822	0.12	3	100	0	50	1.269317	1.344987	-120.7941	
15:07:16	-6.795888	38.9854	116.088	-0.2058428	-7.317065	0.26	3	100	0	50	1.284662	1.583654	-120.7679	
15:07:16	-6.795888	38.9854	116.114	-0.1993498	-6.959935	0.17	3	100	0	50	1.241248	1.647077	-120.7697	
15:07:16	-6.795888	38.9854	116.153	-0.1990787	-6.584141	0.22	3	100	0	50	1.132444	1.647613	-120.7705	
15:07:16	-6.795887	38.9854	116.168	-0.2202076	-7.147424	0.14	3	100	0	50	1.135663	1.602259	-120.7886	
15:07:17	-6.795887	38.9854	116.247	-0.2372468	-7.232389	0.19	3	100	0	50	1.186844	1.618662	-120.7938	
15:07:17	-6.795887	38.9854	116.206	-0.2510222	-7.175332	0.19	3	100	0	50	1.165354	1.313312	-120.7924	
15:07:17	-6.795887	38.9854	116.223	-0.2740748	-7.541019	0.19	3	100	0	50	1.275266	1.199928	-120.7518	
15:07:17	-6.795887	38.9854	116.123	-0.3124337	-8.621964	0.31	3	100	0	50	1.414827	1.177267	-120.7068	
15:07:17	-6.795887	38.9854	116.172	-0.3284796	-8.616479	0.06	3	100	0	50	1.214568	1.339887	-120.6669	
15:07:18	-6.795887	38.9854	116.224	-0.3173962	-6.892568	0.21	3	100	0	50	1.032506	1.580659	-120.6622	
15:07:18	-6.795888	38.9854	116.134	-0.3076229	-5.862254	0.14	3	100	0	50	1.064699	1.45481	-120.6757	
15:07:18	-6.795888	38.9854	116.072	-0.3010087	-5.172708	0.17	3	100	0	50	1.267332	1.493755	-120.6712	
15:07:18	-6.795887	38.9854	116.154	-0.2964308	-4.475369	0.18	3	100	0	50	1.095257	1.685725	-120.6706	
15:07:18	-6.795887	38.9854	116.104	-0.2997362	-4.242492	0.07	3	100	0	50	1.308977	1.410009	-120.6603	
15:07:19	-6.795887	38.9854	116.104	-0.297461	-4.072922	0.07	3	100	0	50	1.185603	1.422099	-120.6265	
15:07:19	-6.795887	38.9854	116.13	-0.2848004	-2.668756	0.44	3	100	0	50	1.370212	1.219097	-120.5911	
15:07:19	-6.795888	38.98539	116.17	-0.2720388	-1.372674	0.08	3	100	0	50	1.200284	1.236397	-120.538	
15:07:19	-6.795888	38.98539	116.054	-0.3103788	-3.3741	0.17	3	100	0	50	1.20517	1.386245	-120.5279	
15:07:19	-6.795887	38.98539	116.009	-0.3496239	-5.064588	0.09	3	100	0	50	1.381034	1.622677	-120.5184	
15:07:20	-6.795887	38.98539	116.009	-0.372512	-5.017715	0.09	3	100	0	50	1.355725	1.619854	-120.5204	
15:07:20	-6.795888	38.98539	115.868	-0.3880124	-5.521873	0.61	3	100	0	50	1.314313	1.577108	-120.525	
15:07:20	-6.795888	38.98539	115.789	-0.401657	-5.755052	0.58	3	100	0	50	1.528522	1.087636	-120.5013	
15:07:20	-6.795888	38.98539	115.896	-0.4117887	-6.192837	0.63	3	100	0	50	0.9711049	1.849652	-120.4654	
15:07:20	-6.795888	38.98539	115.871	-0.3885159	-4.803372	0.22	3	100	0	50	0.8693368	2.170616	-120.5465	
15:07:21	-6.795888	38.98539	115.876	-0.3602446	-2.954001	0.26	3	100	0	50	1.171723	1.662472	-120.5977	
15:07:21	-6.795888	38.98539	115.883	-0.3236834	-1.095655	0.21	3	100	0	50	0.9685661	1.899871	-120.6212	
15:07:21	-6.795888	38.98539	115.78	-0.2891411	0.2752078	0.48	3	100	0	50	1.08443	1.982357	-120.6708	
15:07:21	-6.795887	38.98539	115.817	-0.2791746	0.5383565	0.04	3	100	0	50	0.8967003	2.231542	-120.7345	
15:07:21	-6.795887	38.98539	115.898	-0.275388	0.5282933	0.83	3	100	0	50	1.0051	1.952644	-120.7956	
15:07:22	-6.795887	38.98539	115.902	-0.2737228	0.8398455	0.14	3	100	0	50	1.340295	1.320315	-120.8068	
15:07:22	-6.795888	38.98539	115.924	-0.2722074	1.210898	0.32	3	100	0	50	0.7957926	1.88789	-120.7876	
15:07:22	-6.795887	38.98539	116.042	-0.3132693	-1.092254	0.09	3	100	0	50	0.8982758	1.860911	-120.8372	
15:07:22	-6.795887	38.98539	116.038	-0.3610421	-4.073386	0.02	3	100	0	50	0.8822398	1.988943	-120.8847	
15:07:22	-6.795888	38.98539	116.03	-0.3621185	-4.179074	0.02	3	100	0	50	0.7807287	2.044704	-120.9378	
15:07:23	-6.795888	38.98539	115.928	-0.3528769	-3.229466	0.04	3	100	0	50	0.7533645	2.032928	-120.9982	
15:07:23	-6.795888	38.98539	115.935	-0.3535323	-3.360004	0.13	3	100	0	50	0.7348275	2.003842	-121.059	
15:07:23	-6.795889	38.98539	115.994	-0.3555844	-2.719258	0.85	3	100	0	50	0.6988454	2.069627	-121.1399	
15:07:23	-6.795889	38.98539	116.027	-0.3390969	-1.868518	0.26	3	100	0	50	0.7933806	1.43382	-121.1968	
15:07:23	-6.795889	38.98539	116.058	-0.3206986	-0.6122031	0.12	3	100	0	50	0.9801253	1.997359	-121.2065	
15:07:24	-6.795889	38.98539	116.022	-0.3207232	-0.2114284	0.47	3	100	0	50	0.9446738	2.315516	-121.264	
15:07:24	-6.795889	38.98539	116.011	-0.3242701	0.02293167	0.34	3	100	0	50	0.6286627	2.841218	-121.3639	
15:07:24	-6.795889	38.98539	115.794	-0.3335207	-0.2910657	0.57	3	100	0	50	0.6250128	2.869461	-121.5062	
15:07:24	-6.795889	38.98539	115.828	-0.3730802	-2.877282	0.29	3	100	0	50	0.7267382	3.065805	-121.6598	
15:07:24	-6.795889	38.98539	115.793	-0.4028737	-3.673761	0.19	3	100	0	50	0.6530126	2.834434	-121.7842	
15:07:25	-6.795889	38.98539	115.786	-0.4253819	-5.135411	0.36	3	100	0	50	0.7074783	2.653188	-121.8986	
15:07:25	-6.795889	38.98539	115.642	-0.4756602	-7.765595	0.31	3	100	0	50	0.570126	2.581019	-122.0033	
15:07:25	-6.795889	38.98539	115.703	-0.5603253	-11.69162	0.22	3	100	0	50	0.9191005	2.696746	-122.083	
15:07:25	-6.795889	38.98539	115.747	-0.6282787	-14.81367	0.25	3	100	0	50	1.00233	2.263344	-122.1383	
15:07:25	-6.795889	38.98539	115.764	-0.6942525	-17.33707	0.52	3	100	0	50	0.9270603	2.166091	-122.1608	
15:07:26	-6.795889	38.98539	115.762	-0.7504887	-18.59661	0.22	3	100	0	50	0.6246172	2.999073	-122.2331	
15:07:26	-6.795889	38.98539	115.812	-0.7933429	-18.65455	0.12	3	100	0	50	0.658971	2.675192	-122.3302	
15:07:26	-6.795889	38.98539	115.947	-0.8181116	-18.11779	0.21	3	100	0	50	0.7930266	2.605045	-122.3885	
15:07:26	-6.795889	38.98539	116.085	-0.8016743	-14.87806	0.26	3	100	0	50	0.7541954	2.685992	-122.4546	
15:07:26	-6.795889	38.98539	116.088	-0.7833668	-12.263	0.13	3	100	0	50	0.726017	2.722593	-122.5349	
15:07:27	-6.79589	38.98539	116.107	-0.764735	-10.05071	0.41	3	100	0	50	1.034233	2.594723	-122.5903	
15:07:27	-6.795889	38.98539	116.337	-0.7432528	-8.291726	0.52	3	100	0	50	0.6077622	2.683286	-122.6576	
15:07:27	-6.795889	38.98538	116.458	-0.716762	-6.307354	0.55	3	100	0	50	1.132614	2.237284	-122.6811	
15:07:27	-6.795889	38.98538	116.457	-0.6846027	-3.871986	0.07	3	100	0	50	1.193053	2.099877	-122.6515	
15:07:27	-6.795889	38.98538	116.618	-0.6404312	-1.210634	0.44	3	100	0	50	0.8287767	2.434491	-122.6694	
15:07:28	-6.795889	38.98538	116.645	-0.588095	2.303945	0.09	3	100	0	50	1.230371	2.565257	-122.6872	
15:07:28	-6.795889	38.98538	116.707	-0.4980336	6.642225	0.16	3	100	0	50	0.8965198	2.427814	-122.7158	
15:07:28	-6.795889	38.98538	116.91	-0.4168991	9.862033	0.21	3	100	0	50	0.7373816	2.35429	-122.7526	
15:07:28	-6.795889	38.98538	116.967	-0.3428477	12.80401	0.11	3	100	0	50	0.7385024	2.662438	-122.7933	
15:07:28	-6.795889	38.98538	117.049	-0.2768626	15.03182	0.39	3	100	0	50	0.7123529	2.463163	-122.8529	
15:07:29	-6.795889	38.98538	117.122	-0.2117948	17.70749	0.14	3	100	0	50	1.120833	2.176421	-122.8783	
15:07:29	-6.795889	38.98538	117.039	-0.155162	19.25848	0.44	3	100	0	50	0.7352085	2.566263	-122.9062	
15:07:29	-6.795889	38.98538	116.97	-0.09051108	20.86311	0.38	3	100	0	50	0.5998027	2.919044	-122.9899	
15:07:29	-6.795889	38.98538	117.12	-0.0376653	21.38618	0.47	3	100	0	50	0.9473977	2.203585	-123.0292	
15:07:29	-6.795889	38.98538	117.068	0.008461549	22.08672	0.16	3	100	0	50	0.4011283	2.592128	-123.0718	
15:07:30	-6.795889	38.98538	117.196	0.05473948	21.56593	0.31	3	100	0	50	1.008893	2.368383	-123.1074	
15:07:30	-6.795889	38.98538	117.209	0.03617937	18.54966	0.36	3	100	0	50	1.038501	2.06522	-123.1111	
15:07:30	-6.795889	38.98538	117.11	0.007018464	15.13988	0.29	3	100	0	50	1.395922	2.22324	-123.0758	
15:07:30	-6.795889	38.98538	117.062	-0.01645735	12.45593	0.44	3	100	0	50	1.417964	2.259315	-123.0527	
15:07:30	-6.795889	38.98538	116.978	-0.04077686	9.765368	0.36	3	100	0	50	1.289935	1.933518	-123.0389	
15:07:31	-6.795889	38.98538	116.963	-0.07259441	6.798927	0.33	3	100	0	50	0.6584339	2.794548	-123.0692	
15:07:31	-6.795889	38.98538	117.027	-0.1028818	4.263168	0.35	3	100	0	50	0.7208098	2.911101	-123.1517	
15:07:31	-6.795889	38.98538	117.001	-0.1126429	2.798445	0.17	3	100	0	50	0.5885059	2.726368	-123.2341	
15:07:31	-6.795889	38.98538	116.906	-0.1138365	2.020757	0.13	3	100	0	50	1.317626	2.652843	-123.2494	
15:07:31	-6.795889	38.98538	116.941	-0.1302679	1.069285	0.09	3	100	0	50	1.072863	2.592246	-123.2858	
15:07:32	-6.795889	38.98538	116.829	-0.1490554	0.1596664	0.26	3	100	0	50	1.318622	2.432721	-123.2856	
15:07:32	-6.795889	38.98538	116.829	-0.2111693	-3.27495	0.07	3	100	0	50	1.498074	2.341739	-123.2628	
15:07:32	-6.795889	38.98538	116.792	-0.2842996	-6.076274	0.19	3	100	0	50	1.258298	2.391586	-123.2529	
15:07:32	-6.795889	38.98538	116.755	-0.3529572	-8.694587	0.04	3	100	0	50	1.122617	2.163974	-123.243	
15:07:32	-6.795889	38.98538	116.653	-0.4142235	-11.13986	0.22	3	100	0	50	1.137964	2.344126	-123.2348	
15:07:33	-6.795889	38.98538	116.63	-0.4565398	-12.49953	0.26	3	100	0	50	0.9996582	2.116769	-123.2423	
15:07:33	-6.795889	38.98538	116.588	-0.489368	-13.02772	0.17	3	100	0	50	0.9630051	2.496682	-123.2471	
15:07:33	-6.795889	38.98538	116.686	-0.508155	-12.78179	0.03	3	100	0	50	1.426311	2.291168	-123.2329	
15:07:33	-6.795889	38.98538	116.71	-0.5205668	-12.3274	0.08	3	100	0	50	1.297368	2.186901	-123.2079	
15:07:33	-6.795889	38.98538	116.682	-0.5695179	-14.24528	0.14	3	100	0	50	1.22679	2.237797	-123.1837	
15:07:34	-6.795889	38.98538	116.708	-0.6338935	-16.02159	0.24	3	100	0	50	1.431994	2.13735	-123.1464	
15:07:34	-6.795889	38.98538	116.766	-0.6887352	-17.6877	0.12	3	100	0	50	1.035583	2.360156	-123.142	
15:07:34	-6.795889	38.98538	116.807	-0.7455643	-19.0769	0.34	3	100	0	50	1.111407	2.24249	-123.1401	
15:07:34	-6.795888	38.98538	116.955	-0.7875376	-19.82419	0.09	3	100	0	50	1.45695	2.082181	-123.0947	
15:07:34	-6.795889	38.98538	116.893	-0.8184407	-19.28545	0.26	3	100	0	50	1.146052	2.031778	-123.0653	
15:07:35	-6.795889	38.98537	116.865	-0.8074505	-16.87665	0.33	3	100	0	50	1.005587	1.789598	-123.0433	
15:07:35	-6.795889	38.98537	116.887	-0.7478578	-12.2566	0.11	3	100	0	50	1.307434	1.747207	-122.9788	
15:07:35	-6.795889	38.98537	116.896	-0.682785	-7.910563	0.18	3	100	0	50	1.23494	1.971905	-122.9311	
15:07:35	-6.795889	38.98537	117.026	-0.6122322	-3.727903	0.09	3	100	0	50	0.9266368	2.040688	-122.9146	
15:07:35	-6.795889	38.98537	117.158	-0.550416	-0.3025445	0.17	3	100	0	50	1.297838	1.991881	-122.8893	
15:07:36	-6.795889	38.98537	117.139	-0.4991072	2.767432	0.34	3	100	0	50	1.127182	2.120902	-122.8829	
15:07:36	-6.795889	38.98537	117.229	-0.4606597	4.470343	0.28	3	100	0	50	1.33422	1.606483	-122.8408	
15:07:36	-6.795889	38.98537	117.245	-0.4451183	5.259679	0.11	3	100	0	50	0.9499934	2.168774	-122.8086	
15:07:36	-6.795889	38.98537	117.387	-0.4242577	6.215424	0.29	3	100	0	50	1.093847	2.024807	-122.7983	
15:07:36	-6.795888	38.98537	117.416	-0.3832984	7.595778	0.22	3	100	0	50	1.451497	2.204272	-122.7696	
15:07:37	-6.795888	38.98537	117.557	-0.3763364	7.117807	0.04	3	100	0	50	1.492799	1.938205	-122.733	
15:07:37	-6.795888	38.98537	117.481	-0.4274883	4.015569	0.14	3	100	0	50	1.243384	1.940621	-122.7041	
15:07:37	-6.795888	38.98537	117.548	-0.4846965	0.9150379	0.18	3	100	0	50	1.202147	1.991593	-122.6811	
15:07:37	-6.795888	38.98537	117.603	-0.5447906	-2.448555	0.09	3	100	0	50	1.32265	1.958553	-122.6577	
15:07:37	-6.795889	38.98537	117.531	-0.5980984	-5.128978	0.07	3	100	0	50	1.146287	1.756067	-122.6321	
15:07:38	-6.795889	38.98537	117.482	-0.6135787	-5.295141	0.14	3	100	0	50	1.305149	1.835704	-122.5892	
15:07:38	-6.795889	38.98537	117.449	-0.6186926	-5.098527	0.26	3	100	0	50	1.40506	1.766659	-122.5381	
15:07:38	-6.795889	38.98537	117.481	-0.5921724	-2.662541	0.17	3	100	0	50	1.414039	1.591438	-122.487	
15:07:38	-6.795889	38.98537	117.499	-0.5541089	0.1073805	0.16	3	100	0	50	1.154842	1.972257	-122.4667	
15:07:38	-6.795888	38.98537	117.647	-0.4976481	2.638639	0.25	3	100	0	50	1.324627	1.771311	-122.4472	
15:07:39	-6.795888	38.98537	117.592	-0.4475965	4.643921	0.04	3	100	0	50	1.341613	2.027092	-122.4146	
15:07:39	-6.795888	38.98537	117.646	-0.3813057	7.631684	0.09	3	100	0	50	1.157858	1.876645	-122.3958	
15:07:39	-6.795888	38.98537	117.634	-0.3180614	9.867377	0.11	3	100	0	50	1.115298	1.759799	-122.3628	
15:07:39	-6.795889	38.98537	117.661	-0.2664255	11.57265	0.35	3	100	0	50	1.009804	1.803301	-122.3455	
15:07:39	-6.795889	38.98537	117.597	-0.2153568	12.95255	0.13	3	100	0	50	0.9116663	2.041817	-122.3415	
15:07:40	-6.795889	38.98537	117.579	-0.1485213	15.43885	0.04	3	100	0	50	1.232791	1.65103	-122.3124	
15:07:40	-6.795889	38.98537	117.639	-0.08446438	17.29292	0.08	3	100	0	50	1.166129	1.679119	-122.2633	
15:07:40	-6.795889	38.98537	117.653	-0.05407567	17.62526	0.14	3	100	0	50	1.237133	1.549037	-122.195	
15:07:40	-6.795889	38.98537	117.587	-0.03454373	16.55299	0.26	3	100	0	50	1.313103	1.498001	-122.1305	
15:07:40	-6.795889	38.98537	117.592	0.002972497	17.3554	0.09	3	100	0	50	1.278227	1.346533	-122.062	
15:07:41	-6.795889	38.98537	117.674	0.03937245	17.40046	0.14	3	100	0	50	1.217871	1.527025	-122.0095	
15:07:41	-6.795889	38.98537	117.724	0.02677116	15.01979	0.12	3	100	0	50	1.111397	1.477387	-121.966	
15:07:41	-6.795889	38.98537	117.786	0.002132788	12.5084	0.22	3	100	0	50	1.294202	1.574921	-121.9086	
15:07:41	-6.795889	38.98537	117.881	-0.01810566	10.13754	0.03	3	100	0	50	1.277896	1.827342	-121.8737	
15:07:41	-6.795888	38.98537	117.913	-0.04004439	8.059891	0.35	3	100	0	50	1.295998	1.680864	-121.8486	
15:07:42	-6.795888	38.98537	118.011	-0.03400002	7.633983	0.19	3	100	0	50	1.537467	1.728051	-121.7958	
15:07:42	-6.795887	38.98537	118.207	-0.02324716	7.535273	0.21	3	100	0	50	1.397357	1.590503	-121.734	
15:07:42	-6.795887	38.98537	118.14	-0.004320556	7.895519	0.14	3	100	0	50	1.361201	1.676321	-121.6828	
15:07:42	-6.795887	38.98537	118.084	0.01405574	7.842851	0.28	3	100	0	50	1.268796	1.749188	-121.6788	
15:07:42	-6.795888	38.98537	118.023	0.05538279	8.85531	0.14	3	100	0	50	1.409319	1.602574	-121.6409	
15:07:43	-6.795888	38.98537	118.014	0.09538531	10.04889	0.19	3	100	0	50	1.060989	1.571042	-121.6108	
15:07:43	-6.795888	38.98537	118.14	0.09910612	8.907681	0.48	3	100	0	50	1.075131	1.781172	-121.6095	
15:07:43	-6.795888	38.98537	118.222	0.09342242	8.207865	0.14	3	100	0	50	0.9612926	1.654924	-121.6209	
15:07:43	-6.795889	38.98537	118.245	0.08640981	7.049062	0.04	3	100	0	50	1.429529	1.504612	-121.5895	
15:07:43	-6.795889	38.98537	118.178	0.07768381	6.221678	0.33	3	100	0	50	1.419954	1.436392	-121.553	
15:07:44	-6.795889	38.98537	118.064	0.07377472	5.419007	0.34	3	100	0	50	1.674442	1.184279	-121.4636	
15:07:44	-6.795889	38.98537	118.188	0.08853042	6.149683	0.09	3	100	0	50	1.604009	1.286809	-121.3721	
15:07:44	-6.795889	38.98537	118.116	0.09804104	5.796877	0.18	3	100	0	50	1.389822	1.460553	-121.3225	
15:07:44	-6.79589	38.98537	118.084	0.09345832	4.728514	0.09	3	100	0	50	1.225856	1.30766	-121.2692	
15:07:44	-6.79589	38.98537	118.136	0.07164075	3.081631	0.13	3	100	0	50	1.327335	1.369912	-121.2015	
15:07:45	-6.79589	38.98537	118.083	0.01585247	0.2151024	0.22	3	100	0	50	1.499243	1.373075	-121.1403	
15:07:45	-6.79589	38.98537	118.129	-0.05074775	-4.027579	0.18	3	100	0	50	1.392517	1.339901	-121.0721	
15:07:45	-6.795891	38.98537	118.124	-0.146143	-8.60274	0.11	3	100	0	50	1.144174	1.453856	-121.0384	
15:07:45	-6.79589	38.98537	118.278	-0.218458	-11.31919	0.04	3	100	0	50	1.274617	1.488133	-121.0084	
15:07:45	-6.79589	38.98537	118.252	-0.2712644	-13.39385	0.09	3	100	0	50	1.318922	1.389223	-120.9732	
15:07:46	-6.795891	38.98537	118.263	-0.3173161	-15.15958	0.07	3	100	0	50	1.271808	1.474795	-120.9482	
15:07:46	-6.795891	38.98537	118.28	-0.352716	-15.6958	0.13	3	100	0	50	1.20229	1.394293	-120.9162	
15:07:46	-6.79589	38.98537	118.466	-0.3811511	-15.61238	0.12	3	100	0	50	1.257956	1.303395	-120.8748	
15:07:46	-6.79589	38.98537	118.557	-0.3926595	-14.91749	0.21	3	100	0	50	1.452772	1.274026	-120.8254	
15:07:46	-6.795889	38.98537	118.654	-0.4134261	-14.18321	0.32	3	100	0	50	1.548161	1.272641	-120.7653	
15:07:47	-6.795889	38.98537	118.664	-0.4460891	-14.82181	0.26	3	100	0	50	1.543299	1.191172	-120.6997	
15:07:47	-6.79589	38.98537	118.625	-0.460839	-14.4692	0.08	3	100	0	50	1.347629	1.181624	-120.643	
15:07:47	-6.79589	38.98537	118.644	-0.454035	-12.5607	0.09	3	100	0	50	1.201925	1.346078	-120.6171	
15:07:47	-6.79589	38.98537	118.683	-0.4464299	-11.0784	0.14	3	100	0	50	1.327887	1.417411	-120.579	
15:07:47	-6.79589	38.98537	118.619	-0.4453279	-10.4168	0.07	3	100	0	50	1.371563	1.349197	-120.5305	
15:07:48	-6.79589	38.98537	118.634	-0.4469314	-9.588842	0.11	3	100	0	50	1.317819	1.34083	-120.5029	
15:07:48	-6.79589	38.98537	118.692	-0.4616865	-9.154703	0.06	3	100	0	50	1.270015	1.382187	-120.4851	
15:07:48	-6.79589	38.98537	118.756	-0.4803562	-9.145573	0.07	3	100	0	50	1.159581	1.360946	-120.4727	
15:07:48	-6.79589	38.98537	118.876	-0.5105816	-10.68365	0.17	3	100	0	50	1.122154	1.393616	-120.4598	
15:07:48	-6.79589	38.98537	118.926	-0.5369	-10.88332	0.14	3	100	0	50	1.129619	1.537688	-120.4609	
15:07:49	-6.79589	38.98537	118.88	-0.5748536	-12.23913	0.12	3	100	0	50	1.229421	1.53173	-120.454	
15:07:49	-6.79589	38.98537	118.903	-0.610663	-12.35866	0.16	3	100	0	50	1.062063	1.545313	-120.4539	
15:07:49	-6.795891	38.98537	118.863	-0.6297266	-11.6872	0.22	3	100	0	50	0.9299334	1.40737	-120.4677	
15:07:49	-6.795891	38.98537	118.993	-0.6442453	-11.41046	0.08	3	100	0	50	0.955291	1.329396	-120.4671	
15:07:49	-6.795891	38.98537	119.061	-0.653614	-10.95152	0.19	3	100	0	50	1.175144	1.347201	-120.459	
15:07:50	-6.795892	38.98537	119.074	-0.6601387	-10.32351	0.12	3	100	0	50	1.25491	1.273572	-120.4079	
15:07:50	-6.795892	38.98537	119.079	-0.6496482	-8.757819	0.25	3	100	0	50	1.219957	1.29815	-120.3854	
15:07:50	-6.795892	38.98537	119.212	-0.6333566	-6.809809	0.26	3	100	0	50	1.312628	1.225712	-120.3408	
15:07:50	-6.795892	38.98536	119.095	-0.6462882	-6.600927	0.09	3	100	0	50	1.233523	1.263852	-120.2979	
15:07:50	-6.795892	38.98536	119.158	-0.6618288	-6.814047	0.31	3	100	0	50	1.193064	1.274169	-120.2668	
15:07:51	-6.795893	38.98536	119.272	-0.6574702	-5.802363	0.22	3	100	0	50	1.048031	1.215488	-120.252	
15:07:51	-6.795893	38.98536	119.287	-0.6463293	-4.839662	0.04	3	100	0	50	1.05573	1.369089	-120.2281	
15:07:51	-6.795893	38.98536	119.357	-0.6375586	-3.835384	0.34	3	100	0	50	0.9651982	1.53026	-120.2245	
15:07:51	-6.795893	38.98536	119.46	-0.6287872	-3.238758	0.32	3	100	0	50	0.8076444	1.510657	-120.2585	
15:07:52	-6.795894	38.98536	119.509	-0.634838	-3.319053	0.39	3	100	0	50	0.7631501	1.349974	-120.2774	
15:07:52	-6.795894	38.98536	119.57	-0.6457076	-3.298854	0.04	3	100	0	50	0.9814304	1.332941	-120.2565	
15:07:52	-6.795894	38.98537	119.646	-0.6384566	-2.12261	0.26	3	100	0	50	1.130155	1.471859	-120.2496	
