Date	Latitude(deg) 	Longitude(deg)	hamsl(m)	hafl(m)	climbrate(cm/s)	GroundSpeed(m/s)	Airspeed(m/s)	Mav_Link(%)	Rssi_Link(%)	Throttle	Roll(deg)	Pitch(deg)	Yaw(deg)
15:31:16	-6.79591	38.98529	134.899	0	0	0.58	0	100	0	0	3.792993	0.7451417	-85.27968	
15:31:16	-6.795909	38.98529	134.838	2.041955	-0.1502433	0.29	3	100	0	50	3.837149	1.479187	-85.14424	
15:31:16	-6.795911	38.98526	136.866	2.068555	-0.08102138	0.72	3	100	0	50	3.722724	1.451225	-85.08163	
15:31:16	-6.795911	38.98526	136.919	1.626722	-24.89201	0.12	3	100	0	50	3.900033	1.528321	-84.98894	
15:31:17	-6.795911	38.98526	136.921	1.158937	-48.63671	0.74	3	100	0	50	3.976972	2.543992	-84.97051	
15:31:17	-6.795912	38.98526	136.752	0.7466451	-67.44639	0.45	3	100	0	50	3.757833	2.761583	-85.05425	
15:31:17	-6.795912	38.98526	136.87	0.5856476	-70.68112	0.33	3	100	0	50	3.849895	2.104038	-85.07826	
15:31:17	-6.795912	38.98526	136.873	0.5131344	-68.45316	0.47	3	100	0	50	4.123358	1.73798	-85.03432	
15:31:17	-6.795912	38.98526	136.966	0.7063551	-52.79152	0.48	3	100	0	50	3.618477	1.992058	-85.0154	
15:31:18	-6.795913	38.98526	136.985	0.9292616	-36.81468	1.03	3	100	0	50	3.815314	3.055365	-85.01072	
15:31:18	-6.795913	38.98526	137.055	1.168206	-22.41576	0.33	3	100	0	50	4.085735	2.753837	-85.0973	
15:31:18	-6.795912	38.98526	137.459	1.359821	-11.83206	0.51	3	100	0	50	4.058216	2.253488	-85.09601	
15:31:18	-6.795912	38.98526	137.565	1.494737	-4.735658	0.58	3	100	0	50	4.059201	2.028284	-85.10233	
15:31:18	-6.795912	38.98526	137.627	1.608332	0.9577203	0.79	3	100	0	50	4.320471	1.846409	-85.07938	
15:31:19	-6.795911	38.98526	137.638	1.686827	3.862531	0.04	3	100	0	50	4.01125	2.498158	-85.07736	
15:31:19	-6.795911	38.98525	137.506	1.761865	5.773257	0.26	3	100	0	50	3.864934	2.736782	-85.10542	
15:31:19	-6.795912	38.98525	137.534	1.821474	7.51455	0.57	3	97	0	50	3.575821	3.092074	-85.13223	
15:31:19	-6.795912	38.98525	137.534	1.948951	9.270017	0.57	3	97	0	50	3.558349	2.989308	-85.23149	
15:31:20	-6.795912	38.98525	137.512	2.008265	9.898276	0.22	3	97	0	50	3.896434	2.338377	-85.26912	
15:31:20	-6.795912	38.98525	137.223	2.072841	10.60782	0.91	3	97	0	50	3.947247	2.969627	-85.25787	
15:31:20	-6.795913	38.98526	135.976	2.1226	10.82333	1.05	3	97	0	50	3.824716	4.257886	-85.37283	
15:31:20	-6.795913	38.98526	135.976	2.157791	9.906505	1.05	3	97	0	50	3.695372	3.497859	-85.55415	
15:31:20	-6.795912	38.98526	135.854	2.20254	10.46342	1.48	3	98	0	50	3.765801	2.352734	-85.6096	
15:31:21	-6.795912	38.98525	135.964	2.264222	10.722	1.64	3	98	0	50	3.779033	1.23348	-85.56506	
15:31:21	-6.795911	38.98524	136.18	2.312693	11.47055	1.4	3	98	0	50	3.92294	0.7817022	-85.43279	
15:31:21	-6.79591	38.98524	136.305	2.346776	10.97095	1.82	3	98	0	50	3.840691	0.9321774	-85.28672	
15:31:21	-6.795909	38.98524	136.6	2.370144	10.0251	1.79	3	98	0	50	3.948668	0.6431617	-85.15433	
15:31:21	-6.79591	38.98524	136.476	2.378812	8.012444	0.47	3	98	0	50	3.89204	0.5347888	-85.00063	
15:31:22	-6.795909	38.98524	136.636	2.382762	6.267142	0.31	3	98	0	50	3.649972	1.965163	-84.88552	
15:31:22	-6.795909	38.98524	136.55	2.397557	5.139669	0.48	3	98	0	50	3.959568	2.616099	-84.8817	
15:31:22	-6.79591	38.98524	136.129	2.410969	4.242326	2.1	3	98	0	50	3.811694	3.216922	-84.95148	
15:31:22	-6.795909	38.98524	136.207	2.403759	2.943779	0.33	3	97	0	50	3.660476	3.910936	-85.01206	
15:31:22	-6.795909	38.98524	136.18	2.391637	1.415617	0.29	3	97	0	50	3.63503	4.12251	-85.33312	
15:31:23	-6.795909	38.98524	136.149	2.395099	0.5446402	0.22	3	98	0	50	3.804769	4.063588	-85.44421	
15:31:23	-6.795908	38.98524	136.294	2.399866	-0.5039346	0.42	3	98	0	50	3.74481	3.85944	-85.59991	
15:31:23	-6.795907	38.98524	136.57	2.416638	-1.091336	0.53	3	98	0	50	3.939593	3.944924	-85.71869	
15:31:23	-6.795907	38.98524	136.304	2.437033	-1.176918	0.78	3	98	0	50	3.968877	3.501577	-85.84111	
15:31:23	-6.795908	38.98524	135.655	2.457439	-0.9389177	1.95	3	98	0	50	3.47932	4.353398	-85.94083	
15:31:24	-6.795909	38.98524	135.511	2.475596	-1.055385	1.45	3	98	0	50	3.305179	5.937889	-86.16364	
15:31:24	-6.795909	38.98524	135.291	2.464624	-2.702329	0.97	3	98	0	50	2.974512	5.716307	-86.51913	
15:31:24	-6.795909	38.98524	135.397	2.446213	-5.477144	0.65	3	98	0	50	3.219007	5.053994	-86.75437	
15:31:24	-6.795908	38.98524	135.598	2.379353	-10.55254	1.03	3	98	0	50	3.498932	3.952657	-86.88907	
15:31:24	-6.795907	38.98524	135.369	2.306762	-14.88224	0.29	3	98	0	50	4.11969	3.383337	-86.92616	
15:31:25	-6.795907	38.98524	135.123	2.26032	-17.33275	0.48	3	98	0	50	3.525249	3.79656	-87.01707	
15:31:25	-6.795907	38.98524	134.939	2.215789	-19.18282	0.37	3	98	0	50	3.193263	4.557275	-87.13786	
15:31:25	-6.795907	38.98524	135.093	2.196586	-19.2325	0.34	3	98	0	50	3.184759	4.396795	-87.27903	
15:31:25	-6.795907	38.98524	135.182	2.184962	-19.46996	0.42	3	98	0	50	3.449367	3.740229	-87.33898	
15:31:25	-6.795906	38.98524	135.283	2.183066	-18.40341	0.66	3	97	0	50	3.502944	3.457104	-87.36204	
15:31:26	-6.795905	38.98524	135.537	2.184544	-18.04067	0.93	3	98	0	50	3.558182	3.097613	-87.37021	
15:31:26	-6.795904	38.98524	135.659	2.210417	-15.74756	0.21	3	98	0	50	3.926343	2.867768	-87.36577	
15:31:26	-6.795902	38.98524	135.964	2.24035	-13.90118	0.66	3	98	0	50	3.464648	3.881368	-87.41302	
15:31:26	-6.795901	38.98524	136.235	2.267913	-12.15913	1.64	3	98	0	50	3.775518	3.325863	-87.43543	
15:31:26	-6.7959	38.98523	136.674	2.292953	-10.51982	1.22	3	98	0	50	3.890296	2.421625	-87.4212	
15:31:27	-6.795899	38.98523	136.859	2.302315	-9.989977	0.25	3	98	0	50	3.667733	2.60756	-87.37515	
15:31:27	-6.795899	38.98523	136.793	2.259622	-12.24795	0.56	3	98	0	50	3.076966	3.863066	-87.40345	
15:31:27	-6.795899	38.98523	136.42	2.216462	-14.53307	0.41	3	98	0	50	3.569863	3.56931	-87.42014	
15:31:27	-6.795898	38.98523	136.137	2.162558	-16.74904	2.08	3	98	0	50	3.319102	4.705943	-87.51462	
15:31:27	-6.795897	38.98523	136.307	2.113536	-18.00621	2.74	3	98	0	50	3.57165	3.11633	-87.59816	
15:31:28	-6.795896	38.98522	136.549	2.081197	-19.09343	1.61	3	98	0	50	3.780552	2.297423	-87.55592	
15:31:28	-6.795895	38.98522	136.497	2.059757	-18.86171	0.71	3	98	0	50	3.446541	3.219873	-87.49641	
15:31:28	-6.795895	38.98522	136.326	2.076166	-17.081	0.78	3	98	0	50	3.803885	4.811476	-87.5327	
15:31:28	-6.795894	38.98522	136.071	2.074458	-16.6931	0.32	3	98	0	50	3.660923	4.727293	-87.71162	
15:31:29	-6.795894	38.98522	135.718	2.041701	-18.06273	0.91	3	97	0	50	3.289124	4.399787	-88.06577	
15:31:29	-6.795892	38.98522	135.252	2.042284	-16.18991	3.03	3	97	0	50	3.563613	3.978603	-88.11492	
15:31:29	-6.795889	38.98521	135.315	2.064431	-13.96908	4.13	3.216197	97	0	50	4.308472	2.554672	-88.08605	
15:31:29	-6.795887	38.98521	135.505	2.085957	-12.36893	3.3	4.313639	98	0	50	4.581568	1.5699	-87.97166	
15:31:29	-6.795884	38.9852	135.566	2.114651	-10.74045	3.03	3.492424	98	0	50	4.239249	2.679567	-87.87532	
15:31:30	-6.795883	38.9852	135.666	2.14518	-8.921708	0.44	3.20824	98	0	50	3.79597	2.817859	-87.81841	
15:31:30	-6.795883	38.9852	135.715	2.17679	-7.012647	0.85	3	98	0	50	3.320664	4.762521	-87.87725	
15:31:30	-6.795883	38.9852	135.51	2.210273	-5.679533	0.31	3	98	0	50	3.292338	4.321375	-88.00384	
15:31:30	-6.795884	38.9852	135.58	2.229195	-4.858069	1.3	3	98	0	50	2.817953	4.970253	-88.16759	
15:31:30	-6.795884	38.98521	135.522	2.230413	-5.09981	0.21	3	98	0	50	2.461386	3.88525	-88.29513	
15:31:31	-6.795885	38.98521	135.194	2.230489	-5.463459	1.15	3	98	0	50	3.383918	5.186219	-88.29362	
15:31:31	-6.795885	38.98521	134.937	2.228533	-6.149097	0.66	3	98	0	50	3.00304	6.457979	-88.53076	
15:31:31	-6.795886	38.98522	134.62	2.221369	-7.271478	0.83	3	98	0	50	3.271744	5.836838	-88.76218	
15:31:31	-6.795886	38.98522	134.67	2.207193	-8.048409	0.52	3	98	0	50	3.073782	5.831756	-88.994	
15:31:31	-6.795886	38.98522	134.432	2.191438	-9.004739	0.29	3	98	0	50	3.31794	4.67776	-89.1035	
15:31:32	-6.795886	38.98522	134.318	2.175823	-9.908786	0.29	3	98	0	50	3.607538	4.89456	-89.17541	
15:31:32	-6.795886	38.98522	134.156	2.160752	-10.68605	0.89	3	98	0	50	3.066728	5.263692	-89.34712	
15:31:32	-6.795887	38.98522	133.954	2.133239	-12.68167	0.47	3	98	0	50	2.972047	6.27478	-89.54027	
15:31:32	-6.795887	38.98522	133.771	2.104216	-14.00267	1.03	3	98	0	50	2.949148	5.690368	-89.70915	
15:31:32	-6.795887	38.98522	133.832	2.070174	-15.51232	0.37	3	98	0	50	2.742013	6.2108	-89.89084	
15:31:33	-6.795888	38.98523	133.658	2.038659	-16.97449	0.14	3	98	0	50	2.981633	5.470868	-90.05975	
15:31:33	-6.795888	38.98523	133.359	2.009127	-18.17275	0.18	3	98	0	50	3.258894	5.060469	-90.1554	
15:31:33	-6.795889	38.98523	133.126	1.985384	-18.43294	0.59	3	98	0	50	3.069563	5.124023	-90.26876	
15:31:33	-6.795889	38.98523	132.948	1.953489	-19.11364	0.58	3	98	0	50	3.184808	5.555633	-90.33698	
15:31:33	-6.795889	38.98524	132.819	1.920763	-19.98122	0.25	3	98	0	50	3.2045	5.433403	-90.46114	
15:31:34	-6.795889	38.98524	132.688	1.906242	-20.11729	1.11	3	98	0	50	3.12428	4.690263	-90.56158	
15:31:34	-6.795889	38.98524	132.567	1.897886	-19.64999	0.65	3	98	0	50	3.371559	3.802824	-90.55163	
15:31:34	-6.795889	38.98524	132.484	1.921458	-16.55479	0.22	3	98	0	50	3.322145	5.345217	-90.54537	
15:31:34	-6.795889	38.98524	132.251	1.953389	-13.84266	0.29	3	98	0	50	3.216033	4.567873	-90.62323	
15:31:34	-6.795889	38.98524	132.229	2.002848	-10.51319	0.26	3	98	0	50	3.526805	4.326124	-90.62331	
15:31:35	-6.795889	38.98524	132.175	2.056739	-7.61051	0.93	3	98	0	50	3.39117	4.783225	-90.64941	
15:31:35	-6.795889	38.98524	132.07	2.009348	-9.764118	0.03	3	98	0	50	3.801364	5.205218	-90.67965	
15:31:35	-6.795888	38.98524	132.111	1.957258	-12.02452	0.48	3	98	0	50	3.443369	4.327714	-90.7327	
15:31:35	-6.795888	38.98524	131.886	1.941916	-12.07315	0.52	3	98	0	50	3.532897	3.595861	-90.6853	
15:31:35	-6.795888	38.98524	131.927	1.936599	-12.29477	1.02	3	98	0	50	3.808673	3.492763	-90.60884	
15:31:36	-6.795887	38.98524	131.973	1.898925	-13.14707	0.34	3	98	0	50	3.62082	3.061535	-90.51756	
15:31:36	-6.795887	38.98524	131.868	1.858189	-14.55757	0.04	3	98	0	50	3.901868	4.428953	-90.41007	
15:31:36	-6.795887	38.98524	132.006	1.822471	-15.79352	0.16	3	98	0	50	3.645106	4.193027	-90.42976	
15:31:36	-6.795886	38.98524	132.095	1.793729	-16.79673	0.24	3	98	0	50	3.85931	4.177314	-90.4365	
15:31:36	-6.795885	38.98524	132.389	1.759017	-17.72716	0.7	3	98	0	50	3.932133	3.815137	-90.44399	
15:31:37	-6.795885	38.98524	132.239	1.700301	-19.40862	0.08	3	98	0	50	4.131109	3.290695	-90.40118	
15:31:37	-6.795885	38.98524	132.137	1.656517	-20.52399	0.24	3	98	0	50	3.79975	3.779371	-90.3234	
15:31:37	-6.795885	38.98524	132.174	1.644735	-19.60875	0.28	3	98	0	50	3.705779	3.927415	-90.28889	
15:31:37	-6.795884	38.98524	132.093	1.638108	-18.16039	0.48	3	98	0	50	3.733504	3.286013	-90.2498	
15:31:37	-6.795884	38.98524	132.114	1.638703	-16.79804	0.33	3	98	0	50	3.888746	3.18381	-90.15844	
15:31:38	-6.795884	38.98524	131.997	1.64787	-14.98084	0.34	3	98	0	50	3.809998	3.973956	-90.09709	
15:31:38	-6.795884	38.98524	131.974	1.676694	-11.85987	0.17	3	98	0	50	3.726604	3.344683	-90.05058	
15:31:38	-6.795884	38.98524	131.825	1.719959	-7.927979	0.17	3	98	0	50	3.761302	3.290696	-89.99799	
15:31:38	-6.795884	38.98524	131.79	1.747697	-6.028153	0.91	3	98	0	50	3.931551	3.184299	-89.94114	
15:31:39	-6.795884	38.98524	131.885	1.801572	-3.056162	0.28	3	98	0	50	3.827419	2.523351	-89.84296	
15:31:39	-6.795884	38.98524	131.845	1.848655	-0.7862339	0.28	3	98	0	50	3.479369	3.365376	-89.7769	
15:31:39	-6.795884	38.98524	131.665	1.888023	1.254925	0.48	3	98	0	50	3.739165	3.17715	-89.72748	
15:31:39	-6.795884	38.98524	131.518	1.937096	3.731674	0.57	3	98	0	50	3.774568	3.249768	-89.6611	
15:31:39	-6.795884	38.98524	131.645	1.993851	5.837263	0.57	3	98	0	50	3.957086	4.293779	-89.64091	
15:31:40	-6.795883	38.98524	131.768	2.032981	7.008268	0.59	3	98	0	50	3.855779	3.498012	-89.65121	
15:31:40	-6.795884	38.98524	131.723	2.061738	7.322482	0.62	3	98	0	50	3.790373	3.626741	-89.62608	
15:31:40	-6.795884	38.98525	131.656	2.108977	8.907972	0.91	3	98	0	50	3.488513	4.622528	-89.66996	
15:31:40	-6.795884	38.98525	131.687	2.180344	11.53508	0.31	3	98	0	50	4.240685	4.96829	-89.68114	
15:31:40	-6.795884	38.98525	131.895	2.249764	13.80239	0.18	3	98	0	50	4.087706	4.421711	-89.74986	
15:31:41	-6.795884	38.98525	131.842	2.307856	14.91197	0.09	3	98	0	50	4.17459	4.054057	-89.76266	
15:31:41	-6.795883	38.98525	131.82	2.34564	15.50883	0.24	3	98	0	50	4.052742	3.926629	-89.78188	
15:31:41	-6.795883	38.98525	131.808	2.349976	13.75828	0.21	3	97	0	50	4.211895	3.755395	-89.78715	
15:31:41	-6.795883	38.98525	131.877	2.355253	10.09856	0.14	3	97	0	50	3.988727	3.385356	-89.75208	
15:31:42	-6.795883	38.98525	131.864	2.359642	9.339743	0.11	3	97	0	50	3.835392	3.456097	-89.71009	
15:31:42	-6.795883	38.98525	131.948	2.339286	7.328944	0.26	3	97	0	50	3.866487	3.436854	-89.6701	
15:31:42	-6.795884	38.98525	131.909	2.313269	4.702636	0.66	3	97	0	50	3.916792	3.065964	-89.58853	
15:31:42	-6.795884	38.98525	131.862	2.298006	2.897678	0.39	3	97	0	50	4.225052	2.699409	-89.47866	
15:31:42	-6.795884	38.98526	131.918	2.284576	2.278986	0.52	3	97	0	50	3.927781	2.839601	-89.39497	
15:31:43	-6.795884	38.98525	131.803	2.31147	3.021082	1.18	3	97	0	50	4.161098	2.547641	-89.28931	
15:31:43	-6.795884	38.98525	131.807	2.34356	3.81534	1.38	3	98	0	50	4.345225	1.960345	-89.14194	
15:31:43	-6.795884	38.98525	131.748	2.373702	5.296369	0.95	3	98	0	50	4.20002	1.919713	-88.95648	
15:31:43	-6.795883	38.98525	131.723	2.40283	6.007703	1.63	3	98	0	50	4.050578	2.206259	-88.8294	
15:31:43	-6.795883	38.98525	131.75	2.410807	5.769204	0.94	3	98	0	50	4.224834	1.865734	-88.67211	
15:31:44	-6.795883	38.98524	131.765	2.41333	5.027421	0.61	3	98	0	50	3.972177	2.503213	-88.56751	
15:31:44	-6.795883	38.98524	131.74	2.371806	1.927312	0.31	3	98	0	50	3.828392	2.881351	-88.49877	
15:31:44	-6.795883	38.98525	131.785	2.322426	-0.9718145	0.09	3	98	0	50	3.62884	3.214376	-88.45607	
15:31:44	-6.795884	38.98525	131.709	2.292828	-2.370041	0.26	3	98	0	50	3.726193	3.30082	-88.43679	
15:31:44	-6.795884	38.98525	131.799	2.264102	-3.794028	0.02	3	98	0	50	3.737352	3.127668	-88.42367	
15:31:45	-6.795884	38.98525	131.867	2.230814	-5.705886	0.42	3	98	0	50	3.921042	3.059023	-88.3883	
15:31:45	-6.795884	38.98525	131.921	2.199369	-6.759075	0.35	3	98	0	50	3.927706	2.697793	-88.31991	
15:31:45	-6.795884	38.98525	131.925	2.174363	-7.406874	0.16	3	98	0	50	3.861177	2.920883	-88.26395	
15:31:45	-6.795885	38.98525	131.852	2.157529	-7.971802	0.26	3	98	0	50	3.981803	3.087822	-88.24421	
15:31:45	-6.795884	38.98524	131.76	2.193047	-5.900098	1.58	3	98	0	50	4.065379	2.444838	-88.2037	
15:31:46	-6.795882	38.98524	131.669	2.240175	-2.825311	1.59	3	98	0	50	4.537943	1.785904	-88.06561	
15:31:46	-6.795882	38.98524	131.544	2.267978	-1.444978	1.44	3	98	0	50	4.469714	1.746252	-87.92987	
15:31:46	-6.795882	38.98524	131.606	2.287243	-0.2358464	0.09	3	98	0	50	3.958329	2.41515	-87.81184	
15:31:46	-6.795882	38.98524	131.725	2.303098	0.2000484	0.34	3	98	0	50	3.651557	3.703807	-87.80314	
15:31:46	-6.795882	38.98524	131.769	2.309208	0.3456456	0.29	3	98	0	50	3.670463	3.95036	-87.84724	
15:31:47	-6.795882	38.98524	131.865	2.303329	-0.3836413	0.22	3	98	0	50	3.734199	3.835423	-87.8481	
15:31:47	-6.795882	38.98524	131.854	2.256129	-2.390564	0.24	3	98	0	50	3.807374	3.485521	-87.8691	
15:31:47	-6.795882	38.98524	131.967	2.208413	-4.815528	0.17	3	98	0	50	3.819227	3.25542	-87.86125	
15:31:47	-6.795882	38.98524	131.87	2.166067	-6.292472	0.26	3	98	0	50	3.809416	3.273478	-87.86794	
15:31:47	-6.795882	38.98524	131.923	2.128327	-8.075941	0.22	3	98	0	50	3.760941	2.933919	-87.82096	
15:31:48	-6.795882	38.98524	131.968	2.094388	-9.471752	0.13	3	98	0	50	3.481581	2.910323	-87.78617	
15:31:48	-6.795882	38.98524	131.958	2.055587	-11.10642	0.45	3	98	0	50	3.575854	2.718152	-87.72512	
15:31:48	-6.795883	38.98524	132.013	2.014624	-11.90538	0.18	3	98	0	50	3.503395	2.663804	-87.64283	
15:31:48	-6.795883	38.98524	131.865	1.979613	-12.97823	0.71	3	98	0	50	3.382088	2.695086	-87.60085	
15:31:48	-6.795883	38.98524	131.877	1.967292	-12.87842	0.24	3	98	0	50	3.472222	2.48378	-87.51213	
15:31:49	-6.795883	38.98524	131.932	1.959689	-11.87686	0.09	3	98	0	50	3.577441	2.911216	-87.44286	
15:31:49	-6.795884	38.98524	131.89	1.960826	-10.54276	0.04	3	98	0	50	3.634043	3.048391	-87.40916	
15:31:49	-6.795884	38.98524	131.948	1.963308	-9.692431	0.51	3	98	0	50	3.579997	2.744682	-87.38692	
15:31:49	-6.795884	38.98524	132.102	1.965905	-8.647844	0.02	3	98	0	50	3.476608	2.47726	-87.31326	
15:31:49	-6.795884	38.98525	132.172	1.97419	-6.996065	0.42	3	98	0	50	3.734186	2.844416	-87.24017	
15:31:50	-6.795884	38.98525	132.239	1.986768	-5.825275	0.06	3	98	0	50	3.765014	2.78978	-87.22335	
15:31:50	-6.795884	38.98525	132.315	1.998838	-5.150007	0.22	3	98	0	50	3.779463	2.380136	-87.17537	
15:31:50	-6.795884	38.98525	132.46	2.008945	-4.326881	0.52	3	98	0	50	3.823932	2.731944	-87.08637	
15:31:50	-6.795884	38.98525	132.325	2.036855	-2.703261	0.26	3	98	0	50	3.789231	3.224997	-87.06301	
15:31:51	-6.795884	38.98525	132.41	2.101312	0.5174866	0.32	3	97	0	50	3.919151	2.730705	-87.03085	
15:31:51	-6.795884	38.98525	132.442	2.2644	8.030713	0.19	3	97	0	50	3.858076	2.665085	-86.98983	
15:31:51	-6.795885	38.98525	132.424	2.355998	11.53247	0.47	3	97	0	50	3.700679	2.598949	-86.93062	
15:31:51	-6.795884	38.98525	132.625	2.43556	14.0776	0.42	3	97	0	50	3.945265	2.522555	-86.86963	
15:31:52	-6.795884	38.98525	132.455	2.499232	16.15242	0.34	3	97	0	50	4.120892	2.869047	-86.81605	
15:31:52	-6.795884	38.98525	132.28	2.573232	18.65776	0.12	3	97	0	50	3.902638	2.98471	-86.8112	
15:31:52	-6.795884	38.98525	132.405	2.631777	19.79227	0.35	3	97	0	50	3.974848	2.877842	-86.77973	
15:31:52	-6.795884	38.98525	132.364	2.667735	19.68844	0.08	3	97	0	50	3.96591	2.776027	-86.74216	
15:31:52	-6.795884	38.98525	132.321	2.697432	19.17561	0.28	3	97	0	50	3.774263	2.565506	-86.70254	
15:31:53	-6.795884	38.98525	132.52	2.705022	17.30118	0.22	3	97	0	50	3.945073	2.59209	-86.66	
15:31:53	-6.795885	38.98525	132.516	2.704828	15.60381	0.08	3	98	0	50	4.2071	2.620754	-86.61111	
15:31:53	-6.795885	38.98525	132.655	2.702855	14.00135	0.26	3	98	0	50	4.275084	2.291283	-86.54209	
15:31:53	-6.795885	38.98525	132.594	2.698226	12.64142	0.21	3	98	0	50	4.241839	2.033514	-86.46673	
15:31:53	-6.795884	38.98525	132.571	2.69524	11.88956	0.16	3	98	0	50	4.209256	2.096691	-86.39032	
15:31:54	-6.795884	38.98525	132.698	2.691112	11.0795	0.56	3	98	0	50	4.272829	1.907123	-86.32217	
15:31:54	-6.795885	38.98525	132.671	2.688375	10.84578	0.19	3	98	0	50	4.197193	1.65238	-86.2714	
15:31:54	-6.795885	38.98525	132.574	2.685048	9.4713	0.25	3	97	0	50	3.998901	2.778411	-86.17031	
15:31:54	-6.795885	38.98525	132.534	2.688927	8.659606	0.81	3	97	0	50	4.12565	2.52008	-86.15479	
15:31:54	-6.795885	38.98525	132.687	2.692448	8.099337	0.17	3	97	0	50	4.175317	2.388563	-86.10835	
15:31:55	-6.795885	38.98525	132.787	2.679393	6.800266	0.26	3	97	0	50	4.244557	2.890564	-86.08166	
15:31:55	-6.795885	38.98525	132.775	2.662228	5.059943	0.22	3	97	0	50	4.182403	3.03839	-86.08344	
15:31:55	-6.795885	38.98525	132.7	2.626138	2.580404	0.28	3	97	0	50	4.118147	2.740768	-86.09155	
15:31:55	-6.795885	38.98525	132.762	2.592324	0.5797834	0.09	3	97	0	50	4.079952	2.582811	-86.0662	
15:31:55	-6.795886	38.98526	132.931	2.571924	-0.6421292	0.42	3	97	0	50	3.988291	2.944717	-86.05856	
15:31:56	-6.795886	38.98526	133.062	2.556623	-1.154279	0.26	3	97	0	50	4.017021	3.064142	-86.06656	
15:31:56	-6.795887	38.98526	132.994	2.549771	-1.601204	0.91	3	98	0	50	4.157515	3.325673	-86.08665	
15:31:56	-6.795887	38.98526	133.093	2.545692	-1.899582	0.26	3	98	0	50	4.302184	3.292114	-86.14239	
15:31:56	-6.795886	38.98526	133.192	2.541322	-1.991959	0.26	3	98	0	50	4.339967	2.867032	-86.16202	
15:31:56	-6.795886	38.98526	133.452	2.536609	-2.58565	0.29	3	97	0	50	4.273998	2.709824	-86.15934	
15:31:57	-6.795887	38.98526	133.404	2.529628	-2.591266	0.38	3	97	0	50	4.144691	2.960155	-86.15504	
15:31:57	-6.795887	38.98526	133.257	2.513077	-2.936067	0.32	3	97	0	50	3.918259	2.7136	-86.16507	
15:31:57	-6.795887	38.98526	133.268	2.485327	-3.660313	0.09	3	97	0	50	3.924865	2.45207	-86.14409	
15:31:57	-6.795888	38.98527	133.448	2.434462	-6.174436	0.28	3	97	0	50	3.977991	2.30265	-86.10178	
15:31:57	-6.795888	38.98527	133.568	2.417292	-6.634841	0.45	3	97	0	50	4.22041	2.648883	-86.02343	
15:31:57	-6.795888	38.98527	133.471	2.445354	-4.725331	0.57	3	97	0	50	4.429309	3.114755	-86.01707	
15:31:58	-6.795888	38.98527	133.339	2.480637	-2.857923	0.37	3	97	0	50	4.373304	3.067686	-86.05183	
15:31:58	-6.795888	38.98527	133.569	2.522123	-0.527355	0.31	3	97	0	50	4.330206	2.651302	-86.06647	
15:31:58	-6.795888	38.98527	133.459	2.550426	0.5783268	0.56	3	97	0	50	4.36666	2.119057	-86.02381	
15:31:58	-6.795888	38.98527	133.262	2.524683	-1.092461	0.13	3	97	0	50	4.311912	2.282108	-85.95111	
15:31:59	-6.795888	38.98527	133.258	2.504694	-2.255408	0.33	3	97	0	50	4.35284	2.733967	-85.91982	
15:31:59	-6.795889	38.98527	133.275	2.500395	-2.034942	0.17	3	97	0	50	4.399776	2.664238	-85.92516	
15:31:59	-6.795889	38.98528	133.445	2.486907	-2.529945	0.14	3	97	0	50	4.329391	2.449203	-85.90563	
15:31:59	-6.795889	38.98528	133.382	2.454752	-3.74901	0.19	3	97	0	50	4.223246	2.697209	-85.87339	
15:31:59	-6.795889	38.98528	133.112	2.443272	-4.368412	0.57	3	97	0	50	4.243226	3.126156	-85.86502	
15:32:00	-6.795889	38.98528	132.761	2.465572	-2.961056	0.97	3	97	0	50	4.45537	3.569739	-85.90742	
15:32:00	-6.795889	38.98528	132.591	2.470438	-1.936468	0.33	3	97	0	50	4.526317	3.20462	-85.97681	
15:32:00	-6.795889	38.98528	132.508	2.456931	-2.412074	0.29	3	97	0	50	4.504558	3.295629	-86.02712	
15:32:00	-6.795889	38.98528	132.385	2.443866	-3.474651	0.13	3	97	0	50	4.397185	3.366575	-86.0669	
15:32:01	-6.795889	38.98528	132.355	2.44375	-3.595881	0.07	3	97	0	50	4.384267	3.470003	-86.12888	
15:32:01	-6.795889	38.98528	132.19	2.453366	-2.867497	0.44	3	97	0	50	4.111311	3.659315	-86.20012	
15:32:01	-6.795889	38.98528	132.207	2.46331	-2.21997	0.47	3	97	0	50	4.119062	3.382787	-86.24306	
15:32:01	-6.795889	38.98528	132.281	2.508307	0.4675965	0.28	3	97	0	50	3.97523	3.22975	-86.27694	
15:32:01	-6.79589	38.98528	132.11	2.558408	2.738556	0.24	3	97	0	50	3.891857	3.254186	-86.32249	
15:32:02	-6.79589	38.98528	132.185	2.648262	6.569347	0.24	3	97	0	50	4.132229	3.452908	-86.35111	
15:32:02	-6.79589	38.98528	132.012	2.741361	10.90385	0.29	3	97	0	50	4.01253	3.630934	-86.39583	
15:32:02	-6.79589	38.98528	131.95	2.83297	14.41628	0.33	3	97	0	50	3.808211	3.611915	-86.46884	
15:32:02	-6.795891	38.98528	131.859	2.907695	16.57348	0.22	3	97	0	50	3.861791	3.455238	-86.52478	
15:32:02	-6.795891	38.98528	131.607	2.937126	16.30359	0.41	3	97	0	50	4.021713	3.483057	-86.56867	
15:32:03	-6.795891	38.98528	131.546	2.949842	15.32827	0.34	3	97	0	50	4.008686	3.439292	-86.62105	
15:32:03	-6.795892	38.98529	131.329	2.965438	14.83834	0.18	3	97	0	50	3.921465	3.116771	-86.63886	
15:32:03	-6.795892	38.98529	130.833	2.980286	13.97412	0.88	3	97	0	50	4.242319	3.910623	-86.65084	
15:32:03	-6.795892	38.98529	130.413	2.994489	13.52196	0.74	3	97	0	50	4.229381	3.915993	-86.80118	
15:32:04	-6.795892	38.98529	130.339	3.080168	15.32083	0.53	3	97	0	50	4.073257	3.444684	-86.86916	
15:32:04	-6.795892	38.98529	130.349	3.151958	17.23678	0.19	3	97	0	50	4.090266	3.2781	-86.85085	
15:32:04	-6.795892	38.98529	130.219	3.199575	18.74953	0.18	3	97	0	50	4.417642	3.236984	-86.85534	
15:32:04	-6.795892	38.98529	130.202	3.243135	19.08883	0.21	3	97	0	50	4.452675	3.058021	-86.85966	
15:32:04	-6.795892	38.98529	130.205	3.177575	13.32106	0.08	3	97	0	50	4.479538	3.109646	-86.85519	
15:32:05	-6.795891	38.98529	130.43	3.088386	7.251005	0.24	3	97	0	50	4.490385	3.21863	-86.83662	
15:32:05	-6.795891	38.98529	130.692	2.945889	-1.042463	0.22	3	97	0	50	4.549894	2.938311	-86.83816	
15:32:05	-6.795891	38.98529	130.558	2.787643	-9.361497	0.34	3	97	0	50	4.300113	3.440639	-86.83204	
15:32:05	-6.795891	38.98529	130.464	2.625022	-17.29136	0.06	3	97	0	50	4.163368	3.424062	-86.87679	
15:32:05	-6.795891	38.98529	130.601	2.478241	-22.99375	0.63	3	97	0	50	4.200552	2.773775	-86.87462	
15:32:06	-6.795891	38.98529	130.613	2.359039	-26.93555	0.12	3	97	0	50	4.017823	3.05317	-86.84573	
15:32:06	-6.795891	38.9853	130.531	2.265987	-29.6953	0.16	3	97	0	50	4.020759	3.417462	-86.85873	
15:32:06	-6.795891	38.9853	130.393	2.169827	-31.74487	0.11	3	97	0	50	3.807711	3.335442	-86.9112	
15:32:06	-6.795891	38.9853	130.393	2.052537	-34.66557	0.11	3	97	0	50	3.968577	3.131089	-86.91039	
15:32:06	-6.795891	38.9853	130.294	1.985572	-35.09396	0.38	3	97	0	50	4.068079	3.001071	-86.88502	
15:32:07	-6.795891	38.9853	130.243	1.971988	-32.80315	0.21	3	97	0	50	4.193151	3.083408	-86.84726	
15:32:07	-6.795891	38.9853	130.269	1.967252	-29.92974	0.31	3	97	0	50	4.128777	2.833717	-86.86198	
15:32:07	-6.79589	38.9853	130.331	1.973069	-27.75189	0.39	3	97	0	50	4.271711	2.572994	-86.82275	
15:32:07	-6.795889	38.9853	130.393	1.992703	-23.06331	0.13	3	97	0	50	4.177138	2.73705	-86.77495	
15:32:07	-6.795889	38.9853	130.485	2.025227	-18.7279	0.19	3	97	0	50	4.122293	2.917145	-86.74902	
15:32:08	-6.79589	38.9853	130.52	2.064116	-14.37657	0.29	3	97	0	50	4.04197	2.62531	-86.74532	
15:32:08	-6.795889	38.9853	130.472	2.109262	-10.88672	0.24	3	97	0	50	3.92744	2.940215	-86.72795	
15:32:08	-6.795889	38.9853	130.601	2.172046	-6.437103	0.56	3	97	0	50	4.169742	2.919968	-86.72375	
15:32:08	-6.795889	38.98531	130.397	2.271599	-0.563382	0.57	3	97	0	50	3.952925	2.235354	-86.69345	
15:32:08	-6.795889	38.98531	130.349	2.37742	5.552594	0.25	3	97	0	50	4.071729	2.946384	-86.64268	
15:32:09	-6.795889	38.98531	130.403	2.503927	11.07529	0.35	3	98	0	50	3.96816	2.81714	-86.65893	
15:32:09	-6.795889	38.98531	130.373	2.616964	16.13908	0.18	3	98	0	50	4.047144	2.35013	-86.63075	
15:32:09	-6.795889	38.98531	130.322	2.717531	20.31656	0.24	3	98	0	50	3.94082	2.79048	-86.57616	
15:32:09	-6.795889	38.98531	130.337	2.75349	20.37442	0.39	3	98	0	50	4.087849	2.939172	-86.56007	
15:32:09	-6.795889	38.98531	130.291	2.709188	16.1138	0.44	3	98	0	50	3.801858	3.047782	-86.58964	
15:32:10	-6.795889	38.98531	130.422	2.66329	11.72217	0.22	3	97	0	50	3.819698	3.079767	-86.6006	
15:32:10	-6.795889	38.98531	130.304	2.616118	8.358722	0.26	3	97	0	50	3.741489	2.497333	-86.59783	
15:32:10	-6.795889	38.98531	130.214	2.556964	4.687036	0.04	3	97	0	50	4.038783	2.502339	-86.53452	
15:32:10	-6.795889	38.98531	130.286	2.470875	-0.8314578	0.04	3	97	0	50	3.933469	2.303437	-86.49911	
15:32:10	-6.795889	38.98531	130.35	2.409142	-4.050036	0.71	3	97	0	50	3.886845	2.200509	-86.4505	
15:32:11	-6.795889	38.98531	130.519	2.390767	-4.723339	0.33	3	97	0	50	3.620759	2.67678	-86.41727	
15:32:11	-6.795889	38.98531	130.71	2.374801	-5.166965	0.24	3	97	0	50	3.740376	2.519209	-86.37624	
15:32:11	-6.795889	38.98532	130.674	2.402583	-3.134437	0.13	3	97	0	50	3.693187	2.102858	-86.33201	
15:32:11	-6.795889	38.98532	130.781	2.433937	-1.648045	0.08	3	97	0	50	3.886582	2.009107	-86.26298	
15:32:11	-6.795889	38.98531	131.03	2.448583	-0.2334174	0.89	3	97	0	50	3.978685	1.960671	-86.19109	
15:32:12	-6.795888	38.98531	131.145	2.45475	-0.233702	0.68	3	97	0	50	4.125795	1.092333	-86.08515	
15:32:12	-6.795888	38.98531	131.261	2.437892	-1.49224	0.18	3	97	0	50	4.180037	1.15858	-85.92294	
15:32:12	-6.795888	38.98531	131.341	2.417578	-2.643361	0.07	3	97	0	50	4.152387	1.844289	-85.80521	
15:32:12	-6.795887	38.98531	131.462	2.432545	-1.628541	0.17	3	97	0	50	4.126212	1.977939	-85.75295	
15:32:12	-6.795887	38.98531	131.493	2.453784	-0.429476	0.31	3	97	0	50	4.056394	1.781592	-85.70065	
15:32:13	-6.795888	38.98531	131.415	2.483599	1.583723	0.21	3	97	0	50	3.875845	2.193825	-85.6011	
15:32:13	-6.795888	38.98531	131.466	2.530884	3.857128	0.24	3	97	0	50	3.977879	1.713511	-85.56249	
15:32:13	-6.795888	38.98531	131.605	2.541455	3.902393	0.13	3	97	0	50	3.935432	2.179842	-85.49889	
15:32:13	-6.795888	38.98532	131.664	2.565157	5.103022	0.16	3	97	0	50	4.087018	2.05124	-85.4627	
15:32:14	-6.795888	38.98532	131.663	2.592917	6.356287	0.26	3	97	0	50	3.942038	1.746827	-85.39741	
15:32:14	-6.795888	38.98532	131.804	2.59955	6.215532	0.09	3	97	0	50	4.063073	2.184399	-85.34099	
15:32:14	-6.795887	38.98532	131.822	2.601172	5.79466	0.39	3	97	0	50	4.081337	1.989443	-85.31662	
15:32:14	-6.795887	38.98532	131.774	2.547393	2.86945	0.91	3	97	0	50	4.225007	2.227037	-85.28008	
15:32:14	-6.795887	38.98532	131.867	2.485702	-0.3813131	0.32	3	97	0	50	4.244903	2.435524	-85.26665	
15:32:15	-6.795887	38.98532	131.85	2.378039	-6.289597	0.37	3	97	0	50	4.05327	2.068072	-85.29065	
15:32:15	-6.795887	38.98532	131.99	2.269112	-11.63955	0.04	3	97	0	50	3.860846	1.942385	-85.26921	
15:32:15	-6.795887	38.98532	132.221	2.245726	-11.73612	0.55	3	97	0	50	3.981066	1.585601	-85.20635	
15:32:15	-6.795888	38.98532	132.447	2.253755	-10.44062	0.45	3	97	0	50	3.281678	2.025032	-85.15387	
15:32:15	-6.795888	38.98532	132.541	2.317432	-6.062052	0.19	3	97	0	50	3.547318	1.14816	-85.07714	
15:32:16	-6.795887	38.98532	132.675	2.38769	-1.983078	0.19	3	97	0	50	3.848247	1.326294	-84.97298	
15:32:16	-6.795887	38.98532	132.856	2.445252	0.5989577	0.11	3	97	0	50	3.858382	1.476914	-84.9375	
15:32:16	-6.795887	38.98532	132.935	2.504376	3.801373	0.75	3	97	0	50	3.643249	1.309243	-84.84146	
15:32:16	-6.795887	38.98532	133.054	2.531507	4.56352	0.09	3	97	0	50	4.321773	0.8982122	-84.7166	
15:32:16	-6.795887	38.98532	133.115	2.508391	3.144907	0.19	3	97	0	50	3.513413	1.471429	-84.63091	
15:32:17	-6.795887	38.98532	133.207	2.485168	1.364949	0.36	3	97	0	50	3.360266	1.509781	-84.57536	
15:32:17	-6.795886	38.98532	133.273	2.463036	0.5546985	0.34	3	97	0	50	3.603875	1.276051	-84.4946	
15:32:17	-6.795887	38.98532	133.364	2.443834	-0.2689804	0.48	3	97	0	50	3.299136	2.178417	-84.43754	
15:32:17	-6.795887	38.98532	133.52	2.433131	-1.26049	0.24	3	97	0	50	2.868073	2.022844	-84.44552	
15:32:17	-6.795887	38.98532	133.511	2.419187	-1.52115	0.17	3	97	0	50	3.471474	2.038397	-84.41061	
15:32:18	-6.795886	38.98532	133.483	2.402418	-2.285502	0.19	3	97	0	50	3.646488	1.597631	-84.37965	
15:32:18	-6.795886	38.98532	133.484	2.379319	-3.147444	0.34	3	97	0	50	3.340854	1.521337	-84.33227	
15:32:18	-6.795887	38.98532	133.303	2.332197	-5.270613	0.61	3	97	0	50	3.394031	1.947474	-84.2734	
15:32:18	-6.795886	38.98533	133.353	2.300408	-6.293633	0.13	3	97	0	50	3.296415	2.233726	-84.26192	
15:32:18	-6.795886	38.98532	133.385	2.286475	-6.374754	0.17	3	97	0	50	3.656264	1.53159	-84.23012	
15:32:19	-6.795885	38.98533	133.564	2.273814	-6.210747	0.37	3	97	0	50	3.684613	1.394918	-84.17144	
15:32:19	-6.795884	38.98533	133.568	2.261793	-5.608793	0.29	3	97	0	50	4.025438	1.464917	-84.10141	
15:32:19	-6.795883	38.98533	133.534	2.268118	-4.729475	0.34	3	97	0	50	3.937878	1.443675	-84.04713	
15:32:19	-6.795883	38.98533	133.578	2.296787	-2.705333	0.13	3	97	0	50	3.081264	1.666121	-84.03066	
15:32:19	-6.795883	38.98533	133.568	2.325607	-0.9463335	0.22	3	97	0	50	3.307575	1.413761	-83.98392	
15:32:20	-6.795883	38.98533	133.641	2.35469	1.087215	0.01	3	97	0	50	3.388804	1.258071	-83.91096	
15:32:20	-6.795883	38.98533	133.684	2.36249	1.601	0.29	3	97	0	50	3.425802	1.410617	-83.84684	
15:32:20	-6.795883	38.98533	133.74	2.301941	-1.424327	0.08	3	97	0	50	3.494007	1.045065	-83.77809	
15:32:20	-6.795882	38.98533	133.719	2.245259	-4.389633	0.28	3	97	0	50	3.443274	1.28808	-83.69188	
15:32:20	-6.795882	38.98533	133.773	2.184888	-7.130163	0.06	3	97	0	50	3.646125	1.808661	-83.6584	
15:32:21	-6.795882	38.98533	133.843	2.119067	-9.737747	0.19	3	97	0	50	3.558998	1.574663	-83.6293	
15:32:21	-6.795882	38.98533	133.946	2.108479	-9.468183	0.32	3	97	0	50	3.636804	1.231094	-83.60123	
15:32:21	-6.795881	38.98533	134.099	2.110779	-8.344318	0.29	3	97	0	50	3.848067	1.164973	-83.54503	
15:32:21	-6.795881	38.98533	134.237	2.123767	-7.086617	0.29	3	97	0	50	3.627872	1.083139	-83.49193	
15:32:21	-6.795881	38.98533	134.261	2.137833	-6.016523	0.17	3	97	0	50	3.595153	1.036157	-83.42359	
15:32:22	-6.795881	38.98533	134.257	2.161166	-4.207173	0.56	3	97	0	50	3.561489	1.63987	-83.37901	
15:32:22	-6.795881	38.98533	134.304	2.188068	-3.296635	0.09	3	97	0	50	3.487248	2.009177	-83.39448	
15:32:22	-6.795881	38.98533	134.569	2.16593	-3.892958	0.14	3	97	0	50	3.453595	0.9586564	-83.31982	
15:32:22	-6.795881	38.98533	134.33	2.057938	-8.585208	0.34	3	97	0	50	3.976856	1.552727	-83.24128	
15:32:23	-6.79588	38.98533	134.243	1.977762	-11.25659	0.48	3	97	0	50	3.133579	1.459996	-83.23808	
15:32:23	-6.795879	38.98533	134.156	1.927484	-12.45677	0.66	3	97	0	50	3.582908	1.331517	-83.18544	
15:32:23	-6.795878	38.98533	134.113	1.896836	-12.83833	0.42	3	97	0	50	3.890349	1.28195	-83.14857	
15:32:23	-6.795878	38.98534	133.971	1.95819	-8.619593	0.42	3	97	0	50	3.503414	2.004738	-83.14342	
15:32:23	-6.795878	38.98534	133.994	2.036923	-3.515889	0.24	3	97	0	50	3.329659	1.995294	-83.16034	
15:32:24	-6.795878	38.98534	134.003	2.107532	0.3786845	0.33	3	97	0	50	3.305332	1.314842	-83.16419	
15:32:24	-6.795878	38.98534	134.188	2.180325	4.193401	1.01	3	97	0	50	3.610553	1.029519	-83.11829	
15:32:24	-6.795877	38.98533	134.284	2.217221	5.620421	0.66	3	97	0	50	4.071648	0.1414886	-83.02362	
15:32:24	-6.795877	38.98533	134.098	2.242748	6.245413	0.22	3	97	0	50	3.964226	0.5993273	-82.91612	
15:32:24	-6.795876	38.98533	134.135	2.200581	2.899542	0.31	3	97	0	50	3.859275	1.389252	-82.86018	
15:32:25	-6.795876	38.98534	134.225	2.140977	-0.2455515	0.37	3	97	0	50	3.736525	1.104804	-82.84499	
15:32:25	-6.795877	38.98534	134.107	2.090127	-2.545255	0.61	3	97	0	50	3.581262	1.733117	-82.82399	
15:32:25	-6.795876	38.98534	134.1	2.047848	-4.792722	0.13	3	97	0	50	3.666445	1.978524	-82.83588	
15:32:25	-6.795876	38.98534	134.211	2.045889	-3.966182	0.39	3	97	0	50	3.795187	1.43287	-82.82323	
15:32:26	-6.795876	38.98534	134.257	2.064201	-2.039367	0.57	3	97	0	50	3.967324	0.9565906	-82.79941	
15:32:26	-6.795875	38.98534	134.417	2.085338	-1.300368	0.45	3	97	0	50	3.804195	0.6864068	-82.72846	
15:32:26	-6.795875	38.98533	134.505	2.114309	0.3472029	0.45	3	97	0	50	3.899626	0.8244159	-82.65255	
15:32:26	-6.795875	38.98533	134.629	2.177113	2.934942	0.66	3	97	0	50	3.833346	0.9562766	-82.59786	
15:32:26	-6.795875	38.98533	134.767	2.219736	5.063914	0.45	3	97	0	50	3.499047	1.942251	-82.60289	
15:32:27	-6.795875	38.98533	134.621	2.199574	3.33993	0.14	3	97	0	50	3.555181	1.28942	-82.61584	
15:32:27	-6.795875	38.98533	134.57	2.197598	2.793614	0.25	3	97	0	50	3.79152	1.830067	-82.59975	
15:32:27	-6.795875	38.98533	134.858	2.230673	4.238337	0.59	3	97	0	50	3.949744	1.745836	-82.61802	
15:32:27	-6.795874	38.98533	134.937	2.267009	6.058283	0.37	3	97	0	50	4.258587	2.22984	-82.65636	
15:32:27	-6.795874	38.98533	134.916	2.308541	7.858271	0.48	3	97	0	50	4.109809	1.736606	-82.7117	
15:32:28	-6.795875	38.98533	134.737	2.349208	9.508209	0.33	3	97	0	50	3.772346	2.335432	-82.75103	
15:32:28	-6.795875	38.98533	134.67	2.382847	10.15586	0.53	3	97	0	50	3.670479	1.405159	-82.77903	
15:32:28	-6.795875	38.98534	134.789	2.412585	11.2108	0.33	3	97	0	50	3.691777	2.173827	-82.77985	
15:32:28	-6.795875	38.98533	134.765	2.439716	11.79786	0.7	3	97	0	50	3.804301	1.849058	-82.82402	
15:32:28	-6.795875	38.98533	134.902	2.463272	11.93668	0.24	3	97	0	50	3.849149	1.262283	-82.8235	
15:32:29	-6.795875	38.98534	134.862	2.487617	11.41598	0.52	3	97	0	50	3.939781	1.651538	-82.77097	
15:32:29	-6.795875	38.98534	134.765	2.513888	11.88659	0.18	3	97	0	50	4.133193	1.804759	-82.77588	
15:32:29	-6.795875	38.98533	134.749	2.554997	12.70383	0.59	3	97	0	50	3.780703	1.292096	-82.79821	
15:32:29	-6.795875	38.98533	134.584	2.584663	12.77776	0.59	3	97	0	50	4.042177	0.7403866	-82.75192	
15:32:29	-6.795875	38.98534	134.441	2.599587	12.52019	0.94	3	97	0	50	3.87313	1.762416	-82.71921	
15:32:30	-6.795875	38.98533	134.514	2.61741	12.60497	1.27	3	97	0	50	3.928039	1.879639	-82.7448	
15:32:30	-6.795875	38.98533	134.585	2.641595	12.6089	0.28	3	97	0	50	3.817765	0.7897128	-82.743	
15:32:30	-6.795875	38.98533	134.737	2.670469	13.07932	0.18	3	97	0	50	3.860046	1.890194	-82.72636	
15:32:30	-6.795875	38.98533	134.866	2.731012	15.35539	0.37	3	97	0	50	4.200564	1.634639	-82.74188	
15:32:30	-6.795875	38.98533	134.952	2.783907	16.55317	0.26	3	97	0	50	4.093082	1.47196	-82.73384	
15:32:31	-6.795875	38.98533	135.246	2.806367	16.01023	0.11	3	97	0	50	4.155359	1.585162	-82.72309	
15:32:31	-6.795875	38.98533	135.585	2.813205	15.4381	0.35	3	98	0	50	4.214216	1.788354	-82.72795	
15:32:31	-6.795875	38.98533	135.636	2.783224	12.53943	0.26	3	98	0	50	4.029799	1.569078	-82.74857	
15:32:31	-6.795875	38.98532	135.739	2.74562	9.653464	0.38	3	98	0	50	4.645014	1.556204	-82.73228	
15:32:31	-6.795875	38.98532	135.679	2.714323	7.100073	0.26	3	98	0	50	4.61573	1.494503	-82.73858	
15:32:32	-6.795874	38.98532	135.902	2.680862	4.581123	0.5	3	97	0	50	4.176376	1.630949	-82.75377	
15:32:32	-6.795875	38.98532	136.058	2.597538	-0.5189773	0.22	3	97	0	50	4.112266	2.141596	-82.78697	
15:32:32	-6.795875	38.98532	136.214	2.509076	-5.003843	0.33	3	97	0	50	3.960797	1.768779	-82.83169	
15:32:32	-6.795875	38.98532	136.324	2.452571	-7.652712	0.09	3	97	0	50	4.031778	1.803202	-82.84367	
15:32:32	-6.795875	38.98532	136.411	2.403429	-9.941527	0.22	3	97	0	50	4.226295	1.560435	-82.8565	
15:32:33	-6.795875	38.98532	136.373	2.341505	-12.54097	0.57	3	97	0	50	4.025676	1.712007	-82.86763	
15:32:33	-6.795875	38.98532	136.496	2.281999	-14.2919	0.29	3	97	0	50	4.306344	2.189202	-82.9003	
15:32:33	-6.795875	38.98532	136.658	2.245315	-14.43952	0.13	3	97	0	50	4.311727	1.625231	-82.92473	
15:32:33	-6.795875	38.98532	136.789	2.218655	-14.51506	0.41	3	97	0	50	4.301061	1.833614	-82.92889	
15:32:33	-6.795873	38.98532	137.402	2.20022	-14.08358	0.82	3	97	0	50	4.638566	2.149966	-82.95927	
15:32:34	-6.795871	38.98532	137.943	2.18425	-13.95803	0.84	3	97	0	50	5.111668	2.037064	-82.9846	
15:32:34	-6.79587	38.98532	138.305	2.170571	-13.05918	0.85	3	98	0	50	5.01971	2.330298	-83.02576	
15:32:34	-6.795869	38.98532	138.198	2.161223	-12.31684	0.31	3	98	0	50	4.866895	2.166826	-83.08927	
15:32:34	-6.795869	38.98532	138.255	2.126579	-12.42292	0.33	3	98	0	50	4.442354	2.050295	-83.14597	
15:32:34	-6.79587	38.98532	138.347	2.08774	-13.40443	0.06	3	98	0	50	4.100064	2.150309	-83.21287	
15:32:35	-6.79587	38.98532	138.452	2.062886	-13.47285	0.13	3	97	0	50	4.044821	1.743253	-83.24621	
15:32:35	-6.79587	38.98532	138.645	2.006941	-13.53503	0.38	3	97	0	50	4.066898	1.906745	-83.2544	
15:32:35	-6.79587	38.98532	138.716	1.979053	-13.71626	0.19	3	97	0	50	4.281706	1.666449	-83.25767	
15:32:35	-6.79587	38.98532	138.777	1.958111	-13.4885	0.09	3	97	0	50	4.209611	1.9505	-83.26698	
15:32:36	-6.79587	38.98532	138.843	1.958188	-12.14981	0.16	3	97	0	50	4.091144	1.989379	-83.2886	
15:32:36	-6.79587	38.98532	138.952	1.962292	-10.50285	0.39	3	97	0	50	4.279272	1.983843	-83.30566	
15:32:36	-6.79587	38.98532	138.979	1.9734	-8.908109	0.47	3	97	0	50	4.330828	1.944488	-83.34053	
15:32:36	-6.795869	38.98532	138.961	1.986889	-7.420386	0.95	3	97	0	50	4.338123	1.224086	-83.33278	
15:32:36	-6.795868	38.98532	138.897	2.000797	-6.138857	0.12	3	97	0	50	4.715428	1.166789	-83.28002	
15:32:37	-6.795869	38.98532	138.954	2.024613	-4.472785	0.5	3	97	0	50	4.279667	1.32275	-83.24952	
15:32:37	-6.795869	38.98532	139.017	2.070299	-1.573817	0.51	3	98	0	50	4.149389	0.7125886	-83.19711	
15:32:37	-6.795869	38.98532	138.812	2.113706	0.9288475	0.45	3	98	0	50	4.044375	0.8325409	-83.1246	
15:32:37	-6.79587	38.98532	138.807	2.151915	3.22193	0.13	3	98	0	50	3.676548	1.131079	-83.07783	
15:32:37	-6.79587	38.98532	138.802	2.188959	5.035754	0.12	3	98	0	50	4.021946	1.305732	-83.04301	
15:32:38	-6.79587	38.98532	138.747	2.21478	6.362814	0.5	3	98	0	50	4.217625	1.170223	-83.01424	
15:32:38	-6.79587	38.98532	138.741	2.240816	7.08242	0.12	3	98	0	50	4.179495	0.9184044	-83.0109	
15:32:38	-6.79587	38.98532	138.654	2.274972	8.518377	0.42	3	97	0	50	3.901516	1.606501	-83.00379	
15:32:38	-6.795871	38.98532	138.683	2.310344	9.02091	0.26	3	97	0	50	3.895266	1.6836	-83.02801	
15:32:38	-6.795871	38.98532	138.74	2.34533	9.851435	0.47	3	97	0	50	4.180522	1.330301	-83.02062	
15:32:39	-6.795871	38.98532	138.691	2.354791	9.504626	0.09	3	97	0	50	4.345084	1.151899	-82.98468	
15:32:39	-6.795872	38.98532	138.718	2.332686	7.480144	0.11	3	97	0	50	4.326721	1.45551	-82.9802	
15:32:39	-6.795872	38.98532	138.725	2.323812	7.105593	0.34	3	97	0	50	4.106158	1.383378	-82.97965	
15:32:39	-6.795873	38.98532	138.757	2.332578	7.302735	0.29	3	97	0	50	3.926516	1.353437	-82.9828	
15:32:40	-6.795873	38.98532	138.657	2.346222	7.884326	0.11	3	97	0	50	4.063284	1.316037	-82.96391	
15:32:40	-6.795873	38.98532	138.691	2.376914	8.214912	0.18	3	97	0	50	4.172382	1.411224	-82.96816	
15:32:40	-6.795874	38.98532	138.811	2.401178	8.945114	0.14	3	97	0	50	4.191494	1.32138	-82.97225	
15:32:40	-6.795874	38.98532	138.804	2.416893	8.455435	0.24	3	98	0	50	4.078385	1.355582	-82.979	
15:32:40	-6.795874	38.98532	138.808	2.430076	8.093789	0.19	3	98	0	50	4.151636	1.218645	-82.95661	
15:32:41	-6.795873	38.98532	138.836	2.418483	6.326889	0.68	3	98	0	50	4.546261	1.132131	-82.92722	
15:32:41	-6.795874	38.98531	138.814	2.400888	4.793983	0.29	3	97	0	50	4.160759	1.272758	-82.90847	
15:32:41	-6.795874	38.98531	138.783	2.305319	-1.243656	0.14	3	97	0	50	4.162577	1.113342	-82.87682	
15:32:41	-6.795874	38.98531	138.909	2.260594	-3.466674	0.64	3	97	0	50	4.295506	0.9183933	-82.85316	
15:32:41	-6.795875	38.98531	138.866	2.21421	-5.594758	0.91	3	97	0	50	4.258931	0.371657	-82.80214	
15:32:42	-6.795874	38.98531	138.878	2.204683	-5.073485	1.03	3	97	0	50	4.414061	0.1280883	-82.70525	
15:32:42	-6.795873	38.98531	138.952	2.204586	-4.708732	0.81	3	97	0	50	4.938581	0.236808	-82.59585	
15:32:42	-6.795871	38.98531	139.137	2.247806	-1.896054	0.85	3	97	0	50	5.224148	0.645202	-82.51594	
15:32:42	-6.79587	38.98531	139.016	2.301989	1.12067	0.79	3	97	0	50	5.260713	1.451943	-82.48997	
15:32:42	-6.79587	38.98531	138.841	2.363367	4.32632	1.05	3	97	0	50	4.784841	2.17322	-82.56103	
15:32:43	-6.795872	38.98531	138.386	2.421741	6.914887	2.15	3	97	0	50	4.513162	3.057617	-82.67298	
15:32:43	-6.795873	38.98532	138.07	2.463953	8.022132	1.37	3	97	0	50	4.456187	3.596357	-82.84583	
15:32:43	-6.795873	38.98532	137.949	2.507487	9.574532	0.25	3	97	0	50	4.553572	2.764522	-83.01662	
15:32:43	-6.795873	38.98532	137.923	2.56055	11.90238	0.39	3	97	0	50	4.833297	2.212568	-83.0892	
15:32:44	-6.795873	38.98532	137.934	2.616627	13.71354	0.39	3	97	0	50	4.78614	1.873305	-83.1524	
15:32:44	-6.795873	38.98532	137.803	2.65143	13.72083	1.14	3	97	0	50	4.602583	1.052875	-83.14618	
15:32:44	-6.795872	38.98532	137.777	2.734961	15.50658	0.48	3	97	0	50	4.996106	1.778008	-83.0996	
15:32:45	-6.795871	38.98532	137.731	2.799878	16.03127	0.58	3	97	0	50	4.955533	1.693038	-83.14286	
15:32:45	-6.795871	38.98532	137.606	2.788285	14.15761	0.14	3	97	0	50	4.683983	1.468829	-83.13765	
15:32:45	-6.795871	38.98532	137.727	2.750787	10.7107	0.24	3	97	0	50	4.3002	1.633277	-83.15322	
15:32:45	-6.795872	38.98532	137.705	2.71231	7.812766	0.11	3	97	0	50	4.45336	1.643061	-83.1631	
15:32:45	-6.795872	38.98532	137.713	2.672259	5.038548	0.04	3	97	0	50	4.586049	1.648623	-83.17113	
15:32:46	-6.795872	38.98532	137.656	2.63644	2.889075	0.32	3	97	0	50	4.6189	1.487165	-83.16487	
15:32:46	-6.795872	38.98532	137.714	2.607825	1.183697	0.47	3	97	0	50	4.596079	1.760092	-83.15402	
15:32:46	-6.795873	38.98532	137.599	2.597584	0.5145369	0.08	3	97	0	50	4.481495	1.918483	-83.19395	
15:32:46	-6.795873	38.98532	137.528	2.588354	-0.4094817	0.37	3	97	0	50	4.436312	1.803836	-83.21713	
15:32:46	-6.795874	38.98532	137.492	2.583462	0.2222434	0.72	3	97	0	50	4.124799	2.017097	-83.25385	
15:32:47	-6.795875	38.98532	137.558	2.596278	0.6276492	0.57	3	97	0	50	3.896732	1.831256	-83.29082	
15:32:47	-6.795876	38.98532	137.659	2.631456	2.554172	0.52	3	97	0	50	3.933809	1.564786	-83.29479	
15:32:47	-6.795876	38.98532	137.657	2.65868	3.858632	0.19	3	97	0	50	4.386107	1.376238	-83.27465	
15:32:47	-6.795876	38.98532	137.549	2.681385	4.480051	0.31	3	97	0	50	4.867801	1.13611	-83.23485	
15:32:47	-6.795875	38.98532	137.575	2.691991	5.24705	0.36	3	97	0	50	4.948543	1.103639	-83.2168	
15:32:48	-6.795875	38.98532	137.544	2.6801	4.295031	0.48	3	97	0	50	5.250769	1.146697	-83.17039	
15:32:48	-6.795874	38.98532	137.528	2.660327	2.689716	0.22	3	97	0	50	5.073625	1.027338	-83.1549	
15:32:48	-6.795874	38.98532	137.424	2.612457	0.3701829	0.29	3	97	0	50	5.054659	1.064617	-83.11794	
15:32:48	-6.795874	38.98532	137.226	2.57983	-1.619996	0.36	3	97	0	50	5.174625	1.267854	-83.09281	
15:32:48	-6.795873	38.98532	137.158	2.584875	-1.171576	0.52	3	97	0	50	5.014635	0.9924431	-83.08315	
15:32:49	-6.795873	38.98532	137.083	2.595552	-0.5400546	0.36	3	97	0	50	5.026652	1.193606	-83.04364	
15:32:49	-6.795872	38.98532	137.18	2.611485	-0.2229989	0.37	3	97	0	50	5.060992	1.133441	-83.03828	
15:32:49	-6.795872	38.98532	137.291	2.624372	0.4635607	0.48	3	97	0	50	4.632799	0.8863775	-83.01105	
15:32:49	-6.795872	38.98532	137.47	2.634206	0.9596242	0.45	3	97	0	50	4.482692	0.8116401	-82.96878	
15:32:49	-6.795872	38.98532	137.502	2.635921	0.8667545	0.21	3	97	0	50	4.682366	0.8790526	-82.9247	
15:32:50	-6.795872	38.98532	137.309	2.605243	-0.8723755	0.38	3	97	0	50	4.641475	0.8392706	-82.89539	
15:32:50	-6.795872	38.98532	137.334	2.573982	-2.757165	0.22	3	97	0	50	4.478727	1.045344	-82.85351	
15:32:50	-6.795873	38.98532	137.339	2.535606	-3.929552	0.52	3	97	0	50	4.539468	1.577416	-82.85725	
15:32:50	-6.795872	38.98532	137.419	2.499242	-5.032794	1.02	3	97	0	50	4.797009	1.136668	-82.89347	
15:32:50	-6.795871	38.98532	137.482	2.480335	-5.080969	0.47	3	97	0	50	4.739933	1.020883	-82.86634	
15:32:51	-6.795871	38.98532	137.549	2.466989	-5.380698	0.03	3	97	0	50	4.426056	1.69113	-82.87186	
15:32:51	-6.795871	38.98532	137.314	2.449303	-5.947413	0.84	3	97	0	50	4.358461	2.514457	-82.93839	
15:32:51	-6.795871	38.98532	137.335	2.432214	-6.329855	0.38	3	97	0	50	4.538552	1.911265	-83.01691	
15:32:51	-6.79587	38.98532	137.437	2.394707	-7.719478	0.13	3	97	0	50	4.280639	1.578116	-83.04531	
15:32:51	-6.795871	38.98532	137.3	2.35418	-8.922689	0.87	3	97	0	50	3.826812	2.370867	-83.08325	
15:32:52	-6.795872	38.98532	137.193	2.289372	-11.60028	0.31	3	97	0	50	3.898233	2.349518	-83.17825	
15:32:52	-6.795872	38.98532	137.298	2.225809	-13.39107	0.71	3	97	0	50	4.192904	2.529382	-83.25313	
15:32:52	-6.795872	38.98532	137.189	2.190099	-13.75056	1.37	3	97	0	50	3.799541	3.002109	-83.36938	
15:32:52	-6.795874	38.98532	137.159	2.162691	-13.95086	0.97	3	97	0	50	3.748528	2.801191	-83.50269	
15:32:52	-6.795875	38.98532	137.158	2.13648	-14.1192	0.85	3	97	0	50	3.812045	2.557221	-83.60735	
15:32:53	-6.795875	38.98532	137.089	2.114814	-13.64782	0.31	3	97	0	50	4.019107	2.161939	-83.67538	
15:32:53	-6.795875	38.98532	137.139	2.107473	-12.67421	0.25	3	97	0	50	4.372207	1.691921	-83.69622	
15:32:53	-6.795875	38.98532	137.167	2.10445	-11.70279	0.14	3	97	0	50	4.311931	1.719841	-83.69904	
15:32:53	-6.795875	38.98532	136.969	2.12032	-9.634164	0.36	3	97	0	50	3.973192	1.49526	-83.71909	
15:32:53	-6.795875	38.98532	136.884	2.140767	-7.78534	0.09	3	97	0	50	4.029548	1.518917	-83.70117	
15:32:54	-6.795875	38.98532	136.876	2.163982	-5.819355	0.04	3	98	0	50	4.176011	1.511253	-83.68792	
15:32:54	-6.795875	38.98532	136.735	2.18794	-3.41553	0.07	3	97	0	50	4.246381	1.475661	-83.66708	
15:32:54	-6.795876	38.98532	136.74	2.211774	-1.990368	0.58	3	97	0	50	3.979826	1.887556	-83.66267	
15:32:54	-6.795877	38.98532	136.535	2.236109	-0.5166668	0.28	3	97	0	50	3.909617	1.77001	-83.69725	
15:32:54	-6.795877	38.98532	136.66	2.309084	3.324952	0.21	3	97	0	50	4.007919	1.37395	-83.69299	
15:32:55	-6.795877	38.98532	136.62	2.399491	8.019831	0.03	3	97	0	50	4.138634	1.382045	-83.64279	
15:32:55	-6.795877	38.98532	136.667	2.511247	13.34035	0.22	3	97	0	50	4.12094	1.618427	-83.63174	
15:32:55	-6.795876	38.98532	136.642	2.605521	17.40881	0.16	3	97	0	50	4.267286	1.509387	-83.62104	
15:32:55	-6.795874	38.98532	137.428	2.693926	20.12398	0.93	3	97	0	50	4.623205	1.624125	-83.60478	
15:32:56	-6.795872	38.98532	137.499	2.762028	21.63117	0.21	3	97	0	50	4.628465	1.661962	-83.6213	
15:32:56	-6.795872	38.98532	137.53	2.732935	16.07058	0.34	3	97	0	50	4.282463	1.841343	-83.63196	
15:32:56	-6.795872	38.98533	137.587	2.683725	12.03718	0.45	3	97	0	50	4.146761	2.040412	-83.65771	
15:32:56	-6.795875	38.98533	138.036	2.660458	9.737462	1.67	3	97	0	50	3.604847	2.754396	-83.72733	
15:32:56	-6.795875	38.98533	138.092	2.632704	7.775625	0.14	3	97	0	50	3.500016	2.976462	-83.82063	
15:32:57	-6.795875	38.98533	138.092	2.6	5.505761	0.14	3	97	0	50	3.909714	2.145061	-83.90103	
15:32:57	-6.795876	38.98534	138.467	2.567391	2.997194	0.18	3	97	0	50	4.34832	1.634636	-83.94139	
15:32:57	-6.795877	38.98534	138.513	2.513118	-0.5833129	0.34	3	97	0	50	4.14003	1.298261	-83.92226	
15:32:57	-6.795877	38.98534	138.74	2.519381	0.2789613	0.45	3	97	0	50	3.930296	1.609963	-83.89539	
15:32:58	-6.795877	38.98534	138.74	2.537468	1.637864	0.45	3	97	0	50	4.056324	1.875618	-83.90001	
15:32:58	-6.795878	38.98534	138.938	2.575769	3.34782	0.45	3	97	0	50	3.955115	2.152962	-83.92339	
15:32:58	-6.795878	38.98534	139.021	2.625909	6.149912	0.17	3	97	0	50	4.241623	1.908473	-83.95629	
15:32:58	-6.795879	38.98534	138.921	2.682394	8.573332	0.22	3	97	0	50	4.146491	1.527068	-83.97282	
15:32:58	-6.79588	38.98534	138.815	2.730172	10.41267	0.19	3	97	0	50	4.097495	1.475499	-83.95969	
15:32:59	-6.79588	38.98534	138.62	2.769711	11.45531	0.26	3	97	0	50	4.157367	1.348271	-83.9458	
15:32:59	-6.795879	38.98534	138.477	2.810151	12.5889	0.91	3	97	0	50	3.998041	0.9490245	-83.87666	
15:32:59	-6.795879	38.98534	138.538	2.852061	13.27924	0.28	3	97	0	50	4.770764	0.4699008	-83.78448	
15:32:59	-6.795878	38.98534	138.558	2.885647	13.87886	0.66	3	97	0	50	4.514339	0.6705784	-83.67799	
15:32:59	-6.795878	38.98534	138.45	2.909037	13.64409	0.13	3	97	0	50	4.568891	0.4609715	-83.59541	
15:33:00	-6.795878	38.98534	138.214	2.93274	13.9313	0.22	3	97	0	50	4.392223	0.8003205	-83.50941	
15:33:00	-6.795878	38.98534	138.204	2.959345	14.01152	0.11	3	97	0	50	4.434139	1.110404	-83.46961	
15:33:00	-6.795878	38.98534	138.082	2.986513	14.04369	0.39	3	97	0	50	4.343532	1.058645	-83.43515	
15:33:00	-6.795879	38.98534	137.946	2.998294	14.07474	0.13	3	97	0	50	4.035328	1.314619	-83.40788	
15:33:00	-6.795879	38.98534	137.987	3.005444	13.11203	0.08	3	97	0	50	4.046219	1.14359	-83.39707	
15:33:01	-6.79588	38.98534	137.962	3.003302	11.47508	0.48	3	97	0	50	4.142511	1.008511	-83.36966	
15:33:01	-6.795881	38.98534	137.853	2.997081	9.699449	0.19	3	97	0	50	3.90012	1.351645	-83.34097	
15:33:01	-6.795882	38.98534	137.679	2.934457	5.463157	0.29	3	97	0	50	3.95772	1.125966	-83.33122	
15:33:01	-6.795881	38.98534	137.719	2.863384	1.13213	0.26	3	97	0	50	4.013451	1.261372	-83.31019	
15:33:01	-6.795881	38.98534	137.674	2.768521	-4.211016	0.17	3	97	0	50	4.356594	0.9908226	-83.28829	
15:33:02	-6.795881	38.98534	137.656	2.676792	-8.239563	0.13	3	97	0	50	4.355097	1.15622	-83.23524	
15:33:02	-6.795882	38.98534	137.554	2.576751	-12.80663	0.66	3	97	0	50	4.131246	0.9596366	-83.21245	
15:33:02	-6.795882	38.98534	137.428	2.476289	-16.61454	0.26	3	97	0	50	3.759159	1.625344	-83.20476	
15:33:02	-6.795882	38.98534	137.284	2.412212	-18.41635	0.25	3	97	0	50	4.125364	0.8780617	-83.19061	
15:33:02	-6.795882	38.98534	137.079	2.366472	-19.0292	0.06	3	97	0	50	4.350161	0.9139248	-83.14153	
15:33:03	-6.795882	38.98534	137	2.316011	-19.65573	0.26	3	97	0	50	4.208684	1.015904	-83.0852	
15:33:03	-6.795882	38.98534	136.916	2.267944	-20.62098	0.37	3	97	0	50	3.824548	1.065947	-83.06202	
15:33:03	-6.795882	38.98534	136.624	2.224806	-20.38908	0.17	3	97	0	50	3.767537	1.406602	-83.04312	
15:33:03	-6.795882	38.98534	136.599	2.185998	-20.48273	0.39	3	97	0	50	3.933307	1.093372	-83.04432	
15:33:03	-6.795882	38.98534	136.426	2.179383	-19.58686	0.55	3	97	0	50	4.301393	0.8922561	-83.00039	
15:33:04	-6.795882	38.98534	136.42	2.178746	-17.54222	0.47	3	97	0	50	3.978325	1.858118	-82.98853	
15:33:04	-6.795882	38.98534	136.378	2.171538	-16.11406	0.12	3	97	0	50	3.784343	1.852199	-83.03841	
15:33:04	-6.795882	38.98534	136.493	2.166106	-14.60433	0.81	3	97	0	50	3.886559	1.365407	-83.05943	
15:33:04	-6.795882	38.98534	136.426	2.149904	-13.97468	0.07	3	97	0	50	3.817923	1.869102	-83.06401	
15:33:04	-6.795883	38.98534	136.258	2.134796	-13.14939	0.37	3	97	0	50	4.084002	1.207076	-83.07426	
15:33:05	-6.795883	38.98534	136.258	2.150399	-11.22673	0.24	3	97	0	50	3.55237	1.082669	-83.06181	
15:33:05	-6.795883	38.98534	136.24	2.177883	-8.1763	0.51	3	97	0	50	3.990089	1.08224	-83.00615	
15:33:05	-6.795884	38.98534	135.959	2.201096	-5.730223	0.35	3	97	0	50	3.452822	1.626425	-83.01285	
15:33:05	-6.795884	38.98534	136.048	2.206374	-5.088949	0.32	3	97	0	50	3.554683	1.554169	-83.03058	
15:33:05	-6.795883	38.98534	136.1	2.214765	-4.061719	0.04	3	97	0	50	3.62618	1.509442	-83.03796	
15:33:06	-6.795883	38.98534	136.157	2.227715	-3.171438	0.09	3	97	0	50	3.565762	1.114831	-83.03284	
15:33:06	-6.795883	38.98534	136.437	2.249494	-1.700361	0.22	3	97	0	50	3.646492	1.210133	-83.00306	
15:33:06	-6.795883	38.98534	136.225	2.290935	0.5887042	0.37	3	97	0	50	3.396527	1.19993	-82.98492	
15:33:06	-6.795883	38.98534	136.629	2.333373	3.008407	0.63	3	97	0	50	3.437011	0.4855324	-82.84808	
15:33:07	-6.795882	38.98534	136.778	2.421573	6.814469	0.33	3	97	0	50	3.498039	0.3600774	-82.75827	
15:33:07	-6.795882	38.98534	136.468	2.462404	8.33695	0.39	3	97	0	50	3.818539	1.071787	-82.68597	
15:33:07	-6.795882	38.98534	136.356	2.500745	9.253953	0.62	3	97	0	50	4.046668	1.081484	-82.65675	
15:33:07	-6.795882	38.98534	136.346	2.53206	10.55289	0.13	3	97	0	50	4.281766	1.209231	-82.63482	
15:33:07	-6.795882	38.98534	136.169	2.570124	11.48113	0.17	3	97	0	50	3.335122	0.7840401	-82.63139	
15:33:08	-6.795882	38.98534	136.24	2.619608	13.21806	0.31	3	97	0	50	3.712551	0.9420598	-82.57571	
15:33:08	-6.795881	38.98534	136.325	2.657398	14.07536	0.06	3	97	0	50	3.743954	0.6439627	-82.53313	
15:33:08	-6.795881	38.98534	136.192	2.678664	14.3677	0.28	3	97	0	50	3.561017	1.109602	-82.48701	
15:33:08	-6.795882	38.98534	136.069	2.684758	13.13437	0.19	3	97	0	50	3.857334	1.302147	-82.47507	
15:33:08	-6.795881	38.98534	136.308	2.672097	10.90466	0.31	3	97	0	50	3.489713	1.239728	-82.48515	
15:33:09	-6.79588	38.98534	136.54	2.660847	9.773917	0.5	3	97	0	50	3.559426	1.40027	-82.48866	
15:33:09	-6.795879	38.98534	136.731	2.652601	8.236131	0.29	3	97	0	50	4.046276	0.9482247	-82.47723	
15:33:09	-6.795879	38.98534	136.788	2.636426	6.181495	0.21	3	97	0	50	3.838824	1.077333	-82.46096	
15:33:09	-6.795878	38.98534	137.084	2.605126	3.879741	1.26	3	97	0	50	3.647882	0.9753003	-82.43114	
15:33:09	-6.795877	38.98533	137.926	2.562209	1.594208	1.41	3	97	0	50	3.683967	0.4394551	-82.40817	
15:33:10	-6.795875	38.98533	138.58	2.489928	-2.818424	1.07	3	97	0	50	3.465794	-0.241724	-82.2244	
15:33:10	-6.795874	38.98533	138.766	2.423993	-6.007507	0.72	3	97	0	50	4.136147	0.2339285	-82.10667	
15:33:10	-6.795874	38.98533	138.71	2.367801	-8.797914	0.32	3	97	0	50	3.928417	0.6185628	-82.03508	
15:33:10	-6.795873	38.98533	138.797	2.317293	-11.09166	0.29	3	97	0	50	3.778654	1.751137	-82.03342	
15:33:10	-6.795873	38.98533	138.712	2.291143	-10.85768	0.24	3	97	0	50	3.846199	1.648541	-82.09302	
15:33:11	-6.795872	38.98533	138.897	2.273999	-10.82464	0.66	3	97	0	50	3.30286	1.674732	-82.14097	
15:33:11	-6.795872	38.98533	138.95	2.228474	-12.08028	0.11	3	97	0	50	3.82596	1.071315	-82.16497	
15:33:11	-6.795871	38.98533	139.171	2.185716	-13.45671	1.02	3	97	0	50	3.249908	1.776504	-82.21154	
15:33:11	-6.79587	38.98532	139.577	2.223204	-10.29544	0.76	3	97	0	50	3.750151	0.9631923	-82.23486	
15:33:11	-6.79587	38.98532	139.518	2.26712	-7.015639	0.51	3	97	0	50	3.509361	1.1502	-82.2224	
15:33:12	-6.795869	38.98532	139.855	2.348331	-2.288936	0.58	3	97	0	50	3.308016	1.430336	-82.22535	
15:33:12	-6.795868	38.98532	140.189	2.427207	2.493204	0.66	3	97	0	50	3.533281	1.460166	-82.24677	
15:33:12	-6.795867	38.98532	140.15	2.509004	6.514051	0.52	3	97	0	50	3.120775	1.228698	-82.26812	
15:33:12	-6.795867	38.98532	140.197	2.583707	9.821529	0.66	3	97	0	50	3.628592	1.599183	-82.27332	
15:33:12	-6.795866	38.98532	140.338	2.567783	8.154939	0.25	3	97	0	50	3.640113	1.521021	-82.30135	
15:33:13	-6.795867	38.98532	140.1	2.531029	4.39054	0.19	3	97	0	50	2.740221	1.912004	-82.37868	
15:33:13	-6.795868	38.98532	139.926	2.510919	2.817165	0.26	3	97	0	50	2.995012	1.877031	-82.43242	
15:33:13	-6.795867	38.98532	140.121	2.495395	1.639183	0.19	3	97	0	50	2.891263	1.791523	-82.50312	
15:33:13	-6.795868	38.98532	139.851	2.499479	1.722792	0.29	3	97	0	50	2.985881	1.902743	-82.53845	
15:33:13	-6.795869	38.98532	139.683	2.507926	1.890641	0.09	3	97	0	50	2.792347	2.360702	-82.61305	
15:33:14	-6.795868	38.98532	139.801	2.528892	3.030668	0.01	3	97	0	50	3.030975	2.220513	-82.70154	
15:33:14	-6.795869	38.98532	139.81	2.548018	3.334007	0.85	3	97	0	50	3.095912	2.151921	-82.78123	
15:33:14	-6.795869	38.98532	139.591	2.532664	2.210998	0.31	3	97	0	50	3.052577	2.915143	-82.88512	
15:33:14	-6.795869	38.98532	139.468	2.511418	1.03704	0.33	3	97	0	50	3.289762	2.310052	-82.98528	
15:33:14	-6.795869	38.98532	139.442	2.458409	-2.399231	0.33	3	97	0	50	2.711592	2.039547	-83.08431	
15:33:15	-6.795868	38.98532	139.539	2.40713	-5.197542	0.28	3	97	0	50	3.235484	1.782794	-83.10443	
15:33:15	-6.795868	38.98532	139.482	2.356394	-7.484813	0.79	3	97	0	50	3.27537	2.058089	-83.14551	
15:33:15	-6.795868	38.98532	139.289	2.312731	-9.473692	0.26	3	97	0	50	2.729985	2.788607	-83.24646	
15:33:15	-6.795868	38.98532	139.409	2.276749	-10.25077	0.08	3	97	0	50	2.925393	1.974675	-83.32524	
15:33:16	-6.795868	38.98532	139.085	2.255222	-10.43764	0.09	3	97	0	50	2.817769	2.356123	-83.43105	
15:33:16	-6.795868	38.98532	139.14	2.230009	-9.175601	0.93	3	97	0	50	2.999989	2.188341	-83.47855	
15:33:16	-6.795868	38.98532	139.091	2.228974	-8.360165	0.48	3	97	0	50	2.965821	3.404371	-83.56719	
15:33:16	-6.795868	38.98532	138.895	2.240234	-7.214969	0.66	3	97	0	50	2.732336	2.795301	-83.7251	
15:33:16	-6.795866	38.98532	138.86	2.254216	-6.127899	0.45	3	97	0	50	3.31404	2.995372	-83.8064	
15:33:17	-6.795866	38.98532	139.115	2.271128	-5.220471	0.02	3	97	0	50	3.55852	2.349867	-83.8812	
15:33:17	-6.795865	38.98532	139.07	2.286824	-3.826138	0.13	3	97	0	50	3.157858	2.242073	-83.93471	
15:33:17	-6.795865	38.98532	139.203	2.29207	-3.337687	0.69	3	97	0	50	2.992175	2.293274	-83.96909	
15:33:17	-6.795866	38.98532	139.109	2.300825	-2.772949	0.45	3	97	0	50	2.653773	2.468775	-84.04192	
15:33:17	-6.795865	38.98532	139.222	2.323284	-1.750499	1.03	3	97	0	50	3.076796	1.691949	-84.05569	
15:33:18	-6.795865	38.98532	139.179	2.336082	-1.211738	0.35	3	97	0	50	3.427581	1.240574	-83.99838	
15:33:18	-6.795865	38.98532	139.074	2.33285	-1.27784	0.39	3	97	0	50	3.224993	2.355085	-83.98758	
15:33:18	-6.795865	38.98532	139.059	2.311854	-2.060541	0.33	3	97	0	50	3.001101	2.211351	-84.06132	
15:33:18	-6.795865	38.98532	138.923	2.250496	-5.58676	0.19	3	97	0	50	3.402243	2.297031	-84.09171	
15:33:18	-6.795865	38.98532	138.749	2.208736	-6.888016	0.33	3	97	0	50	3.138727	2.038128	-84.12228	
15:33:19	-6.795866	38.98532	138.556	2.193448	-7.565694	0.18	3	97	0	50	3.149725	2.077956	-84.14357	
15:33:19	-6.795866	38.98532	138.157	2.185652	-7.45001	0.38	3	97	0	50	3.414977	1.778884	-84.1739	
15:33:19	-6.795866	38.98532	138.099	2.209759	-5.375826	0.25	3	97	0	50	3.379359	1.412866	-84.1655	
15:33:19	-6.795866	38.98532	137.841	2.232606	-4.081616	0.29	3	97	0	50	3.431105	1.918452	-84.14791	
15:33:20	-6.795866	38.98532	137.761	2.255962	-2.568125	0.07	3	97	0	50	3.418128	1.844773	-84.16043	
15:33:20	-6.795866	38.98532	137.648	2.280945	-1.379251	0.26	3	97	0	50	3.631085	1.520053	-84.15675	
15:33:20	-6.795866	38.98532	137.471	2.304911	0.2572388	0.35	3	97	0	50	3.67952	1.304388	-84.11542	
15:33:20	-6.795866	38.98532	137.406	2.334296	1.984226	0.19	3	97	0	50	3.803652	1.368813	-84.08348	
15:33:20	-6.795866	38.98532	137.062	2.361958	3.432861	0.52	3	97	0	50	3.687957	1.897585	-84.06215	
15:33:21	-6.795866	38.98532	137.087	2.406211	5.117002	0.12	3	97	0	50	3.444276	2.108001	-84.08192	
15:33:21	-6.795866	38.98532	136.922	2.456662	7.233379	0.36	3	97	0	50	3.545774	1.735379	-84.10805	
15:33:21	-6.795866	38.98532	136.976	2.445538	5.743685	0.32	3	97	0	50	3.240404	2.021788	-84.12534	
15:33:21	-6.795866	38.98532	136.864	2.420248	3.694734	0.08	3	97	0	50	3.579046	1.999201	-84.12547	
15:33:22	-6.795867	38.98532	136.589	2.424168	3.462943	0.97	3	97	0	50	3.38055	2.177446	-84.13663	
15:33:22	-6.795867	38.98533	136.631	2.433935	3.247831	0.18	3	97	0	50	3.229532	2.80623	-84.21821	
15:33:22	-6.795866	38.98533	136.446	2.422282	2.187018	0.44	3	97	0	50	3.583662	2.221107	-84.2916	
