Date	Latitude(deg) 	Longitude(deg)	hamsl(m)	hafl(m)	climbrate(cm/s)	GroundSpeed(m/s)	Airspeed(m/s)	Mav_Link(%)	Rssi_Link(%)	Throttle	Roll(deg)	Pitch(deg)	Yaw(deg)
12:43:59	-6.73375	38.95361	121.133	0.3118117	-16.69049	0.33	3	34	0	50	34.9922	-10.6398	-90.22047	
12:44:01	-6.733755	38.95361	119.853	0.3882992	-2.845928	0.33	3	44	0	50	34.96442	-10.3183	-90.18582	
12:44:02	-6.733755	38.95361	118.522	0.5598938	-2.836273	0.29	3	52	0	50	34.84326	-10.60915	-90.08633	
12:44:04	-6.733755	38.95361	117.551	0.8028728	0.6700198	0.09	3	58	0	50	34.43073	-10.35513	-89.92204	
12:44:06	-6.733749	38.95361	115.088	0.3027273	-25.19321	0.38	3	64	0	50	35.08237	-11.07494	-89.91974	
12:44:07	-6.733735	38.95361	111.872	0.3998544	-13.14608	0.72	3	68	0	50	36.04556	-11.90979	-89.75934	
12:44:09	-6.733725	38.9536	109.721	0.6447046	-1.918408	0.61	3	72	0	50	35.78925	-11.75731	-89.20861	
12:44:11	-6.733717	38.9536	108.274	0.4618949	-13.9048	0.42	3	75	0	50	38.3011	-13.18548	-89.33298	
12:44:12	-6.733706	38.95359	105.877	0.4008312	-13.44186	0.42	3	77	0	50	36.55457	-12.83089	-88.26073	
12:44:14	-6.733702	38.95358	105.115	0.2522479	-18.10032	0.31	3	80	0	50	36.44525	-13.54883	-87.62348	
12:44:16	-6.733693	38.95358	103.512	0.3898634	-6.489809	0.58	3	82	0	50	35.68781	-13.43605	-86.6456	
12:44:17	-6.733685	38.95357	102.836	0.6436916	2.844987	0.48	3	83	0	50	35.57071	-13.95293	-85.94243	
12:44:19	-6.733679	38.95357	101.936	0.5694509	-6.57353	0.37	3	85	0	50	35.58182	-13.38522	-85.07647	
12:44:21	-6.733675	38.95357	101.09	0.6794202	-4.850279	0.53	3	86	0	50	35.83241	-12.7546	-84.67749	
12:44:22	-6.73367	38.95357	100.195	0.3235034	-18.46579	0.18	3	87	0	50	35.44885	-12.12213	-84.50239	
12:44:24	-6.73367	38.95358	100.508	0.4003367	-3.882796	0.13	3	88	0	50	34.83297	-11.36549	-84.51865	
12:44:26	-6.733667	38.95358	100.31	0.613264	5.965312	0.13	3	89	0	50	35.05205	-10.63417	-84.9546	
12:44:28	-6.733667	38.95358	100.72	0.8024223	7.148357	0.44	3	90	0	50	35.29297	-10.12916	-85.63051	
12:44:29	-6.733663	38.95358	100.473	0.742732	-0.4694125	0.25	3	91	0	50	34.71704	-10.47634	-86.1749	
12:44:31	-6.733654	38.95359	99.705	0.7427545	0.8470492	0.52	3	92	0	50	35.03836	-10.11463	-86.81526	
12:44:33	-6.733645	38.95359	99.206	0.7286571	-2.587177	0.38	3	92	0	50	34.98123	-9.571516	-87.39674	
12:44:34	-6.73364	38.9536	99.048	0.6668572	-5.216005	0.14	3	93	0	50	35.16635	-9.59781	-88.15865	
12:44:36	-6.733635	38.95361	99.206	0.6786342	-1.998844	0.37	3	94	0	50	35.30186	-8.836935	-88.88798	
12:44:38	-6.733632	38.95361	99.15	0.3702058	-12.64864	0.31	3	94	0	50	35.1178	-9.224042	-89.60031	
12:44:39	-6.733625	38.95361	98.718	0.3535656	-9.407024	0.12	3	94	0	50	35.27867	-9.328803	-90.20363	
12:44:41	-6.733626	38.95362	98.993	0.5232669	4.282561	0.59	3	95	0	50	34.91949	-8.965269	-90.64156	
12:44:43	-6.733628	38.95361	100.108	0.7529948	7.627337	0.39	3	95	0	50	35.88211	-10.59616	-91.15215	
12:44:44	-6.733631	38.95361	101.467	0.7342151	3.161108	0.68	3	96	0	50	35.57388	-11.7298	-90.94878	
12:44:46	-6.733636	38.95361	103.171	0.816179	0.3514508	0.22	3	96	0	50	35.46719	-12.21598	-90.28963	
12:44:48	-6.733641	38.95361	104.487	0.8920521	2.279238	0.11	3	96	0	50	34.96465	-12.09536	-89.55621	
12:44:49	-6.733646	38.95361	106.487	0.618287	-9.55899	0.03	3	96	0	50	34.69828	-12.11755	-88.80312	
12:44:51	-6.73365	38.95362	108.762	0.3261355	-14.05266	0.14	3	97	0	50	34.34649	-12.27751	-88.22775	
12:44:53	-6.733654	38.95362	110.457	0.4037029	-2.640757	0.09	3	97	0	50	34.16567	-11.9875	-87.76491	
12:44:54	-6.733656	38.95361	112.801	0.806497	16.4732	0.34	3	97	0	50	34.08096	-11.80931	-87.38916	
12:44:56	-6.73365	38.95359	114.014	0.8198044	1.66513	0.5	3	97	0	50	34.01265	-11.80045	-87.13304	
12:44:58	-6.733646	38.95358	114.805	0.8651066	3.712163	0.25	3	97	0	50	34.34604	-11.15817	-87.10305	
12:45:00	-6.733643	38.95358	115.836	0.6612415	-4.983028	0.14	3	98	0	50	34.01609	-11.37526	-87.02211	
12:45:01	-6.733639	38.95357	116.5	0.6697603	-2.374466	0.06	3	98	0	50	33.99935	-11.65068	-86.96719	
12:45:03	-6.733638	38.95356	116.962	0.5537082	-4.547558	0.26	3	98	0	50	34.28683	-11.02874	-87.06717	
12:45:05	-6.733634	38.95354	117.656	0.4800268	-3.434295	0.24	3	98	0	50	34.46827	-10.91649	-87.25043	
12:45:06	-6.733634	38.95354	117.972	0.6872417	6.314954	0.14	3	98	0	50	34.25217	-11.4777	-87.39716	
12:45:08	-6.733637	38.95354	117.846	0.7124331	4.084988	0.19	3	98	0	50	33.97816	-11.10556	-87.30729	
12:45:10	-6.733641	38.95354	117.383	0.6774559	-0.8889296	0.07	3	98	0	50	34.23448	-10.92322	-87.48285	
12:45:11	-6.733647	38.95356	116.417	0.5522543	-2.038288	0.34	3	98	0	50	34.42427	-10.62597	-87.7171	
12:45:13	-6.733653	38.95356	116.097	0.3887018	-7.255323	0.5	3	98	0	50	34.28776	-10.48838	-87.9615	
12:45:15	-6.733658	38.95357	115.743	0.3369422	-7.224697	0.13	3	99	0	50	34.28954	-10.29896	-88.24663	
12:45:16	-6.733663	38.95357	115.299	0.341488	-1.220026	0.32	3	99	0	50	34.31876	-10.30124	-88.63329	
12:45:18	-6.733669	38.95358	114.929	0.3268289	-2.002023	0.22	3	99	0	50	34.11833	-10.00144	-88.9114	
12:45:20	-6.733675	38.95357	114.841	0.1823096	-2.647928	0.14	3	99	0	50	34.12186	-10.02578	-89.20314	
12:45:21	-6.73368	38.95357	114.757	0.2292562	-4.380651	0.19	3	99	0	50	34.42009	-9.811371	-89.66019	
12:45:23	-6.733686	38.95356	115.058	0.456119	7.940712	0.08	3	99	0	50	34.32312	-9.667103	-89.90692	
12:45:25	-6.733694	38.95356	116.191	0.4138475	-0.7956538	0.26	3	99	0	50	34.11441	-9.569793	-90.17605	
12:45:27	-6.733699	38.95356	117.093	0.7260615	13.50543	0.29	3	99	0	50	34.04282	-9.780274	-90.44416	
12:45:28	-6.733703	38.95355	117.531	0.7659571	4.96976	0.16	3	99	0	50	34.06579	-10.03537	-90.67374	
12:45:30	-6.733708	38.95356	117.291	0.5570745	-7.460362	0.09	3	99	0	50	34.25505	-9.970477	-90.76153	
12:45:32	-6.733714	38.95356	117.106	0.6140951	1.708049	0.31	3	99	0	50	34.11919	-10.23705	-90.69021	
12:45:33	-6.733717	38.95356	116.489	0.3783524	-9.756257	0.18	3	99	0	50	34.27018	-10.38379	-90.60263	
12:45:35	-6.73372	38.95356	115.56	0.5533389	5.354221	0.02	3	99	0	50	34.67412	-10.97468	-90.47991	
12:45:37	-6.733726	38.95356	114.376	0.511464	1.80633	0.07	3	99	0	50	34.60616	-10.98501	-90.29363	
12:45:38	-6.733735	38.95357	112.809	0.7706602	8.312057	0.04	3	99	0	50	34.14969	-10.70206	-90.01837	
12:45:40	-6.733739	38.95357	112.138	0.7655173	4.614464	0.32	3	99	0	50	34.68008	-11.26056	-89.83251	
12:45:42	-6.733749	38.95356	112.096	0.6057822	-3.97445	0.22	3	99	0	50	34.17493	-10.83672	-89.45933	
12:45:43	-6.733752	38.95356	111.538	0.5966765	-2.852293	0.02	3	99	0	50	34.8079	-10.97693	-89.43087	
12:45:45	-6.733754	38.95356	111.202	0.4039187	-9.350524	0.16	3	99	0	50	34.9812	-11.3526	-89.23852	
12:45:47	-6.733753	38.95356	110.876	0.5329745	1.040812	0.04	3	99	0	50	34.9236	-11.55466	-88.80169	
12:45:48	-6.733753	38.95356	110.019	0.7164516	5.829225	0.26	3	99	0	50	34.90717	-11.72765	-88.50065	
12:45:50	-6.733753	38.95355	109.274	0.8547914	6.786924	0.13	3	99	0	50	34.53404	-11.37283	-88.04376	
12:45:52	-6.73375	38.95354	109.405	0.456777	-13.58898	0.04	3	99	0	50	34.24464	-11.45955	-87.82774	
12:45:53	-6.73375	38.95354	108.988	0.2678351	-13.46765	0.04	3	99	0	50	34.1442	-11.10725	-87.77452	
12:45:55	-6.733749	38.95354	109.033	0.5333004	1.328004	0.13	3	99	0	50	34.31634	-10.9674	-87.84023	
12:45:57	-6.733748	38.95354	109.373	0.7148974	6.300801	0.11	3	99	0	50	34.41158	-10.6244	-87.89575	
12:45:59	-6.733748	38.95353	109.38	0.931271	11.46176	0.18	3	99	0	50	34.39841	-10.61817	-87.87737	
12:46:00	-6.733748	38.95353	109.501	0.7575665	-4.531061	0.09	3	99	0	50	34.22545	-11.10683	-87.87955	
12:46:02	-6.733749	38.95354	108.213	0.5945793	-8.154849	0.68	3	99	0	50	34.96604	-10.36159	-88.13333	
12:46:04	-6.73375	38.95354	107.005	0.9647444	10.01102	0.29	3	99	0	50	34.15744	-10.82679	-88.05273	
12:46:05	-6.733752	38.95355	106.002	0.7977018	-0.4143175	0.48	3	99	0	50	34.53289	-11.24917	-87.99308	
12:46:07	-6.733758	38.95356	105.39	0.8689669	1.188493	0.32	3	99	0	50	34.71807	-11.28895	-87.95416	
12:46:09	-6.733759	38.95356	104.199	0.6846963	-6.117127	0.14	3	99	0	50	34.76483	-11.40511	-87.8166	
12:46:10	-6.733763	38.95357	103.502	0.8600276	2.549554	0.19	3	99	0	50	34.75746	-11.07448	-87.7452	
12:46:12	-6.733766	38.95357	103.189	0.6875609	-6.417623	0.26	3	99	0	50	34.73595	-11.13355	-87.75372	
12:46:14	-6.733767	38.95358	102.676	0.9683017	9.078915	0.11	3	99	0	50	35.20882	-10.83262	-87.80899	
12:46:15	-6.733769	38.95358	101.911	0.8775327	-1.084918	0.17	3	99	0	50	34.99846	-11.47276	-87.79449	
12:46:17	-6.733771	38.95358	100.924	0.8666341	-0.5113728	0.31	3	99	0	50	34.94897	-11.16773	-87.7662	
12:46:19	-6.733774	38.95358	100.316	0.741373	-1.45177	0.14	3	99	0	50	34.6475	-10.86959	-87.80466	
12:46:20	-6.733775	38.95358	100.152	0.8192189	2.034393	0.35	3	99	0	50	34.5774	-10.49668	-87.97269	
12:46:22	-6.733774	38.95358	100.124	1.233802	16.03523	0.26	3	99	0	50	34.42089	-10.59034	-88.17234	
12:46:24	-6.733776	38.95358	99.649	1.027928	-0.1538087	0.08	3	99	0	50	34.3755	-10.46998	-88.28568	
12:46:26	-6.733776	38.95358	99.773	0.9406481	-3.89412	0.17	3	99	0	50	34.46438	-10.34978	-88.4998	
12:46:27	-6.733775	38.95358	99.844	0.8519233	-5.84943	0.17	3	99	0	50	34.07424	-11.04118	-88.67895	
12:46:29	-6.733771	38.95358	100.528	0.8252832	-3.234788	0.17	3	99	0	50	34.9092	-10.77306	-88.95129	
12:46:31	-6.733769	38.95357	100.459	0.8394379	-1.254761	0.56	3	99	0	50	34.58709	-10.57815	-88.93323	
12:46:32	-6.733767	38.95356	100.598	0.6621401	-6.740488	0.19	3	99	0	50	34.96166	-10.55217	-89.16204	
12:46:34	-6.733765	38.95356	100.484	0.9777372	8.050167	0.09	3	99	0	50	35.1426	-10.75008	-89.26504	
12:46:36	-6.733762	38.95356	101.064	0.9053261	2.195773	0.28	3	99	0	50	35.01118	-10.46809	-89.29243	
12:46:37	-6.73376	38.95355	101.699	0.9170829	2.24718	0.13	3	99	0	50	34.66685	-10.28972	-89.4559	
12:46:39	-6.733758	38.95354	101.949	1.045146	4.629962	0.37	3	99	0	50	34.87851	-10.17966	-89.61974	
12:46:41	-6.733755	38.95354	102.939	0.7703678	-7.042167	0.09	3	99	0	50	34.69072	-10.37939	-89.68586	
12:46:42	-6.733753	38.95354	103.912	0.8403283	2.216732	0.14	3	99	0	50	34.55313	-10.35098	-89.74716	
12:46:44	-6.73375	38.95354	105.335	0.884928	1.828882	0.26	3	99	0	50	34.54312	-10.10219	-89.88639	
12:46:46	-6.733749	38.95354	106.186	0.9653935	3.642493	0.19	3	99	0	50	34.37416	-10.53096	-89.84725	
12:46:47	-6.733748	38.95354	107.651	0.9391093	4.572297	0.22	3	99	0	50	34.36427	-10.41788	-89.83707	
12:46:49	-6.733747	38.95355	108.623	1.094942	7.009642	0.14	3	99	0	50	34.33451	-10.35577	-89.7641	
12:46:51	-6.733745	38.95356	109.169	1.091721	1.649183	0.22	3	99	0	50	34.403	-10.53311	-89.75048	
12:46:53	-6.733739	38.95356	108.881	0.889554	-8.05264	0.12	3	99	0	50	34.46967	-10.42517	-89.73896	
12:46:54	-6.733733	38.95356	108.862	0.8595582	-5.26341	0.22	3	99	0	50	34.77476	-10.303	-89.73403	
12:46:56	-6.733727	38.95356	108.228	0.8451041	-1.028325	0.34	3	99	0	50	34.32877	-11.35025	-89.49298	
12:46:58	-6.73372	38.95357	107.153	0.9405433	1.503413	0.35	3	99	0	50	33.78578	-11.33381	-88.93493	
12:46:59	-6.733715	38.95357	106.543	0.8598029	-3.729812	0.44	3	99	0	50	34.37628	-11.46505	-88.57946	
12:47:01	-6.733711	38.95358	106.373	0.9641429	1.943846	0.19	3	99	0	50	34.73532	-12.4341	-88.25197	
12:47:03	-6.733709	38.95358	106.088	1.016744	2.203817	0.13	3	99	0	50	34.45509	-12.62461	-87.53236	
12:47:04	-6.733702	38.95358	105.35	1.0295	-1.393369	0.38	3	99	0	50	34.79888	-12.01518	-87.13422	
12:47:06	-6.733697	38.95358	104.498	0.7206729	-12.05911	0.08	3	99	0	50	34.65197	-11.87514	-86.85143	
12:47:08	-6.733695	38.95359	104.023	0.9645182	4.364334	0.07	3	99	0	50	34.449	-11.34133	-86.71978	
12:47:09	-6.733693	38.9536	103.281	1.018213	0.5934836	0.26	3	99	0	50	34.7636	-11.02034	-86.9051	
12:47:11	-6.73369	38.9536	102.458	1.188083	7.390061	0.14	3	99	0	50	34.86589	-10.58995	-87.12199	
12:47:13	-6.73369	38.95361	101.617	1.145724	4.149429	0.16	3	99	0	50	34.94292	-10.39949	-87.32772	
12:47:14	-6.73369	38.95361	101.027	1.297234	5.637395	0.19	3	99	0	50	34.98641	-10.23171	-87.69416	
12:47:16	-6.73369	38.95362	101.319	1.121195	-5.526017	0.14	3	99	0	50	34.94888	-9.853044	-88.11221	
12:47:18	-6.73369	38.95362	101.01	1.200289	-1.803687	0.04	3	99	0	50	35.04716	-9.388166	-88.67242	
12:47:19	-6.733693	38.95362	101.547	1.416967	8.22833	0.09	3	99	0	50	35.04903	-8.936564	-89.33472	
12:47:21	-6.733696	38.95362	102.203	1.524364	6.266447	0.21	3	99	0	50	35.20983	-8.989521	-89.95807	
12:47:23	-6.733697	38.95363	102.408	1.36744	-3.150941	0.09	3	99	0	50	35.34418	-9.381504	-90.47787	
12:47:25	-6.7337	38.95363	103.212	1.055976	-12.27615	0.28	3	99	0	50	35.0408	-9.291255	-90.8263	
12:47:26	-6.733701	38.95363	103.626	1.395348	6.006098	0.19	3	99	0	50	35.19184	-9.922478	-91.0799	
12:47:28	-6.733702	38.95363	103.357	1.150259	-7.452032	0.31	3	99	0	50	35.07703	-9.819801	-91.05202	
12:47:30	-6.733703	38.95363	103.464	0.9063741	-11.51962	0.19	3	99	0	50	34.86144	-9.892818	-91.06451	
12:47:31	-6.733703	38.95364	103.13	1.150653	5.609351	0.26	3	99	0	50	34.90737	-10.06862	-91.05589	
12:47:33	-6.733706	38.95364	103.198	1.155028	2.009059	0.26	3	99	0	50	34.92523	-10.76047	-90.90789	
12:47:35	-6.733707	38.95364	102.534	0.9119015	-6.365736	0.14	3	99	0	50	34.73029	-11.08066	-90.55153	
12:47:36	-6.733706	38.95363	102.57	1.162202	8.724322	0.02	3	99	0	50	35.48681	-11.76793	-90.18418	
12:47:38	-6.733705	38.95363	102.438	1.166597	-10.31719	0.48	3	99	0	50	40.17421	-16.90948	-85.98682	
12:47:40	-6.7337	38.95362	101.465	1.254224	-7.599104	0.55	3	99	0	50	38.30775	-16.38988	-84.38691	
12:47:41	-6.733705	38.95362	102.227	1.202269	-6.298284	0.95	3	99	0	50	36.58837	-14.76068	-83.4348	
12:47:43	-6.73371	38.95362	102.545	1.259826	-2.247839	0.32	3	99	0	50	36.32011	-14.10469	-83.20303	
12:47:45	-6.733706	38.95362	102.163	1.350839	2.448256	0.13	3	99	0	50	35.89653	-13.92208	-82.8353	
12:47:46	-6.733701	38.95362	101.575	1.344956	-1.399878	0.39	3	99	0	50	35.38411	-13.06848	-82.55394	
12:47:48	-6.733698	38.95362	100.769	1.261585	-2.029435	0.57	3	99	0	50	35.26639	-12.63737	-82.87479	
12:47:50	-6.733695	38.95362	99.884	1.197798	-1.7656	0.22	3	99	0	50	34.91768	-11.42828	-83.35441	
12:47:52	-6.733692	38.95361	99.335	1.39454	9.123317	0.17	3	99	0	50	34.8436	-10.2748	-84.11501	
12:47:53	-6.733691	38.9536	98.644	1.492685	9.059041	0.19	3	99	0	50	34.51861	-9.782498	-85.15072	
12:47:55	-6.73369	38.95359	97.986	1.513047	4.054256	0.55	3	99	0	50	34.39952	-9.053357	-86.54774	
12:47:57	-6.733689	38.95359	97.017	1.373541	-2.526798	0.14	3	99	0	50	34.52074	-7.577415	-88.07531	
12:47:58	-6.73369	38.95358	96.447	1.081357	-9.753224	0.14	3	99	0	50	34.8086	-7.087362	-89.53519	
12:48:00	-6.733689	38.95358	95.134	1.148995	-0.8437026	0.35	3	99	0	50	34.60959	-7.496742	-91.14086	
12:48:02	-6.733687	38.95358	93.134	1.168898	0.6202501	0.48	3	99	0	50	34.35838	-7.211282	-92.36995	
12:48:03	-6.733686	38.95357	92.12	1.696435	21.66572	0.19	3	99	0	50	34.7154	-7.325027	-93.41634	
12:48:05	-6.733686	38.95356	91.281	1.623253	6.51883	0.02	3	99	0	50	34.68861	-7.446453	-94.21774	
12:48:07	-6.733688	38.95356	90.726	1.383679	-6.419363	0.18	3	99	0	50	34.45157	-8.49809	-94.79203	
12:48:08	-6.733693	38.95354	89.861	1.582386	6.623755	0.17	3	99	0	50	33.83511	-9.275771	-94.83691	
12:48:10	-6.733695	38.95354	90.097	1.303752	-8.156548	0.14	3	99	0	50	33.50956	-10.46914	-94.47762	
12:48:12	-6.733697	38.95353	93.047	1.319049	-0.8426604	0.26	3	99	0	50	33.38394	-10.86445	-93.8223	
12:48:13	-6.733701	38.95353	95.556	1.272045	-3.487254	0.29	3	99	0	50	33.24739	-11.47824	-93.21478	
12:48:15	-6.733703	38.95351	97.646	1.421417	1.976567	0.14	3	99	0	50	33.39026	-12.38283	-92.29529	
12:48:17	-6.733704	38.9535	98.207	1.094245	-10.76277	0.22	3	99	0	50	33.53024	-12.32386	-91.11519	
12:48:18	-6.733706	38.9535	98.536	1.380688	5.376952	0.33	3	99	0	50	32.62107	-13.16032	-89.8686	
12:48:20	-6.73371	38.9535	98.351	1.468145	6.136315	0.29	3	99	0	50	32.57961	-13.63278	-88.42702	
12:48:22	-6.733711	38.95349	98.043	1.677268	8.117586	0.22	3	99	0	50	32.80798	-13.33216	-87.27395	
12:48:24	-6.73371	38.95349	97.48	1.33594	-9.672444	0.35	3	99	0	50	33.0663	-13.22919	-86.41107	
12:48:25	-6.733714	38.95349	96.605	1.26022	-8.631166	0.17	3	99	0	50	32.88494	-12.68514	-85.63797	
12:48:27	-6.733715	38.95349	95.388	1.123822	-7.838297	0.22	3	99	0	50	33.06187	-12.31959	-85.19891	
12:48:29	-6.733719	38.95349	93.939	1.190856	-0.217226	0.26	3	99	0	50	33.01284	-11.71047	-84.95119	
12:48:30	-6.733723	38.95349	92.824	1.206671	3.238873	0.29	3	99	0	50	33.15114	-11.65044	-84.96539	
12:48:32	-6.733727	38.95349	92.419	1.530062	13.37938	0.21	3	99	0	50	33.70417	-10.91239	-85.2355	
12:48:34	-6.733734	38.95349	92.467	1.64035	8.879487	0.26	3	99	0	50	33.81628	-10.81648	-85.57348	
12:48:35	-6.733737	38.95349	92.945	1.677386	4.67732	0.38	3	99	0	50	34.08678	-10.35505	-86.0779	
12:48:37	-6.733741	38.95348	94.112	1.567851	-0.9080983	0.21	3	99	0	50	33.78675	-10.20125	-86.61763	
12:48:39	-6.733743	38.95348	94.662	1.188259	-14.78414	0.31	3	99	0	50	34.46088	-9.763165	-87.25948	
12:48:40	-6.733743	38.95348	94.314	1.103959	-8.354582	0.17	3	99	0	50	34.39891	-9.655731	-87.91164	
12:48:42	-6.733743	38.95348	93.451	1.420296	9.799234	0.17	3	99	0	50	34.29308	-9.149614	-88.61168	
12:48:44	-6.733742	38.95348	92.46	1.533288	9.257448	0.17	3	99	0	50	34.42933	-9.150846	-89.26294	
12:48:45	-6.73374	38.95348	91.903	1.401743	-0.01665206	0.29	3	99	0	50	34.82601	-9.208476	-89.96061	
12:48:47	-6.733737	38.95348	92.253	1.158488	-8.863625	0.36	3	99	0	50	34.35347	-9.331865	-90.35195	
12:48:49	-6.733732	38.95348	92.26	1.32906	4.783828	0.29	3	99	0	50	34.83589	-9.206479	-90.87351	
12:48:51	-6.733725	38.95347	92.171	1.263597	3.236372	0.44	3	99	0	50	34.7532	-9.45888	-91.23692	
12:48:52	-6.733719	38.95347	92.82	1.458759	8.864168	0.25	3	99	0	50	34.44444	-9.058166	-91.47268	
12:48:54	-6.733715	38.95347	92.857	1.184817	-5.967817	0.12	3	99	0	50	34.52463	-9.795723	-91.58208	
12:48:56	-6.733706	38.95347	93.629	1.160081	-0.5413921	0.04	3	99	0	50	34.95018	-10.32214	-91.57748	
12:48:57	-6.7337	38.95347	94.253	1.028572	-8.665457	0.19	3	99	0	50	34.99193	-10.76823	-91.31059	
12:48:59	-6.733691	38.95346	95.393	1.246213	5.731412	0.37	3	99	0	50	35.07161	-11.29491	-90.85976	
12:49:01	-6.733691	38.95346	96.5	1.589656	16.06689	0.39	3	99	0	50	38.22947	-11.29871	-90.15428	
12:49:02	-6.733692	38.95346	97.993	1.396727	-4.407337	0.29	3	99	0	50	38.69272	-12.331	-89.73817	
12:49:04	-6.733697	38.95346	99.566	1.396521	-4.723145	0.04	3	99	0	50	37.99726	-11.59293	-89.18407	
12:49:06	-6.733695	38.95346	100.566	1.231369	-7.978198	0.28	3	99	0	50	38.47252	-12.31412	-88.8631	
12:49:07	-6.73369	38.95344	101.138	1.100238	-11.07944	0.36	3	99	0	50	38.31771	-12.359	-88.3402	
12:49:09	-6.733685	38.95342	101.404	1.232831	-1.159878	0.33	3	99	0	50	38.19094	-12.11431	-87.87673	
12:49:11	-6.733682	38.9534	101.702	1.41643	5.414592	0.41	3	99	0	50	38.14094	-11.51943	-87.63068	
12:49:12	-6.733677	38.9534	101.095	1.379339	0.7340927	0.58	3	99	0	50	38.89276	-11.47587	-87.55494	
12:49:14	-6.733676	38.9534	100.81	1.426275	0.9763616	0.48	3	99	0	50	38.45668	-11.42381	-87.27963	
12:49:16	-6.733669	38.95339	99.868	1.342698	-2.872126	0.12	3	99	0	50	39.39033	-12.96224	-87.15249	
12:49:18	-6.733668	38.95338	101.399	1.557059	7.295325	0.22	3	99	0	50	39.43924	-13.09302	-86.78891	
12:49:19	-6.733663	38.95337	100.699	1.885547	12.63246	0.56	3	99	0	50	40.06174	-13.82529	-86.32035	
12:49:21	-6.733662	38.95337	100.81	1.544432	-9.267243	0.39	3	99	0	50	39.48207	-12.56813	-85.90286	
12:49:23	-6.733663	38.95338	100.47	1.455663	-8.171775	0.28	3	99	0	50	39.46182	-12.4314	-85.64946	
12:49:24	-6.733665	38.95338	100.468	1.30505	-7.281925	0.39	3	99	0	50	39.84072	-11.65728	-85.57232	
12:49:26	-6.733662	38.95338	100.729	1.644426	8.539504	0.22	3	99	0	50	39.59927	-11.15837	-85.75032	
12:49:28	-6.733662	38.95339	100.783	1.440304	-5.020957	0.42	3	99	0	50	38.52421	-10.87033	-85.81644	
12:49:29	-6.733667	38.95339	101.865	1.243586	-7.842151	0.28	3	99	0	50	37.59396	-10.64795	-86.06009	
12:49:31	-6.733673	38.95339	102.739	1.377331	3.164439	0.42	3	99	0	50	37.81161	-10.43224	-86.48444	
12:49:33	-6.73368	38.95339	103.228	1.577376	10.03122	0.33	3	99	0	50	37.51657	-9.789464	-86.99835	
12:49:34	-6.733685	38.95339	104.279	1.778031	11.16542	0.45	3	99	0	50	37.81851	-9.561157	-87.75282	
12:49:36	-6.733675	38.95339	101.781	1.502432	-5.896608	0.14	3	99	0	50	38.73056	-8.736363	-88.67051	
12:49:38	-6.733663	38.95339	99.377	1.553122	-1.471247	0.26	3	99	0	50	38.1818	-8.238297	-89.38051	
12:49:39	-6.73366	38.95339	98.623	1.464146	-3.324188	0.33	3	99	0	50	37.90755	-8.384797	-90.12722	
12:49:41	-6.733657	38.95339	98.161	1.584944	1.138716	0.45	3	99	0	50	38.35559	-8.530821	-90.77861	
12:49:43	-6.733659	38.95339	98.37	1.500961	0.3358421	0.14	3	99	0	50	38.13498	-8.887133	-91.20746	
12:49:44	-6.73366	38.9534	99.228	1.696597	6.288794	0.22	3	99	0	50	38.52462	-9.392024	-91.71032	
12:49:46	-6.733659	38.9534	98.844	1.756197	4.376123	0.16	3	99	0	50	38.49617	-9.39717	-91.91642	
12:49:48	-6.733658	38.95341	99.268	1.624033	-3.044097	0.39	3	100	0	50	38.43766	-10.21753	-92.06023	
12:49:50	-6.733653	38.95341	98.429	1.687274	2.306474	0.22	3	100	0	50	38.56171	-10.12513	-91.96276	
12:49:51	-6.733648	38.95342	97.721	1.741119	1.56251	0.19	3	100	0	50	37.80196	-10.75206	-91.62216	
12:49:53	-6.73365	38.95343	98.004	1.722113	0.1577119	0.19	3	100	0	50	38.08315	-11.1069	-91.29434	
12:49:55	-6.733657	38.95343	99.435	1.78551	3.821567	0.19	3	100	0	50	37.92252	-11.43735	-90.80659	
12:49:56	-6.733663	38.95345	100.657	1.516334	-8.769029	0.19	3	100	0	50	38.01158	-11.48408	-90.50507	
12:49:58	-6.733674	38.95345	102.34	1.768818	5.07127	0.11	3	100	0	50	37.44855	-11.75108	-89.85715	
12:50:00	-6.733686	38.95345	104.509	1.7787	1.072724	0.09	3	100	0	50	37.62815	-12.01871	-89.36546	
12:50:01	-6.733698	38.95345	106.35	1.675914	-4.595325	0.16	3	100	0	50	37.64941	-11.95599	-88.88644	
12:50:03	-6.73371	38.95345	108.783	1.953923	9.847757	0.17	3	100	0	50	37.43557	-11.75591	-88.37225	
12:50:05	-6.733719	38.95345	111.355	1.994461	2.423478	0.04	3	100	0	50	37.48114	-11.69532	-87.94639	
12:50:06	-6.733727	38.95344	113.036	1.839665	-1.693632	0.22	3	100	0	50	37.50171	-11.47677	-87.67255	
12:50:08	-6.733733	38.95344	114.365	1.876952	0.2126087	0.19	3	100	0	50	37.82812	-11.23253	-87.55634	
12:50:10	-6.733739	38.95343	115.577	2.085519	8.009788	0.51	3	100	0	50	37.80351	-10.93078	-87.48554	
12:50:11	-6.733744	38.95343	116.607	2.061795	1.160791	0.19	3	100	0	50	38.08969	-10.27511	-87.68536	
12:50:13	-6.733749	38.95343	117.351	1.77849	-7.397409	0.12	3	100	0	50	38.26668	-10.2093	-87.94523	
12:50:15	-6.733752	38.95343	117.879	1.848965	1.325213	0.12	3	100	0	50	38.25011	-9.959509	-88.22163	
12:50:17	-6.733754	38.95342	118.286	1.825293	-1.68954	0.19	3	100	0	50	38.16855	-9.658087	-88.51914	
12:50:18	-6.733752	38.95342	118.663	1.515669	-11.50739	0.22	3	100	0	50	38.49749	-8.946104	-88.8885	
12:50:20	-6.733749	38.95342	119.265	1.737352	2.547589	0.11	3	100	0	50	38.31057	-9.316596	-89.33958	
12:50:22	-6.733749	38.95342	119.7	1.91337	7.098043	0.02	3	100	0	50	38.06659	-9.166625	-89.69205	
12:50:23	-6.733748	38.95342	120.043	1.741572	-4.102988	0.09	3	100	0	50	37.61176	-9.464921	-89.89907	
12:50:25	-6.733747	38.95341	120.123	1.952581	8.437286	0.39	3	100	0	50	37.78826	-9.728972	-90.16904	
12:50:27	-6.733745	38.95341	120.723	1.933107	2.504504	0.06	3	100	0	50	38.24754	-9.530114	-90.38177	
12:50:28	-6.733742	38.95341	120.889	1.91901	0.7231644	0.85	3	100	0	50	38.27033	-9.11407	-90.73246	
12:50:30	-6.733739	38.95342	121.103	2.153912	9.914649	0.04	3	100	0	50	38.15203	-9.747195	-90.90743	
12:50:32	-6.733738	38.95341	120.752	2.057172	0.710012	0.29	3	100	0	50	37.99864	-10.2209	-90.80689	
12:50:33	-6.733737	38.95342	119.737	1.658924	-16.00115	0.26	3	100	0	50	38.20898	-9.808261	-90.86065	
12:50:35	-6.733736	38.95342	119.561	1.668792	-5.783395	0.04	3	100	0	50	38.13874	-10.21995	-90.86144	
12:50:37	-6.733734	38.95343	119.26	2.188151	15.14735	0.42	3	100	0	50	38.24944	-12.39233	-90.44281	
12:50:38	-6.733729	38.95343	118.616	2.038234	-2.826095	0.38	3	100	0	50	38.27003	-13.00788	-89.80825	
12:50:40	-6.733725	38.95344	118.381	2.014171	-1.39547	0.52	3	100	0	50	38.13956	-11.37446	-89.32835	
12:50:42	-6.733721	38.95345	118.501	1.959058	-4.243059	0.17	3	100	0	50	38.11649	-12.5541	-88.86263	
12:50:43	-6.733718	38.95346	117.91	2.021392	-0.5232868	0.26	3	100	0	50	38.02838	-13.84017	-87.96997	
12:50:45	-6.733715	38.95348	116.763	2.039545	0.2656176	0.61	3	100	0	50	38.15898	-13.63391	-87.05042	
12:50:47	-6.733714	38.95349	115.688	2.107486	0.7865151	0.14	3	100	0	50	38.33696	-13.30884	-86.17808	
12:50:49	-6.733713	38.95351	114.547	2.219228	0.9914342	0.19	3	100	0	50	37.75497	-13.13225	-85.44894	
12:50:50	-6.733713	38.95353	113.503	2.190945	-3.103423	0.39	3	100	0	50	37.54309	-12.74422	-84.84103	
12:50:52	-6.733714	38.95354	112.905	2.061459	-4.775838	0.19	3	100	0	50	38.03811	-12.20893	-84.55749	
12:50:54	-6.733711	38.95354	113.074	2.396826	12.10401	0.39	3	100	0	50	38.1553	-11.0284	-84.6512	
12:50:55	-6.733711	38.95354	113.31	2.305599	1.238765	0.44	3	100	0	50	38.11656	-11.05009	-85.08569	
12:50:57	-6.73371	38.95354	113.917	2.136512	-4.358025	0.17	3	100	0	50	38.25349	-10.26918	-85.57893	
12:50:59	-6.733709	38.95353	114.916	2.259727	1.770125	0.38	3	100	0	50	38.02969	-10.33655	-86.00354	
12:51:00	-6.733706	38.95351	117.121	2.286473	2.770302	0.48	3	100	0	50	38.28502	-10.08307	-86.57484	
12:51:02	-6.733704	38.9535	118.946	2.146958	-4.303751	0.59	3	100	0	50	38.42305	-8.205938	-87.30901	
12:51:04	-6.733705	38.9535	120.407	2.055981	-5.014904	0.66	3	100	0	50	38.19969	-9.256524	-88.23885	
12:51:05	-6.733702	38.9535	120.932	2.224503	5.417251	0.33	3	100	0	50	38.66026	-8.695814	-88.95535	
12:51:07	-6.733697	38.95351	121.063	2.218956	2.646051	0.48	3	100	0	50	38.76477	-8.836041	-89.73363	
12:51:09	-6.733695	38.95351	121.09	2.316003	3.576801	0.51	3	100	0	50	37.97845	-8.821908	-90.32624	
12:51:10	-6.73369	38.95352	120.953	2.093584	-6.97932	0.14	3	100	0	50	38.43901	-8.823351	-91.07735	
12:51:12	-6.733685	38.95352	120.997	2.358299	10.7672	1.35	3	100	0	50	38.15818	-8.777642	-91.61869	
12:51:14	-6.733684	38.95353	121.249	2.386793	6.360311	0.48	3	100	0	50	38.78487	-9.80438	-91.96886	
12:51:16	-6.733683	38.95353	120.806	2.248833	-4.231101	0.44	3	100	0	50	39.1626	-10.45771	-91.95927	
12:51:17	-6.733685	38.95354	120.748	1.979106	-12.16352	0.36	3	100	0	50	38.12403	-10.20215	-91.60609	
12:51:19	-6.733686	38.95354	120.657	2.330288	9.753708	0.29	3	100	0	50	38.54216	-11.49422	-91.44455	
12:51:21	-6.733685	38.95354	120.641	2.306652	2.151901	0.29	3	100	0	50	38.63908	-11.68257	-90.92578	
12:51:22	-6.733683	38.95354	120.951	2.132858	-5.696946	0.57	3	100	0	50	39.3096	-12.02752	-90.49529	
12:51:24	-6.733683	38.95354	121.228	2.359224	8.262223	0.09	3	100	0	50	39.25465	-12.06174	-89.94171	
12:51:26	-6.733679	38.95353	120.528	2.171271	-5.098782	0.26	3	100	0	50	38.49033	-11.71798	-89.37108	
12:51:27	-6.733675	38.95353	119.232	2.266556	2.279538	0.22	3	100	0	50	38.20674	-11.70596	-88.85739	
12:51:29	-6.733668	38.95353	117.764	2.601586	14.25036	0.14	3	100	0	50	38.38708	-11.80417	-88.60073	
12:51:31	-6.733665	38.95352	118.013	2.342028	-3.726682	0.19	3	100	0	50	38.51347	-11.76519	-88.44585	
12:51:32	-6.733664	38.95351	117.14	2.318746	-1.683478	0.19	3	100	0	50	38.09668	-11.44387	-88.09786	
12:51:34	-6.733663	38.95351	117.176	2.361542	0.4161482	0.04	3	100	0	50	38.34078	-11.59335	-88.02315	
12:51:36	-6.733664	38.9535	117.387	2.356241	-0.08799451	0.12	3	100	0	50	37.95709	-10.92086	-87.8779	
12:51:37	-6.733665	38.9535	117.438	2.323636	-0.06411437	0.04	3	100	0	50	37.98074	-10.85111	-87.90205	
12:51:39	-6.73367	38.9535	118.375	2.194386	-3.873968	0.28	3	100	0	50	38.03482	-10.71889	-88.02174	
12:51:41	-6.733673	38.9535	119.225	2.534585	10.94205	0.22	3	100	0	50	37.70284	-10.17696	-88.05873	
12:51:43	-6.733678	38.9535	121.057	2.735643	11.46286	0.14	3	100	0	50	37.6472	-9.677933	-88.41973	
12:51:44	-6.73368	38.9535	121.822	2.909674	11.19409	0.16	3	100	0	50	37.8986	-9.326691	-88.85777	
12:51:46	-6.733683	38.95351	122.355	2.651226	-4.302027	0.02	3	100	0	50	38.16914	-9.309136	-89.25961	
12:51:48	-6.733689	38.95351	123.202	2.638807	-2.620886	0.39	3	100	0	50	37.895	-9.109432	-89.7051	
12:51:49	-6.733695	38.95351	123.648	2.599126	-3.500185	0.35	3	100	0	50	38.17186	-9.133	-90.20736	
12:51:51	-6.733701	38.95352	123.886	2.495823	-5.020768	0.24	3	100	0	50	37.81701	-9.312425	-90.52982	
12:51:53	-6.733705	38.95353	123.349	2.2874	-9.135668	0.11	3	100	0	50	37.98521	-9.793519	-90.77355	
12:51:54	-6.733709	38.95354	123.449	1.880668	-20.75187	0.44	3	100	0	50	38.04614	-9.606205	-91.00197	
12:51:56	-6.733714	38.95354	122.838	2.172548	5.91235	0.02	3	100	0	50	37.6372	-10.26528	-90.91981	
12:51:58	-6.733718	38.95355	121.288	2.39058	10.55066	0.24	3	100	0	50	36.16718	-11.35489	-90.39565	
12:51:59	-6.733719	38.95356	120.093	2.356939	4.392037	0.58	3	100	0	50	36.07674	-11.21269	-89.94588	
12:52:01	-6.733719	38.95357	119.49	2.19441	-7.654009	0.13	3	100	0	50	36.36945	-11.52942	-89.67838	
12:52:03	-6.733714	38.95358	117.676	2.318459	0.9591162	0.17	3	100	0	50	36.56466	-11.77192	-89.34143	
12:52:04	-6.733714	38.95359	117.059	2.630926	10.98492	0.13	3	100	0	50	36.59245	-11.83627	-88.90697	
12:52:06	-6.733711	38.9536	116.417	2.578195	3.331672	0.13	3	100	0	5	36.92666	-11.77315	-88.6267	
12:52:08	-6.733709	38.95361	115.797	2.480095	-1.328011	0.07	3	100	0	4	37.09808	-11.39708	-88.31083	
12:52:10	-6.733706	38.95361	115.563	2.358056	-6.135117	0.14	3	100	0	5	37.5532	-11.45611	-88.06584	
12:52:11	-6.733707	38.95362	116.029	2.266317	-3.484413	0.02	3	100	0	107	37.39545	-11.14703	-87.92559	
12:52:13	-6.733707	38.95362	116.192	2.273727	-2.207391	0.29	3	100	0	107	37.5581	-11.37346	-87.8311	
12:52:15	-6.733706	38.95362	116.573	2.359205	2.958188	0.08	3	100	0	107	37.62201	-10.91679	-87.75594	
12:52:16	-6.733707	38.95362	117.234	2.400197	1.104017	0.14	3	100	0	107	37.83466	-10.7512	-87.81909	
12:52:18	-6.733708	38.95362	117.235	2.423394	0.6205044	0.16	3	100	0	107	37.798	-10.58114	-87.90546	
12:52:20	-6.733709	38.95362	117.362	2.554891	4.468733	0.26	3	100	0	107	37.68784	-10.1613	-88.00985	
12:52:21	-6.733707	38.95362	117.348	2.396144	-3.908008	0.19	3	100	0	108	37.81231	-9.665863	-88.28378	
12:52:23	-6.733706	38.95362	117.439	2.401864	1.421776	0.16	3	100	0	108	38.05769	-9.769256	-88.7142	
12:52:25	-6.733706	38.95362	118.358	2.481406	0.5421601	0.11	3	100	0	108	37.89188	-9.884974	-88.98268	
12:52:26	-6.733706	38.95362	119.113	2.421765	-0.9455187	0.16	3	100	0	108	38.15995	-10.07763	-89.1861	
12:52:28	-6.733706	38.95362	119.465	2.747132	11.3621	0.08	3	100	0	108	38.20049	-9.664384	-89.40302	
12:52:30	-6.733706	38.95362	120.343	2.443044	-6.387304	0.29	3	100	0	108	38.25262	-9.874306	-89.60177	
12:52:31	-6.733704	38.95362	120.837	2.406741	-5.677029	0.18	3	100	0	108	38.18728	-9.651738	-89.70422	
12:52:33	-6.733704	38.95363	120.636	2.465189	0.6389337	0.16	3	100	0	99	37.84619	-9.848975	-89.81189	
12:52:35	-6.733703	38.95363	120.896	2.317706	-7.79534	0.12	3	100	0	108	38.21733	-9.722153	-90.06143	
12:52:37	-6.733702	38.95363	120.55	2.37453	-1.172225	0.09	3	100	0	108	37.90157	-10.0546	-90.13999	
12:52:38	-6.733703	38.95363	119.801	2.219906	-6.337731	0.18	3	100	0	108	38.04583	-10.05602	-90.20533	
12:52:40	-6.733702	38.95364	118.612	2.498228	6.355462	0.13	3	100	0	108	37.9851	-9.65471	-90.24874	
12:52:42	-6.733702	38.95364	117.222	2.32727	-5.605783	0.26	3	100	0	108	38.11705	-9.960743	-90.31507	
12:52:43	-6.733702	38.95364	115.961	2.218944	-6.657536	0.13	3	100	0	108	38.11341	-10.48144	-90.25751	
12:52:45	-6.733702	38.95364	114.727	2.214873	-1.386035	0.04	3	100	0	107	37.68517	-10.84525	-90.02261	
12:52:47	-6.733699	38.95364	113.524	2.212356	-1.389905	0.26	3	100	0	108	37.91967	-10.59626	-89.92207	
12:52:48	-6.733695	38.95364	111.967	2.216336	0.100098	0.22	3	100	0	107	37.95969	-10.52328	-89.81483	
12:52:50	-6.733692	38.95364	110.758	2.477885	8.993978	0.11	3	100	0	107	37.68303	-10.70233	-89.58233	
12:52:52	-6.733688	38.95364	109.55	2.396049	-1.575738	0.28	3	100	0	107	37.55556	-10.70917	-89.44115	
12:52:53	-6.733685	38.95364	109.102	2.184423	-6.518881	0.16	3	100	0	108	37.95703	-10.74617	-89.33178	
12:52:55	-6.733683	38.95364	107.935	2.153203	-3.054664	0.26	3	100	0	107	37.7111	-10.81747	-89.14533	
12:52:57	-6.733682	38.95364	107.327	2.335325	6.087419	0.14	3	100	0	107	37.79127	-10.62474	-89.1021	
12:52:59	-6.733683	38.95364	106.745	2.32328	1.100284	0.22	3	100	0	107	37.81205	-10.42434	-89.05901	
12:53:00	-6.733685	38.95364	106.197	2.086688	-8.111322	0.38	3	100	0	108	38.47399	-10.71677	-89.03175	
12:53:02	-6.733685	38.95364	105.283	2.103068	-1.898147	0.14	3	100	0	108	38.13292	-10.62507	-88.92029	
12:53:04	-6.73369	38.95364	104.564	2.019272	-4.628318	0.22	3	100	0	108	37.97158	-10.82262	-88.87439	
12:53:05	-6.733693	38.95364	103.962	2.44895	15.33527	0.28	3	100	0	108	38.27081	-10.77949	-88.89043	
12:53:07	-6.733695	38.95364	103.748	2.283171	-0.9411335	0.18	3	100	0	108	38.68723	-11.13496	-88.84389	
12:53:09	-6.733697	38.95364	104.39	2.231638	-2.260334	0.13	3	100	0	108	38.42696	-11.31019	-88.63155	
12:53:10	-6.733697	38.95363	104.836	1.941568	-14.46165	0.25	3	100	0	108	38.41232	-11.00941	-88.50609	
12:53:12	-6.7337	38.95363	105.625	1.900534	-8.81076	0.04	3	100	0	108	38.35019	-10.78402	-88.3855	
12:53:14	-6.733702	38.95363	106.983	1.97634	-0.144554	0.29	3	100	0	107	37.93117	-10.73123	-88.23574	
12:53:15	-6.733702	38.95362	108.407	2.436275	20.189	0.21	3	100	0	96	38.18172	-10.36268	-88.33277	
12:53:17	-6.733702	38.95362	109.182	2.105342	-4.097206	0.21	3	100	0	108	38.06483	-10.1967	-88.41568	
12:53:19	-6.733701	38.95362	109.487	2.443383	11.18574	0.09	3	100	0	108	38.03077	-9.965423	-88.58548	
12:53:20	-6.733699	38.95362	109.492	2.643316	12.04358	0.22	3	100	0	108	38.06284	-9.871577	-88.83437	
12:53:22	-6.733697	38.95362	109.663	2.427022	-4.336392	0.25	3	100	0	108	37.83075	-9.56405	-89.06857	
12:53:24	-6.733695	38.95361	110.218	2.110964	-13.22675	0.17	3	100	0	108	38.19214	-9.611401	-89.44966	
12:53:26	-6.733691	38.95361	110.955	2.091568	-5.827899	0.06	3	100	0	108	37.96748	-9.334663	-89.73408	
12:53:27	-6.73369	38.95362	110.635	2.455959	10.52035	0.18	3	100	0	107	37.50841	-9.541533	-90.0125	
12:53:29	-6.73369	38.95361	110.234	2.582722	8.669025	0.37	3	100	0	107	37.66742	-9.530991	-90.28889	
12:53:31	-6.733688	38.95361	110.436	2.596423	4.087989	0.14	3	100	0	107	37.18034	-9.745954	-90.40096	
12:53:32	-6.73369	38.95361	110.615	2.482416	-2.598878	0.03	3	100	0	107	37.47542	-10.00669	-90.55181	
12:53:34	-6.73369	38.95361	110.928	2.283801	-7.850591	0.25	3	100	0	107	37.41021	-10.35974	-90.55558	
12:53:36	-6.733691	38.95361	110.676	2.223914	-5.570264	0.17	3	100	0	107	37.73752	-10.67601	-90.49853	
12:53:37	-6.73368	38.9536	110.143	2.100913	-6.929626	0.25	3	100	0	107	37.2292	-10.54743	-90.1888	
12:53:39	-6.733672	38.9536	108.891	2.328794	6.584264	0.35	3	100	0	107	37.52081	-10.70414	-90.07315	
12:53:41	-6.733663	38.95359	106.981	2.179876	-6.701644	0.36	3	100	0	107	37.76889	-10.59771	-89.94279	
12:53:42	-6.733656	38.95359	105.55	2.344897	5.112373	0.06	3	100	0	107	37.33974	-10.80355	-89.73881	
12:53:44	-6.733654	38.95359	104.568	2.377785	3.809554	0.09	3	100	0	107	37.19213	-10.82983	-89.49585	
12:53:46	-6.733658	38.95359	104.309	2.437872	3.218694	0.22	3	100	0	107	37.10818	-10.74546	-89.29312	
12:53:47	-6.733664	38.9536	104.073	2.245234	-6.979132	0.21	3	100	0	107	37.30274	-10.31232	-89.23559	
12:53:49	-6.73367	38.9536	103.895	2.096655	-7.109239	0.04	3	100	0	107	37.95916	-10.85965	-89.26286	
12:53:51	-6.733675	38.9536	104.175	2.457612	9.092846	0.21	3	100	0	107	37.7706	-10.6351	-89.04227	
12:53:53	-6.733679	38.9536	104.882	2.580593	8.903638	0.14	3	100	0	108	37.95955	-10.89767	-88.95262	
12:53:54	-6.733685	38.9536	105.069	2.681529	7.409586	0.09	3	100	0	107	37.43276	-10.4225	-88.72068	
12:53:56	-6.733693	38.95361	104.574	2.907861	11.83709	0.03	3	100	0	107	37.72148	-10.31181	-88.78434	
12:53:58	-6.733697	38.95361	104.309	2.751853	-0.917706	0.04	3	100	0	107	37.57417	-10.31574	-88.79993	
12:53:59	-6.7337	38.95361	103.904	2.384795	-15.19956	0.11	3	100	0	107	37.80008	-10.11404	-88.9594	
12:54:01	-6.733705	38.95361	103.703	2.325427	-6.411604	0.25	3	100	0	107	37.60831	-10.13477	-89.01873	
12:54:03	-6.733709	38.95361	103.791	2.110537	-13.47753	0.02	3	100	0	107	37.20012	-10.44131	-88.94571	
12:54:04	-6.733715	38.95361	104.397	2.23475	0.3694773	0.08	3	100	0	107	37.25628	-10.58659	-88.96718	
12:54:06	-6.733722	38.95362	105.02	2.246072	-0.8599191	0.14	3	100	0	107	37.93351	-10.32517	-89.13419	
12:54:08	-6.733727	38.95362	105.487	2.242806	0.3760919	0.14	3	100	0	107	37.75784	-10.65189	-89.04475	
12:54:09	-6.733731	38.95362	105.903	2.36806	4.559128	0.04	3	100	0	107	37.66582	-10.62654	-88.95591	
12:54:11	-6.733736	38.95362	106.71	2.193141	-5.448331	0.07	3	100	0	107	37.62212	-10.71367	-88.97356	
12:54:13	-6.73374	38.95362	106.959	2.458629	8.062541	0.09	3	100	0	107	37.4994	-10.58574	-88.95255	
12:54:14	-6.733744	38.95361	106.924	2.802975	18.57989	0.12	3	100	0	107	37.56628	-10.36624	-88.90548	
12:54:16	-6.733744	38.95362	106.163	2.496372	-6.027708	0.07	3	100	0	107	37.47605	-10.29032	-88.92763	
12:54:18	-6.733742	38.95362	105.454	2.227578	-10.93635	0.13	3	100	0	107	37.59909	-10.17781	-89.07956	
12:54:20	-6.733741	38.95362	104.969	2.140843	-8.897298	0.07	3	100	0	107	37.71741	-9.995559	-89.1901	
12:54:21	-6.733737	38.95362	104.774	2.069229	-8.0457	0.16	3	100	0	108	37.91368	-10.17247	-89.36815	
12:54:23	-6.733731	38.95362	104.178	2.193291	1.288989	0.14	3	100	0	108	37.8364	-10.02003	-89.41012	
12:54:25	-6.733724	38.95361	103.55	2.113045	-0.2072446	0.16	3	100	0	107	37.73983	-10.14058	-89.51165	
12:54:26	-6.733717	38.95362	102.655	2.383763	5.632426	0.11	3	100	0	108	37.82673	-9.78862	-89.71883	
12:54:28	-6.733713	38.95361	101.877	2.138713	-8.383192	0.12	3	100	0	107	37.68335	-10.05545	-89.8449	
12:54:30	-6.73371	38.95361	101.225	2.461108	9.986294	0.14	3	100	0	108	37.98446	-9.841892	-90.01162	
12:54:31	-6.733706	38.95362	100.492	2.666785	10.51822	0.09	3	100	0	108	37.93329	-10.02447	-90.13028	
12:54:33	-6.733704	38.95362	99.862	2.667262	4.711509	0.12	3	100	0	108	37.83025	-9.972867	-90.12531	
12:54:35	-6.733703	38.95362	99.405	2.402992	-5.782513	0.21	3	100	0	107	37.85291	-10.24037	-90.17472	
12:54:36	-6.733707	38.95362	100.275	2.491662	-1.022673	0.09	3	100	0	108	38.08552	-10.43209	-90.12782	
12:54:38	-6.73371	38.95362	101.375	2.65889	5.323214	0.08	3	100	0	108	38.02211	-10.58932	-90.02649	
12:54:40	-6.733714	38.95362	102.31	2.51601	-1.645612	0.18	3	100	0	108	38.08016	-10.33823	-89.99502	
12:54:42	-6.733717	38.95362	103.33	2.863333	12.43918	0.02	3	100	0	107	37.82744	-10.41573	-89.89255	
12:54:43	-6.733727	38.95361	104.847	2.829116	2.967925	0.13	3	100	0	107	37.66885	-10.97091	-89.75459	
12:54:45	-6.733731	38.95361	105.805	3.092788	12.85364	0.17	3	100	0	107	37.89796	-11.14557	-89.59383	
12:54:47	-6.733736	38.95361	106.22	2.921369	-2.013357	0.26	3	100	0	108	38.2483	-11.0518	-89.39396	
12:54:48	-6.733739	38.9536	106.833	2.749453	-7.97953	0.22	3	100	0	108	38.09157	-11.12759	-89.14452	
12:54:50	-6.733744	38.9536	107.401	2.652894	-8.722421	0.26	3	100	0	108	38.01911	-11.17333	-88.97038	
12:54:52	-6.733747	38.95359	107.744	2.576233	-6.281081	0.14	3	100	0	107	37.51419	-10.70918	-88.65853	
12:54:53	-6.733749	38.95359	107.989	2.617342	-1.782479	0.39	3	100	0	108	38.11746	-10.6698	-88.66273	
12:54:55	-6.733753	38.95359	107.938	2.421412	-9.370853	0.09	3	100	0	108	38.0893	-11.03435	-88.57275	
12:54:57	-6.733755	38.95359	107.69	2.556043	0.281136	0.37	3	100	0	107	37.72232	-10.9742	-88.40083	
12:54:58	-6.733762	38.95359	108.092	2.592536	1.508186	0.07	3	100	0	107	37.58933	-10.71919	-88.24194	
12:55:00	-6.733769	38.95359	108.975	2.564517	-1.470933	0.51	3	100	0	107	37.66861	-11.29715	-88.1867	
12:55:02	-6.733779	38.95359	109.926	2.554647	0.05099658	0.26	3	100	0	107	37.357	-10.53722	-88.03075	
12:55:03	-6.733787	38.95358	111.018	2.72392	7.443765	0.45	3	100	0	107	37.26849	-10.5695	-88.03918	
12:55:05	-6.733789	38.95358	112.021	2.690491	0.1499249	0.55	3	100	0	107	37.52772	-10.73142	-88.1705	
12:55:07	-6.733793	38.95358	112.796	2.603939	-2.158195	0.19	3	100	0	107	37.91522	-10.81923	-88.27284	
12:55:09	-6.733797	38.95358	114.119	2.65866	0.6602443	0.58	3	100	0	107	37.82162	-10.602	-88.36474	
12:55:10	-6.733799	38.95357	114.812	2.716153	3.086984	0.32	3	100	0	107	37.68093	-10.58603	-88.39176	
12:55:12	-6.733801	38.95357	115.555	2.660924	-1.590369	0.16	3	100	0	107	37.60329	-10.27311	-88.48459	
12:55:14	-6.733803	38.95356	116.705	2.582614	-1.671954	0.53	3	100	0	107	37.80704	-10.3231	-88.61792	
12:55:15	-6.733807	38.95356	117.393	2.843082	10.82134	0.22	3	100	0	108	38.20038	-10.54942	-88.8862	
12:55:17	-6.733809	38.95356	118.466	2.897425	5.049059	0.07	3	100	0	108	38.00429	-10.6371	-88.90401	
12:55:19	-6.733809	38.95354	119.884	2.75101	-4.037734	0.07	3	100	0	107	37.68606	-10.44732	-88.88979	
12:55:20	-6.73381	38.95353	121.451	2.741575	0.2813184	0.02	3	100	0	107	37.84134	-10.17149	-89.02369	
12:55:22	-6.733812	38.95353	122.442	2.911835	8.636594	0.21	3	100	0	107	37.46973	-10.35451	-89.05865	
12:55:24	-6.733811	38.95352	123.705	2.911722	1.865701	0.28	3	100	0	108	38.05745	-10.27834	-89.24116	
12:55:25	-6.733811	38.95351	124.306	2.86469	-0.2440738	0.16	3	100	0	107	37.86082	-9.843277	-89.27837	
12:55:27	-6.733813	38.9535	124.956	2.760361	-2.876825	0.38	3	100	0	107	37.81599	-10.32025	-89.41787	
12:55:29	-6.733813	38.9535	124.723	2.972277	5.211365	0.39	3	100	0	107	37.9718	-10.46878	-89.4307	
12:55:30	-6.733814	38.9535	123.943	3.027297	4.500129	0.25	3	100	0	107	37.7206	-10.30833	-89.3883	
12:55:32	-6.733816	38.9535	123.227	3.027233	3.507316	0.19	3	100	0	107	37.87363	-10.35172	-89.50821	
12:55:34	-6.73382	38.9535	123.51	3.196959	5.63316	0.38	3	100	0	107	37.95042	-11.21805	-89.52002	
12:55:36	-6.733822	38.9535	123.628	2.951179	-6.112823	0.13	3	100	0	107	37.88927	-10.83835	-89.42844	
12:55:37	-6.733823	38.95351	123.512	3.090168	-0.1372453	0.04	3	100	0	108	38.12852	-10.65349	-89.40026	
12:55:39	-6.733826	38.95351	123.667	3.196697	5.073912	0.22	3	100	0	107	37.67377	-10.42863	-89.35067	
12:55:41	-6.733824	38.95353	123.505	3.227302	4.071868	0.28	3	100	0	107	37.68753	-10.96203	-89.23536	
12:55:42	-6.73382	38.95353	122.837	3.273829	2.75743	0.32	3	100	0	107	37.29173	-10.99669	-88.98131	
12:55:44	-6.733818	38.95354	121.826	3.166652	-1.419409	0.51	3	100	0	107	37.32169	-10.90225	-88.91708	
12:55:46	-6.733812	38.95354	121.27	2.901823	-10.94307	0.53	3	100	0	107	37.31213	-10.69819	-88.87709	
12:55:47	-6.733816	38.95354	122.827	2.893884	-4.22344	0.29	3	100	0	107	36.95211	-10.81651	-88.74964	
12:55:49	-6.73382	38.95354	123.679	3.163875	9.21237	0.14	3	100	0	107	36.58049	-11.21955	-88.51614	
12:55:51	-6.73381	38.95354	123.127	3.365785	9.424218	0.45	3	100	0	107	37.08029	-10.4425	-88.50101	
12:55:52	-6.733808	38.95354	123.025	3.25935	-0.9030381	0.02	3	100	0	107	36.81918	-10.76158	-88.52867	
12:55:54	-6.73381	38.95354	123.621	2.916257	-13.36154	0.28	3	100	0	107	36.81035	-10.34738	-88.52962	
12:55:56	-6.733806	38.95354	123.193	2.918596	-6.722581	0.14	3	100	0	107	37.29814	-10.61615	-88.69585	
12:55:57	-6.733801	38.95355	123.27	2.982579	1.383168	0.06	3	100	0	107	37.5955	-10.39806	-88.81051	
12:55:59	-6.73379	38.95356	121.985	3.209723	8.527605	0.33	3	100	0	107	37.56044	-10.94333	-88.86777	
12:56:01	-6.733782	38.95356	120.676	3.391137	10.2234	0.03	3	100	0	107	37.62157	-10.76812	-88.83164	
12:56:03	-6.733776	38.95357	119.777	3.225758	-3.557211	0.26	3	100	0	107	37.34721	-10.99888	-88.77123	
12:56:04	-6.73377	38.95357	118.865	3.019933	-9.202771	0.04	3	100	0	108	38.06811	-10.89908	-88.81911	
12:56:06	-6.733767	38.95358	118.202	2.964704	-4.014679	0.28	3	100	0	107	37.84777	-11.06471	-88.71811	
12:56:08	-6.733765	38.95358	117.735	2.904055	-2.44496	0.14	3	100	0	107	37.69451	-10.84298	-88.69931	
12:56:09	-6.733761	38.95359	116.739	3.065392	3.806883	0.09	3	100	0	108	37.90793	-10.63377	-88.72863	
12:56:11	-6.733757	38.95359	116.192	3.153859	4.933426	0.17	3	100	0	108	38.00809	-10.70223	-88.78831	
12:56:13	-6.733753	38.95359	116.283	2.93195	-7.683933	0.29	3	100	0	107	37.42013	-10.96123	-88.63905	
12:56:14	-6.733747	38.9536	116.473	2.890428	-5.353714	0.06	3	100	0	107	37.84601	-10.59579	-88.70628	
12:56:16	-6.733745	38.9536	116.787	2.936478	2.274215	0.31	3	100	0	107	37.81085	-10.36975	-88.77445	
12:56:18	-6.733742	38.9536	117.279	3.21328	11.86087	0.17	3	100	0	108	37.9718	-10.45502	-88.954	
12:56:19	-6.733738	38.9536	117.579	3.387376	11.65946	0.17	3	100	0	108	37.80559	-10.3501	-89.0391	
12:56:21	-6.733736	38.9536	117.445	3.414614	5.159333	0.16	3	100	0	108	37.75596	-10.02308	-89.18728	
12:56:23	-6.733732	38.9536	117.638	3.351271	0.8297049	0.16	3	100	0	108	38.12503	-9.93629	-89.43699	
12:56:24	-6.733729	38.95359	117.321	3.15011	-8.379826	0.04	3	100	0	108	37.96509	-10.13425	-89.55178	
12:56:26	-6.733727	38.95359	117.1	3.251561	0.8474787	0.12	3	100	0	107	37.7337	-10.15149	-89.54396	
12:56:28	-6.733725	38.95359	117.463	3.116864	-4.353763	0.16	3	100	0	107	37.69888	-9.873501	-89.6898	
12:56:30	-6.733723	38.95358	118.099	3.195033	4.034626	0.04	3	100	0	108	37.77784	-9.657104	-89.90035	
12:56:31	-6.733722	38.95358	118.498	3.377287	10.35502	0.14	3	100	0	107	37.6628	-9.496672	-90.09143	
12:56:33	-6.733722	38.95358	119.741	3.400615	3.738215	0.08	3	100	0	107	37.56211	-10.16134	-90.178	
12:56:35	-6.733721	38.95357	120.733	3.313209	-0.969962	0.09	3	100	0	107	37.58928	-10.25992	-90.19733	
12:56:36	-6.733719	38.95357	121.319	3.179366	-7.950029	0.09	3	100	0	108	37.99666	-10.43224	-90.2337	
12:56:38	-6.733718	38.95356	122.01	3.247964	-0.1044677	0.04	3	100	0	107	37.57676	-10.33745	-90.05579	
12:56:40	-6.733719	38.95356	122.33	3.258396	-1.222316	0.19	3	100	0	107	37.70643	-10.81626	-90.0155	
12:56:41	-6.73372	38.95356	122.639	3.212461	-2.861455	0.22	3	100	0	107	37.59943	-10.78573	-89.84364	
12:56:43	-6.733722	38.95356	122.562	3.131312	-5.04357	0.28	3	100	0	107	37.83732	-10.75988	-89.76101	
12:56:45	-6.733725	38.95357	122.493	3.104563	-5.356455	0.16	3	100	0	108	37.87667	-10.72883	-89.55134	
12:56:46	-6.733728	38.95357	122.614	3.221182	3.076648	0.09	3	100	0	107	37.62349	-10.77951	-89.28744	
12:56:48	-6.733729	38.95358	122.71	3.174664	0.9338033	0.03	3	100	0	107	37.68549	-10.78824	-89.13712	
12:56:50	-6.733732	38.95358	123.076	3.092441	-3.855622	0.04	3	100	0	107	37.58094	-10.86846	-89.063	
12:56:52	-6.733731	38.95358	123.003	3.291995	7.612001	0.12	3	100	0	108	37.96407	-10.95822	-89.02965	
12:56:53	-6.733731	38.95358	122.836	3.352926	5.120663	0.19	3	100	0	107	37.64587	-10.70092	-88.90557	
12:56:55	-6.733731	38.95358	123.223	3.363358	2.809796	0.01	3	100	0	107	37.76518	-10.24675	-88.89481	
12:56:57	-6.733729	38.95358	123.389	3.40795	0.848737	0.18	3	100	0	107	37.88117	-10.5748	-88.9614	
12:56:58	-6.733726	38.95357	123.58	3.099673	-10.43767	0.17	3	100	0	107	37.78877	-10.47599	-88.93507	
12:57:00	-6.73372	38.95356	124.081	3.311961	4.182674	0.09	3	100	0	107	37.78116	-10.25243	-89.03551	
12:57:02	-6.733715	38.95356	124.043	3.51211	8.382734	0.04	3	100	0	107	37.75201	-10.02304	-89.18168	
12:57:03	-6.73371	38.95354	124.11	3.525238	4.601585	0.22	3	100	0	107	37.7361	-9.971038	-89.2639	
12:57:05	-6.733706	38.95354	124.094	3.302967	-8.195873	0.24	3	100	0	107	37.54668	-9.77644	-89.31213	
12:57:07	-6.733703	38.95353	123.754	3.441618	3.949924	0.13	3	100	0	107	37.68412	-9.643986	-89.51158	
12:57:08	-6.733703	38.95353	123.843	3.261671	-5.515076	0.32	3	100	0	108	37.87947	-9.918042	-89.66517	
12:57:10	-6.733705	38.95353	123.908	3.091942	-6.541916	0.28	3	100	0	107	37.75619	-10.33556	-89.66109	
12:57:12	-6.733706	38.95353	123.754	3.115255	-1.887912	0.69	3	100	0	107	37.90646	-10.65606	-89.62125	
12:57:13	-6.733709	38.95352	123.74	3.333527	9.061031	0.14	3	100	0	108	37.87387	-10.4718	-89.44067	
12:57:15	-6.733712	38.95352	123.811	3.411465	8.519019	0.31	3	100	0	107	37.71892	-10.05998	-89.4137	
12:57:17	-6.733715	38.95353	123.933	3.378514	1.07681	0.22	3	100	0	108	37.96214	-10.57554	-89.47516	
12:57:19	-6.733717	38.95353	124.08	3.396436	2.754345	0.11	3	100	0	107	37.83722	-10.42059	-89.37798	
12:57:20	-6.733722	38.95353	124.292	3.378065	0.3142174	0.12	3	100	0	107	37.75005	-10.50878	-89.3355	
12:57:22	-6.733725	38.95353	124.836	3.200025	-7.985922	0.17	3	100	0	107	37.92538	-10.64996	-89.30714	
12:57:24	-6.733726	38.95353	125.068	3.233734	0.3207612	0.25	3	100	0	107	37.78794	-10.35963	-89.29485	
12:57:25	-6.733725	38.95353	125.184	3.293032	2.886514	0.08	3	100	0	108	38.03487	-10.37984	-89.32915	
12:57:27	-6.733722	38.95352	125.155	3.381037	3.202124	0.19	3	100	0	107	37.87146	-10.41688	-89.41752	
12:57:29	-6.733719	38.95352	125.009	3.203409	-3.369912	0.19	3	100	0	108	38.0022	-10.07471	-89.46979	
12:57:30	-6.733714	38.95351	124.562	3.305444	1.914295	0.18	3	100	0	108	38.02823	-10.1147	-89.5921	
12:57:32	-6.733708	38.95351	123.99	3.522352	10.70348	0.06	3	100	0	108	38.01006	-10.20601	-89.64005	
12:57:34	-6.733704	38.9535	123.206	3.559406	4.303078	0.09	3	100	0	107	37.78207	-10.32295	-89.63163	
12:57:35	-6.733701	38.9535	122.951	3.358357	-5.938041	0.22	3	100	0	108	37.99583	-10.48726	-89.64704	
12:57:37	-6.733697	38.9535	122.165	3.241235	-6.850881	0.17	3	100	0	107	37.85809	-10.69619	-89.53946	
12:57:39	-6.733696	38.9535	121.757	3.261026	-1.913207	0.21	3	100	0	108	37.94493	-10.5634	-89.44868	
12:57:40	-6.733694	38.9535	121.071	3.379096	2.328343	0.19	3	100	0	107	37.70251	-10.7598	-89.27882	
12:57:42	-6.733695	38.9535	120.907	3.459989	5.235028	0.08	3	100	0	107	37.66721	-10.5569	-89.22482	
12:57:44	-6.733696	38.9535	120.87	3.194051	-9.584373	0.14	3	100	0	107	37.8364	-10.46979	-89.19418	
12:57:46	-6.733698	38.95351	121.102	3.294157	-0.5637008	0.07	3	100	0	107	37.63287	-10.28439	-89.12827	
12:57:47	-6.7337	38.95351	121.569	3.171225	-5.428401	0.31	3	100	0	107	37.78025	-10.15211	-89.16891	
12:57:49	-6.733702	38.95351	121.954	3.264302	-1.025089	0.06	3	100	0	107	37.73582	-10.3373	-89.25153	
12:57:51	-6.733702	38.95351	121.715	3.215327	-2.806396	0.14	3	100	0	107	37.56831	-10.56289	-89.29185	
12:57:52	-6.733703	38.95352	121.849	3.209841	-0.9631541	0.68	3	100	0	107	37.77185	-10.41273	-89.29913	
12:57:54	-6.733702	38.95352	121.934	3.240075	-0.6894822	0.08	3	100	0	107	37.60109	-10.27177	-89.34776	
12:57:56	-6.7337	38.95353	121.844	3.502975	8.940361	0.17	3	100	0	107	37.56485	-9.840358	-89.50948	
12:57:57	-6.733697	38.95353	121.381	3.503425	4.689065	0.14	3	100	0	107	37.52485	-10.17719	-89.6279	
12:57:59	-6.733692	38.95353	120.938	3.643008	8.015988	0.11	3	100	0	107	37.3298	-10.36103	-89.65353	
12:58:01	-6.733688	38.95353	120.484	3.395224	-3.799793	0.17	3	100	0	107	37.18918	-10.2386	-89.68191	
12:58:02	-6.733686	38.95354	120.432	3.476982	2.825844	0.13	3	100	0	107	37.6039	-10.10894	-89.77576	
12:58:04	-6.733685	38.95354	120.282	3.714977	7.723736	0.25	3	100	0	107	37.57508	-10.27957	-89.72231	
12:58:06	-6.733684	38.95354	120.067	3.636945	1.401939	0.07	3	100	0	107	37.73738	-10.17547	-89.73991	
12:58:08	-6.733684	38.95355	120.673	3.25053	-12.38525	0.42	3	100	0	107	37.48793	-10.24442	-89.67796	
12:58:09	-6.733683	38.95356	120.601	3.334364	-1.987486	0.11	3	100	0	107	37.43328	-10.61719	-89.57932	
12:58:11	-6.733682	38.95356	120.836	3.501798	6.21477	0.26	3	100	0	107	37.62236	-10.9352	-89.46736	
12:58:13	-6.733682	38.95356	120.806	3.540187	5.028492	0.16	3	100	0	107	37.56435	-11.25054	-89.15596	
12:58:14	-6.73368	38.95356	120.606	3.593729	3.946902	0.11	3	100	0	107	37.56553	-11.16142	-88.88623	
12:58:16	-6.733678	38.95356	120.314	3.681746	3.053341	0.16	3	100	0	107	37.75384	-10.93079	-88.71459	
12:58:18	-6.733677	38.95356	120.112	3.713034	2.436646	0.04	3	100	0	107	37.83455	-10.77093	-88.63766	
12:58:19	-6.733677	38.95357	120.183	3.548763	-6.232911	0.13	3	100	0	107	37.75394	-10.66801	-88.59789	
12:58:21	-6.733678	38.95358	120.593	3.444273	-5.762087	0.14	3	100	0	107	37.70434	-10.45602	-88.54541	
12:58:23	-6.733678	38.95358	120.691	3.458245	0.4197418	0.08	3	100	0	108	37.96032	-10.07306	-88.6982	
12:58:24	-6.733677	38.95358	119.974	3.68049	11.24365	0.06	3	100	0	108	37.95035	-10.01627	-88.91763	
12:58:26	-6.733674	38.95359	119.162	3.641537	2.252609	0.19	3	100	0	108	38.22598	-9.715438	-89.14799	
12:58:28	-6.733671	38.9536	116.867	3.760518	4.986486	0.01	3	100	0	108	37.88398	-9.891032	-89.33163	
12:58:29	-6.733668	38.9536	114.673	3.55615	-5.415611	0.29	3	100	0	108	37.86494	-9.798083	-89.46259	
12:58:31	-6.733664	38.9536	112.7	3.388012	-5.765634	0.17	3	100	0	108	38.04259	-9.7019	-89.69051	
12:58:33	-6.733663	38.9536	111.616	3.80652	13.87761	0.04	3	100	0	108	37.99048	-9.777632	-89.88855	
12:58:35	-6.73366	38.9536	110.937	3.899918	10.13198	0.12	3	100	0	108	38.09516	-10.34908	-90.05808	
12:58:36	-6.733658	38.9536	110.285	4.000461	9.998834	0.22	3	100	0	108	37.98421	-10.19234	-89.97518	
12:58:38	-6.733656	38.95361	109.294	3.912981	-0.3723175	0.04	3	100	0	108	38.0983	-10.22117	-90.03616	
12:58:40	-6.733658	38.95361	109.458	3.642064	-9.904006	0.31	3	100	0	107	37.74836	-10.85375	-89.80461	
12:58:41	-6.733657	38.95361	108.532	3.424308	-14.44186	0.01	3	100	0	107	37.67426	-11.02502	-89.60588	
12:58:43	-6.733657	38.95361	106.956	3.37569	-5.685675	0.09	3	100	0	107	37.90527	-10.63874	-89.58571	
12:58:45	-6.733654	38.95361	103.73	3.624443	7.020286	0.07	3	100	0	107	37.87058	-10.85182	-89.42663	
12:58:46	-6.733653	38.95362	100.55	3.733969	6.080749	0.09	3	100	0	107	37.77831	-10.91229	-89.18866	
12:58:48	-6.733651	38.95362	98.104	3.633844	0.76984	0.19	3	100	0	107	37.79771	-10.53441	-89.12833	
12:58:50	-6.733653	38.95362	96.454	3.820776	6.672367	0.33	3	100	0	107	37.65628	-10.44276	-89.05485	
12:58:51	-6.733654	38.95363	95.462	3.648511	-6.436653	0.02	3	100	0	107	37.85741	-10.79837	-89.06845	
12:58:53	-6.733654	38.95363	94.647	3.375953	-12.49307	0.22	3	100	0	107	37.91225	-10.60175	-88.96552	
12:58:55	-6.733656	38.95363	94.172	3.18516	-11.85283	0.29	3	100	0	108	38.20876	-10.43473	-88.98529	
12:58:56	-6.733658	38.95364	93.794	3.320518	-0.400198	0.09	3	100	0	108	38.05544	-10.48373	-89.05778	
12:58:58	-6.73366	38.95364	94.05	3.536558	7.382877	0.45	3	100	0	107	37.94175	-10.79363	-89.03096	
12:59:00	-6.733661	38.95364	94.495	3.392877	-2.628272	0.08	3	100	0	108	38.28339	-11.11434	-88.979	
12:59:02	-6.733664	38.95364	95.299	3.358394	-0.6596072	0.06	3	100	0	108	38.16932	-11.187	-88.80262	
12:59:03	-6.733666	38.95364	96.002	3.584473	7.692767	0.45	3	100	0	108	38.01784	-10.68127	-88.71684	
12:59:05	-6.733669	38.95364	96.242	3.525421	0.1374615	0.18	3	100	0	108	38.37602	-10.9899	-88.74258	
12:59:07	-6.733671	38.95364	95.568	3.715083	7.551318	0.01	3	100	0	107	37.98373	-10.53742	-88.5554	
