Date	Latitude(deg) 	Longitude(deg)	hamsl(m)	hafl(m)	climbrate(cm/s)	GroundSpeed(m/s)	Airspeed(m/s)	Mav_Link(%)	Rssi_Link(%)	Throttle	Roll(deg)	Pitch(deg)	Yaw(deg)
15:42:30	-6.795897	38.98534	141.385	0	0	0.06	0	100	0	0	5.282448	2.545743	-85.01728	
15:42:30	-6.795902	38.98535	138.689	3.681974	-1.44839	0.26	3	100	0	50	5.056734	2.618203	-85.08186	
15:42:31	-6.795902	38.98535	138.519	3.442707	-15.40854	0.06	3	100	0	50	4.845727	2.123936	-85.12113	
15:42:31	-6.795902	38.98535	138.464	3.171466	-30.08118	0.47	3	100	0	50	4.8403	2.330261	-85.12405	
15:42:31	-6.795902	38.98536	138.416	2.792184	-48.50586	0.28	3	100	0	50	4.549192	2.732106	-85.17308	
15:42:31	-6.795902	38.98536	138.416	2.419902	-64.43972	0.22	3	100	0	50	4.7845	2.622016	-85.21264	
15:42:31	-6.795902	38.98536	138.29	2.30516	-64.44289	0.07	3	100	0	50	4.770006	1.986886	-85.23412	
15:42:32	-6.795903	38.98536	138.201	2.296231	-60.80533	0.19	3	100	0	50	4.702212	2.125575	-85.21562	
15:42:32	-6.795903	38.98536	138.151	2.478071	-46.93597	0.22	3	100	0	50	4.694511	1.908885	-85.21239	
15:42:32	-6.795903	38.98536	138.208	2.74508	-29.28787	0.09	3	100	0	50	4.633405	1.811832	-85.20349	
15:42:32	-6.795903	38.98536	138.148	2.983537	-15.57734	0.45	3	100	0	50	4.485575	2.299395	-85.19231	
15:42:32	-6.795904	38.98536	138.06	3.249945	-0.9515653	0.26	3	100	0	50	4.465362	1.616493	-85.16795	
15:42:33	-6.795904	38.98536	138.05	3.41161	6.067215	0.24	3	100	0	50	4.4138	1.779198	-85.11868	
15:42:33	-6.795904	38.98536	138	3.577643	12.13941	0.36	3	100	0	50	4.316323	1.881141	-85.10677	
15:42:33	-6.795905	38.98536	137.974	3.746822	18.83191	0.19	3	100	0	50	4.17708	1.680236	-85.10066	
15:42:33	-6.795905	38.98536	137.888	3.89969	24.12668	0.08	3	100	0	50	4.297516	1.738766	-85.06819	
15:42:33	-6.795905	38.98536	137.85	4.002376	25.76863	0.33	3	100	0	50	4.452688	1.721727	-85.02802	
15:42:34	-6.795906	38.98536	137.701	4.086251	26.81688	0.41	3	100	0	50	4.497026	1.429621	-84.99147	
15:42:34	-6.795905	38.98536	137.724	4.135774	25.45327	0.25	3	100	0	50	4.584091	1.295194	-84.93932	
15:42:34	-6.795905	38.98536	137.766	4.169145	24.15231	0.07	3	100	0	50	4.437569	2.088214	-84.90453	
15:42:34	-6.795905	38.98536	137.797	4.19623	22.75935	0.09	3	100	0	50	4.383519	1.83382	-84.89276	
15:42:34	-6.795906	38.98536	137.623	4.236989	21.66883	0.09	3	100	0	50	4.329289	2.009602	-84.88691	
15:42:35	-6.795906	38.98536	137.641	4.251871	20.27673	0.37	3	100	0	50	4.31075	1.863341	-84.88983	
15:42:35	-6.795906	38.98536	137.529	4.219476	15.77189	0.22	3	100	0	50	4.307899	1.533886	-84.87387	
15:42:35	-6.795906	38.98536	137.382	4.195886	11.68541	0.09	3	100	0	50	4.713937	2.01417	-84.83704	
15:42:35	-6.795906	38.98536	137.361	4.20613	10.70502	0.16	3	100	0	50	4.561763	1.974667	-84.83099	
15:42:35	-6.795906	38.98536	137.427	4.197761	8.41318	0.33	3	100	0	50	4.626173	1.987487	-84.80933	
15:42:36	-6.795906	38.98536	137.351	4.164592	4.582212	0.22	3	100	0	50	4.649016	1.825405	-84.80305	
15:42:36	-6.795907	38.98536	137.173	4.146451	2.248416	0.45	3	100	0	50	4.443141	2.407566	-84.815	
15:42:36	-6.795907	38.98536	137.075	4.160654	1.975593	0.12	3	100	0	50	3.794312	2.004525	-84.85691	
15:42:36	-6.795907	38.98536	137.046	4.176805	1.984588	0.34	3	100	0	50	4.191487	2.014309	-84.82644	
15:42:36	-6.795907	38.98536	137.104	4.207068	2.04967	0.26	3	100	0	50	3.8075	2.086207	-84.8373	
15:42:37	-6.795907	38.98536	137.18	4.223734	2.592566	0.09	3	100	0	50	4.33405	2.114697	-84.82531	
15:42:37	-6.795908	38.98536	137.078	4.222163	1.154838	0.31	3	100	0	50	4.184999	2.048517	-84.82934	
15:42:37	-6.795908	38.98536	137.019	4.21877	-0.2228566	0.11	3	100	0	50	4.174255	1.658463	-84.80988	
15:42:37	-6.795909	38.98536	136.937	4.214858	-1.790244	0.02	3	100	0	50	3.903227	1.962806	-84.79478	
15:42:37	-6.795909	38.98536	137.146	4.212059	-2.636986	0.17	3	100	0	50	3.974352	1.9239	-84.7906	
15:42:38	-6.795909	38.98536	137.119	4.213278	-3.938412	0.32	3	100	0	50	4.045258	1.819277	-84.77748	
15:42:38	-6.795909	38.98536	137.022	4.196378	-5.397939	0.19	3	100	0	50	4.376724	2.322554	-84.75731	
15:42:38	-6.795908	38.98536	137.114	4.14685	-8.569627	0.09	3	100	0	50	4.156003	1.836284	-84.7709	
15:42:38	-6.795908	38.98536	137.061	4.079375	-12.15222	0.31	3	100	0	50	4.213902	2.130072	-84.759	
15:42:38	-6.795908	38.98536	137.017	3.946432	-19.60757	0.28	3	100	0	50	4.35491	2.220731	-84.78178	
15:42:39	-6.795909	38.98536	136.856	3.8342	-24.37941	0.14	3	100	0	50	4.177767	2.190862	-84.79173	
15:42:39	-6.795909	38.98536	136.719	3.763607	-26.75801	0.19	3	100	0	50	3.981437	1.916065	-84.78553	
15:42:39	-6.79591	38.98536	136.34	3.697779	-28.18877	0.09	3	100	0	50	3.969347	1.646136	-84.76445	
15:42:39	-6.795909	38.98536	136.463	3.598596	-31.32523	0.29	3	100	0	50	4.220523	1.667734	-84.7227	
15:42:39	-6.79591	38.98536	136.428	3.49944	-34.43338	0.18	3	100	0	50	4.175888	1.450971	-84.68299	
15:42:40	-6.795909	38.98536	136.441	3.430651	-35.81656	0.48	3	100	0	50	3.992698	1.723327	-84.63472	
15:42:40	-6.795909	38.98536	136.554	3.37411	-36.6811	0.48	3	100	0	50	4.257102	2.266208	-84.61898	
15:42:40	-6.795909	38.98536	136.76	3.353916	-35.50801	0.37	3	100	0	50	4.172467	1.899424	-84.66319	
15:42:40	-6.795909	38.98536	136.874	3.338623	-30.88337	0.16	3	99	0	50	4.115598	1.53052	-84.63046	
15:42:41	-6.795909	38.98536	136.797	3.335263	-28.7656	0.13	3	99	0	50	4.254714	2.118635	-84.61389	
15:42:41	-6.795909	38.98536	136.63	3.356522	-25.83262	0.37	3	99	0	50	4.090157	1.926663	-84.62104	
15:42:41	-6.795909	38.98536	136.672	3.386399	-22.51952	0.55	3	99	0	50	4.285076	1.627726	-84.58557	
15:42:41	-6.795909	38.98536	136.71	3.425982	-18.61245	0.26	3	99	0	50	4.206717	1.472646	-84.54922	
15:42:41	-6.795909	38.98536	136.698	3.467191	-15.11789	0.26	3	99	0	50	3.948841	1.775324	-84.51311	
15:42:42	-6.79591	38.98536	136.576	3.446631	-15.42962	0.37	3	99	0	50	4.119356	1.718892	-84.48759	
15:42:42	-6.795911	38.98536	136.239	3.415147	-16.14177	0.65	3	99	0	50	3.784385	1.635081	-84.4827	
15:42:42	-6.795911	38.98536	136.403	3.421424	-15.48816	0.26	3	99	0	50	3.821436	1.513573	-84.43631	
15:42:42	-6.795912	38.98536	136.316	3.433427	-13.99733	0.39	3	99	0	50	3.788234	2.058803	-84.42557	
15:42:42	-6.795912	38.98536	136.376	3.428219	-13.1856	0.47	3	99	0	50	3.871603	1.898748	-84.41222	
15:42:43	-6.795913	38.98536	136.523	3.420752	-13.39081	0.55	3	99	0	50	3.272838	2.547935	-84.4516	
15:42:43	-6.795914	38.98536	136.52	3.418254	-13.12627	0.19	3	99	0	50	3.457213	2.712202	-84.51559	
15:42:43	-6.795914	38.98536	136.437	3.417959	-12.8042	0.14	3	99	0	50	3.811395	2.432801	-84.55238	
15:42:43	-6.795914	38.98536	136.43	3.467913	-9.719379	0.35	3	99	0	50	3.841733	2.170768	-84.57603	
15:42:43	-6.795914	38.98536	136.662	3.525833	-6.269704	0.51	3	99	0	50	3.704135	1.789471	-84.58215	
15:42:44	-6.795914	38.98536	136.677	3.574612	-3.837231	0.29	3	99	0	50	3.986633	1.952024	-84.55651	
15:42:44	-6.795914	38.98536	136.487	3.61353	-2.285325	0.14	3	99	0	50	3.529975	2.551108	-84.61481	
15:42:44	-6.795914	38.98536	136.384	3.648561	-1.152404	0.59	3	99	0	50	3.484782	1.978749	-84.62256	
15:42:44	-6.795914	38.98536	136.479	3.672809	-0.4485308	0.25	3	99	0	50	3.330947	1.461041	-84.59846	
15:42:44	-6.795914	38.98535	136.428	3.69197	0.4788172	0.68	3	99	0	50	3.601798	1.613819	-84.55519	
15:42:45	-6.795914	38.98535	136.433	3.704353	-0.00644495	0.16	3	99	0	50	3.524478	1.443209	-84.50462	
15:42:45	-6.795914	38.98535	136.396	3.722631	0.4091438	0.11	3	99	0	50	3.342919	2.29916	-84.4994	
15:42:45	-6.795914	38.98535	136.381	3.745884	0.7455102	0.42	3	99	0	50	3.399305	2.09649	-84.51939	
15:42:45	-6.795914	38.98535	136.364	3.741949	-0.2448081	0.22	3	99	0	50	3.230023	1.881695	-84.5271	
15:42:45	-6.795914	38.98535	136.312	3.693092	-3.610501	0.57	3	99	0	50	3.145629	2.421365	-84.52839	
15:42:46	-6.795915	38.98535	136.205	3.652734	-5.735892	0.13	3	99	0	50	3.16077	2.766749	-84.58204	
15:42:46	-6.795915	38.98535	136.088	3.628243	-6.734426	0.59	3	99	0	50	3.326009	2.21825	-84.59515	
15:42:46	-6.795916	38.98535	135.854	3.612583	-7.34444	0.56	3	99	0	50	3.120886	1.777268	-84.59191	
15:42:46	-6.795917	38.98535	135.837	3.618787	-6.959249	0.24	3	99	0	50	3.221837	1.878636	-84.56913	
15:42:46	-6.795917	38.98535	135.843	3.642807	-5.850766	0.47	3	99	0	50	3.321917	2.048771	-84.57072	
15:42:47	-6.795917	38.98535	135.826	3.735063	-0.9059156	0.45	3	99	0	50	3.188053	2.21204	-84.57456	
15:42:47	-6.795918	38.98535	135.792	3.841024	4.565632	0.41	3	99	0	50	3.134002	2.911261	-84.61046	
15:42:47	-6.795918	38.98535	135.58	3.960348	9.557529	0.48	3	99	0	50	3.206349	2.595449	-84.68506	
15:42:47	-6.795918	38.98535	135.631	4.061613	13.82049	0.31	3	99	0	50	3.399379	2.177068	-84.70386	
15:42:47	-6.795919	38.98535	135.542	4.140423	16.10501	0.37	3	99	0	50	3.358499	2.51215	-84.73232	
15:42:48	-6.795919	38.98535	135.626	4.208244	17.42089	0.42	3	99	0	50	3.671948	2.95085	-84.76522	
15:42:48	-6.795919	38.98535	135.711	4.2618	18.38825	0.07	3	99	0	50	3.645389	2.859401	-84.8456	
15:42:48	-6.795919	38.98535	135.963	4.308111	18.11001	0.41	3	99	0	50	3.473128	2.592379	-84.90369	
15:42:48	-6.795919	38.98535	136.046	4.334621	16.90123	0.14	3	99	0	50	3.217233	2.699856	-84.96626	
15:42:48	-6.795918	38.98535	136.346	4.342358	15.20045	0.33	3	99	0	50	3.56204	2.520952	-84.98109	
15:42:49	-6.795918	38.98535	136.261	4.301864	11.01189	0.48	3	99	0	50	3.709688	2.355842	-85.00407	
15:42:49	-6.795918	38.98535	136.231	4.261276	7.218175	0.57	3	99	0	50	3.766084	1.661924	-84.9834	
15:42:49	-6.795918	38.98535	136.179	4.210922	3.667585	0.14	3	99	0	50	3.656862	1.620993	-84.93209	
15:42:49	-6.795918	38.98535	136.284	4.16542	0.5203467	0.42	3	99	0	50	3.528915	1.725481	-84.88219	
15:42:49	-6.795918	38.98535	136.488	4.179566	0.1674854	0.25	3	99	0	50	3.434629	1.929164	-84.8401	
15:42:50	-6.795918	38.98535	136.378	4.20392	0.4760119	0.17	3	99	0	50	3.228471	2.417095	-84.86993	
15:42:50	-6.795918	38.98535	136.523	4.211783	-0.02137855	0.36	3	99	0	50	3.328823	2.387316	-84.89263	
15:42:50	-6.795918	38.98535	137.008	4.214971	-0.9426748	0.19	3	99	0	50	3.527488	2.312794	-84.90581	
15:42:50	-6.795917	38.98535	137.33	4.248448	0.1283225	0.59	3	99	0	50	3.663752	1.940879	-84.88616	
15:42:50	-6.795917	38.98535	137.364	4.28491	1.272209	0.14	3	99	0	50	3.618933	1.899669	-84.86986	
15:42:51	-6.795917	38.98535	137.367	4.322524	3.030668	0.56	3	99	0	50	3.16493	2.577937	-84.89353	
15:42:51	-6.795918	38.98535	137.209	4.360828	4.406594	0.08	3	99	0	50	2.992399	2.903894	-84.98232	
15:42:51	-6.795918	38.98535	137.213	4.375866	3.944492	0.74	3	99	0	50	3.148911	2.317361	-85.0191	
15:42:51	-6.795917	38.98535	137.346	4.385962	3.300907	0.45	3	99	0	50	3.152776	2.141517	-85.00037	
15:42:51	-6.795918	38.98535	137.316	4.371317	1.869949	0.47	3	99	0	50	2.787534	2.837601	-85.03594	
15:42:52	-6.795918	38.98534	137.105	4.351532	0.13575	0.48	3	99	0	50	2.713816	3.164512	-85.13179	
15:42:52	-6.795918	38.98534	137.19	4.343702	-0.5283965	0.25	3	99	0	50	2.919004	3.049272	-85.20035	
15:42:52	-6.795918	38.98534	136.758	4.335991	-1.828755	0.19	3	99	0	50	2.932733	3.270344	-85.27682	
15:42:52	-6.795918	38.98534	136.814	4.283604	-5.024622	0.21	3	99	0	50	3.050352	2.880142	-85.32854	
15:42:52	-6.795918	38.98534	136.538	4.225091	-8.294027	0.13	3	99	0	50	2.905093	2.923231	-85.37868	
15:42:53	-6.79592	38.98534	136.22	4.195121	-9.525863	0.42	3	99	0	50	2.575316	3.129426	-85.46117	
15:42:53	-6.79592	38.98534	136.209	4.176662	-10.07707	0.25	3	99	0	50	2.626217	3.096907	-85.53387	
15:42:53	-6.79592	38.98534	136.361	4.188064	-8.354986	0.14	3	99	0	50	2.830801	2.843038	-85.54412	
15:42:53	-6.795919	38.98534	136.664	4.210021	-7.466101	0.25	3	99	0	50	2.897801	3.101356	-85.59261	
15:42:53	-6.79592	38.98534	136.391	4.21841	-6.51332	0.48	3	99	0	50	2.823854	2.963629	-85.67482	
15:42:54	-6.79592	38.98534	136.317	4.22355	-6.228016	0.34	3	99	0	50	2.909564	2.496696	-85.69652	
15:42:54	-6.795919	38.98534	136.549	4.217419	-6.845246	0.18	3	99	0	50	2.99677	2.810374	-85.68984	
15:42:54	-6.795919	38.98534	136.552	4.170917	-8.945474	0.52	3	99	0	50	2.883367	2.880812	-85.74513	
15:42:54	-6.795918	38.98534	136.761	4.119744	-11.20106	0.9	3	99	0	50	2.866208	3.044975	-85.78575	
15:42:54	-6.795919	38.98534	136.604	4.038242	-14.83625	0.21	3	99	0	50	2.816728	3.262897	-85.8812	
15:42:55	-6.795919	38.98534	136.685	3.956487	-18.18967	0.31	3	99	0	50	2.853994	2.695475	-85.91105	
15:42:55	-6.795919	38.98534	136.707	3.886218	-20.73231	0.39	3	99	0	50	3.082743	2.529804	-85.92502	
15:42:55	-6.795918	38.98534	136.642	3.806609	-23.43932	0.35	3	99	0	50	3.207555	2.141392	-85.90349	
15:42:55	-6.795918	38.98534	136.621	3.712516	-26.54593	0.42	3	99	0	50	3.275155	2.068359	-85.87169	
15:42:55	-6.795919	38.98534	136.432	3.624881	-29.0743	0.19	3	99	0	50	3.219833	2.084995	-85.84784	
15:42:56	-6.795919	38.98534	136.462	3.548367	-30.92502	0.24	3	99	0	50	3.00096	2.319783	-85.80058	
15:42:56	-6.79592	38.98534	136.283	3.489615	-31.84829	0.19	3	99	0	50	3.029516	2.514262	-85.78659	
15:42:56	-6.795921	38.98534	135.805	3.497828	-28.27132	0.31	3	99	0	50	3.211383	2.045407	-85.778	
15:42:57	-6.795921	38.98534	135.755	3.62078	-17.39813	0.32	3	99	0	50	3.238598	2.252749	-85.72684	
15:42:57	-6.795922	38.98534	135.537	3.71772	-10.66129	0.65	3	99	0	50	3.174222	2.834098	-85.7095	
15:42:57	-6.795922	38.98534	135.369	3.79983	-5.856065	0.52	3	99	0	50	3.291196	2.528446	-85.75687	
15:42:57	-6.795921	38.98534	135.426	3.851162	-2.744722	0.17	3	99	0	50	3.396128	2.205249	-85.7511	
15:42:57	-6.795921	38.98534	135.548	3.864776	-2.030373	0.09	3	99	0	50	3.374356	2.381982	-85.74437	
15:42:58	-6.795921	38.98534	135.339	3.86938	-1.636854	0.41	3	99	0	50	3.080893	2.800044	-85.74841	
15:42:58	-6.795922	38.98534	135.242	3.863983	-1.615325	0.25	3	99	0	50	2.815409	2.953209	-85.81526	
15:42:58	-6.795922	38.98534	134.955	3.848969	-2.824879	0.39	3	99	0	50	2.677162	2.991277	-85.8628	
15:42:58	-6.795923	38.98534	134.77	3.799903	-5.603452	0.19	3	99	0	50	2.679727	3.276437	-85.94302	
15:42:58	-6.795923	38.98534	134.696	3.743952	-8.30455	0.06	3	99	0	50	2.849287	3.083351	-85.98752	
15:42:58	-6.795924	38.98534	134.33	3.651929	-12.97429	0.47	3	99	0	50	2.824905	2.607038	-86.03058	
15:42:59	-6.795924	38.98534	134.123	3.561372	-16.90066	0.13	3	99	0	50	2.828812	2.479046	-86.0337	
15:42:59	-6.795926	38.98534	133.63	3.515914	-18.09543	0.31	3	99	0	50	2.7744	2.802011	-86.06078	
15:42:59	-6.795926	38.98533	133.339	3.483475	-18.74706	0.26	3	99	0	50	2.813388	2.733657	-86.09976	
15:42:59	-6.795927	38.98533	133.093	3.486545	-17.11848	0.26	3	99	0	50	2.781454	2.605958	-86.10559	
15:42:59	-6.795927	38.98533	132.924	3.49976	-14.94586	0.26	3	99	0	50	2.66475	2.684147	-86.12136	
15:43:00	-6.795927	38.98533	132.747	3.533213	-11.95005	0.11	3	99	0	50	2.833995	2.62613	-86.12717	
15:43:00	-6.795927	38.98533	132.458	3.574598	-9.017992	0.26	3	99	0	50	2.812075	2.605942	-86.13169	
15:43:00	-6.795928	38.98533	132.384	3.600171	-6.98129	0.26	3	99	0	50	2.733205	2.518915	-86.13919	
15:43:00	-6.795928	38.98533	132.24	3.621438	-5.020866	0.11	3	99	0	50	2.953826	2.423774	-86.11139	
15:43:00	-6.795928	38.98533	132.097	3.657449	-2.117366	0.45	3	99	0	50	3.004185	2.222517	-86.09528	
15:43:01	-6.795928	38.98533	131.864	3.698998	0.6042349	0.24	3	99	0	50	2.989354	2.081971	-86.06315	
15:43:01	-6.795928	38.98533	131.732	3.786459	5.344213	0.22	3	99	0	50	3.038619	2.420863	-86.02352	
15:43:01	-6.795929	38.98533	131.394	3.868519	9.29384	1.54	3	99	0	50	2.905777	3.420374	-86.04049	
15:43:01	-6.795929	38.98533	131.237	3.964407	13.36938	0.45	3	99	0	50	2.855577	3.183094	-86.15301	
15:43:02	-6.795929	38.98533	131.298	4.042556	16.17259	0.18	3	99	0	50	3.002943	2.864861	-86.18217	
15:43:02	-6.795929	38.98533	131.478	4.115374	18.7409	0.22	3	99	0	50	3.085501	2.759444	-86.20784	
15:43:02	-6.795928	38.98533	131.965	4.188968	20.56565	0.74	3	99	0	50	3.327952	2.332932	-86.1748	
15:43:02	-6.795927	38.98534	132.431	4.216749	19.27791	0.34	3	99	0	50	3.284738	2.765152	-86.14403	
15:43:02	-6.795928	38.98534	132.313	4.223526	17.8349	0.28	3	99	0	50	2.901962	2.959415	-86.20584	
15:43:03	-6.795929	38.98533	132.015	4.191638	13.92604	0.21	3	99	0	50	2.767116	2.608509	-86.23459	
15:43:03	-6.795928	38.98533	132.02	4.14006	9.467	0.32	3	99	0	50	2.973797	2.278668	-86.20541	
15:43:03	-6.795928	38.98533	131.954	4.130388	8.035137	0.55	3	99	0	50	3.415799	2.002835	-86.12394	
15:43:03	-6.795928	38.98533	131.482	4.128535	7.139928	0.29	3	99	0	50	3.442064	2.300706	-86.07223	
15:43:03	-6.795929	38.98533	131.247	4.141911	6.811348	0.18	3	99	0	50	3.189019	2.374765	-86.08101	
15:43:04	-6.795929	38.98533	131.367	4.155256	6.56838	0.29	3	99	0	50	3.26607	2.412399	-86.05791	
15:43:04	-6.795928	38.98533	131.663	4.165347	6.65165	0.26	3	99	0	50	3.538678	2.368644	-86.02946	
15:43:04	-6.795926	38.98534	132.375	4.165581	5.667018	0.77	3	99	0	50	3.847007	1.96322	-85.99796	
15:43:04	-6.795926	38.98533	132.316	4.15764	4.134495	0.57	3	99	0	50	3.269975	1.681596	-85.95637	
15:43:04	-6.795925	38.98533	132.561	4.124537	1.47225	0.89	3	99	0	50	3.164145	1.384919	-85.87296	
15:43:05	-6.795925	38.98533	132.678	4.099785	-0.6107591	0.28	3	99	0	50	3.199792	2.401023	-85.77815	
15:43:05	-6.795925	38.98534	132.697	4.100996	-0.9636588	0.47	3	99	0	50	3.226057	3.166549	-85.80649	
15:43:05	-6.795925	38.98534	132.518	4.089075	-1.201662	0.09	3	99	0	50	3.194059	2.889478	-85.87972	
15:43:05	-6.795924	38.98534	132.854	4.059987	-3.155679	0.21	3	99	0	50	3.150185	2.574048	-85.90732	
15:43:05	-6.795924	38.98534	133.19	4.015728	-5.670569	0.72	3	99	0	50	3.044801	1.948385	-85.91175	
15:43:06	-6.795923	38.98534	133.451	3.956919	-8.662134	0.29	3	99	0	50	3.146583	1.977136	-85.83999	
15:43:06	-6.795923	38.98534	133.686	3.900986	-11.10748	0.22	3	99	0	50	3.200721	2.425548	-85.7998	
15:43:06	-6.795922	38.98534	134.066	3.861675	-12.2775	0.52	3	99	0	50	3.604176	2.503728	-85.7873	
15:43:06	-6.795922	38.98534	134.117	3.829974	-13.29993	0.13	3	99	0	50	3.189793	2.273071	-85.79124	
15:43:06	-6.795924	38.98534	133.715	3.812546	-12.66244	1.13	3	99	0	50	2.740294	3.187409	-85.78309	
15:43:07	-6.795925	38.98534	133.608	3.800491	-12.31569	0.84	3	99	0	50	2.772398	3.398904	-85.84808	
15:43:07	-6.795926	38.98534	133.652	3.797315	-11.36383	0.45	3	99	0	50	2.783655	2.947708	-85.92564	
15:43:07	-6.795926	38.98534	133.917	3.798273	-10.46302	0.5	3	99	0	50	2.921041	2.856855	-85.95496	
15:43:07	-6.795927	38.98534	133.933	3.803234	-9.347783	0.7	3	99	0	50	3.07461	3.052514	-85.97606	
15:43:07	-6.795927	38.98534	133.874	3.81131	-8.334614	0.77	3	99	0	50	3.21793	3.134704	-85.98292	
15:43:08	-6.795927	38.98534	134.166	3.822507	-6.891203	0.63	3	99	0	50	3.268894	2.554747	-86.02313	
15:43:08	-6.795927	38.98534	134.166	3.823605	-6.382567	0.63	3	99	0	50	3.503717	1.846522	-85.99199	
15:43:08	-6.795927	38.98534	134.219	3.800263	-7.273196	0.56	3	99	0	50	3.573438	2.223193	-85.92898	
15:43:08	-6.795927	38.98534	134.417	3.785137	-7.513194	0.25	3	99	0	50	3.607272	1.396248	-85.87923	
15:43:08	-6.795928	38.98534	134.065	3.798121	-6.063192	0.21	3	99	0	50	3.493236	1.392791	-85.75383	
15:43:09	-6.795928	38.98534	134.065	3.811071	-4.971538	0.21	3	99	0	50	3.400105	1.860982	-85.67496	
15:43:09	-6.795929	38.98534	133.67	3.825289	-3.598698	1.38	3	99	0	50	3.500766	1.217908	-85.617	
15:43:09	-6.795929	38.98534	133.67	3.839633	-2.885932	1.38	3	99	0	50	3.573753	0.7458751	-85.48878	
15:43:09	-6.79593	38.98534	133.262	3.835645	-2.835351	1.77	3	99	0	50	3.369435	1.139808	-85.34232	
15:43:09	-6.795932	38.98533	132.762	3.828935	-2.924993	1.15	3	99	0	50	3.285546	0.3877339	-85.22283	
15:43:10	-6.795933	38.98533	132.738	3.834954	-2.382349	0.5	3	99	0	50	2.906333	0.993974	-85.05883	
15:43:10	-6.795933	38.98533	132.887	3.843377	-1.612853	0.83	3	99	0	50	2.977865	1.852016	-84.95918	
15:43:10	-6.795932	38.98533	133.272	3.859501	-0.6597139	0.72	3	99	0	50	3.23847	1.730621	-84.91871	
15:43:10	-6.795932	38.98533	133.665	3.874836	0.1500772	0.75	3	99	0	50	3.366236	1.704439	-84.87636	
15:43:10	-6.795931	38.98533	134.146	3.931339	3.131893	0.56	3	99	0	50	3.099962	1.746876	-84.84935	
15:43:11	-6.795931	38.98533	134.146	3.984996	5.545231	0.56	3	99	0	50	3.378532	3.061765	-84.84108	
15:43:11	-6.795931	38.98534	134.364	4.005101	5.552274	0.42	3	99	0	50	3.605087	3.672504	-84.93222	
15:43:11	-6.795931	38.98534	134.346	4.015192	5.066943	0.47	3	99	0	50	3.367698	3.340523	-85.03711	
15:43:11	-6.795931	38.98534	134.473	4.022112	4.333699	0.68	3	99	0	50	3.368619	3.22606	-85.123	
15:43:11	-6.795931	38.98534	134.642	4.027234	4.252794	0.65	3	99	0	50	3.550751	3.444434	-85.21016	
15:43:12	-6.79593	38.98534	135.04	4.036874	3.985773	0.69	3	99	0	50	3.410517	3.390772	-85.32638	
15:43:12	-6.795929	38.98534	135.287	4.045582	4.052746	0.53	3	99	0	50	3.611749	3.351745	-85.39361	
15:43:12	-6.795929	38.98535	135.502	4.063945	5.00409	0.14	3	99	0	50	3.51159	3.190199	-85.45947	
15:43:12	-6.795929	38.98535	135.639	4.080747	5.599903	0.22	3	99	0	50	3.535532	2.54815	-85.49876	
15:43:12	-6.795928	38.98535	135.957	4.098933	6.114926	0.45	3	99	0	50	3.677045	2.559313	-85.49705	
15:43:13	-6.795929	38.98535	135.962	4.112549	5.930627	0.66	3	99	0	50	3.805105	2.743432	-85.49637	
15:43:13	-6.79593	38.98535	135.583	4.135746	6.930651	0.31	3	99	0	50	2.797004	2.712504	-85.5485	
15:43:13	-6.79593	38.98535	135.577	4.158957	7.387205	0.14	3	99	0	50	2.849068	2.217595	-85.55376	
15:43:13	-6.79593	38.98535	135.64	4.151955	6.264035	0.17	3	99	0	50	3.246463	2.278129	-85.49972	
15:43:13	-6.79593	38.98535	135.401	4.138216	5.054288	0.09	3	99	0	50	3.098025	2.143945	-85.49125	
15:43:14	-6.79593	38.98535	135.315	4.126984	4.257139	0.07	3	99	0	50	3.317248	2.340741	-85.43629	
15:43:14	-6.795931	38.98535	134.954	4.117165	3.684816	0.33	3	99	0	50	3.297081	2.209689	-85.41351	
15:43:14	-6.795931	38.98535	134.956	4.108574	2.734896	0.45	3	99	0	50	3.393865	1.889206	-85.37745	
15:43:14	-6.795931	38.98535	135	4.103856	2.336289	0.28	3	99	0	50	3.726273	1.862926	-85.32277	
15:43:14	-6.795931	38.98535	134.956	4.096457	2.210896	0.07	3	99	0	50	2.987339	1.999757	-85.28531	
15:43:15	-6.79593	38.98535	134.994	4.07648	1.180551	0.52	3	99	0	50	3.153732	2.120027	-85.24132	
15:43:15	-6.795929	38.98535	135.169	4.038785	-0.913148	0.28	3	99	0	50	3.448986	1.737812	-85.20122	
15:43:15	-6.795929	38.98535	135.064	3.96293	-4.654985	0.24	3	99	0	50	3.184842	1.893762	-85.16306	
15:43:15	-6.795929	38.98535	135.546	3.893021	-8.045405	0.29	3	99	0	50	3.126111	2.39244	-85.13591	
15:43:15	-6.795928	38.98535	135.837	3.826406	-10.79648	0.09	3	99	0	50	3.4841	2.395616	-85.11275	
15:43:16	-6.795927	38.98536	136.337	3.767822	-13.08145	0.87	3	99	0	50	3.307341	2.122718	-85.11669	
15:43:16	-6.795925	38.98536	136.61	3.71947	-14.5599	0.53	3	99	0	50	3.931098	1.744607	-85.06725	
15:43:16	-6.795924	38.98536	137.252	3.681098	-15.26	0.51	3	99	0	50	3.731558	1.754197	-85.0316	
15:43:16	-6.795922	38.98536	137.816	3.661007	-15.57778	0.76	3	99	0	50	3.511961	2.424584	-84.99314	
15:43:16	-6.795922	38.98536	137.801	3.649758	-15.69544	1.22	3	99	0	50	3.905143	2.606022	-84.99119	
15:43:17	-6.795921	38.98536	137.781	3.662118	-13.13608	0.14	3	99	0	50	4.132623	2.963275	-85.02442	
15:43:17	-6.795921	38.98536	137.645	3.691344	-10.23204	0.04	3	99	0	50	3.195227	1.785419	-85.08653	
15:43:17	-6.795921	38.98536	137.715	3.756907	-5.529201	0.31	3	99	0	50	3.250702	1.551024	-85.03962	
15:43:17	-6.79592	38.98536	137.488	3.830664	-1.250198	0.51	3	99	0	50	3.489493	1.853026	-84.97072	
15:43:17	-6.79592	38.98536	137.214	3.914795	3.289769	0.48	3	99	0	50	3.8385	1.395364	-84.90768	
15:43:18	-6.79592	38.98536	137.097	3.978403	5.914325	0.26	3	99	0	50	3.345243	1.074949	-84.82243	
15:43:18	-6.79592	38.98536	137.046	3.95598	4.439813	0.25	3	99	0	50	3.277453	1.974285	-84.75353	
15:43:18	-6.79592	38.98536	137.031	3.915742	2.245177	0.26	3	99	0	50	3.152371	1.903272	-84.72141	
15:43:18	-6.79592	38.98536	136.794	3.839976	-2.010077	0.26	3	99	0	50	3.3605	1.759998	-84.69366	
15:43:18	-6.795921	38.98536	136.563	3.770945	-5.352674	0.17	3	99	0	50	2.997833	1.922287	-84.6452	
15:43:19	-6.795921	38.98536	136.744	3.731091	-7.154748	0.19	3	99	0	50	3.202234	1.908303	-84.61137	
15:43:19	-6.795921	38.98536	136.309	3.701278	-8.316194	0.59	3	99	0	50	3.027482	1.666053	-84.58348	
15:43:19	-6.795922	38.98536	135.459	3.772013	-3.810721	0.56	3	99	0	50	3.23946	0.8471066	-84.50403	
15:43:19	-6.795923	38.98536	134.982	3.846848	0.05723415	0.81	3	99	0	50	3.345988	0.8611929	-84.39509	
15:43:19	-6.795924	38.98536	134.824	3.921763	3.89346	0.63	3	99	0	50	2.975277	2.520394	-84.3639	
15:43:20	-6.795924	38.98536	134.412	3.991524	7.077181	0.55	3	99	0	50	3.07207	2.352544	-84.39749	
15:43:20	-6.795925	38.98536	134.207	4.016216	7.540389	0.39	3	99	0	50	3.344719	1.437086	-84.37472	
15:43:20	-6.795926	38.98536	133.977	4.036202	7.719704	1.07	3	99	0	50	3.166936	1.602129	-84.32434	
15:43:20	-6.795927	38.98536	133.716	4.052639	7.691101	0.08	3	99	0	50	2.111494	2.338405	-84.35876	
15:43:20	-6.795927	38.98537	133.656	4.065764	7.6765	0.08	3	99	0	50	3.211476	2.088908	-84.3359	
15:43:21	-6.795927	38.98537	133.656	4.071252	7.321265	0.34	3	99	0	50	3.265369	1.924136	-84.33801	
15:43:21	-6.795927	38.98537	133.341	4.073523	6.845583	0.83	3	99	0	50	3.35507	1.600541	-84.312	
15:43:21	-6.795927	38.98536	132.876	4.092149	6.908904	0.19	3	99	0	50	3.303809	1.037068	-84.25258	
15:43:21	-6.795927	38.98537	132.729	4.111392	6.894628	0.19	3	99	0	50	3.197441	1.830617	-84.20035	
15:43:21	-6.795927	38.98537	132.688	4.131989	6.860669	0.12	3	99	0	50	3.287141	1.78793	-84.18141	
15:43:22	-6.795927	38.98537	132.84	4.150482	7.22749	0.03	3	99	0	50	3.23074	1.925709	-84.16361	
15:43:22	-6.795926	38.98537	132.893	4.155504	6.689066	0.48	3	99	0	50	3.406041	1.894207	-84.16865	
15:43:22	-6.795927	38.98537	132.302	4.156857	5.728278	0.61	3	99	0	50	3.570492	1.316614	-84.13756	
15:43:22	-6.795927	38.98537	131.985	4.15627	4.893301	0.56	3	99	0	50	2.531355	2.190096	-84.13958	
15:43:22	-6.795929	38.98537	131.454	4.155056	4.873437	0.77	3	99	0	50	2.933861	2.58128	-84.14967	
15:43:23	-6.79593	38.98537	130.668	4.152157	4.116291	0.84	3	99	0	50	2.805094	2.762537	-84.21034	
15:43:23	-6.795933	38.98537	129.905	4.148197	3.543407	1.03	3	99	0	50	2.355363	2.119854	-84.28887	
15:43:23	-6.795933	38.98537	129.82	4.136533	2.321864	1.76	3	99	0	50	2.438418	1.017826	-84.26744	
15:43:23	-6.795934	38.98536	129.243	4.1253	1.8508	1.31	3	99	0	50	3.004243	0.2907709	-84.15275	
15:43:23	-6.795934	38.98536	128.505	4.115503	1.017143	1.1	3	99	0	50	2.745782	0.763675	-84.02483	
15:43:24	-6.795936	38.98536	128.088	4.115454	1.330013	0.72	3	99	0	50	2.589716	1.138835	-83.93108	
15:43:24	-6.795936	38.98536	127.761	4.120255	1.155784	0.52	3	99	0	50	2.691462	1.667795	-83.8718	
15:43:24	-6.795938	38.98536	127.152	4.143985	1.561709	0.48	3	99	0	50	2.776369	1.981668	-83.85134	
15:43:24	-6.795938	38.98536	127.198	4.164367	2.508112	0.47	3	99	0	50	2.763259	2.130002	-83.85807	
15:43:24	-6.795936	38.98536	127.269	4.184283	2.918992	1.28	3	99	0	50	2.945354	1.973238	-83.85745	
15:43:25	-6.795935	38.98536	127.414	4.196239	2.709516	1.53	3	99	0	50	3.446816	1.234942	-83.83134	
15:43:25	-6.795935	38.98536	127.172	4.198626	2.201747	1.03	3	99	0	50	3.370623	1.062723	-83.77497	
15:43:25	-6.795935	38.98536	126.483	4.203475	2.431155	1.58	3	99	0	50	2.902986	1.869168	-83.73416	
15:43:25	-6.795934	38.98536	126.04	4.220859	3.129772	2.46	3	99	0	50	3.550227	3.615549	-83.75507	
15:43:25	-6.795934	38.98537	125.701	4.243295	3.766495	2.79	3	99	0	50	3.749724	5.054467	-83.96685	
15:43:26	-6.795934	38.98537	125.05	4.279153	4.923218	2.29	3	99	0	50	3.297071	5.377959	-84.31774	
15:43:26	-6.795934	38.98537	124.913	4.301882	5.650018	1.17	3	99	0	50	3.183473	4.649407	-84.62888	
15:43:26	-6.795933	38.98537	124.892	4.289288	3.654564	0.04	3	99	0	50	3.577705	3.439882	-84.75826	
15:43:26	-6.795932	38.98537	124.857	4.283413	2.469545	1.18	3	99	0	50	2.988588	2.561494	-84.87379	
15:43:26	-6.795932	38.98537	124.938	4.292385	2.96617	1.33	3	99	0	50	3.006748	1.690211	-84.86074	
15:43:27	-6.795932	38.98537	124.989	4.290628	2.831046	0.55	3	99	0	50	3.242919	1.83113	-84.80599	
15:43:27	-6.795931	38.98537	125.239	4.274946	1.848847	0.36	3	99	0	50	2.708538	2.98122	-84.85172	
15:43:27	-6.795931	38.98537	125.323	4.25062	0.570409	0.32	3	99	0	50	3.129739	2.671514	-84.86704	
15:43:27	-6.795931	38.98537	125.34	4.218388	-1.086687	0.57	3	99	0	50	3.232062	2.59121	-84.90144	
15:43:27	-6.795931	38.98537	125.245	4.18745	-2.288589	0.19	3	99	0	50	3.374607	2.34557	-84.91219	
15:43:28	-6.795931	38.98537	125.171	4.16274	-3.199267	0.7	3	99	0	50	3.131765	2.813841	-84.96878	
15:43:28	-6.795929	38.98537	125.593	4.148169	-3.024598	0.18	3	99	0	50	0.1874198	2.402385	-85.12827	
15:43:28	-6.795929	38.98537	125.735	4.150169	-4.231183	0.52	3	99	0	50	5.562296	2.569175	-84.96894	
15:43:28	-6.79593	38.98537	125.511	4.14843	-4.995172	1.11	3	99	0	50	5.045549	2.539391	-85.05732	
15:43:28	-6.79593	38.98537	125.465	4.119177	-5.240215	0.42	3	99	0	50	-5.87305	3.61829	-85.83435	
15:43:29	-6.795932	38.98537	124.895	4.085476	-9.611739	0.29	3	99	0	50	8.026137	2.312394	-85.52318	
15:43:29	-6.795933	38.98537	124.443	4.0175	-10.77992	0.48	3	99	0	50	9.667151	2.301739	-85.46452	
15:43:29	-6.795934	38.98537	124.32	3.94953	-14.71425	0.45	3	99	0	50	-2.089067	2.878089	-85.90672	
15:43:29	-6.795934	38.98537	124.296	3.911395	-17.52812	0.58	3	99	0	50	8.724077	1.882536	-85.54507	
15:43:29	-6.795934	38.98537	124.146	3.876401	-18.33546	1.61	3	99	0	50	4.952476	2.770877	-85.60876	
15:43:30	-6.795934	38.98538	124.075	3.849924	-18.32335	0.77	3	99	0	50	-2.440471	4.102994	-86.1589	
15:43:30	-6.795934	38.98538	123.832	3.826434	-22.54161	0.81	3	99	0	50	10.89902	2.805223	-86.04619	
15:43:30	-6.795936	38.98538	123.181	3.833241	-19.4667	0.62	3	99	0	50	1.845171	3.131377	-86.35768	
15:43:30	-6.795937	38.98538	122.434	3.850731	-17.0787	0.55	3	99	0	50	-0.2171765	2.495097	-86.48101	
15:43:30	-6.795938	38.98537	121.808	3.846717	-18.7305	0.72	3	99	0	50	13.17559	0.8959843	-86.2483	
15:43:31	-6.795939	38.98537	121.39	3.841789	-16.50118	0.32	3	99	0	50	-2.869757	1.650245	-86.43826	
15:43:31	-6.795938	38.98537	121.509	3.837584	-16.4154	1.15	3	99	0	50	7.303292	2.170476	-86.06183	
15:43:31	-6.795938	38.98537	121.513	3.831643	-15.44598	1.39	3	99	0	50	2.381667	1.250644	-86.04932	
15:43:31	-6.795938	38.98537	122.053	3.85792	-14.30757	1.51	3	99	0	50	3.494811	0.9533845	-85.91311	
15:43:31	-6.795937	38.98537	122.278	3.894542	-10.75636	0.01	3	99	0	50	4.070517	1.42361	-85.75274	
15:43:32	-6.795937	38.98537	122.253	3.866047	-10.94249	0.65	3	99	0	50	3.659594	2.533229	-85.72408	
15:43:32	-6.795937	38.98537	122.217	3.82698	-12.08482	0.66	3	99	0	50	3.42264	1.99744	-85.70294	
15:43:32	-6.795936	38.98537	122.441	3.777977	-13.21833	0.22	3	99	0	50	3.691068	2.107245	-85.6528	
15:43:32	-6.795936	38.98537	122.232	3.73852	-13.65846	0.39	3	99	0	50	3.694485	2.635018	-85.62664	
15:43:32	-6.795937	38.98537	122.03	3.699276	-14.45721	0.48	3	99	0	50	3.599211	2.717821	-85.63223	
15:43:33	-6.795937	38.98537	122.201	3.667656	-14.61224	0.12	3	99	0	50	3.566031	2.346942	-85.63357	
15:43:33	-6.795938	38.98537	121.723	3.617887	-14.70157	0.39	3	99	0	50	3.489382	2.958992	-85.64106	
15:43:33	-6.795938	38.98537	121.16	3.578268	-16.05166	0.19	3	99	0	50	3.578215	3.193708	-85.70352	
15:43:33	-6.795938	38.98537	120.939	3.544252	-16.09423	0.59	3	99	0	50	3.365936	2.545632	-85.74174	
15:43:33	-6.795938	38.98537	120.937	3.530864	-15.41869	0.29	3	99	0	50	3.272471	2.293049	-85.72774	
15:43:34	-6.79594	38.98537	120.459	3.526628	-13.51932	0.52	3	99	0	50	3.147352	2.56632	-85.71702	
15:43:34	-6.795941	38.98536	120.258	3.542795	-10.82617	0.76	3	99	0	50	2.908979	2.613338	-85.74058	
15:43:34	-6.795941	38.98536	119.904	3.573477	-8.05528	0.75	3	99	0	50	3.363022	2.203405	-85.71292	
15:43:34	-6.795941	38.98536	119.525	3.629056	-4.004905	0.85	3	99	0	50	3.542718	2.15742	-85.65789	
15:43:34	-6.795941	38.98536	119.702	3.66657	-1.166984	0.58	3	99	0	50	3.100351	2.092917	-85.6291	
15:43:35	-6.795941	38.98536	119.808	3.668405	-0.5081689	0.08	3	99	0	50	2.934301	2.520489	-85.62198	
15:43:35	-6.795941	38.98536	119.228	3.688298	0.6159648	0.55	3	99	0	50	3.360599	2.588863	-85.63573	
15:43:35	-6.795941	38.98536	119.216	3.741258	3.909773	0.61	3	99	0	50	3.38221	2.224929	-85.61884	
15:43:35	-6.795941	38.98536	119.16	3.791279	5.981848	0.25	3	99	0	50	2.949444	2.339475	-85.6095	
15:43:35	-6.795941	38.98536	119.062	3.823529	7.212759	0.17	3	99	0	50	3.190404	2.725572	-85.61103	
15:43:36	-6.795941	38.98536	118.735	3.86161	8.955501	0.18	3	99	0	50	3.354385	2.735045	-85.64562	
15:43:36	-6.795942	38.98536	118.234	3.932721	11.71063	1.28	3	99	0	50	3.454166	2.031285	-85.63765	
15:43:36	-6.795941	38.98536	118.432	4.009781	15.13197	0.81	3	99	0	50	3.423831	1.6126	-85.56783	
15:43:36	-6.795942	38.98536	117.928	4.090251	17.89013	0.42	3	99	0	50	3.776925	2.056539	-85.50168	
15:43:36	-6.795942	38.98536	118.006	4.148544	19.70876	0.66	3	99	0	50	3.528618	2.62219	-85.49222	
15:43:37	-6.795942	38.98536	117.647	4.184327	19.87277	0.22	3	99	0	50	3.293062	3.143584	-85.54461	
15:43:37	-6.795942	38.98536	117.442	4.200516	18.79754	0.69	3	99	0	50	3.81373	2.916216	-85.57389	
15:43:37	-6.795942	38.98536	117.118	4.190094	16.4142	0.69	3	99	0	50	3.803874	2.424561	-85.60497	
15:43:37	-6.795942	38.98536	116.996	4.173748	14.80004	0.69	3	99	0	50	3.194637	2.154281	-85.60909	
15:43:37	-6.795942	38.98536	117.028	4.145847	11.75673	0.62	3	99	0	50	2.961852	2.174583	-85.59616	
15:43:38	-6.795942	38.98536	117.01	4.113677	8.953632	0.12	3	99	0	50	3.021383	2.481765	-85.55383	
15:43:38	-6.795943	38.98536	116.405	4.066361	5.73929	0.63	3	99	0	50	2.599368	2.663894	-85.60213	
15:43:38	-6.795944	38.98536	116.194	4.018034	2.762275	0.39	3	99	0	50	2.683736	2.478878	-85.5997	
15:43:38	-6.795943	38.98536	116.378	3.959183	-0.3018412	0.5	3	99	0	50	2.998635	2.68519	-85.60513	
15:43:38	-6.795943	38.98536	116.246	3.906601	-2.764543	0.36	3	99	0	50	3.099611	3.178117	-85.61942	
15:43:39	-6.795944	38.98536	115.861	3.853621	-4.812944	0.22	3	99	0	50	2.943271	3.943373	-85.73762	
15:43:39	-6.795945	38.98536	115.775	3.801367	-7.31096	0.35	3	99	0	50	3.027978	3.828569	-85.86242	
15:43:39	-6.795945	38.98536	115.56	3.764985	-8.689913	0.42	3	99	0	50	3.134297	3.892719	-85.98624	
15:43:39	-6.795945	38.98536	115.591	3.729926	-9.596368	0.13	3	99	0	50	2.934868	3.793308	-86.12783	
15:43:39	-6.795945	38.98536	115.585	3.757651	-7.139317	0.32	3	99	0	50	3.183791	3.467397	-86.18996	
15:43:40	-6.795944	38.98536	115.716	3.798421	-3.495998	0.08	3	99	0	50	3.387638	3.305025	-86.22087	
15:43:40	-6.795945	38.98536	115.443	3.854588	-0.2058077	0.11	3	99	0	50	3.183997	3.226771	-86.29197	
15:43:40	-6.795945	38.98536	115.367	3.91435	3.071446	0.16	3	99	0	50	2.96119	3.248588	-86.36007	
15:43:40	-6.795945	38.98536	115.426	3.92375	3.556261	0.26	3	99	0	50	2.738989	3.108466	-86.42459	
15:43:41	-6.795945	38.98536	115.294	3.922677	3.174415	0.14	3	99	0	50	2.863778	2.927752	-86.43476	
15:43:41	-6.795946	38.98536	115.031	3.927759	3.333773	0.39	3	99	0	50	2.878078	2.815488	-86.45097	
15:43:41	-6.795946	38.98536	114.863	3.933927	3.502815	0.97	3	99	0	50	3.002505	2.396389	-86.44923	
15:43:41	-6.795946	38.98536	114.751	3.94719	3.920618	0.41	3	99	0	50	3.129707	2.290693	-86.38984	
15:43:41	-6.795947	38.98536	114.327	3.961518	4.321441	0.66	3	99	0	50	2.679324	2.552569	-86.36113	
15:43:42	-6.795947	38.98536	113.776	3.944697	3.098935	0.79	3	99	0	50	2.638326	2.292058	-86.34352	
15:43:42	-6.795948	38.98536	113.101	3.920892	1.030194	0.85	3	99	0	50	3.116894	2.022861	-86.27132	
15:43:42	-6.795947	38.98536	113.589	3.903039	-0.009507442	0.31	3	99	0	50	3.148221	2.228377	-86.2148	
15:43:42	-6.795947	38.98536	113.663	3.890809	-0.7382028	0.29	3	99	0	50	3.081481	2.455582	-86.19168	
15:43:42	-6.795947	38.98535	113.679	3.844854	-2.472316	0.55	3	99	0	50	2.904985	2.23395	-86.17092	
15:43:43	-6.795947	38.98536	113.655	3.797833	-4.370847	0.52	3	99	0	50	2.808085	2.828979	-86.13842	
15:43:43	-6.795947	38.98535	113.262	3.767165	-5.376623	0.52	3	99	0	50	2.98489	3.065452	-86.19648	
15:43:43	-6.795947	38.98535	113.035	3.744118	-6.675974	0.55	3	99	0	50	3.050514	2.484986	-86.2069	
15:43:43	-6.795947	38.98535	112.933	3.730784	-6.691495	0.62	3	99	0	50	3.166411	2.377723	-86.17115	
15:43:43	-6.795947	38.98535	112.665	3.754095	-4.568605	0.81	3	99	0	50	3.123816	2.149916	-86.13802	
15:43:43	-6.795947	38.98535	112.459	3.774071	-2.529346	0.14	3	99	0	50	3.168539	2.334183	-86.08308	
15:43:44	-6.795947	38.98535	112.277	3.781916	-1.671747	0.47	3	99	0	50	2.895867	2.86908	-86.09361	
15:43:44	-6.795947	38.98535	112.38	3.804682	-0.4432212	0.72	3	99	0	50	2.740458	3.318402	-86.11651	
15:43:44	-6.795947	38.98535	112.386	3.88904	3.653255	0.39	3	99	0	50	2.989767	3.100986	-86.16802	
15:43:44	-6.795947	38.98535	112.288	3.941592	5.611513	0.5	3	99	0	50	2.992849	2.554201	-86.19188	
15:43:44	-6.795948	38.98535	112.068	3.962844	6.139822	0.44	3	99	0	50	2.766408	2.623841	-86.19855	
15:43:45	-6.795948	38.98535	112.09	3.981283	6.406162	0.25	3	99	0	50	2.846262	2.928198	-86.19581	
15:43:45	-6.795948	38.98535	111.633	4.003732	7.147027	0.19	3	99	0	50	3.064448	2.842436	-86.21028	
15:43:45	-6.795948	38.98534	111.667	4.027612	7.958367	0.24	3	99	0	50	3.212696	2.574622	-86.22245	
15:43:45	-6.795948	38.98534	111.44	4.064891	8.935129	0.03	3	99	0	50	3.225818	2.596512	-86.22101	
15:43:45	-6.795947	38.98534	111.595	4.115155	11.15519	0.26	3	99	0	50	3.113963	2.814195	-86.22707	
15:43:46	-6.795947	38.98534	111.726	4.227783	16.30765	0.12	3	99	0	50	3.102059	2.774066	-86.22565	
15:43:46	-6.795947	38.98534	111.74	4.326265	19.9126	0.06	3	99	0	50	3.142357	2.540024	-86.23575	
15:43:46	-6.795946	38.98534	112.151	4.413131	22.84337	0.35	3	99	0	50	3.220494	2.381023	-86.21879	
15:43:46	-6.795945	38.98534	112.33	4.482342	24.53704	0.58	3	99	0	50	3.3896	2.718096	-86.18106	
15:43:47	-6.795945	38.98534	111.982	4.536531	25.19622	0.42	3	99	0	50	3.388786	3.163665	-86.21	
15:43:47	-6.795945	38.98534	111.844	4.581614	24.64436	0.51	3	99	0	50	3.193757	3.099525	-86.27618	
15:43:47	-6.795945	38.98534	111.751	4.597717	23.17865	0.24	3	99	0	50	3.392176	2.860316	-86.29697	
15:43:47	-6.795946	38.98534	111.618	4.58979	20.92617	0.13	3	99	0	50	3.304141	2.54402	-86.31071	
15:43:47	-6.795946	38.98534	111.55	4.50019	14.24068	0.25	3	99	0	50	3.211942	2.249745	-86.29287	
15:43:48	-6.795946	38.98534	111.541	4.404282	7.658447	0.04	3	99	0	50	3.313312	2.275451	-86.215	
15:43:48	-6.795944	38.98534	111.879	4.274009	0.5568746	0.35	3	99	0	50	3.406186	2.182197	-86.16261	
15:43:48	-6.795943	38.98534	112.461	4.143982	-6.503349	0.19	3	99	0	50	3.446968	2.138825	-86.11087	
15:43:48	-6.795941	38.98534	113.222	4.077028	-9.731067	0.7	3	99	0	50	3.631627	2.689351	-86.07544	
15:43:49	-6.795939	38.98534	113.948	4.01363	-12.10741	0.47	3	99	0	50	3.354384	2.422103	-86.04507	
15:43:49	-6.795939	38.98534	114.228	3.995852	-9.964408	0.22	3	99	0	50	3.308972	2.303892	-86.03465	
15:43:49	-6.795938	38.98534	114.62	3.985028	-9.541959	0.09	3	99	0	50	3.345206	2.113244	-85.99337	
15:43:49	-6.795937	38.98534	115.067	3.972395	-9.255663	0.18	3	99	0	50	3.535799	2.199618	-85.95624	
15:43:49	-6.795938	38.98534	114.961	3.964537	-8.891541	0.38	3	99	0	50	2.934159	1.855636	-85.93806	
15:43:49	-6.795938	38.98534	114.952	3.958699	-8.735187	0.39	3	99	0	50	2.511912	1.600652	-85.90621	
15:43:50	-6.795938	38.98534	114.818	3.969588	-7.667174	0.17	3	98	0	50	2.939283	1.943642	-85.7011	
15:43:50	-6.795938	38.98534	114.824	4.014947	-3.841193	0.22	3	98	0	50	2.73832	1.85388	-85.65665	
15:43:50	-6.795938	38.98534	114.827	4.040846	-1.677967	0.22	3	98	0	50	2.673023	1.92275	-85.57632	
15:43:51	-6.795937	38.98534	114.977	4.054355	-0.03438945	0.22	3	98	0	50	2.879174	1.763451	-85.52525	
15:43:51	-6.795937	38.98534	115.125	4.06465	0.5694842	0.22	3	98	0	50	2.691176	1.550212	-85.44998	
15:43:51	-6.795936	38.98534	115.482	4.064107	0.08139442	0.33	3	98	0	50	2.690582	1.368289	-85.36449	
15:43:51	-6.795936	38.98534	115.515	4.060622	-0.2667912	0.24	3	98	0	50	2.743354	1.629641	-85.26714	
15:43:51	-6.795935	38.98534	115.775	4.044422	-1.30972	0.58	3	98	0	50	2.805517	2.070853	-85.23016	
15:43:52	-6.795935	38.98534	115.821	4.02499	-1.886137	0.38	3	98	0	50	2.805762	2.044393	-85.21655	
15:43:52	-6.795934	38.98534	116.025	4.035336	-0.9778147	0.09	3	98	0	50	2.8107	1.669211	-85.19041	
15:43:52	-6.795934	38.98534	116.12	4.053811	-0.1119033	0.22	3	98	0	50	2.706142	1.463309	-85.12048	
15:43:52	-6.795934	38.98534	116.168	4.064191	0.494491	0.11	3	98	0	50	2.770175	1.435051	-85.0465	
15:43:56	-6.795931	38.98532	119.275	4.071916	1.316413	0.08	3	82	0	50	3.205285	0.8821021	-83.74988	
15:43:57	-6.795931	38.98532	119.275	4.242863	11.2342	0.08	3	82	0	50	3.30168	0.9552361	-83.6685	
15:43:57	-6.79593	38.98532	119.689	4.266623	11.60444	0.14	3	82	0	50	3.318163	0.9223487	-83.60165	
15:43:57	-6.795929	38.98532	120.112	4.275383	10.91742	0.53	3	83	0	50	3.396565	1.098621	-83.52179	
15:43:57	-6.795929	38.98532	120.384	4.243258	7.75374	0.24	3	83	0	50	3.674389	1.384835	-83.47259	
15:43:57	-6.795928	38.98533	120.779	4.219771	5.792467	0.44	3	83	0	50	3.508049	1.152634	-83.45673	
15:43:58	-6.795927	38.98533	121.043	4.206013	4.257592	0.19	3	83	0	50	3.578492	1.248742	-83.40719	
15:43:58	-6.795927	38.98533	121.431	4.192782	3.300417	0.13	3	83	0	50	3.46818	1.075685	-83.3625	
15:43:58	-6.795927	38.98533	121.502	4.168873	1.50849	0.07	3	83	0	50	3.48067	0.8862118	-83.29967	
15:43:58	-6.795927	38.98533	121.836	4.143414	-0.3147238	0.52	3	84	0	50	3.368277	0.8717813	-83.22931	
15:43:58	-6.795926	38.98533	122.137	4.085366	-3.452357	0.5	3	84	0	50	3.578003	1.183132	-83.16743	
15:43:59	-6.795925	38.98533	122.438	4.023894	-6.962799	0.56	3	84	0	50	3.661395	1.247788	-83.12893	
15:43:59	-6.795924	38.98533	122.696	3.978693	-9.013354	0.74	3	84	0	50	3.720329	1.26931	-83.09985	
15:43:59	-6.795923	38.98533	123.21	3.940223	-10.20942	0.32	3	84	0	50	3.868693	1.37456	-83.08723	
15:43:59	-6.795922	38.98533	123.595	3.928558	-10.01748	0.69	3	84	0	50	3.780203	0.9732416	-83.06796	
15:43:59	-6.795922	38.98533	123.779	3.92158	-9.74187	0.53	3	84	0	50	3.899496	1.244379	-83.01794	
15:44:00	-6.795921	38.98533	124.006	3.939771	-7.336418	0.34	3	85	0	50	3.828019	1.227483	-82.99864	
15:44:00	-6.79592	38.98533	124.465	3.963617	-4.958423	0.81	3	85	0	50	3.663248	1.030625	-82.96895	
15:44:00	-6.79592	38.98533	124.585	3.973217	-4.085727	0.53	3	85	0	50	3.641021	1.526947	-82.93233	
15:44:00	-6.79592	38.98533	124.679	3.980799	-3.328161	0.29	3	85	0	50	3.432467	0.5276359	-82.91519	
15:44:00	-6.79592	38.98533	124.659	3.998666	-1.754187	0.34	3	85	0	50	3.405131	0.5172372	-82.8008	
15:44:01	-6.795921	38.98533	124.566	4.016785	-0.5398212	0.61	3	85	0	50	3.15143	0.616704	-82.72227	
15:44:01	-6.795921	38.98533	124.504	4.013649	-0.6214373	0.03	3	85	0	50	3.139672	0.3232985	-82.63925	
15:44:01	-6.795921	38.98533	124.382	4.005912	-1.030029	0.5	3	85	0	50	3.41108	0.8119875	-82.55536	
15:44:01	-6.795922	38.98533	124.283	4.037738	0.4720612	0.22	3	86	0	50	3.601443	1.441925	-82.50752	
15:44:01	-6.795921	38.98533	124.566	4.074924	2.209465	0.7	3	86	0	50	3.335878	1.176707	-82.49527	
15:44:02	-6.795918	38.98534	125.55	4.086719	2.926189	1.75	3	86	0	50	3.603173	1.536386	-82.48339	
15:44:02	-6.795917	38.98534	126.191	4.092377	3.149798	0.71	3	86	0	50	3.920844	2.340824	-82.51514	
15:44:02	-6.795915	38.98534	126.828	4.072468	2.136751	0.42	3	86	0	50	3.899225	1.613132	-82.59553	
15:44:02	-6.795914	38.98534	127.37	4.044264	0.5363559	1.24	3	86	0	50	3.518769	1.254482	-82.59534	
15:44:02	-6.795914	38.98534	127.856	4.009121	-1.552739	0.83	3	86	0	50	3.699313	1.807375	-82.60101	
15:44:03	-6.795913	38.98534	128.218	3.973206	-3.639303	0.7	3	86	0	50	3.671857	1.501391	-82.62862	
15:44:03	-6.795914	38.98534	128.157	3.945462	-4.790589	0.19	3	87	0	50	3.565458	1.33461	-82.63501	
15:44:03	-6.795914	38.98535	128.247	3.938471	-4.374189	0.71	3	87	0	50	3.112335	0.6245427	-82.61021	
15:44:03	-6.795914	38.98535	128.26	3.92485	-5.085272	0.16	3	87	0	50	3.558877	0.9867061	-82.53693	
15:44:03	-6.795914	38.98535	128.151	3.880965	-6.605507	0.42	3	87	0	50	3.255598	0.4403349	-82.49033	
15:44:04	-6.795914	38.98535	128.248	3.841387	-7.909954	0.72	3	87	0	50	3.402062	0.6078965	-82.41232	
15:44:04	-6.795913	38.98535	128.445	3.773628	-10.9662	0.19	3	87	0	50	3.548954	0.9349991	-82.35352	
15:44:04	-6.795912	38.98535	128.769	3.717879	-13.21791	0.34	3	87	0	50	3.471412	0.2708588	-82.29504	
15:44:04	-6.795912	38.98535	128.803	3.676074	-14.11722	0.33	3	87	0	50	3.416458	0.03747275	-82.20606	
15:44:04	-6.795912	38.98535	128.752	3.65011	-14.04168	0.11	3	88	0	50	3.665478	0.6071318	-82.10866	
15:44:05	-6.795912	38.98535	128.811	3.642768	-12.78705	0.14	3	88	0	50	3.441037	0.4162181	-82.0406	
15:44:05	-6.795912	38.98535	128.794	3.64652	-11.37872	0.32	3	88	0	50	3.460646	0.4135264	-81.96194	
15:44:05	-6.795912	38.98535	128.785	3.677504	-8.457695	0.48	3	88	0	50	3.386351	0.9015689	-81.90143	
15:44:05	-6.795912	38.98535	128.812	3.711155	-6.088765	0.32	3	88	0	50	3.653442	1.091355	-81.88589	
15:44:05	-6.795911	38.98535	129.06	3.742907	-3.773461	0.42	3	88	0	50	3.680559	0.8457163	-81.88354	
15:44:06	-6.795911	38.98535	129.082	3.778762	-1.145961	0.52	3	88	0	50	3.760766	0.9193766	-81.86287	
15:44:06	-6.795911	38.98535	129.142	3.819786	1.072839	0.41	3	88	0	50	3.835816	1.085465	-81.83302	
15:44:06	-6.795911	38.98535	129.177	3.863266	3.491866	0.84	3	88	0	50	3.679626	1.042875	-81.83241	
15:44:06	-6.795912	38.98535	128.996	3.911777	5.82175	0.35	3	88	0	50	3.249253	1.750123	-81.86973	
15:44:06	-6.795912	38.98535	128.895	3.987622	9.326852	0.21	3	89	0	50	3.223965	1.123136	-81.90302	
15:44:07	-6.795913	38.98535	128.673	4.10227	14.56519	0.19	3	89	0	50	3.233221	0.5559593	-81.87674	
15:44:07	-6.795914	38.98535	128.304	4.196937	17.95782	0.71	3	89	0	50	3.206061	0.5372351	-81.82066	
15:44:07	-6.795914	38.98535	128.172	4.303126	21.93519	0.44	3	89	0	50	3.124931	-0.1244381	-81.74225	
15:44:07	-6.795914	38.98535	128.188	4.382597	23.98367	0.14	3	89	0	50	3.352046	0.1091013	-81.64016	
15:44:07	-6.795914	38.98535	128.261	4.437596	24.80686	0.04	3	89	0	50	3.349198	0.6267548	-81.56925	
15:44:08	-6.795914	38.98535	128.24	4.483471	24.93544	0.24	3	89	0	50	3.536589	0.5578007	-81.52151	
15:44:08	-6.795914	38.98535	128.174	4.47215	22.484	0.47	3	89	0	50	3.251198	0.6642297	-81.49194	
15:44:08	-6.795914	38.98535	128.238	4.452868	19.44349	1.06	3	89	0	50	3.431765	0.1174917	-81.439	
15:44:08	-6.795914	38.98535	128.114	4.405468	15.26932	0.39	3	89	0	50	3.572643	-0.4484803	-81.34039	
15:44:08	-6.795914	38.98535	127.882	4.353471	11.03797	0.52	3	89	0	50	3.408314	0.4087687	-81.24204	
15:44:09	-6.795914	38.98535	128.202	4.346491	10.09469	0.97	3	90	0	50	3.605152	0.2671946	-81.18266	
15:44:09	-6.795913	38.98535	128.304	4.348645	9.204484	0.11	3	90	0	50	3.664845	0.9703196	-81.15729	
15:44:09	-6.795912	38.98536	128.551	4.306921	6.377546	0.63	3	89	0	50	3.637813	0.5711485	-81.20179	
15:44:09	-6.795912	38.98536	128.823	4.258368	3.098547	0.76	3	90	0	50	3.941767	1.13459	-81.19228	
15:44:09	-6.795912	38.98536	128.48	4.192153	-0.9373685	0.58	3	90	0	50	4.740286	1.199443	-81.15597	
15:44:10	-6.795912	38.98536	128.525	4.133649	-4.181244	0.37	3	90	0	50	18.04719	-0.06266272	-80.99523	
15:44:10	-6.795912	38.98536	128.325	4.048195	-8.864758	0.96	3	90	0	50	8.715232	0.3618707	-81.1159	
15:44:10	-6.795912	38.98536	128.221	3.962945	-12.31841	0.79	3	90	0	50	2.6842	2.417148	-81.41376	
15:44:10	-6.795913	38.98536	128.104	3.900383	-17.66025	0.39	3	90	0	50	18.11283	1.097238	-81.27133	
15:44:10	-6.795913	38.98536	127.925	3.848536	-17.53659	0.26	3	90	0	50	2.788793	1.343179	-81.5563	
15:44:11	-6.795913	38.98536	127.864	3.793668	-19.508	0.29	3	90	0	50	3.117275	0.9220862	-81.56467	
15:44:11	-6.795914	38.98536	127.349	3.732503	-21.87375	0.35	3	90	0	50	13.03233	0.01244858	-81.39101	
15:44:11	-6.795914	38.98536	127.01	3.683311	-22.63514	0.14	3	90	0	50	-1.695953	0.2743908	-81.47527	
15:44:11	-6.795915	38.98536	126.304	3.634715	-24.64828	0.42	3	90	0	50	4.283579	0.5355131	-81.25541	
15:44:11	-6.795916	38.98536	125.722	3.621569	-21.0651	0.66	3	90	0	50	2.971625	0.1381664	-81.17239	
15:44:12	-6.795917	38.98536	125.103	3.624236	-20.22673	0.14	3	91	0	50	2.511389	1.342841	-81.13783	
15:44:12	-6.795918	38.98536	124.289	3.58125	-20.29289	0.29	3	91	0	50	2.643372	0.7538431	-81.15692	
15:44:12	-6.795919	38.98536	123.842	3.534898	-20.45105	0.32	3	91	0	50	2.754837	0.618161	-81.13107	
15:44:12	-6.79592	38.98536	123.392	3.511621	-19.28278	0.51	3	91	0	50	2.63266	1.156147	-81.11162	
15:44:12	-6.795921	38.98536	122.597	3.499269	-18.30356	0.97	3	91	0	50	2.94434	1.620207	-81.1366	
15:44:13	-6.795922	38.98536	122.13	3.496424	-16.61736	0.85	3	91	0	50	3.017175	2.385087	-81.23129	
15:44:13	-6.795922	38.98536	122.109	3.522929	-13.58016	0.83	3	91	0	50	2.959791	1.345778	-81.31803	
15:44:13	-6.795921	38.98536	122.339	3.558132	-10.19023	0.22	3	91	0	50	3.150589	1.393929	-81.33401	
15:44:13	-6.795921	38.98536	122.01	3.626544	-5.562765	0.47	3	91	0	50	3.148696	2.026918	-81.39321	
15:44:13	-6.795922	38.98536	121.32	3.693192	-1.159799	0.37	3	91	0	50	3.009249	1.746651	-81.48202	
15:44:14	-6.795922	38.98536	121.401	3.741798	1.426476	0.52	3	91	0	50	2.892848	2.135448	-81.54949	
15:44:14	-6.795922	38.98536	121.38	3.789525	3.635196	0.19	3	91	0	50	3.280236	2.547663	-81.64366	
15:44:14	-6.795922	38.98537	121.543	3.841819	5.694879	0.72	3	91	0	50	3.415225	2.228823	-81.75246	
15:44:14	-6.795921	38.98537	121.72	3.877412	7.241117	0.59	3	91	0	50	3.613992	2.668315	-81.86097	
15:44:14	-6.795922	38.98537	121.35	3.883964	7.080898	0.77	3	92	0	50	3.381203	1.851001	-81.95842	
15:44:15	-6.795921	38.98537	121.664	3.8948	6.776989	0.39	3	92	0	50	3.456254	3.395562	-82.03751	
15:44:15	-6.795922	38.98537	121.501	3.924785	7.276243	0.66	3	92	0	50	3.426452	3.147517	-82.21899	
15:44:15	-6.795922	38.98537	121.226	3.950604	7.719798	0.74	3	92	0	50	2.697915	3.279752	-82.43059	
15:44:15	-6.795922	38.98537	121.429	3.972325	7.92509	0.13	3	92	0	50	3.042733	2.473516	-82.54443	
15:44:15	-6.795922	38.98537	121.149	3.985429	7.896695	0.35	3	92	0	50	3.07203	3.150074	-82.66061	
15:44:16	-6.795922	38.98537	121.178	3.979125	7.160303	0.13	3	92	0	50	3.121339	3.341995	-82.80703	
15:44:16	-6.795922	38.98537	121.041	3.980983	6.552954	1.49	3	92	0	50	3.112534	2.753038	-82.94917	
15:44:16	-6.795922	38.98537	120.832	4.001301	7.030813	0.64	3	92	0	50	3.061655	1.800327	-83.01627	
15:44:16	-6.795922	38.98537	120.969	4.011042	6.565219	0.51	3	92	0	50	3.175057	3.136218	-83.08714	
15:44:16	-6.795922	38.98537	120.874	4.000808	5.190254	0.75	3	92	0	50	3.032547	2.272681	-83.17493	
15:44:17	-6.795923	38.98537	120.703	3.98058	3.658523	0.28	3	92	0	50	2.86097	2.050807	-83.21232	
15:44:17	-6.795924	38.98537	120.378	3.941219	0.9963565	0.72	3	92	0	50	2.878498	2.585268	-83.25549	
15:44:17	-6.795923	38.98537	120.564	3.902293	-0.8449581	0.22	3	92	0	50	3.108259	2.048165	-83.30281	
15:44:17	-6.795923	38.98537	120.403	3.861245	-2.356277	0.75	3	92	0	50	3.167739	2.266555	-83.3652	
15:44:17	-6.795925	38.98537	120.148	3.82136	-3.717187	0.64	3	93	0	50	2.950277	1.953476	-83.42089	
15:44:18	-6.795926	38.98537	119.888	3.79146	-4.858537	1.28	3	93	0	50	2.815675	2.661947	-83.5081	
15:44:18	-6.795927	38.98536	119.491	3.764996	-5.735133	0.88	3	93	0	50	3.009465	1.823553	-83.5527	
15:44:18	-6.795927	38.98536	119.618	3.750915	-5.709058	0.45	3	93	0	50	2.720273	2.661306	-83.60771	
15:44:18	-6.795927	38.98537	119.788	3.741811	-5.361543	0.19	3	93	0	50	2.87866	3.334309	-83.63822	
15:44:18	-6.795926	38.98537	120.114	3.729859	-5.747856	0.45	3	93	0	50	3.121908	3.063986	-83.85403	
15:44:19	-6.795926	38.98537	120.315	3.716871	-5.860053	0.45	3	93	0	50	3.071735	2.826509	-83.96977	
15:44:19	-6.795925	38.98537	120.663	3.648735	-8.901135	0.29	3	93	0	50	3.139518	2.787072	-84.059	
15:44:19	-6.795924	38.98537	121.135	3.575758	-11.73168	0.11	3	93	0	50	3.361984	2.870273	-84.13402	
15:44:19	-6.795924	38.98537	121.145	3.50125	-14.51006	0.45	3	93	0	50	3.55585	3.18887	-84.20145	
15:44:19	-6.795924	38.98537	121.279	3.427217	-16.74825	0.14	3	93	0	50	3.754038	3.673168	-84.32488	
15:44:20	-6.795925	38.98537	120.929	3.411941	-15.8782	0.42	3	93	0	50	3.592394	3.132784	-84.48281	
15:44:20	-6.795925	38.98537	121.016	3.410895	-14.66257	0.58	3	93	0	50	3.309334	2.795219	-84.58721	
15:44:20	-6.795924	38.98537	121.115	3.379195	-14.56963	0.53	3	93	0	50	3.483071	2.561368	-84.62043	
15:44:20	-6.795923	38.98537	121.456	3.345932	-14.95253	0.72	3	93	0	50	3.683737	2.829678	-84.65025	
15:44:20	-6.795922	38.98537	121.759	3.345746	-13.58674	0.45	3	93	0	50	3.773488	3.707142	-84.76904	
15:44:21	-6.795922	38.98537	121.564	3.355237	-11.94117	0.39	3	93	0	50	3.688551	3.229696	-84.90192	
15:44:21	-6.795922	38.98537	121.564	3.370274	-10.4581	1.14	3	93	0	50	3.685744	2.388613	-84.95133	
15:44:21	-6.795922	38.98536	121.421	3.386986	-8.280338	1.32	3	93	0	50	3.83151	1.735855	-84.93794	
15:44:21	-6.795922	38.98536	121.433	3.443058	-4.047187	1.79	3	93	0	50	3.738827	1.348225	-84.89132	
15:44:21	-6.795922	38.98536	121.395	3.511241	0.7636601	0.87	3	93	0	50	3.703829	1.239269	-84.79593	
15:44:22	-6.795922	38.98536	121.345	3.507936	1.035161	0.64	3	93	0	50	3.789404	2.211253	-84.743	
15:44:22	-6.795921	38.98536	121.77	3.490489	0.2167399	0.35	3	94	0	50	3.807772	2.599383	-84.75053	
15:44:22	-6.79592	38.98536	122.022	3.474548	-0.4296002	0.29	3	94	0	50	3.772929	3.088965	-84.81322	
15:44:22	-6.795921	38.98536	121.796	3.461191	-1.320301	0.19	3	94	0	50	3.444604	2.989809	-84.92419	
15:44:22	-6.795922	38.98536	121.723	3.445937	-2.295393	0.47	3	94	0	50	3.519629	2.735201	-84.99522	
15:44:23	-6.795922	38.98536	121.605	3.426702	-3.375176	0.31	3	94	0	50	3.712543	2.791872	-85.0481	
15:44:23	-6.795922	38.98536	121.655	3.423733	-3.150493	0.38	3	94	0	50	3.529307	2.052404	-85.06895	
15:44:23	-6.795921	38.98536	121.798	3.476579	0.1786181	0.5	3	94	0	50	3.627307	1.908423	-85.05785	
15:44:23	-6.795922	38.98536	121.416	3.520955	2.624123	0.52	3	94	0	50	3.754576	2.278937	-85.03957	
15:44:24	-6.795921	38.98536	121.92	3.547748	3.765941	0.72	3	94	0	50	3.705643	3.304753	-85.09222	
15:44:24	-6.795921	38.98536	121.884	3.577586	5.126736	0.48	3	94	0	50	3.727787	3.294458	-85.19775	
15:44:24	-6.79592	38.98536	121.93	3.616115	6.877613	0.5	3	94	0	50	3.745386	2.748085	-85.28857	
15:44:24	-6.79592	38.98536	122.032	3.655512	8.506213	0.69	3	94	0	50	3.697704	2.590101	-85.31118	
15:44:24	-6.795921	38.98536	121.943	3.71254	10.79811	0.83	3	94	0	50	3.672211	2.613256	-85.37502	
15:44:24	-6.795921	38.98536	122.092	3.754554	12.07211	0.61	3	94	0	50	3.657042	1.796279	-85.33414	
15:44:25	-6.795921	38.98536	122.132	3.760823	11.29008	0.32	3	94	0	50	3.712785	2.038887	-85.3022	
15:44:25	-6.79592	38.98536	122.212	3.761386	10.61076	0.33	3	94	0	50	3.750191	2.194428	-85.29824	
15:44:25	-6.795921	38.98536	121.979	3.742155	8.207543	0.66	3	94	0	50	3.75469	1.978216	-85.28754	
15:44:25	-6.79592	38.98536	122.303	3.729181	6.709449	0.12	3	94	0	50	3.805984	1.967558	-85.2506	
15:44:25	-6.795918	38.98536	122.789	3.726563	5.829976	0.45	3	94	0	50	3.781731	2.585702	-85.24994	
15:44:26	-6.795918	38.98536	123.17	3.713711	4.80531	0.17	3	94	0	50	3.660639	2.782865	-85.32011	
15:44:26	-6.795916	38.98536	123.907	3.68813	3.348043	0.38	3	95	0	50	3.565272	2.632814	-85.36597	
15:44:26	-6.795915	38.98537	124.233	3.67583	2.556742	0.63	3	95	0	50	3.632205	2.370657	-85.39643	
15:44:26	-6.795915	38.98537	124.103	3.678755	2.005069	0.53	3	95	0	50	3.817169	1.811531	-85.36143	
15:44:26	-6.795914	38.98537	124.671	3.686774	2.31867	0.29	3	95	0	50	3.911115	1.949834	-85.33044	
15:44:27	-6.795912	38.98537	125.132	3.713761	3.64203	0.52	3	95	0	50	3.995504	1.982732	-85.30334	
15:44:27	-6.79591	38.98537	125.374	3.745251	4.890044	0.78	3	95	0	50	3.899352	1.585988	-85.29373	
15:44:27	-6.795911	38.98537	124.97	3.802084	7.780917	1.05	3	95	0	50	3.596738	1.136903	-85.22246	
15:44:27	-6.795911	38.98537	124.74	3.858449	10.29294	0.58	3	95	0	50	3.518272	1.320938	-85.12116	
15:44:27	-6.795912	38.98537	124.435	3.907896	12.07138	0.36	3	95	0	50	3.60936	1.78351	-85.06168	
15:44:28	-6.795911	38.98537	124.566	3.963799	13.74039	1.1	3	95	0	50	3.81543	2.556157	-85.02688	
15:44:28	-6.795911	38.98537	124.68	3.998231	15.0164	0.52	3	95	0	50	3.835604	2.943288	-85.10467	
15:44:28	-6.795912	38.98537	124.561	4.025568	15.317	0.47	3	95	0	50	3.636837	2.553185	-85.1544	
15:44:28	-6.795913	38.98537	124.38	4.059144	15.6979	0.62	3	95	0	50	3.534755	2.510718	-85.17132	
15:44:28	-6.795913	38.98537	124.269	4.093873	15.94701	0.29	3	95	0	50	3.579026	2.338998	-85.19404	
15:44:29	-6.795914	38.98537	124.321	4.125127	16.34088	0.91	3	95	0	50	3.77398	2.442673	-85.19324	
15:44:29	-6.795913	38.98538	124.633	4.151238	16.41122	0.28	3	95	0	50	3.823147	2.456475	-85.22375	
15:44:29	-6.795914	38.98538	124.528	4.19757	16.98582	0.19	3	95	0	50	3.8459	1.756394	-85.20535	
15:44:29	-6.795914	38.98538	124.243	4.246541	17.93046	0.93	3	95	0	50	3.998027	1.085925	-85.13657	
15:44:29	-6.795914	38.98537	124.148	4.313498	19.65504	0.84	3	95	0	50	3.930647	0.7685098	-85.01614	
15:44:30	-6.795914	38.98537	124.159	4.378704	21.22223	0.39	3	95	0	50	3.984361	1.186398	-84.8946	
15:44:30	-6.795914	38.98537	123.867	4.416919	21.2756	0.65	3	95	0	50	4.001094	1.011223	-84.81319	
15:44:30	-6.795913	38.98537	123.984	4.443517	20.96763	0.22	3	95	0	50	3.833939	0.724062	-84.70104	
15:44:30	-6.795913	38.98537	123.88	4.489398	20.88299	0.26	3	95	0	50	3.827576	0.9032497	-84.60901	
15:44:30	-6.795912	38.98537	123.813	4.535482	21.77362	0.32	3	95	0	50	3.870404	1.111361	-84.51008	
15:44:31	-6.795913	38.98537	123.6	4.468048	16.18775	0.25	3	95	0	50	3.683839	1.060289	-84.45071	
15:44:31	-6.795914	38.98537	123.282	4.378995	10.22017	1	3	96	0	50	3.29885	0.3170663	-84.35606	
15:44:31	-6.795914	38.98537	122.95	4.30673	5.381314	0.88	3	96	0	50	3.214182	0.1127507	-84.20046	
15:44:31	-6.795914	38.98537	122.75	4.235945	1.065631	0.19	3	96	0	50	3.384883	0.5896016	-84.056	
15:44:32	-6.795915	38.98537	122.731	4.191126	-1.697855	0.94	3	96	0	50	3.225491	0.3185262	-83.97004	
15:44:32	-6.795915	38.98537	122.825	4.154027	-3.614195	0.44	3	96	0	50	3.10353	0.2961924	-83.81927	
15:44:32	-6.795915	38.98537	123.132	4.130429	-4.520419	0.52	3	96	0	50	3.21247	0.802954	-83.72353	
15:44:32	-6.795915	38.98537	123.027	4.114186	-4.608489	0.21	3	96	0	50	3.439878	0.5474604	-83.64606	
15:44:32	-6.795916	38.98537	122.748	4.090061	-5.016824	0.56	3	96	0	50	3.50045	0.1532582	-83.54563	
15:44:33	-6.795916	38.98537	122.684	4.035314	-7.285361	0.56	3	96	0	50	3.38555	0.1464006	-83.42352	
15:44:33	-6.795917	38.98537	122.799	3.99669	-8.415623	0.36	3	96	0	50	3.409723	0.5410812	-83.30173	
15:44:33	-6.795918	38.98537	122.501	3.985683	-7.989787	0.42	3	96	0	50	3.596846	0.2842684	-83.21308	
15:44:33	-6.795918	38.98537	122.272	3.965698	-7.870675	0.09	3	96	0	50	3.722015	0.2207627	-83.08154	
15:44:33	-6.795918	38.98537	122.066	3.925395	-9.24305	0.47	3	96	0	50	3.685751	0.1047182	-82.97701	
15:44:34	-6.795919	38.98537	121.58	3.875371	-10.81491	0.47	3	96	0	50	3.653502	-0.07295737	-82.84105	
15:44:34	-6.795919	38.98537	121.373	3.810503	-12.92341	0.19	3	96	0	50	3.904768	0.1293682	-82.70073	
15:44:34	-6.795918	38.98537	121.467	3.760735	-14.44746	0.33	3	96	0	50	4.014139	0.13466	-82.59148	
15:44:34	-6.795918	38.98536	121.304	3.729692	-15.27048	0.45	3	96	0	50	3.809915	-0.0247042	-82.48378	
15:44:34	-6.795918	38.98537	121.423	3.70882	-15.05498	0.39	3	96	0	50	3.607663	0.03255278	-82.35932	
15:44:35	-6.795919	38.98536	121.367	3.725345	-12.19716	0.17	3	96	0	50	3.708409	0.2467732	-82.25868	
15:44:35	-6.795919	38.98536	121.118	3.741734	-9.296136	0.29	3	96	0	50	3.766166	0.2531681	-82.18478	
15:44:35	-6.795919	38.98537	121.226	3.747742	-8.246814	0.09	3	96	0	50	3.810901	0.4498949	-82.09932	
15:44:35	-6.795921	38.98536	120.399	3.748564	-7.621399	0.77	3	96	0	50	3.615733	0.07002515	-82.03403	
15:44:35	-6.795921	38.98536	120.237	3.734372	-7.987991	0.72	3	96	0	50	3.559801	-0.188044	-81.91744	
15:44:36	-6.795922	38.98536	120.061	3.730143	-7.184537	0.74	3	96	0	50	3.70837	-0.2107088	-81.80195	
15:44:36	-6.795922	38.98536	119.55	3.737109	-6.477684	0.71	3	96	0	50	3.641994	-0.1040298	-81.70737	
15:44:36	-6.795922	38.98536	119.711	3.754093	-5.271022	0.22	3	96	0	50	3.693716	0.2920664	-81.61754	
15:44:36	-6.795923	38.98536	119.666	3.780931	-3.927431	0.16	3	96	0	50	3.773882	0.5687876	-81.58112	
15:44:36	-6.795922	38.98536	119.997	3.810701	-1.945997	0.34	3	96	0	50	3.87138	0.840047	-81.56574	
15:44:37	-6.795922	38.98536	119.925	3.847391	0.3179621	0.5	3	96	0	50	3.998605	0.3347153	-81.55635	
15:44:37	-6.795922	38.98536	119.862	3.882654	2.154456	0.34	3	96	0	50	4.180759	0.2761894	-81.50198	
15:44:37	-6.795922	38.98536	119.818	3.923869	4.388206	0.09	3	96	0	50	4.133256	0.5375236	-81.47403	
15:44:37	-6.795922	38.98536	119.602	3.963725	5.795679	0.31	3	96	0	50	4.190626	0.436898	-81.46062	
15:44:37	-6.795922	38.98536	119.457	4.012292	7.279816	0.36	3	97	0	50	4.145214	0.304067	-81.42564	
