Date	Latitude(deg) 	Longitude(deg)	hamsl(m)	hafl(m)	climbrate(cm/s)	GroundSpeed(m/s)	Airspeed(m/s)	Mav_Link(%)	Rssi_Link(%)	Throttle	Roll(deg)	Pitch(deg)	Yaw(deg)
12:51:14	-6.795787	38.98539	91.266	0	0	0.29	0	100	0	0	-2.114045	-26.20618	11.54742	
12:51:14	-6.795827	38.98535	97.556	0.2117672	-3.099464	0.58	3	100	0	38	-2.118208	-26.53212	11.53874	
12:51:15	-6.79583	38.98535	97.551	0.1895547	-5.649165	0.62	3	100	0	38	-2.44868	-25.96131	11.66909	
12:51:15	-6.79583	38.98535	97.551	-0.03153408	-19.61253	0.39	3	100	0	38	-2.28216	-25.91746	11.58874	
12:51:15	-6.79583	38.98535	97.823	-0.561025	-47.39204	0.22	3	100	0	38	-2.177205	-26.16915	11.52656	
12:51:15	-6.795832	38.98535	97.616	-0.8846296	-61.17881	0.88	3	100	0	38	-2.178259	-26.18285	11.50889	
12:51:15	-6.795833	38.98534	97.595	-1.081749	-67.96767	0.52	3	100	0	38	-2.611992	-25.64104	11.68495	
12:51:16	-6.795835	38.98534	97.716	-1.146143	-67.47487	0.71	3	100	0	38	-2.334725	-25.82157	11.55723	
12:51:16	-6.795836	38.98534	97.943	-1.001688	-55.40711	0.85	3	100	0	38	-2.433858	-25.74467	11.60313	
12:51:16	-6.795837	38.98534	98.216	-0.8538587	-44.57497	0.91	3	100	0	38	-2.519884	-25.73386	11.63512	
12:51:16	-6.795839	38.98534	97.998	-0.6704818	-32.28405	1.45	3	100	0	38	-2.597079	-25.62073	11.66425	
12:51:16	-6.795843	38.98534	98.224	-0.5090717	-22.82047	1.11	3	100	0	38	-2.674552	-25.10048	11.70048	
12:51:17	0	0	0	-0.4027373	-17.75269	0	3	100	0	38	-2.6818	-24.55097	12.00139	
12:51:17	0	0	0	-0.3575156	-17.98402	0	3	100	0	38	-2.650796	-22.61501	13.16894	
12:51:17	47.46538	-122.3119	98.394	-0.2409048	59.32141	29.52	3	100	0	38	-3.291437	-18.99264	15.01975	
12:51:17	47.46538	-122.3119	98.394	7.695168	550.1996	29.52	30.25026	100	0	38	-3.55302	-14.05665	18.47504	
12:51:17	47.46538	-122.3119	98.394	26.48214	1555.237	29.52	30.25026	100	0	37	-4.410296	-9.941201	22.20807	
12:51:18	47.46538	-122.3119	98.394	41.81317	2300.154	29.52	30.25026	100	0	38	-4.949637	-5.806556	25.55256	
12:51:18	47.46538	-122.3119	98.394	58.65389	3027.491	29.52	30.25026	100	0	38	-5.230692	-1.688793	28.61522	
12:51:18	47.46538	-122.3119	98.394	72.0042	3524.134	29.52	30.25026	100	0	38	-5.252571	2.465682	31.83511	
12:51:18	47.46538	-122.3119	98.394	83.91376	3891.716	29.52	30.25026	100	0	38	-4.88256	6.484057	35.83323	
12:51:18	47.46538	-122.3119	98.394	94.09375	4134.105	29.52	30.25026	100	0	38	-4.25855	10.13059	40.03815	
12:51:19	47.46538	-122.3119	98.394	102.6351	4269.591	29.52	30.25026	100	0	38	-3.412691	13.35551	44.42815	
12:51:19	47.46538	-122.3119	98.394	109.833	4314.028	29.52	30.25026	100	0	38	-2.339753	16.3053	49.02227	
12:51:19	47.46538	-122.3119	98.394	115.1424	4286.288	29.52	30.25026	100	0	38	-1.064581	18.96598	53.73986	
12:51:19	47.46538	-122.3119	98.394	120.2883	4182.265	29.52	30.25026	100	0	38	0.4223284	21.42832	58.64693	
12:51:19	47.46538	-122.3119	98.394	123.8558	4030.846	29.52	30.25026	100	0	38	2.078022	23.64284	63.65344	
12:51:20	47.46538	-122.3119	98.394	126.2006	3860.271	29.52	30.25026	100	0	38	3.913017	25.6478	68.84498	
12:51:20	47.46538	-122.3119	98.394	128.0017	3637.932	29.52	30.25026	100	0	38	6.141355	26.6881	74.05152	
12:51:20	47.46538	-122.3119	98.394	129.0803	3356.048	29.52	30.25026	100	0	38	9.292667	22.93608	78.81633	
12:51:20	47.46534	-122.3118	98.499	129.2481	2892.001	29.37	30.25026	100	0	38	10.83758	13.96612	82.43706	
12:51:20	47.46527	-122.3118	97.822	128.2278	2170.247	28.54	30.10568	100	0	38	10.64769	7.035713	85.66197	
12:51:21	47.46522	-122.3118	96.56	126.3055	1528.793	27.78	28.23951	100	0	38	10.81008	3.759922	89.67744	
12:51:21	47.46517	-122.3118	94.744	123.29	970.092	27.15	27.47158	100	0	38	11.26555	2.919256	94.63873	
12:51:21	47.46517	-122.3118	94.744	119.3098	514.1158	27.15	26.84341	100	0	38	11.07762	1.967551	99.47391	
12:51:21	47.46513	-122.3117	92.559	115.8217	214.1266	26.88	26.84341	100	0	48	10.05518	1.145116	103.7076	
12:51:21	47.46506	-122.3117	88.969	111.313	-103.5815	26.78	26.57141	100	0	68	8.549725	0.8332644	107.6054	
12:51:22	47.46501	-122.3117	86.196	106.9236	-363.6981	26.86	25.49376	100	0	88	7.319828	1.165061	111.6134	
12:51:22	47.46496	-122.3117	83.259	102.924	-567.1493	27.14	25.58281	100	0	98	6.583876	1.73168	115.6009	
12:51:22	47.46491	-122.3116	80.129	97.90102	-779.6426	27.73	25.88871	100	0	99	6.345631	2.413883	119.2503	
12:51:22	47.46484	-122.3116	75.797	93.89775	-925.213	28.9	26.13383	100	0	99	6.333575	3.034296	122.704	
12:51:22	47.46478	-122.3116	72.554	89.03892	-1087.206	29.76	27.33848	100	0	99	6.852655	3.527364	126.1823	
12:51:23	47.46478	-122.3116	72.554	84.37237	-1243.424	29.76	28.22299	100	0	99	7.161901	3.539577	129.4688	
12:51:23	47.46473	-122.3116	69.243	79.68034	-1407.266	30.54	28.22299	100	0	60	7.038439	3.273512	132.5731	
12:51:23	47.46468	-122.3116	65.83	75.0174	-1562.396	31.18	28.6897	100	0	39	6.716519	2.882094	135.5107	
12:51:23	47.46461	-122.3116	62.094	70.25443	-1711.088	31.65	29.33081	100	0	9	6.381807	2.635236	136.1366	
12:51:23	47.46456	-122.3116	58.336	66.08903	-1828.648	31.73	29.80547	100	0	4	6.068505	2.105179	136.6385	
12:51:24	47.46448	-122.3116	53.253	61.12157	-1958.935	31.46	29.89877	100	0	4	5.817471	1.350866	136.7068	
12:51:24	47.46442	-122.3116	48.995	56.62556	-2062.767	31.03	29.63856	100	0	4	5.569772	0.6525348	136.4258	
12:51:24	47.46436	-122.3116	45.173	52.24033	-2156.271	30.68	29.2164	100	0	5	4.738966	-0.1707021	136.9643	
12:51:24	47.46436	-122.3116	45.173	47.24749	-2247.223	30.68	28.88046	100	0	4	4.39402	-0.7970837	137.6573	
12:51:24	47.46431	-122.3116	41.589	42.62075	-2297.198	30.44	28.88046	100	0	5	2.29601	3.048979	138.0603	
12:51:25	47.46423	-122.3117	36.014	38.05711	-2118.069	30.21	28.64388	100	0	4	0.3429899	11.2375	138.1971	
12:51:25	47.46418	-122.3117	32.358	34.1471	-1698.051	30.89	28.44843	100	0	50	-0.4265126	18.19851	137.7143	
12:51:25	47.4641	-122.3117	28.198	30.82522	-1301.672	32.84	29.14409	100	0	99	1.206678	22.61818	139.0675	
12:51:25	47.46404	-122.3117	26.387	28.06519	-1129.31	33.12	31.13249	100	0	100	3.087561	23.81024	139.936	
12:51:25	47.46398	-122.3117	25.234	25.91676	-1109.735	32.82	31.42778	100	0	99	3.796493	23.56953	142.2936	
12:51:26	47.46392	-122.3118	24.429	23.6389	-1131.097	32.44	31.14135	100	0	99	2.936159	23.28085	145.2089	
12:51:26	47.46387	-122.3118	23.604	21.80207	-1131.858	32.28	30.7712	100	0	100	1.067911	23.20866	147.713	
12:51:26	47.46381	-122.3118	22.909	20.35872	-1100.653	32.36	30.61739	100	0	99	-0.9058602	23.44727	149.3389	
12:51:26	47.46373	-122.3118	21.998	18.79139	-1036.289	32.78	30.18258	100	0	99	-3.117682	23.85836	150.2656	
12:51:26	47.46368	-122.3119	21.49	17.64616	-960.8195	33.1	30.6106	100	0	99	-4.434195	24.31672	151.3138	
12:51:27	47.46362	-122.3119	21.099	16.74904	-880.5542	33.36	30.92784	100	0	100	-4.702892	24.58792	153.0472	
12:51:27	47.46356	-122.3119	20.831	16.04681	-803.647	33.51	31.186	100	0	99	-5.505685	24.24377	151.4451	
12:51:27	47.4635	-122.312	20.702	15.54374	-733.4113	33.56	31.33686	100	0	99	-6.236514	23.85123	149.6299	
12:51:27	47.4635	-122.312	20.702	15.23008	-663.6804	33.56	31.38087	100	0	99	-5.321026	23.8097	150.6061	
12:51:27	47.46342	-122.312	20.67	15.08682	-585.1119	33.54	31.38087	100	0	99	-4.178997	23.76213	151.256	
12:51:28	47.46336	-122.312	20.751	15.11685	-502.164	33.47	31.3595	100	0	99	-3.043194	23.69234	152.1389	
12:51:28	47.4633	-122.312	21.035	15.27897	-429.1989	33.33	31.28862	100	0	99	-2.492983	23.65231	152.6872	
12:51:28	47.46325	-122.3121	21.418	15.62795	-341.1092	33.16	31.1515	100	0	99	-2.61589	23.70091	153.4205	
12:51:28	47.46316	-122.3121	22.244	16.1018	-259.6671	32.84	30.98205	100	0	99	-2.078101	23.89834	155.6713	
12:51:28	47.4631	-122.3121	22.873	16.67421	-183.8106	32.56	30.65693	100	0	99	-0.09716182	24.12038	158.5339	
12:51:29	47.46304	-122.3122	23.654	17.50042	-105.2223	32.08	30.37301	100	0	99	-0.1761892	24.12771	157.8024	
12:51:29	47.46304	-122.3122	23.654	18.33765	-39.70675	32.08	29.90036	100	0	99	-3.199042	24.18472	155.88	
12:51:29	47.46299	-122.3122	24.518	19.30535	25.46504	31.64	29.90036	100	0	99	-4.136763	24.44513	157.4564	
12:51:29	47.46294	-122.3122	25.381	20.48911	95.48705	31.4	29.45861	100	0	99	-2.819387	24.5379	159.1511	
12:51:29	47.46286	-122.3123	26.947	21.44592	145.4162	31	29.21586	100	0	99	-2.760689	24.32834	158.7373	
12:51:30	47.46281	-122.3123	28.068	22.91341	211.3505	30.65	28.81044	100	0	99	-3.40868	24.17248	158.844	
12:51:30	47.46275	-122.3123	29.313	24.12372	257.6689	30.33	28.46002	100	0	99	-3.30442	24.19936	159.9053	
12:51:30	47.4627	-122.3123	30.501	25.62613	313.4691	30.07	28.1436	100	0	99	-2.980332	24.20112	160.5479	
12:51:30	47.46265	-122.3123	31.833	27.06676	364.0699	29.75	27.88477	100	0	100	-3.092624	24.18305	160.7282	
12:51:30	47.46259	-122.3124	33.25	28.53429	411.2995	29.42	27.56348	100	0	100	-3.336288	24.24781	161.1154	
12:51:31	47.46259	-122.3124	33.25	29.83479	449.1696	29.42	27.22627	100	0	99	-3.334426	24.31623	161.8065	
12:51:31	47.46252	-122.3124	35.371	31.48754	493.2691	28.95	27.22627	100	0	99	-3.07968	24.23177	162.2301	
12:51:31	47.46246	-122.3124	36.86	33.14879	536.3124	28.63	26.75765	100	0	99	-3.420444	24.29725	162.323	
12:51:31	47.46242	-122.3124	38.379	34.83575	574.1606	28.3	26.43485	100	0	99	-3.307944	24.31192	162.5676	
12:51:31	47.46236	-122.3124	40.067	36.646	613.9083	27.97	26.10586	100	0	99	-2.100696	24.36581	162.9135	
12:51:32	47.46236	-122.3124	40.067	38.44139	650.0369	27.97	25.77112	100	0	100	0.8499877	24.44897	163.4854	
12:51:32	47.46232	-122.3125	41.537	40.25403	683.1344	27.7	25.77112	100	0	99	4.796433	24.38367	164.1029	
12:51:32	47.46224	-122.3125	44.301	42.25102	721.5178	27.2	25.50305	100	0	99	7.44616	24.35841	164.8137	
12:51:32	47.4622	-122.3125	45.95	44.22329	751.2079	26.89	24.99943	100	0	99	9.496819	24.36001	165.8519	
12:51:32	47.46213	-122.3125	48.46	46.04442	778.5255	26.46	24.6929	100	0	99	10.5796	24.34172	167.1474	
12:51:33	47.46208	-122.3125	50.266	48.12191	807.6484	26.15	24.26127	100	0	99	11.34733	24.3576	168.5789	
12:51:33	47.46204	-122.3126	51.885	50.26662	830.2726	25.88	23.9499	100	0	99	12.25474	24.37677	170.0607	
12:51:33	47.46197	-122.3126	54.906	52.12035	843.9509	25.4	23.68857	100	0	99	13.46449	24.25946	171.6037	
12:51:33	47.46193	-122.3126	56.749	54.19545	868.8303	25.12	23.21029	100	0	100	12.63344	24.54656	173.2735	
12:51:33	47.46188	-122.3126	58.711	56.22867	886.9095	24.82	22.93015	100	0	99	7.561177	24.77632	174.6861	
12:51:34	47.46184	-122.3126	60.778	58.21769	905.3585	24.5	22.63103	100	0	100	-1.018476	25.04703	175.7455	
12:51:34	47.46184	-122.3126	60.778	60.34006	926.6283	24.5	22.3203	100	0	99	-10.5349	25.28045	176.2497	
12:51:34	47.4618	-122.3127	62.764	62.3151	930.7644	24.2	22.3203	100	0	99	-15.86686	25.25083	176.0075	
12:51:34	47.46173	-122.3127	65.955	64.14027	924.2491	23.77	22.02384	100	0	99	-11.77869	25.28289	175.5134	
12:51:34	47.46169	-122.3127	67.986	66.18124	921.0405	23.56	21.58503	100	0	99	-3.539452	25.35401	175.3264	
12:51:35	47.46165	-122.3127	70.138	68.40634	931.0784	23.38	21.37808	100	0	99	4.670807	25.06588	175.334	
12:51:35	47.46161	-122.3127	72.058	70.46873	938.4778	23.16	21.19077	100	0	99	11.11261	24.56153	175.5382	
12:51:35	47.46157	-122.3127	73.957	72.5307	939.7446	22.93	20.96567	100	0	99	13.88184	24.09126	176.3656	
12:51:35	47.46153	-122.3128	75.894	74.54306	936.6011	22.76	20.73303	100	0	99	11.16213	24.04796	177.4365	
12:51:35	47.46149	-122.3128	78.072	76.5321	943.3879	22.58	20.56305	100	0	99	2.822917	24.33962	178.3798	
12:51:36	47.46145	-122.3128	80.076	78.32945	955.298	22.39	20.38695	100	0	99	-6.22119	24.72162	178.7712	
12:51:36	47.4614	-122.3128	82.248	80.37185	970.6278	22.12	20.20072	100	0	99	-14.31561	24.95625	178.5482	
12:51:36	47.46135	-122.3128	85.318	82.68097	973.6779	21.74	19.92944	100	0	99	-19.14164	24.99792	177.7474	
12:51:36	47.46135	-122.3128	85.318	84.81993	970.0533	21.74	19.55069	100	0	99	-13.59041	25.20106	176.7806	
12:51:37	47.46131	-122.3128	87.371	86.91741	973.2293	21.58	19.55069	100	0	99	-5.55082	25.3485	176.033	
12:51:37	47.46125	-122.3129	90.468	89.03639	986.9953	21.37	19.38452	100	0	99	2.622599	25.19444	175.805	
12:51:37	47.46121	-122.3129	92.356	91.28265	1000.378	21.18	19.17511	100	0	100	9.392689	24.78136	176.1159	
12:51:37	47.46118	-122.3129	94.32	93.23361	1001.417	20.99	18.97992	100	0	99	14.47649	24.37822	176.9853	
12:51:37	47.46114	-122.3129	96.291	95.56493	995.0903	20.83	18.79348	100	0	99	18.37027	24.21149	178.085	
12:51:38	47.46111	-122.3129	98.231	97.35401	987.9428	20.71	18.63231	100	0	99	21.06084	24.28781	179.7967	
12:51:38	47.46105	-122.3129	101.061	99.4629	982.8771	20.54	18.51468	100	0	99	22.6336	24.43836	-178.044	
12:51:38	47.46102	-122.3129	103.127	101.3101	988.1237	20.38	18.34116	100	0	99	22.24677	24.7741	-175.6501	
12:51:38	47.46098	-122.313	105.406	103.4876	995.6394	20.16	18.18655	100	0	100	17.5689	25.23765	-173.5023	
12:51:38	47.46094	-122.313	107.651	105.7035	1020.383	19.9	17.96591	100	0	99	10.13107	25.89711	-171.7567	
12:51:39	47.4609	-122.313	109.666	107.8491	1040.78	19.61	17.72385	100	0	99	1.533142	26.32215	-170.8248	
12:51:39	47.46087	-122.313	111.782	109.7385	1050.048	19.32	17.44288	100	0	100	-7.858397	26.25505	-170.8818	
12:51:39	47.46083	-122.313	114.972	112.0568	1039.976	19	17.1592	100	0	99	-17.56746	25.78857	-171.7382	
12:51:39	47.46079	-122.313	117.16	114.3928	1029.743	18.93	16.83259	100	0	99	-26.54726	25.35276	-173.1263	
12:51:39	47.46076	-122.313	119.213	116.4149	1008.749	18.97	16.75876	100	0	99	-33.9042	25.0526	-175.1675	
12:51:40	47.46076	-122.313	119.213	118.6969	976.2738	18.97	16.78855	100	0	99	-39.3296	24.92417	-178.2539	
12:51:40	47.46072	-122.3131	121.424	120.6209	949.7691	19.08	16.78855	100	0	99	-43.41154	24.91503	177.5668	
12:51:40	47.46067	-122.3131	124.182	122.3346	935.8034	19.21	16.8846	100	0	99	-46.58355	24.89288	172.3497	
12:51:40	47.46064	-122.3131	126.1	124.5945	939.5043	19.26	17.0129	100	0	99	-49.0004	24.93127	166.2332	
12:51:40	47.46061	-122.3131	127.863	126.6017	942.5612	19.3	17.07655	100	0	99	-50.75843	25.12319	159.6777	
12:51:41	47.46057	-122.3131	129.534	128.4889	943.5776	19.33	17.01619	100	0	99	-52.00949	25.36306	152.6954	
12:51:41	47.46053	-122.3131	131.253	129.9416	935.3146	19.35	17.13293	100	0	99	-53.23492	25.54777	145.5111	
12:51:41	47.46049	-122.313	133.481	131.3499	911.4778	19.4	17.30339	100	0	99	-53.7243	25.74514	138.0097	
12:51:41	47.46046	-122.313	134.986	133.0173	907.3558	19.44	17.60831	100	0	99	-54.72478	25.76906	129.9533	
12:51:41	47.46046	-122.313	134.986	135.1241	915.965	19.44	17.96079	100	0	99	-55.20694	25.82306	122.0719	
12:51:42	47.46043	-122.313	136.408	136.6121	911.0975	19.51	17.96079	100	0	99	-55.3017	25.84206	114.3605	
12:51:42	47.4604	-122.313	137.643	138.4026	901.52	19.58	18.28511	100	0	99	-55.13559	25.80953	106.6102	
12:51:42	47.46038	-122.3129	139.039	139.9164	887.7472	19.68	18.59563	100	0	100	-54.985	25.70202	99.04403	
12:51:42	47.46036	-122.3128	140.993	141.2682	874.7922	19.84	18.99518	100	0	99	-55.00082	25.47295	91.5639	
12:51:42	47.46035	-122.3128	142.165	142.9047	859.509	19.96	19.57941	100	0	99	-54.969	25.11719	84.29814	
12:51:43	47.46035	-122.3127	143.404	144.2688	838.5268	20.1	19.96823	100	0	100	-54.33437	24.9545	77.34654	
12:51:43	47.46035	-122.3127	144.589	145.4655	811.7491	20.24	20.52308	100	0	99	-53.52859	24.91139	70.54858	
12:51:43	47.46035	-122.3127	144.589	146.7515	793.2344	20.24	20.89797	100	0	99	-52.8816	24.77713	63.93369	
12:51:43	47.46035	-122.3126	145.699	147.8127	777.6392	20.37	20.89797	100	0	99	-52.26427	24.54587	57.58023	
12:51:43	47.46037	-122.3126	147.296	148.96	757.0892	20.52	21.11332	100	0	99	-51.83329	24.36349	51.39968	
12:51:44	47.46038	-122.3125	148.535	150.0569	736.01	20.65	21.52467	100	0	99	-51.38757	24.2815	45.29694	
12:51:44	47.4604	-122.3124	149.754	151.1228	716.5973	20.76	21.89736	100	0	99	-50.83648	24.2916	39.25196	
12:51:44	47.46043	-122.3124	151.005	152.1393	699.897	20.85	22.13456	100	0	99	-50.29499	24.31154	33.37241	
12:51:44	47.46046	-122.3124	152.211	153.1673	686.9945	20.91	22.29284	100	0	99	-49.75138	24.32938	27.55907	
12:51:44	47.4605	-122.3123	154.178	154.2885	673.4575	20.95	22.42111	100	0	99	-49.45041	24.32922	21.83854	
12:51:45	47.46053	-122.3123	155.511	155.2514	665.4461	20.95	22.54479	100	0	100	-49.52151	24.36098	16.15721	
12:51:45	47.46057	-122.3123	156.974	156.4907	658.6647	20.94	22.66208	100	0	99	-48.11826	24.60194	10.7899	
12:51:45	47.46061	-122.3122	158.49	157.7345	660.1679	20.88	22.64881	100	0	100	-42.61151	25.11323	5.398356	
12:51:45	47.46064	-122.3122	159.999	158.9954	675.8303	20.81	22.5841	100	0	99	-36.04554	25.98489	0.8684325	
12:51:45	47.46069	-122.3122	162.429	160.1033	700.0672	20.54	22.38586	100	0	100	-29.02056	26.78207	-2.62969	
12:51:46	47.46069	-122.3122	162.429	161.6209	734.5471	20.54	22.06041	100	0	99	-21.78959	27.24635	-4.991662	
12:51:46	47.46073	-122.3122	164.208	163.138	764.974	20.26	22.06041	100	0	99	-13.77599	27.54937	-6.456931	
12:51:46	47.46077	-122.3122	166.128	165.0318	791.1735	20.02	21.74416	100	0	99	-5.00945	27.52091	-6.980176	
12:51:46	47.4608	-122.3122	168.167	166.8037	801.6707	19.82	21.46789	100	0	99	4.284045	27.08748	-6.850075	
12:51:46	47.46084	-122.3122	170.233	168.5414	794.8182	19.68	21.24749	100	0	99	13.9941	26.48923	-6.041923	
12:51:47	47.46088	-122.3122	172.166	170.1919	783.5639	19.65	21.10406	100	0	99	24.04458	25.81345	-4.417417	
12:51:47	47.46091	-122.3122	174.105	172.1402	761.9153	19.7	21.07595	100	0	99	33.48944	25.02785	-2.032681	
12:51:47	47.46096	-122.3123	177.002	173.9029	737.9502	19.89	21.13963	100	0	100	41.01571	24.24978	1.331648	
12:51:47	47.46099	-122.3123	178.662	175.8753	722.8915	20.07	21.36145	100	0	99	46.55219	23.58883	5.61854	
12:51:47	47.46103	-122.3123	180.521	177.3873	703.7072	20.3	21.56365	100	0	99	50.6054	23.02004	10.85099	
12:51:48	47.46107	-122.3123	182.069	179.3938	695.7365	20.48	21.82837	100	0	99	53.57697	22.50189	17.04927	
12:51:48	47.46111	-122.3122	183.653	180.9665	695.6206	20.66	22.04331	100	0	98	55.79745	21.96191	24.05566	
12:51:48	47.46111	-122.3122	183.653	182.7762	692.1935	20.66	22.25829	100	0	99	57.58481	21.38254	31.75444	
12:51:48	47.46116	-122.3122	185.785	184.48	698.7623	20.89	22.25829	100	0	99	59.3039	20.99917	40.00457	
12:51:48	47.46119	-122.3122	187.162	186.1258	701.1339	21.05	22.5099	100	0	99	60.37383	20.78173	48.80341	
12:51:49	47.46122	-122.3122	188.321	187.6207	701.718	21.18	22.48213	100	0	99	60.82634	20.68157	58.11085	
12:51:49	47.46125	-122.3121	189.568	189.0357	710.9267	21.33	22.58361	100	0	99	61.37323	20.44058	67.797	
12:51:49	47.46128	-122.3121	190.723	190.6518	719.757	21.43	22.40704	100	0	99	61.98475	20.24424	77.62068	
12:51:49	47.4613	-122.312	191.832	192.0795	724.6042	21.52	22.41271	100	0	99	62.28075	20.2417	87.53257	
12:51:49	47.46132	-122.312	193.327	193.3715	723.5564	21.62	22.28381	100	0	99	62.42927	20.38176	97.83809	
12:51:50	47.46132	-122.3119	194.158	194.7225	730.0189	21.66	22.16199	100	0	99	62.77437	20.37584	108.4163	
12:51:50	47.46132	-122.3118	195.111	195.9816	731.6941	21.67	22.07011	100	0	99	62.49076	20.49512	119.0007	
12:51:50	47.4613	-122.3118	196.064	197.1663	730.9595	21.63	21.89792	100	0	99	62.26745	20.71446	129.3897	
12:51:50	47.46129	-122.3117	197.149	198.1188	727.4301	21.57	21.50254	100	0	99	61.99082	20.9003	139.8205	
12:51:50	47.46125	-122.3117	198.637	199.1167	718.6902	21.39	21.24082	100	0	99	56.63941	19.00179	144.9195	
12:51:51	47.46122	-122.3116	199.812	200.3229	666.9838	21.4	20.89086	100	0	99	49.70226	16.26239	147.478	
12:51:51	47.46122	-122.3116	199.812	201.2604	567.932	21.4	20.78415	100	0	89	41.60182	14.11587	149.088	
12:51:51	47.46119	-122.3116	200.856	201.9658	473.6202	21.78	20.78415	100	0	64	31.12216	13.50304	148.3751	
12:51:51	47.46115	-122.3116	201.777	202.5654	403.928	22.24	21.10633	100	0	55	20.79468	10.16407	150.5389	
12:51:51	47.46111	-122.3115	202.611	203.1421	329.2758	22.53	21.54102	100	0	53	12.82369	5.301647	154.9473	
12:51:52	47.46107	-122.3115	203.24	203.5141	211.1949	22.43	21.80627	100	0	52	9.169446	1.252741	157.7233	
12:51:52	47.46102	-122.3115	203.858	203.6861	60.5318	22.38	22.51924	100	0	53	6.279361	-1.476766	158.7387	
12:51:52	47.46099	-122.3115	204.052	203.642	-59.78886	22.34	22.46891	100	0	53	3.666932	-2.116006	157.801	
12:51:52	47.46095	-122.3114	203.993	203.5722	-90.81082	22.34	22.41359	100	0	53	1.118297	-2.231642	158.4759	
12:51:52	47.46091	-122.3114	203.793	203.4877	-91.09805	22.42	22.41211	100	0	52	-0.2046672	-2.121113	160.1061	
12:51:53	47.46087	-122.3114	203.603	203.3923	-83.73382	22.49	21.86918	100	0	44	-0.1163471	-1.94126	161.31	
12:51:53	47.46087	-122.3114	203.603	203.297	-71.39335	22.49	21.94532	100	0	42	0.0156094	-1.806627	161.5257	
12:51:53	47.46081	-122.3114	203.298	203.2139	-62.4541	22.58	21.94532	100	0	43	-0.03071251	-1.795584	161.3711	
12:51:53	47.46077	-122.3113	203.138	203.1084	-58.42976	22.58	22.03403	100	0	42	-0.2215415	-1.859336	161.6147	
12:51:53	47.46074	-122.3113	202.983	203.0158	-57.29544	22.53	22.02847	100	0	43	-0.409173	-1.901039	162.2364	
12:51:54	47.46068	-122.3113	202.803	202.8909	-58.3399	22.45	21.98412	100	0	42	-0.3222688	-1.897273	162.9455	
12:51:54	47.46064	-122.3113	202.684	202.7762	-59.63317	22.39	21.89869	100	0	42	-0.135176	-1.906411	163.4298	
12:51:54	47.46061	-122.3112	202.575	202.6477	-61.86573	22.32	21.84117	100	0	42	-0.009579482	-1.918949	163.7224	
12:51:54	47.46057	-122.3112	202.475	202.5118	-63.48487	22.26	21.7727	100	0	42	0.020648	-1.903117	163.9316	
12:51:54	47.46054	-122.3112	202.393	202.4043	-63.87432	22.21	21.70428	100	0	42	-0.04435852	-1.850875	164.2386	
12:51:55	47.46049	-122.3112	202.298	202.279	-62.91148	22.15	21.6582	100	0	42	-0.1721422	-1.796202	164.715	
12:51:55	47.46046	-122.3112	202.212	202.1658	-61.98273	22.09	21.59925	100	0	42	-0.2336739	-1.756978	165.1963	
12:51:55	47.4604	-122.3111	202.115	202.0724	-61.55061	22.02	21.53821	100	0	42	-0.267131	-1.701419	165.6279	
12:51:55	47.4604	-122.3111	202.115	201.9767	-61.02402	22.02	21.46069	100	0	42	-0.2384696	-1.622948	165.9402	
12:51:55	47.46037	-122.3111	202.07	201.8878	-60.56546	21.96	21.46069	100	0	42	-0.2415761	-1.508405	166.2539	
12:51:56	47.46033	-122.3111	202.03	201.8096	-57.13546	21.91	21.40549	100	0	42	-0.2523692	-1.420132	166.6348	
12:51:56	47.4603	-122.3111	202.001	201.7475	-53.63115	21.85	21.35032	100	0	42	-0.2431628	-1.459736	167.0343	
12:51:56	47.46025	-122.3111	201.983	201.6967	-52.5695	21.79	21.29875	100	0	42	-0.2307092	-1.469612	167.3569	
12:51:56	47.46025	-122.3111	201.983	201.6479	-52.75712	21.79	21.23431	100	0	42	-0.2398479	-1.392042	167.6481	
12:51:56	47.46025	-122.3111	201.983	201.6146	-50.0502	21.79	21.23431	100	0	42	-0.2532907	-1.302574	167.9522	
12:51:57	47.46025	-122.3111	201.983	201.5942	-47.24492	21.79	21.23431	100	0	42	-0.2665562	-1.212974	168.27	
12:51:57	47.46025	-122.3111	201.983	201.5814	-43.89341	21.79	21.23431	100	0	42	-0.2794652	-1.123699	168.5961	
12:51:57	47.46025	-122.3111	201.983	201.5773	-40.38745	21.79	21.23431	100	0	43	-0.2920036	-1.034315	168.9296	
12:51:57	47.46025	-122.3111	201.983	201.5804	-36.81133	21.79	21.23431	100	0	42	-0.3041736	-0.9443842	169.2701	
12:51:57	47.46025	-122.3111	201.983	201.5853	-34.66549	21.79	21.23431	100	0	42	-0.3158149	-0.8548082	169.613	
12:51:58	47.46025	-122.3111	201.983	201.5853	-34.66549	21.79	21.23431	100	0	42	-0.3269611	-0.7651477	169.9588	
12:51:58	47.46016	-122.311	201.979	201.5853	-34.66549	21.64	21.23431	100	0	42	-0.3470287	-0.6871501	170.3033	
12:51:58	47.45985	-122.3108	202.602	201.5895	-33.36951	21.07	21.07984	100	0	42	-0.3895248	-0.6893806	170.5816	
12:51:58	47.45985	-122.3108	202.602	201.6043	-30.36656	21.07	19.84698	100	0	42	-0.08403219	-0.2983087	170.8665	
12:51:58	47.45979	-122.3108	202.84	201.7164	-23.41188	20.96	19.84698	100	0	42	0.1361077	-0.06748991	171.1073	
12:51:59	47.45975	-122.3108	203.012	201.8821	-16.12321	20.88	19.73888	100	0	42	0.1557487	-0.1558758	171.3153	
12:51:59	47.4597	-122.3108	203.269	202.0567	-11.43497	20.78	19.65303	100	0	42	0.1263519	-0.2669801	171.6084	
12:51:59	47.45967	-122.3108	203.422	202.2451	-7.339166	20.72	19.55452	100	0	42	0.188783	-0.3497939	171.8594	
12:51:59	47.45967	-122.3108	203.422	202.4376	-2.712221	20.72	19.49422	100	0	42	0.2081379	-0.4626305	172.082	
12:51:59	47.45967	-122.3108	203.422	202.6005	0.9978837	20.72	19.49422	100	0	43	0.2223388	-0.5763367	172.352	
12:52:00	47.45967	-122.3108	203.422	202.7704	3.595899	20.72	19.49422	100	0	42	0.2356235	-0.6908373	172.6636	
12:52:00	47.45963	-122.3107	203.582	202.8986	4.388001	20.65	19.49422	100	0	43	0.2684372	-0.7582812	172.9194	
12:52:00	47.45947	-122.3107	204.23	203.0347	6.764287	20.4	19.42745	100	0	42	0.2041952	-0.7212389	173.0416	
12:52:00	47.45947	-122.3107	204.23	203.1695	11.27147	20.4	19.17394	100	0	42	0.1184265	-0.5174923	173.0934	
12:52:01	47.45944	-122.3107	204.353	203.4162	23.79679	20.35	19.17394	100	0	42	-0.01147439	-0.3560131	173.2351	
12:52:01	47.4594	-122.3106	204.504	203.6243	33.50342	20.3	19.12667	100	0	42	-0.01272658	-0.2479272	173.4727	
12:52:01	47.45933	-122.3106	204.794	203.8381	41.92409	20.19	19.07621	100	0	42	-0.01755058	-0.1958807	173.7124	
12:52:01	47.45933	-122.3106	204.794	204.073	48.51413	20.19	18.9628	100	0	42	0.05365515	-0.1060668	173.9387	
12:52:01	47.45933	-122.3106	204.794	204.3013	53.74173	20.19	18.9628	100	0	42	0.1431855	-0.008006128	174.182	
12:52:01	47.45933	-122.3106	204.794	204.4767	56.37045	20.19	18.9628	100	0	42	0.2327207	0.08901957	174.4752	
12:52:02	47.4593	-122.3106	204.968	204.6405	57.4786	20.13	18.9628	100	0	42	0.2149553	0.05180397	174.5946	
12:52:02	47.4593	-122.3106	204.968	204.821	55.42664	20.13	18.89986	100	0	42	0.1437331	-0.03186965	174.7013	
12:52:02	47.45919	-122.3105	205.485	204.9471	51.68117	19.96	18.89986	100	0	42	0.07192376	-0.1159304	174.8642	
12:52:02	47.45909	-122.3105	205.973	205.0547	46.97586	19.83	18.72747	100	0	42	-0.004773696	-0.2440037	175.0638	
12:52:03	47.45909	-122.3105	205.973	205.2177	43.48041	19.83	18.60284	100	0	42	0.04547777	-0.2318099	175.2579	
12:52:03	47.45906	-122.3105	206.068	205.4376	45.06895	19.8	18.60284	100	0	42	0.07295846	-0.207042	175.4026	
12:52:03	47.45906	-122.3105	206.068	205.6199	47.4328	19.8	18.57488	100	0	42	0.08235634	-0.1411074	175.4668	
12:52:03	47.45906	-122.3105	206.068	205.8078	50.55659	19.8	18.57488	100	0	42	0.09171134	-0.07528073	175.5949	
12:52:03	47.45906	-122.3105	206.068	205.9503	51.62451	19.8	18.57488	100	0	42	0.1011779	-0.00955891	175.7727	
12:52:04	47.45906	-122.3105	206.068	206.0564	51.33916	19.8	18.57488	100	0	42	0.1108642	0.05606517	175.9872	
12:52:04	47.45906	-122.3105	206.068	206.1518	49.91373	19.8	18.57488	100	0	42	0.1208387	0.1215976	176.2287	
12:52:04	47.45903	-122.3105	206.33	206.2327	47.25629	19.77	18.57488	100	0	42	0.1311436	0.1870434	176.4902	
12:52:04	47.45903	-122.3105	206.33	206.2588	46.64169	19.77	18.54111	100	0	42	0.1096151	0.2149549	176.609	
12:52:04	47.45903	-122.3105	206.33	206.3559	45.88119	19.77	18.54111	100	0	42	0.08586157	0.2408012	176.7659	
12:52:05	47.45903	-122.3105	206.33	206.441	43.91753	19.77	18.54111	100	0	42	0.06243574	0.2666376	176.9807	
12:52:05	47.45878	-122.3104	207.446	206.4991	41.34148	19.53	18.54111	100	0	42	0.03882092	0.2703127	177.1633	
12:52:05	47.45868	-122.3103	207.91	206.7141	45.30116	19.41	18.29525	100	0	42	0.09907616	0.269773	177.1936	
12:52:05	47.45868	-122.3103	207.91	206.9825	51.43368	19.41	18.18233	100	0	42	0.1758091	0.2923025	177.1272	
12:52:05	47.45868	-122.3103	207.91	207.2754	55.44099	19.41	18.18233	100	0	42	0.2490083	0.3164008	177.1248	
12:52:06	47.45868	-122.3103	207.91	207.4754	56.32033	19.41	18.18233	100	0	42	0.3225662	0.3401875	177.185	
12:52:06	47.45868	-122.3103	207.91	207.6586	55.23228	19.41	18.18233	100	0	42	0.3964334	0.3636054	177.2915	
12:52:06	47.45864	-122.3103	208.135	207.8171	51.93172	19.38	18.18233	100	0	42	0.3191221	0.3247677	177.3112	
12:52:06	47.45847	-122.3102	208.935	207.9623	47.96088	19.28	18.15214	100	0	42	0.1791983	0.2280624	177.1413	
12:52:06	47.45843	-122.3102	209.088	208.1262	45.60586	19.27	18.04266	100	0	42	0.1446591	0.2414443	176.9252	
12:52:07	47.45839	-122.3102	209.224	208.3645	48.41906	19.26	18.03303	100	0	42	0.05060142	0.228242	176.6903	
12:52:07	47.45839	-122.3102	209.224	208.5911	51.95665	19.26	18.0234	100	0	42	-0.008646695	0.1837476	176.5001	
12:52:07	47.45839	-122.3102	209.224	208.8006	53.95083	19.26	18.0234	100	0	43	-0.03441868	0.138926	176.377	
12:52:07	47.45839	-122.3102	209.224	208.9973	54.79809	19.26	18.0234	100	0	42	-0.0797624	0.1060403	176.322	
12:52:07	47.45839	-122.3102	209.224	209.1482	54.17457	19.26	18.0234	100	0	42	-0.1245033	0.07357991	176.3466	
12:52:08	47.45839	-122.3102	209.224	209.2948	51.6187	19.26	18.0234	100	0	42	-0.1694243	0.04112726	176.4297	
12:52:08	47.45832	-122.3102	209.477	209.3961	47.91097	19.25	18.0234	100	0	42	-0.2087837	0.02403778	176.4014	
12:52:08	47.45817	-122.3101	210.068	209.4953	45.61978	19.25	18.01914	100	0	42	-0.210973	0.07187239	176.2343	
12:52:08	47.45814	-122.3101	210.184	209.5733	43.35393	19.25	18.01762	100	0	42	-0.2242629	0.169574	176.0974	
12:52:08	47.45811	-122.3101	210.312	209.7449	48.60388	19.24	18.01762	100	0	42	-0.1503243	0.2642331	175.9551	
12:52:09	47.45807	-122.3101	210.454	209.9322	54.28528	19.25	18.01071	100	0	43	-0.05178196	0.3097987	175.8591	
12:52:09	47.45803	-122.3101	210.602	210.1292	58.13317	19.24	18.01343	100	0	42	0.02067415	0.3290016	175.7528	
12:52:09	47.45803	-122.3101	210.602	210.2832	59.60881	19.24	18.00381	100	0	42	-0.07044458	0.3641551	175.6806	
12:52:09	47.45803	-122.3101	210.602	210.4244	59.62852	19.24	18.00381	100	0	42	-0.1615626	0.3995239	175.683	
12:52:09	47.45799	-122.31	210.809	210.5491	58.02916	19.23	18.00381	100	0	42	-0.2522746	0.4350991	175.7408	
12:52:10	47.45799	-122.31	210.809	210.6461	55.6087	19.23	18.00109	100	0	42	-0.2634849	0.4166953	175.734	
12:52:10	47.45789	-122.31	211.202	210.7648	54.42299	19.21	18.00109	100	0	42	-0.128287	0.4034271	175.7354	
12:52:10	47.45786	-122.31	211.371	210.9644	55.69617	19.2	17.97641	100	0	42	-0.02773872	0.4094331	175.6921	
12:52:10	47.45779	-122.31	211.661	211.1341	56.34282	19.19	17.96407	100	0	42	0.06985997	0.4552937	175.6235	
12:52:10	47.45776	-122.31	211.861	211.286	57.52929	19.19	17.95597	100	0	42	0.1565438	0.4842926	175.5349	
12:52:11	47.45772	-122.3099	212.046	211.4924	60.30648	19.19	17.96023	100	0	42	0.2062404	0.474685	175.5	
12:52:11	47.45772	-122.3099	212.046	211.673	61.26405	19.19	17.95221	100	0	42	0.2577339	0.4646318	175.5038	
12:52:11	47.45772	-122.3099	212.046	211.8067	60.30606	19.19	17.95221	100	0	42	0.3097479	0.4542514	175.5726	
12:52:11	47.45769	-122.3099	212.097	211.9253	57.80628	19.19	17.95221	100	0	42	0.3627608	0.4358831	175.674	
12:52:11	47.45759	-122.3099	212.578	212.0437	54.13353	19.2	17.95654	100	0	43	0.3560107	0.4234874	175.628	
12:52:12	47.45755	-122.3099	212.824	212.1626	51.38969	19.21	17.96629	100	0	42	0.3669827	0.4374628	175.5556	
12:52:12	47.45755	-122.3099	212.824	212.3365	53.44182	19.21	17.9753	100	0	42	0.3257713	0.4727446	175.5372	
12:52:12	47.45752	-122.3099	212.863	212.5294	57.36361	19.22	17.9753	100	0	42	0.2926374	0.4902414	175.5566	
12:52:12	47.45752	-122.3099	212.863	212.6991	59.41967	19.22	17.98442	100	0	43	0.2562135	0.504288	175.6332	
12:52:12	47.45752	-122.3099	212.863	212.8269	59.77585	19.22	17.98442	100	0	42	0.2204163	0.5181146	175.7572	
12:52:13	47.45752	-122.3099	212.863	212.953	58.67254	19.22	17.98442	100	0	42	0.184796	0.5319628	175.9173	
12:52:13	47.45752	-122.3099	212.863	213.0429	56.40181	19.22	17.98442	100	0	42	0.1494603	0.5458343	176.1036	
12:52:13	47.45752	-122.3099	212.863	213.1108	53.28465	19.22	17.98442	100	0	40	0.1143564	0.5597759	176.3092	
12:52:13	47.45752	-122.3099	212.863	213.1377	51.42039	19.22	17.98442	100	0	42	0.07944415	0.5738195	176.5291	
12:52:13	47.45752	-122.3099	212.863	213.1377	51.42039	19.22	17.98442	100	0	42	0.04486498	0.5879143	176.7583	
12:52:14	47.45752	-122.3099	212.863	213.1377	51.42039	19.22	17.98442	100	0	42	0.0102505	0.6022153	176.9964	
12:52:14	47.45749	-122.3099	213.087	213.1377	51.42039	19.23	17.98442	100	0	42	-0.03276174	0.6302829	177.183	
12:52:14	47.45749	-122.3099	213.087	213.1741	51.04403	19.23	17.99616	100	0	42	-0.1061821	0.694492	177.181	
12:52:14	47.45715	-122.3097	214.5	213.2572	49.30052	19.22	17.99616	100	0	42	-0.05892627	0.6901708	177.2013	
12:52:14	47.45708	-122.3097	214.858	213.5146	55.66037	19.2	17.97904	100	0	42	0.1316772	0.601963	177.1855	
12:52:15	47.45705	-122.3097	214.968	213.7934	61.63112	19.2	17.96284	100	0	42	0.2430046	0.5451485	177.2136	
12:52:15	47.457	-122.3097	215.18	214.1164	68.3502	19.21	17.96571	100	0	42	0.2820949	0.5613853	177.238	
12:52:15	47.45697	-122.3097	215.334	214.446	75.66315	19.21	17.97162	100	0	42	0.3446012	0.5647587	177.2786	
12:52:15	47.45697	-122.3097	215.334	214.7285	81.30189	19.21	17.97466	100	0	42	0.3544083	0.5853896	177.3274	
12:52:15	47.45693	-122.3097	215.506	214.9657	85.22554	19.21	17.97466	100	0	42	0.3938355	0.5870981	177.3103	
12:52:16	47.45688	-122.3096	215.715	215.2379	87.63971	19.22	17.97334	100	0	42	0.370133	0.561986	177.2601	
12:52:16	47.45683	-122.3096	215.983	215.4367	87.09789	19.22	17.9776	100	0	42	0.3327899	0.5508185	177.2153	
12:52:16	47.45683	-122.3096	215.983	215.6649	86.29904	19.22	17.98003	100	0	42	0.3123881	0.5503007	177.1999	
12:52:16	47.45679	-122.3096	216.087	215.8532	86.28383	19.22	17.98003	100	0	42	0.2870347	0.5330452	177.255	
12:52:16	47.45676	-122.3096	216.287	216.0653	85.38054	19.23	17.98139	100	0	42	0.3348865	0.5125303	177.3682	
12:52:17	47.45673	-122.3096	216.312	216.2533	83.87081	19.24	17.99262	100	0	42	0.3736307	0.4906779	177.4349	
12:52:17	47.45668	-122.3096	216.509	216.3999	81.62679	19.25	18.00192	100	0	42	0.3858751	0.4799505	177.3536	
12:52:17	47.45664	-122.3096	216.68	216.5535	78.10706	19.26	18.01515	100	0	42	0.3639497	0.4936737	177.2686	
12:52:17	47.45664	-122.3096	216.68	216.6802	76.17287	19.26	18.02485	100	0	43	0.2962582	0.5227746	177.2983	
12:52:17	47.45659	-122.3096	216.886	216.8305	74.65223	19.29	18.02485	100	0	42	0.2772766	0.5450188	177.4052	
12:52:18	47.45655	-122.3095	217.013	216.9809	74.06819	19.3	18.05047	100	0	74	1.793905	0.4835699	177.5463	
12:52:18	47.45652	-122.3095	217.2	217.123	72.07333	19.31	18.06245	100	0	45	8.152022	-0.07246938	177.9248	
12:52:18	47.45649	-122.3095	217.321	217.2466	58.17939	19.33	18.07453	100	0	41	14.93516	-1.20323	178.5744	
12:52:18	47.45644	-122.3095	217.472	217.3184	26.78177	19.5	18.091	100	0	37	21.71674	-2.738446	179.7574	
12:52:18	47.45644	-122.3095	217.472	217.3237	-25.61547	19.5	18.25686	100	0	35	27.59427	-4.645218	-178.521	
12:52:19	47.45641	-122.3095	217.521	217.2511	-87.17056	19.62	18.25686	100	0	31	32.08823	-6.657076	-176.3351	
12:52:19	47.45633	-122.3095	217.216	217.0572	-159.7345	19.85	18.38408	100	0	27	35.42871	-8.680645	-173.8705	
12:52:19	47.45628	-122.3095	216.672	216.7461	-231.0997	19.99	18.61301	100	0	22	38.01601	-10.8315	-171.1135	
12:52:19	47.45625	-122.3095	216.215	216.3078	-302.6561	20.07	18.76302	100	0	18	39.71877	-12.83097	-168.0222	
12:52:19	47.45625	-122.3095	216.215	215.7387	-369.6708	20.07	18.64815	100	0	14	40.59292	-14.67414	-164.6194	
12:52:20	47.45621	-122.3095	215.443	215.1559	-423.8055	20.15	18.64815	100	0	13	41.0233	-16.44508	-160.9621	
12:52:20	47.45617	-122.3095	214.685	214.3422	-485.8367	20.22	18.73903	100	0	13	41.17838	-18.00008	-157.0415	
12:52:20	47.45614	-122.3095	213.88	213.475	-535.554	20.27	18.82747	100	0	13	40.95739	-19.11529	-152.7813	
12:52:20	47.45609	-122.3095	212.238	212.5984	-569.6663	20.4	18.69002	100	0	13	40.44889	-19.79099	-148.2352	
12:52:20	47.45605	-122.3095	210.851	211.5466	-601.7255	20.52	18.84998	100	0	12	40.62702	-20.51929	-143.7605	
12:52:21	47.45602	-122.3096	209.513	210.3962	-626.4358	20.68	19.00888	100	0	12	40.55119	-21.05621	-139.0035	
12:52:21	47.45602	-122.3096	209.513	208.9952	-651.8887	20.68	19.10458	100	0	12	40.39198	-21.47073	-134.1571	
12:52:21	47.45602	-122.3096	209.513	207.9956	-659.1938	20.68	19.10458	100	0	12	40.20852	-21.8443	-129.2205	
12:52:21	47.45602	-122.3096	209.513	206.9713	-654.5455	20.68	19.10458	100	0	12	39.99833	-22.188	-124.3104	
12:52:21	47.45595	-122.3096	206.398	206.2385	-639.963	21.07	19.10458	100	0	12	39.77206	-22.47126	-119.3484	
12:52:22	47.45595	-122.3096	206.398	205.4952	-623.7788	21.07	19.61284	100	0	11	39.29201	-22.0134	-114.1733	
12:52:22	47.45595	-122.3096	206.398	204.2084	-631.2944	21.07	19.61284	100	0	11	38.91132	-21.32205	-108.8256	
12:52:22	47.45595	-122.3096	206.398	202.3872	-645.3917	21.07	19.61284	100	0	11	38.61662	-20.5943	-103.6109	
12:52:22	47.45595	-122.3096	206.398	201.0591	-639.3361	21.07	19.61284	100	0	11	38.40178	-19.83196	-98.44286	
12:52:22	47.45595	-122.3096	206.398	200.0915	-621.2247	21.07	19.61284	100	0	11	38.26591	-19.04143	-93.29	
12:52:23	47.45595	-122.3096	206.398	199.1806	-586.0198	21.07	19.61284	100	0	11	38.20953	-18.2399	-88.19829	
12:52:23	47.45595	-122.3096	206.398	198.5849	-544.8309	21.07	19.61284	100	0	11	38.23124	-17.42389	-83.08687	
12:52:23	47.45595	-122.3096	206.398	198.5849	-544.8309	21.07	19.61284	100	0	11	38.32963	-16.61341	-78.02763	
12:52:23	47.45595	-122.3096	206.398	198.5849	-544.8309	21.07	19.61284	100	0	11	38.50373	-15.80787	-72.96636	
12:52:23	47.45583	-122.3098	198.728	198.5849	-544.8309	22.12	19.61284	100	0	12	38.75082	-15.01838	-67.92473	
12:52:24	47.45583	-122.3098	198.728	198.4564	-539.9061	22.12	20.82065	100	0	12	39.75592	-13.53526	-62.686	
12:52:24	47.45583	-122.3098	198.728	197.5664	-496.5399	22.12	20.82065	100	0	13	40.94219	-12.08758	-57.46016	
12:52:24	47.45583	-122.3098	198.728	196.8569	-441.4324	22.12	20.82065	100	0	14	42.26478	-10.72235	-52.23144	
12:52:24	47.45583	-122.3098	198.728	196.4342	-389.3277	22.12	20.82065	100	0	15	43.69146	-9.475827	-47.06419	
12:52:24	47.45576	-122.3103	181.975	196.2044	-343.0932	24.28	20.82065	100	0	16	45.77575	-9.546002	-42.48108	
12:52:25	47.45584	-122.3106	173.103	193.7145	-452.6277	24.69	24.14712	100	0	18	48.49474	-11.30159	-38.59807	
12:52:25	47.45584	-122.3106	173.103	190.1313	-640.694	24.69	25.74955	100	0	20	45.69907	-13.69312	-35.93122	
12:52:25	47.45584	-122.3106	173.103	185.7987	-878.2302	24.69	25.74955	100	0	28	41.21669	-15.81555	-33.13498	
12:52:25	47.45584	-122.3106	173.103	181.0986	-1103.43	24.69	25.74955	100	0	34	36.59951	-17.67784	-30.19406	
12:52:25	47.45584	-122.3106	173.103	176.5198	-1284.877	24.69	25.74955	100	0	40	31.87768	-19.27114	-27.12932	
12:52:26	47.45597	-122.3108	160.671	172.9272	-1395.728	25.26	25.74955	100	0	46	25.15509	-18.22247	-23.62749	
12:52:26	47.45597	-122.3108	160.671	168.657	-1407.152	25.26	26.64699	100	0	51	17.9127	-14.50184	-20.39411	
12:52:26	47.45597	-122.3108	160.671	164.1163	-1334.885	25.26	26.64699	100	0	58	11.02703	-10.40014	-17.82139	
12:52:26	47.45597	-122.3108	160.671	160.299	-1182.89	25.26	26.64699	100	0	67	4.385674	-5.998154	-15.86412	
12:52:26	47.45597	-122.3108	160.671	158.0196	-1018.218	25.26	26.64699	100	0	74	-2.064264	-1.403087	-14.501	
12:52:27	47.45605	-122.3109	154.9	156.2751	-808.886	27.25	26.64699	100	0	79	-8.338751	3.378644	-13.89861	
12:52:27	47.45627	-122.3111	149.229	154.9833	-540.3145	29.59	29.03778	100	0	88	-12.83042	8.47495	-16.53376	
12:52:27	47.45631	-122.3112	149.949	154.2413	-266.1593	28.66	30.57973	100	0	88	-13.66476	10.15004	-19.49569	
12:52:27	47.45631	-122.3112	149.949	153.6139	-110.539	28.66	29.63588	100	0	85	-15.21208	12.13174	-22.07366	
12:52:27	47.45631	-122.3112	149.949	152.5761	-53.58194	28.66	29.63588	100	0	86	-16.8387	14.32957	-24.57874	
12:52:28	47.45636	-122.3112	151.224	151.9105	3.114837	27.75	29.63588	100	0	86	-12.33593	15.84836	-26.37013	
12:52:28	47.45636	-122.3112	151.224	151.8299	39.07074	27.75	28.7035	100	0	86	-5.106725	17.19218	-27.55374	
12:52:28	47.45636	-122.3112	151.224	151.8336	85.00576	27.75	28.7035	100	0	85	2.297004	18.68976	-28.32432	
12:52:28	47.45636	-122.3112	151.224	151.9365	135.8943	27.75	28.7035	100	0	84	9.772123	20.24343	-28.7087	
12:52:28	47.45636	-122.3112	151.224	152.0772	172.4145	27.75	28.7035	100	0	84	17.32413	21.79341	-28.74628	
12:52:29	47.45636	-122.3112	151.224	152.2692	203.3704	27.75	28.7035	100	0	83	25.03416	23.30829	-28.46837	
12:52:29	47.45652	-122.3114	158.353	152.4912	220.9202	26.04	28.7035	100	0	83	34.56847	22.35196	-26.79894	
12:52:29	47.45666	-122.3116	164.573	153.9438	160.1082	25.97	26.1492	100	0	84	43.22915	19.38525	-24.8919	
12:52:29	47.4567	-122.3117	165.626	155.7455	124.035	26.17	26.12648	100	0	86	47.43195	15.39971	-23.89836	
12:52:29	47.45674	-122.3117	166.345	157.5705	31.49918	26.4	26.33912	100	0	85	46.67887	11.82316	-23.10023	
12:52:30	47.45674	-122.3117	166.345	159.2197	-80.74696	26.4	26.57003	100	0	81	43.81638	9.104568	-21.34604	
12:52:30	47.45678	-122.3117	166.719	160.2125	-165.0692	26.63	26.57003	100	0	74	41.87748	6.761659	-18.75382	
12:52:30	47.45682	-122.3118	166.754	161.0631	-220.156	26.89	26.80321	100	0	69	40.90975	4.64682	-16.10576	
12:52:30	47.45682	-122.3118	166.754	161.6578	-287.0032	26.89	27.0703	100	0	64	40.12363	2.667826	-13.66134	
12:52:30	47.4569	-122.3118	165.801	161.9353	-353.4602	27.29	27.0703	100	0	61	39.2823	0.8053313	-11.32145	
12:52:31	47.4569	-122.3118	165.801	161.9173	-422.9579	27.29	27.11478	100	0	58	38.48256	-0.8809908	-9.070126	
12:52:31	47.45701	-122.3119	163.155	161.5453	-490.7278	27.48	27.11478	100	0	57	37.74763	-2.513219	-6.646175	
12:52:31	47.45708	-122.312	160.541	160.8505	-570.224	27.53	27.36845	100	0	56	36.98593	-3.992558	-4.081991	
12:52:31	47.45708	-122.312	160.541	160.0778	-628.6202	27.53	27.12392	100	0	55	35.66625	-4.77109	-1.535306	
12:52:31	47.45713	-122.312	158.656	158.9491	-678.0943	27.56	27.12392	100	0	55	34.15456	-5.445314	1.126991	
12:52:32	47.45725	-122.312	153.144	157.7461	-711.8203	27.9	27.18076	100	0	55	32.16043	-5.615987	3.967698	
12:52:32	47.4573	-122.312	150.622	156.356	-726.2875	28.16	27.61638	100	0	55	32.03385	-5.850355	6.422941	
12:52:32	47.45736	-122.312	147.831	154.4868	-754.4354	28.52	27.94668	100	0	57	30.32264	-5.763934	8.906567	
12:52:32	47.45741	-122.312	145.291	152.3544	-773.2021	28.89	28.3398	100	0	60	27.38169	-5.322714	11.26606	
12:52:32	47.45741	-122.312	145.291	149.9845	-767.0883	28.89	28.74663	100	0	62	23.87124	-4.479294	13.65509	
12:52:33	47.45746	-122.312	142.396	148.0292	-744.2693	29.43	28.74663	100	0	65	20.38158	-3.523082	15.7051	
12:52:33	47.45751	-122.312	140.166	145.6892	-698.6816	29.95	29.32109	100	0	66	16.95189	-2.5021	17.35599	
12:52:33	47.4576	-122.312	136.269	143.4585	-660.2307	30.91	29.86814	100	0	69	13.54451	-1.537589	18.73255	
12:52:33	47.45765	-122.312	134.007	141.2743	-632.1694	31.5	31.09218	100	0	70	10.36053	-0.6294574	19.78932	
12:52:33	47.4577	-122.312	131.795	138.753	-591.2073	32.06	31.68934	100	0	72	6.566268	0.345178	20.64232	
12:52:34	47.45776	-122.312	129.74	136.5034	-553.4598	32.58	32.25735	100	0	75	2.802415	1.53813	21.14154	
12:52:34	47.45782	-122.312	127.803	134.4599	-500.8134	33.05	32.77789	100	0	77	-0.6712082	2.742235	21.28563	
12:52:34	47.45788	-122.3119	126.212	132.6713	-438.3867	33.43	33.24937	100	0	79	-3.903714	3.803498	21.22699	
12:52:34	47.45796	-122.3119	124.514	131.0703	-389.85	33.81	33.63769	100	0	81	-6.262371	4.831439	20.86355	
12:52:35	47.45803	-122.3119	123.272	129.4279	-343.8622	34.02	34.01322	100	0	83	-7.723176	5.536001	20.31432	
12:52:35	47.45803	-122.3119	123.272	127.7439	-306.9433	34.02	34.22138	100	0	84	-9.105495	6.269541	19.65084	
12:52:35	47.45808	-122.3118	122.554	126.3908	-276.0613	34.09	34.22138	100	0	85	-10.03873	7.176301	18.89009	
12:52:35	47.45815	-122.3118	121.809	125.2477	-235.0867	34.11	34.29562	100	0	87	-10.41989	8.08581	18.0698	
12:52:35	47.45821	-122.3118	121.471	124.2536	-193.1826	34.08	34.31437	100	0	88	-10.54399	8.867876	17.23616	
12:52:35	47.45821	-122.3118	121.471	123.4551	-155.1827	34.08	34.27986	100	0	88	-10.50635	9.46192	16.45671	
12:52:36	47.45829	-122.3118	121.234	122.8861	-127.8868	33.96	34.27986	100	0	89	-10.20409	9.934502	15.73273	
12:52:36	47.45835	-122.3117	121.26	122.3263	-101.4761	33.81	34.15369	100	0	89	-9.676058	10.22441	15.04913	
12:52:36	47.45842	-122.3117	121.413	121.9936	-85.25997	33.62	34.00512	100	0	89	-9.045804	10.45241	14.40242	
12:52:36	47.45842	-122.3117	121.413	121.7491	-66.77199	33.62	33.80849	100	0	89	-8.37997	10.69936	13.81471	
12:52:36	47.45842	-122.3117	121.413	121.5824	-45.60484	33.62	33.80849	100	0	88	-7.707322	10.95961	13.2769	
12:52:37	47.45842	-122.3117	121.413	121.4815	-20.34857	33.62	33.80849	100	0	88	-7.026519	11.23187	12.77434	
12:52:37	47.45842	-122.3117	121.413	121.4535	3.23874	33.62	33.80849	100	0	87	-6.345743	11.51158	12.30311	
12:52:37	47.45842	-122.3117	121.413	121.4706	24.49728	33.62	33.80849	100	0	85	-5.666153	11.79731	11.85624	
12:52:37	47.45842	-122.3117	121.413	121.5135	43.04434	33.62	33.80849	100	0	85	-4.988616	12.08802	11.42862	
12:52:38	47.45848	-122.3117	121.768	121.5135	43.04434	33.42	33.80849	100	0	83	-4.306984	12.38599	11.01239	
12:52:38	47.45848	-122.3117	121.768	121.5289	43.65038	33.42	33.61032	100	0	82	-3.498688	12.27105	10.88048	
12:52:38	47.45897	-122.3116	127.023	121.6439	42.30276	31.46	33.61032	100	0	81	-4.600641	11.2768	10.88394	
12:52:38	47.45905	-122.3115	128.209	121.691	-24.94589	31.12	31.64411	100	0	80	-5.982617	9.963133	10.91317	
12:52:38	47.45911	-122.3115	128.905	122.5813	-73.03461	30.93	31.30084	100	0	79	-6.34633	8.036851	10.9326	
12:52:39	47.45916	-122.3115	129.387	123.3705	-114.24	30.77	31.11056	100	0	76	-6.211758	6.387959	10.83129	
12:52:39	47.45916	-122.3115	129.387	124.2775	-141.0612	30.77	30.94971	100	0	73	-6.030954	4.936648	10.65544	
12:52:39	47.45916	-122.3115	129.387	124.9432	-157.2682	30.77	30.94971	100	0	71	-5.862103	3.525	10.50576	
12:52:39	47.45916	-122.3115	129.387	125.4103	-176.1265	30.77	30.94971	100	0	68	-5.688273	2.116924	10.38296	
12:52:39	47.45916	-122.3115	129.387	125.7973	-201.0681	30.77	30.94971	100	0	66	-5.511875	0.718451	10.27924	
12:52:40	47.45926	-122.3115	129.93	126.0831	-231.8039	30.53	30.94971	100	0	63	-5.287621	-0.6162829	10.15504	
12:52:40	47.45947	-122.3114	129.735	126.3531	-245.1846	30.16	30.71245	100	0	61	-5.267617	-1.258047	10.01955	
12:52:40	47.45953	-122.3114	129.449	126.5531	-237.6094	30.1	30.34398	100	0	58	-5.209185	-1.600745	9.824466	
12:52:40	47.45958	-122.3114	129.117	126.6813	-220.4429	29.99	30.28127	100	0	56	-5.264897	-2.109857	9.576438	
12:52:40	47.45963	-122.3114	128.764	126.7729	-208.7085	29.88	30.17738	100	0	53	-5.371671	-2.90422	9.394286	
12:52:41	47.45963	-122.3114	128.764	126.7558	-215.5067	29.88	30.06367	100	0	50	-5.510648	-3.827702	9.26499	
12:52:41	47.45968	-122.3114	128.38	126.7054	-228.3427	29.73	30.06367	100	0	49	-5.54822	-4.828559	9.104447	
12:52:41	47.45979	-122.3113	127.401	126.4941	-254.2655	29.37	29.91673	100	0	47	-5.674852	-5.813968	8.921946	
12:52:41	47.45987	-122.3113	126.553	126.1988	-280.9363	29.09	29.55036	100	0	45	-5.752175	-6.598325	8.733433	
12:52:41	47.45992	-122.3113	125.929	125.8315	-305.2396	28.92	29.27624	100	0	43	-5.993594	-7.350669	8.553965	
12:52:42	47.45997	-122.3113	125.269	125.3724	-327.5348	28.77	29.10602	100	0	41	-6.283201	-8.083729	8.337263	
12:52:42	47.45997	-122.3113	125.269	124.8801	-347.3785	28.77	28.95552	100	0	40	-6.43556	-8.766102	8.078465	
12:52:42	47.45997	-122.3113	125.269	124.2417	-366.937	28.77	28.95552	100	0	38	-6.520775	-9.36996	7.817723	
12:52:42	47.4601	-122.3112	123.508	123.7874	-376.1247	28.43	28.95552	100	0	37	-6.527999	-9.905638	7.550345	
12:52:42	47.46015	-122.3112	122.711	123.0071	-392.2641	28.3	28.60907	100	0	36	-6.50557	-10.35827	7.259641	
12:52:43	47.4602	-122.3112	121.926	122.2322	-405.2593	28.2	28.48141	100	0	35	-6.615803	-10.77495	6.963851	
12:52:43	47.4602	-122.3112	121.926	121.5261	-413.0988	28.2	28.37544	100	0	34	-6.814833	-11.1719	6.648948	
12:52:43	47.46027	-122.3112	120.745	120.8941	-417.5544	28.04	28.37544	100	0	33	-7.077447	-11.5171	6.330322	
12:52:43	47.46032	-122.3112	119.794	119.9734	-429.8002	27.92	28.22021	100	0	32	-7.276972	-11.77018	5.98716	
12:52:43	47.46038	-122.3112	118.962	119.1979	-437.2489	27.83	28.10012	100	0	35	-7.404076	-11.83624	5.591433	
12:52:44	47.46042	-122.3112	118.064	118.2371	-440.543	27.73	28.00181	100	0	41	-7.602692	-11.39282	5.069853	
12:52:44	47.46048	-122.3112	117.154	117.4751	-420.9178	27.65	27.1075	100	0	45	-8.007088	-10.64251	4.492685	
12:52:44	47.46053	-122.3111	116.307	116.604	-381.8171	27.63	27.02738	100	0	48	-8.307204	-9.55173	3.852582	
12:52:44	47.46059	-122.3111	115.211	115.9376	-330.3707	27.67	27.00489	100	0	52	-8.561915	-8.230788	3.134226	
12:52:44	47.46059	-122.3111	115.211	115.3522	-273.7699	27.67	27.04722	100	0	55	-8.99507	-6.842297	2.393432	
12:52:45	47.46064	-122.3111	114.559	114.8018	-201.0436	27.73	27.04722	100	0	58	-9.311681	-5.39184	1.596021	
12:52:45	47.46072	-122.3111	113.818	114.4389	-130.255	27.83	27.10835	100	0	61	-9.503107	-3.948591	0.7763341	
12:52:45	47.46077	-122.3111	113.516	114.1688	-69.39569	27.88	27.21263	100	0	62	-9.756586	-2.754761	-0.044906	
12:52:45	47.46087	-122.3111	113.42	113.9866	-9.068082	27.86	27.26339	100	0	63	-9.851345	-1.727314	-0.8680518	
12:52:45	47.46092	-122.3111	113.581	113.9081	46.67618	27.79	27.24766	100	0	64	-10.03898	-0.8131007	-1.689357	
12:52:46	47.46092	-122.3111	113.581	113.939	85.45492	27.79	26.61218	100	0	65	-9.639513	0.01670962	-2.510745	
12:52:46	47.46098	-122.3111	113.878	114.0785	128.5585	27.68	26.61218	100	0	65	-8.992398	0.7083057	-3.264731	
12:52:46	47.46103	-122.3111	114.277	114.2762	157.1506	27.56	26.51144	100	0	65	-8.363211	1.122041	-3.946317	
12:52:46	47.4611	-122.3111	115.033	114.5575	176.9853	27.34	26.39562	100	0	65	-7.660779	1.454775	-4.600487	
12:52:46	47.4611	-122.3111	115.033	114.8993	194.5312	27.34	26.17375	100	0	64	-6.895587	1.661119	-5.142349	
12:52:47	47.46119	-122.3111	116.186	115.3322	204.7564	27.03	26.17375	100	0	64	-6.278622	1.714732	-5.603276	
12:52:47	47.46125	-122.3111	116.887	115.862	211.2658	26.84	25.86785	100	0	62	-5.646751	1.638802	-5.997716	
12:52:47	47.46129	-122.3111	117.518	116.3551	211.1509	26.68	25.68154	100	0	61	-4.909439	1.363399	-6.328811	
12:52:47	47.46136	-122.3111	118.472	116.9704	203.7176	26.44	25.52457	100	0	60	-4.142617	0.9620476	-6.613835	
12:52:47	47.46141	-122.3111	119.117	117.5104	192.3769	26.27	25.28884	100	0	58	-3.598969	0.4743678	-6.822384	
12:52:48	47.46141	-122.3111	119.117	117.988	177.6125	26.27	25.12111	100	0	56	-3.117681	-0.064222	-7.002135	
12:52:48	47.46141	-122.3111	119.117	118.5041	161.8782	26.27	25.12111	100	0	55	-2.63339	-0.6090724	-7.171434	
12:52:48	47.46141	-122.3111	119.117	118.9317	138.4028	26.27	25.12111	100	0	53	-2.149997	-1.149362	-7.334667	
12:52:48	47.46141	-122.3111	119.117	119.1749	116.0816	26.27	25.12111	100	0	52	-1.660277	-1.693392	-7.496847	
12:52:48	47.46141	-122.3111	119.117	119.3542	88.45067	26.27	25.12111	100	0	51	-1.169046	-2.235882	-7.658321	
12:52:49	47.46145	-122.3111	119.647	119.4519	56.14394	26.13	25.12111	100	0	50	-0.6762584	-2.776902	-7.820523	
12:52:49	47.46145	-122.3111	119.647	119.4782	40.48088	26.13	24.98235	100	0	49	-0.1755797	-3.662895	-7.76384	
12:52:49	47.46145	-122.3111	119.647	119.5508	5.914203	26.13	24.98235	100	0	48	0.3266056	-4.55609	-7.721591	
12:52:49	47.46145	-122.3111	119.647	119.5458	-29.48803	26.13	24.98235	100	0	48	0.8369984	-5.462949	-7.694098	
12:52:49	47.46174	-122.3111	122.184	119.4651	-68.66139	25.52	24.98235	100	0	47	0.7043628	-6.168089	-7.544822	
12:52:50	47.46188	-122.3111	122.694	119.8334	-74.85754	25.36	24.36978	100	0	47	0.0949699	-6.379921	-7.379622	
12:52:50	47.46195	-122.3111	122.725	120.1867	-61.55419	25.29	24.20455	100	0	45	-0.7251738	-6.278772	-7.219551	
12:52:50	47.462	-122.3111	122.704	120.5965	-37.71173	25.25	24.13313	100	0	42	-1.505165	-6.335109	-7.068125	
12:52:50	47.46204	-122.3111	122.681	120.9379	-20.20457	25.2	24.09343	100	0	40	-2.152833	-6.560462	-6.991326	
12:52:50	47.46209	-122.3111	122.655	121.2379	-13.91666	25.12	24.04432	100	0	38	-2.50145	-7.118609	-6.993456	
12:52:51	47.46209	-122.3111	122.655	121.453	-22.47275	25.12	23.96591	100	0	37	-2.74379	-7.79552	-7.03401	
12:52:51	47.46209	-122.3111	122.655	121.6315	-41.6494	25.12	23.96591	100	0	35	-2.918023	-8.536224	-7.09534	
12:52:51	47.46209	-122.3111	122.655	121.7242	-62.7309	25.12	23.96591	100	0	33	-3.085948	-9.283017	-7.198074	
12:52:51	47.46209	-122.3111	122.655	121.7585	-82.49543	25.12	23.96591	100	0	32	-3.24673	-10.02814	-7.330067	
12:52:51	47.46209	-122.3111	122.655	121.7506	-104.5261	25.12	23.96591	100	0	31	-3.401916	-10.77497	-7.48364	
12:52:52	47.4622	-122.3111	122.445	121.6966	-128.5719	24.87	23.96591	100	0	30	-3.551365	-11.51951	-7.652027	
12:52:52	47.4622	-122.3111	122.445	121.6048	-151.168	24.87	23.72136	100	0	29	-3.478357	-12.3264	-7.790135	
12:52:52	47.46242	-122.3111	120.969	121.4735	-175.4762	24.51	23.72136	100	0	29	-3.329662	-12.75233	-7.903878	
12:52:52	47.46249	-122.3111	120.203	121.036	-200.9403	24.48	22.94622	100	0	28	-3.037089	-12.80301	-8.033708	
12:52:52	47.46253	-122.3111	119.595	120.5533	-215.0196	24.48	22.92387	100	0	28	-2.404375	-12.8903	-8.234093	
12:52:53	47.46257	-122.3111	119.062	120.0911	-222.5665	24.48	22.91865	100	0	28	-1.659112	-12.97655	-8.385817	
12:52:53	47.46257	-122.3111	119.062	119.5305	-232.884	24.48	22.92273	100	0	28	-1.049103	-13.0286	-8.447527	
12:52:53	47.46267	-122.3111	117.813	118.9588	-239.884	24.47	22.92273	100	0	28	-0.5289941	-13.04486	-8.47366	
12:52:53	47.46271	-122.3111	117.221	118.3783	-246.9546	24.47	22.9178	100	0	29	-0.2830844	-12.96144	-8.432265	
12:52:53	47.46271	-122.3111	117.221	117.8647	-249.8633	24.47	22.91695	100	0	30	-0.03872131	-12.81901	-8.393609	
12:52:54	47.46276	-122.3111	116.623	117.1779	-253.7731	24.47	22.91695	100	0	30	0.1820291	-12.62606	-8.336296	
12:52:54	47.46282	-122.3111	115.793	116.6616	-253.0911	24.49	22.91526	100	0	31	0.2756253	-12.34275	-8.248998	
12:52:54	47.46285	-122.3111	115.337	116.1297	-247.6848	24.5	22.93105	100	0	32	0.3251767	-11.95082	-8.122437	
12:52:54	47.4629	-122.3111	114.711	115.5281	-242.6943	24.52	22.93859	100	0	33	0.2772148	-11.51698	-7.975784	
12:52:54	47.46297	-122.3111	113.928	114.9482	-234.9908	24.57	22.96453	100	0	33	0.2302419	-11.10129	-7.844397	
12:52:55	47.46297	-122.3111	113.928	114.3984	-226.5271	24.57	23.00902	100	0	34	0.2099431	-10.72903	-7.741649	
12:52:55	47.46301	-122.3111	113.443	113.8137	-222.2395	24.6	23.00902	100	0	35	-0.009849681	-10.34115	-7.6158	
12:52:55	47.46305	-122.3111	112.99	113.2339	-213.8445	24.62	23.03452	100	0	36	-0.09191797	-9.964908	-7.495048	
12:52:55	47.46317	-122.3112	111.993	112.7456	-205.7028	24.65	23.05091	100	0	37	-0.1544819	-9.598177	-7.396194	
12:52:55	47.46321	-122.3112	111.628	112.259	-198.2511	24.66	23.08404	100	0	37	-0.235137	-9.283475	-7.305637	
12:52:56	47.46326	-122.3112	111.309	111.8118	-191.0119	24.67	23.09143	100	0	38	-0.2862845	-8.956541	-7.194075	
12:52:56	47.4633	-122.3112	111.007	111.4304	-181.4274	24.67	23.09889	100	0	38	-0.3728705	-8.644624	-7.088497	
12:52:56	47.46334	-122.3112	110.755	111.057	-173.0829	24.67	23.09705	100	0	39	-0.4780156	-8.330626	-7.007413	
12:52:56	47.46334	-122.3112	110.755	110.7258	-162.8562	24.67	23.09525	100	0	39	-0.5982649	-8.024037	-6.940606	
12:52:56	47.46341	-122.3112	110.44	110.4665	-153.2246	24.66	23.09525	100	0	39	-0.7127141	-7.739816	-6.858299	
12:52:57	47.46346	-122.3112	110.256	110.1758	-142.1116	24.65	23.08291	100	0	39	-0.7814121	-7.502736	-6.787832	
12:52:57	47.4635	-122.3112	110.107	109.9589	-134.3995	24.64	23.07178	100	0	40	-0.8787014	-7.355228	-6.747111	
12:52:57	47.46354	-122.3112	109.958	109.7437	-128.3055	24.62	23.06067	100	0	40	-1.006572	-7.281322	-6.699309	
12:52:57	47.46361	-122.3112	109.753	109.5477	-123.2644	24.58	23.03959	100	0	40	-1.129451	-7.210046	-6.643762	
12:52:57	47.46365	-122.3112	109.639	109.3919	-119.7963	24.55	22.99855	100	0	39	-1.236234	-7.151849	-6.606745	
12:52:58	47.4637	-122.3112	109.523	109.2206	-116.4318	24.52	22.96805	100	0	39	-1.352088	-7.155564	-6.587635	
12:52:58	47.46374	-122.3112	109.411	109.0718	-114.8566	24.49	22.93809	100	0	39	-1.422428	-7.159759	-6.564761	
12:52:58	47.46374	-122.3112	109.411	108.9343	-113.0555	24.49	22.90759	100	0	39	-1.434068	-7.17822	-6.548666	
12:52:58	47.46378	-122.3112	109.298	108.827	-110.9531	24.46	22.90759	100	0	39	-1.361145	-7.230889	-6.54455	
12:52:58	47.46383	-122.3112	109.16	108.7037	-110.2462	24.42	22.87818	100	0	39	-1.202278	-7.292527	-6.543286	
12:52:59	47.46387	-122.3112	109.059	108.5691	-110.2462	24.4	22.83824	100	0	39	-1.135029	-7.390563	-6.518933	
12:52:59	47.46394	-122.3112	108.871	108.466	-110.8413	24.35	22.81827	100	0	38	-1.068605	-7.482466	-6.47716	
12:52:59	47.46394	-122.3112	108.871	108.3399	-111.7423	24.35	22.76834	100	0	38	-1.058	-7.530089	-6.406173	
12:52:59	47.46404	-122.3112	108.595	108.2166	-112.1017	24.29	22.76834	100	0	38	-1.067141	-7.571402	-6.335621	
12:52:59	47.46408	-122.3112	108.436	108.0702	-113.2193	24.27	22.70734	100	0	38	-1.07161	-7.622957	-6.273149	
12:53:00	47.46413	-122.3112	108.274	107.9355	-114.6664	24.25	22.68684	100	0	38	-1.213161	-7.690548	-6.212677	
12:53:00	47.46417	-122.3112	108.098	107.8137	-115.7644	24.23	22.66633	100	0	38	-1.244994	-7.763622	-6.154933	
12:53:00	47.46422	-122.3112	107.885	107.6607	-117.0655	24.21	22.64583	100	0	38	-1.247374	-7.806337	-6.10762	
12:53:00	47.46428	-122.3112	107.597	107.5278	-117.8235	24.19	22.62533	100	0	38	-1.280948	-7.828984	-6.060115	
12:53:00	47.46428	-122.3112	107.597	107.3534	-117.6501	24.19	22.60484	100	0	38	-1.282959	-7.873535	-6.012845	
12:53:01	47.46432	-122.3112	107.401	107.1946	-119.5263	24.18	22.60484	100	0	38	-1.334004	-7.905141	-5.972703	
12:53:01	47.46437	-122.3112	107.179	106.9961	-121.3475	24.17	22.59485	100	0	38	-1.426944	-7.924821	-5.942053	
12:53:01	47.46441	-122.3112	106.969	106.8045	-122.5834	24.16	22.58435	100	0	38	-1.515228	-7.945838	-5.91093	
12:53:01	47.46445	-122.3112	106.875	106.625	-122.9734	24.16	22.57436	100	0	38	-1.54345	-7.965908	-5.878503	
12:53:01	47.46445	-122.3112	106.875	106.4435	-123.9564	24.16	22.57436	100	0	38	-1.541908	-7.955975	-5.858458	
12:53:02	47.46457	-122.3112	106.295	106.2359	-124.6406	24.17	22.57436	100	0	38	-1.544172	-7.938715	-5.839939	
12:53:02	47.46461	-122.3112	106.054	106.0543	-124.2964	24.18	22.58487	100	0	39	-1.550525	-7.896642	-5.813828	
12:53:02	47.46465	-122.3112	105.794	105.8585	-122.442	24.19	22.59485	100	0	39	-6.277762	-7.803754	-5.881505	
12:53:02	47.46465	-122.3112	105.794	105.6338	-122.4689	24.19	22.60484	100	0	39	-13.74839	-7.68451	-6.21603	
12:53:02	47.46469	-122.3112	105.523	105.4211	-124.8452	24.2	22.60484	100	0	40	-21.17816	-7.638942	-6.869382	
12:53:03	47.46476	-122.3112	105.189	105.201	-133.5553	24.21	22.61535	100	0	41	-28.02939	-7.79606	-8.388298	
12:53:03	47.46481	-122.3112	104.938	104.922	-153.9377	24.22	22.64172	100	0	44	-33.46643	-8.11128	-10.60151	
12:53:03	47.46481	-122.3112	104.938	104.6268	-176.1217	24.22	22.66531	100	0	46	-37.39909	-8.450377	-13.38235	
12:53:03	47.46485	-122.3112	104.692	104.3463	-195.0297	24.22	22.66531	100	0	49	-39.76904	-8.597654	-16.76145	
12:53:03	47.46492	-122.3112	104.204	103.9695	-209.4118	24.27	22.6897	100	0	52	-41.64758	-8.637952	-20.54425	
12:53:04	47.465	-122.3112	103.462	103.5891	-214.9484	24.46	22.80849	100	0	54	-43.40154	-8.701915	-24.52553	
12:53:04	47.46504	-122.3112	103.098	103.1558	-216.4634	24.6	22.8232	100	0	57	-44.56591	-8.640817	-28.9425	
12:53:04	47.46509	-122.3113	102.619	102.7979	-207.907	24.79	23.0437	100	0	58	-44.92266	-8.228658	-33.88458	
12:53:04	47.46513	-122.3113	102.222	102.4325	-189.3301	24.99	23.35282	100	0	59	-45.11326	-7.705298	-38.90604	
12:53:04	47.46513	-122.3113	102.222	102.1114	-161.1122	24.99	23.71382	100	0	61	-44.96304	-7.075747	-44.07799	
12:53:05	47.46517	-122.3113	101.95	101.8864	-130.7917	25.18	23.71382	100	0	62	-44.41193	-6.328835	-49.17877	
12:53:05	47.46521	-122.3114	101.578	101.6568	-90.87822	25.38	24.0304	100	0	62	-43.85887	-5.632108	-54.24117	
12:53:05	47.46526	-122.3114	101.228	101.5099	-52.79549	25.66	24.16515	100	0	61	-43.476	-5.211292	-59.08707	
12:53:05	47.46529	-122.3115	101.116	101.397	-22.71605	25.82	24.67937	100	0	61	-42.70831	-4.850623	-63.78731	
12:53:05	47.46532	-122.3116	100.937	101.3309	11.28979	25.94	25.00302	100	0	61	-41.09594	-4.387977	-68.38651	
12:53:06	47.46535	-122.3116	100.916	101.3127	44.15948	26.04	25.42091	100	0	60	-39.37848	-3.873881	-72.86454	
12:53:06	47.46538	-122.3117	100.927	101.3559	79.34185	26.11	25.65768	100	0	58	-37.26779	-3.307477	-77.09402	
12:53:06	47.46538	-122.3117	100.927	101.459	117.2265	26.11	25.9272	100	0	57	-34.55656	-2.901745	-80.86401	
12:53:06	47.4654	-122.3118	101.07	101.5957	142.2348	26.13	25.9272	100	0	55	-31.71119	-2.613154	-84.18287	
12:53:06	47.46541	-122.3118	101.202	101.8037	168.771	26.1	26.10841	100	0	53	-27.85338	-2.401091	-87.20531	
