Date	Latitude(deg) 	Longitude(deg)	hamsl(m)	hafl(m)	climbrate(cm/s)	GroundSpeed(m/s)	Airspeed(m/s)	Mav_Link(%)	Rssi_Link(%)	Throttle	Roll(deg)	Pitch(deg)	Yaw(deg)
15:32:35	-6.728601	38.94614	131.741	0	0	0.06	0	100	0	0	-3.798575	-0.7215335	-10.55747	
15:32:35	-6.728599	38.94614	132.541	0.2058678	-3.455617	0.04	3	100	0	6546	-3.710341	-0.6346868	-10.65006	
15:32:36	-6.728599	38.94614	132.583	0.04774822	-14.81093	0.04	3	100	0	6546	-3.734293	-0.6452167	-10.72243	
15:32:36	-6.728599	38.94614	132.621	-0.2412984	-31.74812	0.04	3	100	0	6546	-3.729045	-0.5910076	-10.7844	
15:32:36	-6.728599	38.94614	132.638	-0.5060329	-46.87209	0.04	3	100	0	6546	-3.75693	-0.5888745	-10.80755	
15:32:36	-6.728599	38.94614	132.638	-0.3989875	-39.90152	0.01	3	100	0	6546	-3.765523	-0.6226298	-10.87449	
15:32:37	-6.728599	38.94614	132.647	-0.2997732	-34.03476	0.04	3	100	0	6546	-3.771057	-0.5839794	-10.92788	
15:32:37	-6.728599	38.94614	132.692	-0.13298	-25.21425	0.03	3	100	0	6546	-3.757086	-0.6092731	-10.95176	
15:32:37	-6.728599	38.94614	132.68	0.03450909	-16.58181	0.03	3	100	0	6546	-3.749399	-0.617201	-10.99324	
15:32:37	-6.728599	38.94614	132.638	0.1151478	-13.8478	0.06	3	100	0	6546	-3.806821	-0.601545	-11.01107	
15:32:37	-6.728599	38.94614	132.634	0.1844499	-11.86461	0.02	3	100	0	6546	-3.791255	-0.6229791	-10.98967	
15:32:37	-6.728599	38.94614	132.623	0.2159352	-12.06135	0.09	3	100	0	6546	-3.799063	-0.594485	-10.98484	
15:32:38	-6.728599	38.94614	132.639	0.2436961	-12.45541	0.03	3	100	0	6546	-3.820095	-0.6169353	-11.05404	
15:32:38	-6.728599	38.94614	132.636	0.2825117	-12.37998	0.01	3	100	0	6546	-3.811662	-0.6879445	-11.10877	
15:32:38	-6.728599	38.94614	132.618	0.3140063	-12.71048	0.02	3	100	0	6546	-3.80888	-0.7080213	-11.11801	
15:32:38	-6.728599	38.94614	132.602	0.2759627	-16.03574	0.03	3	100	0	6546	-3.848324	-0.7033927	-11.15975	
15:32:38	-6.728599	38.94614	132.564	0.2383228	-19.24976	0.01	3	100	0	6546	-3.882406	-0.7023346	-11.1574	
15:32:38	-6.728599	38.94614	132.566	0.2463951	-19.73027	0.02	3	100	0	6546	-3.881725	-0.7159996	-11.13426	
15:32:39	-6.728599	38.94614	132.556	0.2529329	-20.12715	0.02	3	100	0	6546	-3.878497	-0.6940721	-11.13995	
15:32:39	-6.728599	38.94614	132.556	0.2147463	-22.59844	0.09	3	100	0	6546	-3.852952	-0.6504582	-11.16597	
15:32:39	-6.728599	38.94614	132.543	0.178888	-25.07583	0.04	3	100	0	6546	-3.864848	-0.6447509	-11.21947	
15:32:39	-6.728599	38.94614	132.544	0.1923289	-24.82026	0.04	3	100	0	6544	-3.910234	-0.6786398	-11.16597	
15:32:40	-6.728599	38.94614	132.568	0.204559	-24.24666	0.08	3	100	0	6546	-3.904975	-0.6709587	-11.19577	
15:32:40	-6.728599	38.94614	132.558	0.2044071	-24.25784	0.04	3	100	0	6546	-3.852845	-0.7025225	-11.23717	
15:32:40	-6.728599	38.94614	132.549	0.2043839	-24.16638	0.19	3	100	0	6546	-3.917482	-0.5902604	-11.25777	
15:32:40	-6.728599	38.94614	132.548	0.1903255	-24.96789	0.13	3	100	0	6546	-3.955026	-0.5176001	-11.26347	
15:32:41	-6.7286	38.94614	132.51	0.1773635	-25.95179	0.14	3	100	0	6546	-3.976053	-0.5357075	-11.2723	
15:32:41	-6.7286	38.94614	132.528	0.2015985	-24.93894	0.06	3	100	0	6546	-3.965159	-0.628645	-11.28066	
15:32:41	-6.7286	38.94614	132.521	0.2253715	-24.14755	0.03	3	100	0	6546	-3.945605	-0.6670288	-11.27174	
15:32:41	-6.7286	38.94614	132.529	0.2184921	-24.35835	0.06	3	100	0	6546	-3.984103	-0.7009116	-11.23903	
15:32:42	-6.7286	38.94614	132.543	0.1724017	-27.02712	0.09	3	100	0	6546	-3.924078	-0.7406709	-11.26592	
15:32:42	-6.7286	38.94614	132.534	0.1555857	-27.92537	0.03	3	100	0	6546	-3.924212	-0.7316977	-11.25643	
15:32:42	-6.7286	38.94614	132.52	0.1730581	-26.69029	0.03	3	100	0	6546	-3.954227	-0.7088293	-11.34364	
15:32:42	-6.7286	38.94614	132.537	0.1820189	-26.4687	0.02	3	100	0	6546	-3.965732	-0.7306569	-11.35689	
15:32:42	-6.7286	38.94614	132.568	0.1837191	-25.74811	0.06	3	100	0	6546	-3.983308	-0.8095939	-11.39326	
15:32:42	-6.7286	38.94614	132.593	0.2003848	-24.93864	0.04	3	100	0	6546	-3.970652	-0.8316354	-11.44678	
15:32:43	-6.7286	38.94614	132.61	0.2229	-23.56055	0.04	3	100	0	6546	-3.971333	-0.7974231	-11.40623	
15:32:43	-6.7286	38.94614	132.603	0.2629641	-20.91932	0.01	3	100	0	6546	-3.992203	-0.7837472	-11.45856	
15:32:43	-6.7286	38.94614	132.614	0.3288366	-17.8522	0.01	3	100	0	6546	-4.023678	-0.7887815	-11.53455	
15:32:43	-6.7286	38.94614	132.609	0.3646711	-15.90002	0.02	3	100	0	6546	-4.041053	-0.7722655	-11.51998	
15:32:43	-6.7286	38.94614	132.638	0.3834606	-15.18987	0.02	3	100	0	6546	-4.052041	-0.7814622	-11.48506	
15:32:43	-6.7286	38.94614	132.64	0.4018827	-14.66691	0.01	3	100	0	6546	-4.052503	-0.7894815	-11.52351	
15:32:44	-6.7286	38.94614	132.665	0.4167718	-14.27323	0.08	3	100	0	6546	-4.00625	-0.7218838	-11.52162	
15:32:44	-6.728601	38.94614	132.682	0.3843581	-16.63162	0.04	3	100	0	6546	-4.019983	-0.7729856	-11.58554	
15:32:44	-6.728601	38.94614	132.697	0.3243485	-20.32073	0.01	3	100	0	6546	-4.039339	-0.8315224	-11.51278	
15:32:44	-6.728601	38.94614	132.704	0.2364791	-25.35091	0.02	3	100	0	6546	-4.031283	-0.8022504	-11.48271	
15:32:44	-6.728601	38.94614	132.69	0.144422	-30.04202	0.09	3	100	0	6546	-4.05396	-0.7442206	-11.4607	
15:32:44	-6.728601	38.94614	132.676	0.05295041	-33.48106	0.04	3	100	0	6546	-4.08818	-0.7555076	-11.52321	
15:32:45	-6.728601	38.94614	132.683	-0.01071972	-35.53486	0.02	3	100	0	6546	-4.066275	-0.8303725	-11.48842	
15:32:45	-6.728601	38.94614	132.677	-0.0472082	-35.56722	0.06	3	100	0	6546	-4.072547	-0.8718052	-11.4891	
15:32:45	-6.728601	38.94614	132.659	-0.0625772	-34.97332	0.09	3	100	0	6546	-4.050477	-0.9254032	-11.50404	
15:32:45	-6.728601	38.94614	132.657	-0.07253399	-33.66429	0.02	3	100	0	6546	-4.062046	-0.8842846	-11.47822	
15:32:46	-6.728601	38.94614	132.673	-0.075471	-32.23913	0.06	3	100	0	6546	-4.074069	-0.9020206	-11.47349	
15:32:46	-6.728601	38.94614	132.688	-0.07487007	-30.28192	0.04	3	100	0	6546	-4.034707	-0.8700857	-11.40103	
15:32:46	-6.728601	38.94614	132.698	-0.1215555	-31.92352	0.02	3	100	0	6546	-4.071228	-0.8534151	-11.42689	
15:32:46	-6.728601	38.94614	132.727	-0.1623019	-32.88443	0.11	3	100	0	6546	-4.035317	-0.9004952	-11.37776	
15:32:47	-6.728601	38.94614	132.719	-0.1330409	-29.85413	0.03	3	100	0	6546	-4.071177	-0.8997607	-11.39108	
15:32:47	-6.728601	38.94614	132.732	-0.100976	-27.24466	0.09	3	100	0	6546	-4.082561	-0.9374477	-11.37033	
15:32:47	-6.728601	38.94614	132.74	-0.0951854	-26.30203	0.07	3	100	0	6546	-4.021298	-0.9054115	-11.32924	
15:32:47	-6.728601	38.94614	132.727	-0.08781178	-25.14883	0.06	3	100	0	6546	-4.060338	-0.9082814	-11.33533	
15:32:48	-6.728601	38.94614	132.724	-0.06874652	-23.40382	0.04	3	100	0	6546	-4.101576	-0.8781568	-11.24335	
15:32:48	-6.728601	38.94614	132.737	-0.04672673	-21.79701	0.02	3	100	0	6546	-4.07151	-0.8755487	-11.29283	
15:32:48	-6.728601	38.94614	132.741	-0.000399136	-18.92292	0.03	3	100	0	6546	-4.042097	-0.8723173	-11.29283	
15:32:48	-6.728601	38.94614	132.739	0.0417044	-17.09467	0.01	3	100	0	6546	-4.069232	-0.8733431	-11.26297	
15:32:49	-6.728601	38.94614	132.745	0.02842388	-17.32693	0.02	3	100	0	6546	-4.07768	-0.8984454	-11.30078	
15:32:49	-6.728601	38.94614	132.757	0.01642076	-18.20431	0.02	3	100	0	6546	-4.081721	-0.8345872	-11.28041	
15:32:49	-6.728601	38.94614	132.767	0.04109775	-16.98521	0.08	3	100	0	6546	-4.024784	-0.8560932	-11.20121	
15:32:49	-6.728601	38.94614	132.789	0.06511156	-16.11789	0.03	3	100	0	6546	-4.053774	-0.858665	-11.25088	
15:32:49	-6.728601	38.94614	132.782	0.06040408	-16.83755	0.04	3	100	0	6546	-4.057828	-0.8645486	-11.25308	
15:32:50	-6.728601	38.94614	132.801	0.05494659	-17.28542	0.07	3	100	0	6546	-4.07685	-0.895163	-11.22231	
15:32:50	-6.728601	38.94614	132.818	0.0374749	-17.53461	0.02	3	100	0	6546	-4.083674	-0.8206384	-11.17274	
15:32:50	-6.728601	38.94614	132.84	0.02114807	-18.04396	0.04	3	100	0	6546	-4.091361	-0.7823495	-11.17388	
15:32:51	-6.728601	38.94614	132.861	0.004209019	-18.11585	0.07	3	100	0	6546	-4.064076	-0.7731026	-11.15556	
15:32:51	-6.728601	38.94614	132.847	-0.01003709	-18.7429	0.04	3	100	0	6546	-4.115092	-0.7960676	-11.1559	
15:32:51	-6.728602	38.94614	132.802	-0.06342883	-21.05065	0.09	3	100	0	6546	-4.116266	-0.7617538	-11.14574	
15:32:51	-6.728602	38.94614	132.806	-0.1110738	-22.9445	0.08	3	100	0	6546	-4.10865	-0.7764773	-11.18789	
15:32:51	-6.728602	38.94614	132.833	-0.1401075	-23.27725	0.03	3	100	0	6546	-4.135867	-0.8364946	-11.27828	
15:32:52	-6.728602	38.94614	132.836	-0.1673736	-23.81602	0.09	3	100	0	6546	-4.104451	-0.7795092	-11.27972	
15:32:52	-6.728602	38.94614	132.85	-0.1612037	-22.63907	0.09	3	100	0	6546	-4.098337	-0.7285322	-11.23701	
15:32:52	-6.728602	38.94614	132.847	-0.1115269	-19.03784	0.11	3	100	0	6546	-4.119642	-0.722819	-11.18157	
15:32:52	-6.728602	38.94614	132.862	-0.06196719	-15.81359	0.14	3	100	0	6546	-4.119014	-0.7121185	-11.21087	
15:32:52	-6.728602	38.94614	132.873	-0.005343181	-12.3796	0.01	3	100	0	6546	-4.098865	-0.8387947	-11.13912	
15:32:53	-6.728602	38.94614	132.904	0.02733169	-10.66105	0.08	3	100	0	6546	-4.092512	-0.8225895	-11.13924	
15:32:53	-6.728602	38.94614	132.973	0.04771837	-9.933291	0.07	3	100	0	6546	-4.076293	-0.8218668	-11.10204	
15:32:53	-6.728602	38.94614	132.973	0.06604382	-9.232171	0.02	3	100	0	6546	-4.118175	-0.9125868	-11.05636	
15:32:53	-6.728602	38.94614	133.018	0.0828473	-8.782484	0.04	3	100	0	6546	-4.113925	-0.9443133	-11.05591	
15:32:53	-6.728602	38.94614	133.034	0.08643041	-9.186134	0.01	3	100	0	6546	-4.116643	-0.8722957	-11.04598	
15:32:53	-6.728602	38.94614	133.054	0.07925831	-9.905868	0.08	3	100	0	6546	-4.129683	-0.8983718	-11.0833	
15:32:54	-6.728601	38.94614	133.076	0.0747124	-10.43743	0.04	3	100	0	6546	-4.136177	-0.9700046	-11.08107	
15:32:54	-6.728602	38.94614	133.038	0.07297914	-10.5461	0.02	3	100	0	6546	-4.118043	-0.9553196	-11.11436	
15:32:54	-6.728602	38.94614	133.048	0.06433426	-10.96277	0.08	3	99	0	6546	-4.133172	-0.9156047	-11.17325	
15:32:54	-6.728602	38.94614	133.068	0.04920744	-12.40463	0.07	3	99	0	6546	-4.089976	-0.9743001	-11.26738	
15:32:54	-6.728602	38.94614	133.049	0.0001446931	-15.44926	0.04	3	99	0	6546	-4.081537	-1.003532	-11.31259	
15:32:55	-6.728602	38.94614	133.062	-0.06570397	-18.51808	0.02	3	99	0	6546	-4.092587	-0.9779097	-11.35348	
15:32:55	-6.728602	38.94614	133.058	-0.09777744	-19.9862	0.06	3	99	0	6546	-4.105374	-0.9560767	-11.3441	
15:32:55	-6.728602	38.94614	133.062	-0.1091304	-19.14254	0.03	3	99	0	6546	-4.049296	-0.8949972	-11.46867	
15:32:55	-6.728602	38.94614	133.072	-0.1123853	-18.36862	0.01	3	99	0	6546	-4.036648	-0.9287056	-11.5235	
15:32:55	-6.728602	38.94614	133.078	-0.1104531	-17.27669	0.04	3	99	0	6546	-4.058309	-0.9451154	-11.50438	
15:32:56	-6.728602	38.94614	133.067	-0.1171476	-16.77808	0.04	3	99	0	6546	-4.048469	-0.9860454	-11.47054	
15:32:56	-6.728602	38.94614	133.089	-0.1321405	-17.57621	0.08	3	99	0	6546	-4.063508	-0.9655943	-11.48058	
15:32:56	-6.728602	38.94614	133.108	-0.1532625	-18.27697	0.04	3	99	0	6546	-4.033929	-1.00419	-11.4911	
15:32:56	-6.728602	38.94614	133.144	-0.1785425	-18.4005	0.09	3	99	0	6546	-4.0173	-0.9938527	-11.47396	
15:32:56	-6.728602	38.94614	133.174	-0.1993218	-18.40069	0.06	3	99	0	6546	-3.992885	-1.011544	-11.47672	
15:32:57	-6.728602	38.94614	133.203	-0.2195469	-19.09835	0.03	3	99	0	6546	-3.99166	-0.9637051	-11.51312	
15:32:57	-6.728602	38.94614	133.209	-0.2366394	-18.82637	0.03	3	99	0	6546	-4.031293	-0.96705	-11.502	
15:32:57	-6.728602	38.94614	133.226	-0.2152619	-17.00733	0.03	3	99	0	6546	-4.033494	-0.947181	-11.57943	
15:32:57	-6.728602	38.94614	133.255	-0.1940614	-14.78526	0.07	3	99	0	6546	-4.037885	-0.8782613	-11.65162	
15:32:57	-6.728602	38.94614	133.287	-0.180797	-13.74475	0.04	3	99	0	6546	-4.10769	-0.9334915	-11.57758	
15:32:58	-6.728602	38.94614	133.288	-0.1668997	-12.94692	0.04	3	99	0	6546	-4.083724	-0.9282458	-11.57196	
15:32:58	-6.728602	38.94614	133.3	-0.2001033	-14.60597	0.09	3	99	0	6546	-4.073718	-0.8618699	-11.51776	
15:32:58	-6.728602	38.94614	133.3	-0.2273072	-15.59079	0.04	3	99	0	6546	-4.111207	-0.8201471	-11.61615	
15:32:58	-6.728602	38.94614	133.315	-0.2197719	-14.85133	0.02	3	99	0	6546	-4.030501	-0.8502582	-11.65593	
15:32:58	-6.728602	38.94614	133.294	-0.2109807	-14.11689	0.04	3	99	0	6546	-4.013203	-0.8796294	-11.5955	
15:32:59	-6.728602	38.94614	133.266	-0.2378532	-15.42134	0.04	3	99	0	6546	-4.017068	-0.968502	-11.53922	
15:32:59	-6.728602	38.94614	133.266	-0.2638915	-15.89881	0.06	3	99	0	6546	-3.994617	-0.9633669	-11.54554	
15:32:59	-6.728602	38.94614	133.298	-0.2746921	-16.19477	0.03	3	99	0	6546	-4.019053	-1.009481	-11.5752	
15:32:59	-6.728602	38.94614	133.282	-0.2822254	-15.88929	0.04	3	99	0	6546	-4.058171	-0.9245404	-11.59633	
15:32:59	-6.728602	38.94614	133.296	-0.3235822	-17.77349	0.03	3	99	0	6546	-3.993579	-0.9339296	-11.57217	
15:33:00	-6.728602	38.94614	133.287	-0.3609036	-19.26349	0.03	3	99	0	6546	-4.048126	-0.9306267	-11.61461	
15:33:00	-6.728602	38.94614	133.291	-0.3565305	-18.35987	0.08	3	99	0	6546	-4.043856	-0.9089649	-11.65176	
15:33:00	-6.728602	38.94614	133.298	-0.3506985	-17.13477	0.02	3	99	0	6546	-4.106997	-0.8782961	-11.61731	
15:33:00	-6.728603	38.94614	133.306	-0.3188751	-14.30905	0.09	3	99	0	6546	-4.060864	-0.8978362	-11.642	
15:33:01	-6.728603	38.94614	133.294	-0.2884525	-12.38586	0.04	3	99	0	6546	-4.110445	-0.8384349	-11.58359	
15:33:01	-6.728603	38.94614	133.288	-0.183174	-6.058464	0.08	3	99	0	6546	-4.111462	-0.86705	-11.56026	
15:33:01	-6.728603	38.94614	133.263	-0.08757602	-1.285034	0.04	3	99	0	6546	-4.007545	-0.8889013	-11.51374	
15:33:01	-6.728603	38.94614	133.263	-0.02082009	1.625215	0.04	3	99	0	6546	-4.01799	-0.9454574	-11.57992	
15:33:01	-6.728603	38.94614	133.259	0.03825894	3.837809	0.04	3	99	0	6546	-4.061065	-0.9078493	-11.56271	
15:33:01	-6.728603	38.94614	133.277	0.08354276	4.914018	0.04	3	99	0	6546	-4.109638	-0.9852062	-11.49513	
15:33:02	-6.728603	38.94614	133.273	0.1056448	5.366725	0.08	3	99	0	6546	-4.10687	-0.9313727	-11.46173	
15:33:02	-6.728603	38.94614	133.269	0.1191735	4.736486	0.06	3	99	0	6546	-4.160245	-0.9873556	-11.39175	
15:33:02	-6.728603	38.94614	133.241	0.120133	4.241104	0.06	3	99	0	6546	-4.018572	-0.9932126	-11.46086	
15:33:02	-6.728603	38.94614	133.256	0.1075013	2.757646	0.02	3	99	0	6546	-3.992005	-0.9297231	-11.54509	
15:33:02	-6.728603	38.94614	133.257	0.08742543	1.124205	0.07	3	99	0	6546	-3.999438	-0.9567396	-11.54954	
15:33:03	-6.728603	38.94614	133.246	0.06816023	-0.7978033	0.08	3	99	0	6546	-3.944422	-0.9773995	-11.54517	
15:33:03	-6.728603	38.94614	133.261	0.04659201	-2.456153	0.01	3	99	0	6546	-3.984373	-0.8577321	-11.51199	
15:33:03	-6.728603	38.94614	133.26	0.03641389	-3.405451	0.08	3	99	0	6546	-3.991081	-0.927708	-11.51284	
15:33:03	-6.728603	38.94614	133.253	0.0403026	-3.643976	0.06	3	99	0	6547	-4.015995	-0.8707728	-11.49963	
15:33:03	-6.728603	38.94614	133.217	0.03513993	-4.572995	0.07	3	99	0	6546	-4.01692	-0.8878191	-11.50275	
15:33:03	-6.728603	38.94614	133.207	0.02059917	-4.463709	0.03	3	99	0	6546	-4.003679	-0.8662401	-11.43426	
15:33:03	-6.728603	38.94614	133.19	0.01801785	-5.000664	0.04	3	99	0	6546	-3.979812	-0.9609301	-11.56381	
15:33:04	-6.728603	38.94614	133.188	0.03047132	-4.16349	0.02	3	99	0	6546	-4.004823	-0.9670224	-11.55086	
15:33:04	-6.728603	38.94614	133.204	0.03613482	-4.486374	0.02	3	99	0	6546	-3.936954	-0.9263736	-11.625	
15:33:04	-6.728603	38.94614	133.197	0.03542438	-4.383357	0.06	3	99	0	6546	-3.916197	-0.9113697	-11.68916	
15:33:04	-6.728603	38.94614	133.213	0.04527172	-4.088413	0.02	3	99	0	6546	-3.909291	-0.9508637	-11.74196	
15:33:05	-6.728603	38.94614	133.231	0.06289584	-3.755632	0.01	3	99	0	6546	-3.92727	-0.8766214	-11.72157	
15:33:05	-6.728604	38.94614	133.241	0.07802562	-3.174312	0.04	3	99	0	6546	-3.934165	-0.8789788	-11.69076	
15:33:05	-6.728604	38.94614	133.26	0.09081103	-2.85326	0.08	3	99	0	6546	-3.964116	-0.8404326	-11.63027	
15:33:05	-6.728604	38.94614	133.273	0.1162929	-1.749881	0.09	3	99	0	6546	-3.922225	-0.7806028	-11.65873	
15:33:05	-6.728604	38.94614	133.271	0.1572179	-0.6374301	0.06	3	99	0	6546	-3.986297	-0.7830822	-11.65955	
15:33:05	-6.728604	38.94614	133.292	0.2038029	1.833146	0.03	3	99	0	6546	-3.983463	-0.8145058	-11.73248	
15:33:06	-6.728604	38.94614	133.294	0.2603379	4.16624	0.04	3	99	0	6546	-3.955131	-0.861247	-11.7072	
15:33:06	-6.728604	38.94614	133.305	0.3145738	5.819189	0.07	3	99	0	6546	-3.996283	-0.9009655	-11.68323	
15:33:06	-6.728605	38.94614	133.288	0.2617199	2.409772	0.06	3	99	0	6546	-4.017052	-0.9726354	-11.65587	
15:33:06	-6.728605	38.94614	133.304	0.2009152	-1.410113	0.04	3	99	0	6546	-3.884321	-0.9227903	-11.65212	
15:33:06	-6.728604	38.94614	133.328	0.1536456	-4.232704	0.06	3	99	0	6546	-3.928151	-0.9618863	-11.75334	
15:33:06	-6.728604	38.94614	133.352	0.1095837	-6.78536	0.01	3	99	0	6546	-4.004544	-0.9465412	-11.69077	
15:33:07	-6.728604	38.94614	133.373	0.1082388	-6.462174	0.06	3	99	0	6546	-4.004056	-0.9302989	-11.66959	
15:33:07	-6.728604	38.94614	133.38	0.1075688	-6.36308	0.08	3	99	0	6546	-3.946704	-0.8709781	-11.69239	
15:33:07	-6.728605	38.94614	133.382	0.1242724	-5.207975	0.07	3	99	0	6546	-4.112004	-0.8457491	-11.74419	
15:33:07	-6.728605	38.94614	133.395	0.1381456	-4.75878	0.04	3	99	0	6546	-4.01544	-0.8248602	-11.74608	
15:33:07	-6.728605	38.94614	133.414	0.1864412	-2.482364	0.09	3	99	0	6546	-4.081957	-0.9016113	-11.74357	
15:33:08	-6.728605	38.94614	133.416	0.2294111	-0.3864516	0.07	3	99	0	6546	-3.9545	-0.9591338	-11.70812	
15:33:08	-6.728605	38.94614	133.425	0.2340159	-0.5211615	0.03	3	99	0	6546	-4.047241	-0.9725406	-11.72951	
15:33:08	-6.728605	38.94614	133.412	0.2369013	-1.089999	0.04	3	99	0	6546	-4.019608	-0.9084578	-11.708	
15:33:08	-6.728605	38.94614	133.383	0.2356144	-1.600558	0.07	3	99	0	6546	-4.057999	-0.9468194	-11.75329	
15:33:08	-6.728605	38.94614	133.391	0.2333071	-2.530529	0.02	3	99	0	6546	-4.077248	-0.9733942	-11.72522	
15:33:08	-6.728605	38.94614	133.382	0.2230407	-3.628788	0.04	3	99	0	6546	-4.07205	-0.8920211	-11.79449	
15:33:09	-6.728605	38.94614	133.392	0.2126329	-4.652493	0.09	3	99	0	6546	-4.010101	-0.9083673	-11.80343	
15:33:09	-6.728605	38.94614	133.349	0.2247384	-4.080409	0.06	3	99	0	6546	-4.053879	-0.738232	-11.72561	
15:33:09	-6.728605	38.94614	133.327	0.2352117	-4.050406	0.04	3	99	0	6546	-3.993669	-0.8083674	-11.72857	
15:33:09	-6.728605	38.94614	133.318	0.2227288	-4.768982	0.02	3	99	0	6546	-4.032605	-0.81654	-11.78437	
15:33:09	-6.728605	38.94614	133.288	0.2121232	-5.004728	0.06	3	99	0	6546	-4.012496	-0.8770167	-11.79172	
15:33:10	-6.728605	38.94614	133.276	0.2037058	-5.066848	0.12	3	99	0	6546	-3.975878	-0.9209483	-11.81932	
15:33:10	-6.728605	38.94614	133.254	0.1967352	-5.121761	0.08	3	99	0	6546	-4.023758	-0.7256063	-11.79831	
15:33:10	-6.728605	38.94614	133.232	0.2119574	-4.503437	0.13	3	99	0	6546	-4.047629	-0.7740541	-11.76898	
15:33:10	-6.728605	38.94614	133.203	0.2252914	-4.257322	0.04	3	99	0	6546	-4.059483	-0.7241719	-11.697	
15:33:11	-6.728605	38.94614	133.156	0.2104671	-5.404036	0.09	3	99	0	6546	-4.071084	-0.8315758	-11.70091	
15:33:11	-6.728605	38.94614	133.114	0.1714293	-7.522436	0.08	3	99	0	6546	-4.050442	-0.7831634	-11.74692	
15:33:11	-6.728606	38.94614	133.092	0.125542	-10.18233	0.03	3	99	0	6546	-4.084631	-0.814553	-11.77021	
15:33:11	-6.728606	38.94614	133.068	0.0755614	-12.28237	0.07	3	99	0	6546	-4.019613	-0.9002203	-11.72687	
15:33:12	-6.728606	38.94614	133.034	0.01521201	-14.81433	0.12	3	99	0	6546	-4.057458	-0.9775014	-11.72382	
15:33:12	-6.728605	38.94614	133.062	-0.0413434	-16.87577	0.14	3	99	0	6546	-4.025335	-1.032912	-11.71276	
15:33:12	-6.728605	38.94614	133.046	-0.1097164	-18.90423	0.07	3	99	0	6546	-3.988592	-1.020278	-11.68516	
15:33:12	-6.728605	38.94614	133.065	-0.1627496	-20.52433	0.07	3	99	0	6546	-4.057611	-0.9478745	-11.64021	
15:33:12	-6.728605	38.94614	133.097	-0.1903256	-20.26643	0.04	3	99	0	6546	-4.067645	-0.9171807	-11.65774	
15:33:12	-6.728605	38.94614	133.099	-0.1785536	-17.88053	0.07	3	99	0	6546	-4.082143	-0.896539	-11.62156	
15:33:12	-6.728605	38.94614	133.081	-0.1487616	-14.74376	0.02	3	99	0	6546	-4.066558	-0.8889859	-11.66423	
15:33:13	-6.728605	38.94614	133.074	-0.09656686	-11.02404	0.04	3	99	0	6546	-4.106492	-0.8585897	-11.71634	
15:33:13	-6.728605	38.94614	133.071	-0.04686241	-8.059718	0.02	3	99	0	6546	-4.112177	-0.8578083	-11.64471	
15:33:13	-6.728605	38.94614	133.065	-0.009098108	-5.705354	0.04	3	99	0	6546	-4.093719	-0.844685	-11.67878	
15:33:13	-6.728605	38.94614	133.045	-0.00858621	-5.447326	0.06	3	99	0	6546	-4.066121	-0.843994	-11.61959	
15:33:13	-6.728605	38.94614	133.032	-0.03705677	-7.21046	0.02	3	99	0	6546	-4.080479	-0.8746954	-11.60594	
15:33:14	-6.728605	38.94614	133.051	-0.05412759	-7.807516	0.06	3	99	0	6546	-4.067007	-0.8264004	-11.57868	
15:33:14	-6.728605	38.94614	133.046	-0.06493268	-8.16063	0.04	3	99	0	6546	-4.078749	-0.8662564	-11.62763	
15:33:14	-6.728605	38.94614	133.067	-0.0574471	-6.968626	0.04	3	99	0	6546	-4.057482	-0.8240188	-11.57909	
15:33:14	-6.728605	38.94614	133.084	-0.02483038	-5.013844	0.04	3	99	0	6546	-4.087499	-0.8726731	-11.63091	
15:33:14	-6.728605	38.94614	133.106	0.02744951	-1.942943	0.04	3	99	0	6546	-4.095357	-0.8759356	-11.57603	
15:33:15	-6.728605	38.94614	133.12	0.1080506	2.478539	0.08	3	99	0	6546	-4.070592	-0.8853691	-11.64926	
15:33:15	-6.728605	38.94614	133.132	0.1772771	5.75041	0.02	3	99	0	6546	-4.123699	-0.9194202	-11.61417	
15:33:15	-6.728605	38.94614	133.184	0.2213353	7.394914	0.06	3	99	0	6546	-4.118342	-0.8580958	-11.61373	
15:33:15	-6.728605	38.94614	133.184	0.2597869	8.416755	0.03	3	99	0	6546	-4.132486	-0.9301967	-11.6222	
15:33:15	-6.728605	38.94614	133.176	0.2204607	4.944317	0.06	3	99	0	6546	-4.103768	-0.9037075	-11.54272	
15:33:16	-6.728605	38.94614	133.185	0.1748962	2.109361	0.04	3	99	0	6546	-4.128747	-0.8782874	-11.55725	
15:33:16	-6.728605	38.94614	133.223	0.1307212	-0.8482634	0.06	3	99	0	6546	-4.125591	-0.830121	-11.60647	
15:33:16	-6.728605	38.94614	133.225	0.08468806	-3.582434	0.04	3	99	0	6546	-4.113897	-0.8563658	-11.62835	
15:33:16	-6.728606	38.94614	133.225	0.063033	-4.905184	0.06	3	99	0	6546	-4.026148	-0.8943381	-11.62931	
15:33:16	-6.728605	38.94614	133.254	0.0433977	-5.716029	0.02	3	99	0	6546	-4.005343	-0.8621314	-11.6547	
15:33:17	-6.728606	38.94614	133.236	0.04956997	-5.477856	0.02	3	99	0	6546	-4.049832	-0.8849537	-11.66922	
15:33:17	-6.728606	38.94614	133.247	0.05582493	-4.969787	0.07	3	99	0	6546	-4.077821	-0.8258626	-11.64242	
15:33:17	-6.728606	38.94614	133.239	0.05978706	-4.114702	0.01	3	99	0	6546	-4.088688	-0.7933704	-11.66919	
15:33:17	-6.728606	38.94614	133.23	0.06383432	-4.056622	0.04	3	99	0	6546	-4.038965	-0.8581782	-11.60003	
15:33:18	-6.728606	38.94614	133.235	0.03651265	-5.188056	0.04	3	99	0	6546	-4.013796	-0.8707786	-11.58521	
15:33:18	-6.728606	38.94614	133.189	0.01233585	-6.127334	0.04	3	99	0	6546	-4.006435	-0.8677365	-11.52981	
15:33:18	-6.728606	38.94614	133.169	-0.0001624167	-6.300782	0.01	3	99	0	6546	-4.018749	-0.8454552	-11.52279	
15:33:18	-6.728606	38.94614	133.176	-0.01210205	-6.61148	0.01	3	99	0	6546	-4.063802	-0.8170385	-11.48741	
15:33:18	-6.728606	38.94614	133.161	-0.08090586	-9.73492	0.04	3	99	0	6546	-4.063418	-0.7973474	-11.43305	
15:33:19	-6.728606	38.94614	133.165	-0.1417997	-11.75135	0.04	3	99	0	6546	-4.101559	-0.7856211	-11.38228	
15:33:19	-6.728606	38.94614	133.155	-0.1799896	-12.78017	0.02	3	99	0	6546	-4.071279	-0.7707573	-11.40594	
15:33:19	-6.728606	38.94614	133.164	-0.2161278	-13.48764	0.04	3	99	0	6546	-4.027917	-0.770909	-11.41092	
15:33:19	-6.728606	38.94614	133.15	-0.1862669	-10.56424	0.04	3	99	0	6546	-4.02007	-0.7118305	-11.36316	
15:33:20	-6.728606	38.94614	133.138	-0.1582144	-8.829045	0.02	3	99	0	6546	-4.015317	-0.7275201	-11.31744	
15:33:20	-6.728606	38.94614	133.122	-0.1646648	-8.59111	0.08	3	99	0	6546	-4.055833	-0.7554651	-11.32845	
15:33:20	-6.728606	38.94614	133.091	-0.1696964	-8.53461	0.09	3	99	0	6546	-4.063212	-0.6790127	-11.38613	
15:33:20	-6.728606	38.94614	133.1	-0.1587248	-7.930431	0.01	3	99	0	6546	-3.999889	-0.7114051	-11.38577	
15:33:20	-6.728606	38.94614	133.057	-0.1466621	-6.823935	0.07	3	99	0	6546	-4.00792	-0.7982948	-11.4249	
15:33:21	-6.728606	38.94614	133.024	-0.1231837	-5.158288	0.06	3	99	0	6546	-3.987575	-0.8079457	-11.41064	
15:33:21	-6.728606	38.94614	133.017	-0.07944803	-2.960401	0.08	3	99	0	6546	-3.983665	-0.7125007	-11.45335	
15:33:21	-6.728606	38.94614	132.991	-0.0388155	-0.9916586	0.09	3	99	0	6546	-4.002887	-0.689409	-11.44678	
15:33:21	-6.728606	38.94614	132.98	0.01863375	2.213521	0.13	3	99	0	6546	-3.981053	-0.6887349	-11.48977	
15:33:22	-6.728606	38.94614	132.973	0.03435717	2.135041	0.04	3	99	0	6547	-3.980546	-0.6687098	-11.44509	
15:33:22	-6.728606	38.94614	132.988	0.02701249	0.9550164	0.04	3	99	0	6546	-4.02188	-0.7581459	-11.49442	
15:33:22	-6.728607	38.94614	132.998	0.00959547	-0.6691937	0.04	3	99	0	6546	-4.025519	-0.7703974	-11.49154	
15:33:22	-6.728607	38.94614	133.005	-0.01616404	-1.885049	0.03	3	99	0	6546	-4.023433	-0.7575644	-11.51566	
15:33:23	-6.728607	38.94614	133.009	-0.02988662	-2.843894	0.04	3	99	0	6546	-3.997258	-0.7340376	-11.43044	
15:33:23	-6.728607	38.94614	133.048	-0.03363073	-3.046578	0.03	3	99	0	6546	-3.990571	-0.7177182	-11.47381	
15:33:23	-6.728607	38.94614	133.052	-0.05247734	-4.347773	0.04	3	99	0	6546	-3.990652	-0.7511307	-11.44636	
15:33:23	-6.728607	38.94614	133.06	-0.08055146	-5.702956	0.03	3	99	0	6546	-3.993787	-0.7377409	-11.45513	
15:33:23	-6.728607	38.94614	133.081	-0.06591596	-4.640344	0.07	3	99	0	6546	-4.02261	-0.7820515	-11.40347	
15:33:23	-6.728607	38.94614	133.075	-0.005518023	-1.484026	0.03	3	99	0	6546	-4.018898	-0.8288577	-11.46773	
15:33:23	-6.728607	38.94614	133.062	0.01340366	-0.9508025	0.04	3	99	0	6546	-3.98691	-0.7903264	-11.53181	
15:33:24	-6.728607	38.94614	133.082	-0.004975695	-2.395213	0.03	3	99	0	6546	-4.022567	-0.7480994	-11.51132	
15:33:24	-6.728608	38.94614	133.09	-0.01792721	-2.920849	0.04	3	99	0	6546	-3.973992	-0.7678157	-11.58881	
15:33:24	-6.728608	38.94614	133.088	-0.02553184	-3.490951	0.03	3	99	0	6546	-3.955424	-0.8283984	-11.58966	
15:33:24	-6.728608	38.94614	133.126	-0.04105877	-4.003153	0.02	3	99	0	6546	-3.972892	-0.8215532	-11.64606	
15:33:24	-6.728608	38.94614	133.158	-0.06978257	-5.807617	0.03	3	99	0	6546	-3.981084	-0.807981	-11.60014	
15:33:24	-6.728608	38.94614	133.157	-0.09936287	-6.874137	0.02	3	99	0	6546	-4.004968	-0.7978806	-11.63617	
15:33:25	-6.728608	38.94614	133.159	-0.1296824	-7.793667	0.06	3	99	0	6546	-4.006336	-0.7695082	-11.62024	
15:33:25	-6.728608	38.94614	133.134	-0.1438654	-7.249884	0.12	3	99	0	6546	-4.021728	-0.7160057	-11.66275	
15:33:25	-6.728608	38.94614	133.143	-0.1386925	-6.381571	0.02	3	99	0	6546	-3.969953	-0.6690491	-11.62277	
15:33:25	-6.728608	38.94614	133.147	-0.1323288	-5.080156	0.03	3	99	0	6546	-3.960555	-0.7763186	-11.65056	
15:33:25	-6.728608	38.94614	133.187	-0.07420538	-1.386732	0.03	3	99	0	6546	-3.958311	-0.8080518	-11.72185	
15:33:26	-6.728608	38.94614	133.186	-0.02074587	1.439656	0.06	3	99	0	6546	-3.966654	-0.7655476	-11.74919	
15:33:26	-6.728608	38.94614	133.219	-0.008421466	1.680839	0.01	3	99	0	6546	-3.959342	-0.7657195	-11.74612	
15:33:26	-6.728608	38.94614	133.225	0.001959368	2.384344	0.03	3	99	0	6546	-3.950147	-0.7995655	-11.71402	
15:33:26	-6.728608	38.94614	133.25	0.0007402059	2.237216	0.06	3	99	0	6546	-3.921724	-0.8123301	-11.69753	
15:33:27	-6.728608	38.94614	133.262	-0.0005991114	1.713632	0.02	3	99	0	6546	-3.951114	-0.8336794	-11.65448	
15:33:27	-6.728608	38.94614	133.309	0.009578609	2.210456	0.02	3	99	0	6546	-3.945992	-0.7957533	-11.66983	
15:33:27	-6.728608	38.94614	133.335	0.01851357	1.803116	0	3	99	0	6546	-3.970451	-0.8106365	-11.67909	
15:33:28	-6.728608	38.94614	133.366	0.01729034	1.633707	0.03	3	99	0	6546	-3.998087	-0.7824225	-11.74451	
15:33:28	-6.728608	38.94614	133.371	0.01546596	1.045727	0.06	3	99	0	6546	-4.045422	-0.7748329	-11.727	
15:33:28	-6.728608	38.94614	133.419	0.01466279	0.6436116	0.06	3	99	0	6546	-4.053473	-0.7665278	-11.71868	
15:33:28	-6.728608	38.94614	133.438	0.01320445	-0.01657175	0.04	3	99	0	6546	-4.037765	-0.8058854	-11.69143	
15:33:28	-6.728608	38.94614	133.511	0.03575975	1.24279	0.06	3	99	0	6546	-4.076078	-0.794504	-11.64509	
15:33:29	-6.728608	38.94614	133.543	0.05431253	1.979428	0.06	3	99	0	6546	-4.04994	-0.8087784	-11.60488	
15:33:29	-6.728608	38.94614	133.567	0.02886472	0.5419539	0.04	3	99	0	6546	-4.01608	-0.7975453	-11.53423	
15:33:29	-6.728608	38.94614	133.618	0.005251441	-1.221156	0	3	99	0	6546	-4.061402	-0.801029	-11.55546	
15:33:29	-6.728608	38.94614	133.618	-0.0349892	-3.376209	0.08	3	99	0	6546	-4.041794	-0.7321895	-11.5285	
15:33:29	-6.728608	38.94614	133.639	-0.07501551	-5.100715	0.14	3	99	0	6546	-4.018499	-0.6410132	-11.57461	
15:33:29	-6.728608	38.94614	133.66	-0.09844507	-5.426198	0.04	3	99	0	6546	-3.996092	-0.6116295	-11.5595	
15:33:30	-6.728608	38.94614	133.658	-0.1181074	-6.058837	0.04	3	99	0	6546	-4.03417	-0.7070591	-11.55135	
15:33:30	-6.728608	38.94614	133.687	-0.1393021	-6.409968	0.02	3	99	0	6546	-4.016261	-0.7225398	-11.49225	
15:33:30	-6.728608	38.94614	133.713	-0.1564986	-6.187771	0.06	3	99	0	6546	-3.991992	-0.7928458	-11.54477	
15:33:30	-6.728608	38.94614	133.74	-0.1634509	-6.700002	0.09	3	99	0	6546	-3.973324	-0.8006548	-11.54838	
15:33:30	-6.728608	38.94614	133.748	-0.169567	-6.479584	0.04	3	99	0	6546	-3.972599	-0.7980493	-11.60491	
15:33:31	-6.728608	38.94614	133.782	-0.1957593	-7.233729	0.07	3	99	0	6546	-3.992395	-0.7882932	-11.5767	
15:33:31	-6.728608	38.94614	133.817	-0.2400595	-8.879907	0.08	3	99	0	6548	-4.019312	-0.7561011	-11.58258	
15:33:31	-6.728608	38.94614	133.862	-0.2734604	-9.912916	0.06	3	99	0	6546	-4.006077	-0.736811	-11.68294	
15:33:31	-6.728608	38.94614	133.877	-0.2959553	-10.02793	0.04	3	99	0	6546	-3.965196	-0.8501505	-11.66106	
15:33:32	-6.728608	38.94614	133.897	-0.3032544	-9.690746	0.03	3	99	0	6546	-3.996782	-0.8569209	-11.70283	
15:33:32	-6.728608	38.94614	133.932	-0.3022537	-8.808558	0.04	3	99	0	6546	-4.029972	-0.8132454	-11.71683	
15:33:32	-6.728608	38.94614	133.935	-0.3159648	-8.651075	0.09	3	99	0	6546	-4.069477	-0.7558565	-11.68935	
15:33:32	-6.728608	38.94614	133.938	-0.3370293	-8.734203	0.09	3	99	0	6546	-4.071243	-0.731779	-11.65368	
15:33:32	-6.728608	38.94614	133.982	-0.3335168	-7.830357	0.13	3	99	0	6546	-4.030019	-0.6993834	-11.64318	
15:33:32	-6.728608	38.94614	134.005	-0.3122322	-6.26015	0.09	3	99	0	6546	-4.027076	-0.7005193	-11.62873	
15:33:32	-6.728608	38.94614	134.009	-0.3085848	-5.888021	0.04	3	99	0	6546	-4.032769	-0.7874744	-11.71013	
15:33:32	-6.728608	38.94614	134.014	-0.3205548	-6.549142	0.02	3	99	0	6546	-3.989678	-0.8709059	-11.76552	
15:33:33	-6.728608	38.94614	134.068	-0.2995241	-5.184422	0.03	3	99	0	6546	-4.00395	-0.8801159	-11.85166	
15:33:33	-6.728608	38.94614	134.11	-0.2568156	-2.126902	0.09	3	99	0	6546	-3.957459	-0.836211	-11.83159	
15:33:33	-6.728608	38.94614	134.118	-0.2348052	-1.019274	0.01	3	99	0	6546	-3.935086	-0.8608493	-11.89194	
15:33:33	-6.728608	38.94614	134.145	-0.2327038	-1.359478	0.04	3	99	0	6546	-3.9813	-0.8820924	-11.86902	
15:33:33	-6.728608	38.94614	134.139	-0.2039547	0.2428818	0.06	3	99	0	6546	-3.928752	-0.8644691	-11.86033	
15:33:33	-6.728608	38.94614	134.134	-0.1648952	1.910659	0.13	3	99	0	6546	-3.91633	-0.9454043	-11.89001	
15:33:34	-6.728608	38.94614	134.148	-0.1169279	3.636981	0.06	3	99	0	6546	-3.979569	-0.9542031	-11.88774	
15:33:34	-6.728608	38.94614	134.163	-0.06474645	5.73172	0.03	3	99	0	6546	-4.024642	-0.8957113	-11.88768	
15:33:34	-6.728608	38.94614	134.173	-0.01838336	7.692677	0.07	3	99	0	6546	-3.981336	-0.8941961	-11.9171	
15:33:34	-6.728608	38.94614	134.175	0.02271739	8.734225	0.04	3	99	0	6546	-3.943304	-0.9116225	-11.94916	
15:33:34	-6.728608	38.94614	134.211	0.06299274	9.950121	0.13	3	99	0	6546	-3.975047	-0.9678042	-11.8991	
15:33:35	-6.728608	38.94614	134.232	0.09638882	10.94722	0.02	3	99	0	6546	-4.011322	-0.9468448	-11.9073	
15:33:35	-6.728608	38.94614	134.236	0.1251186	11.62624	0.03	3	99	0	6546	-3.983829	-0.8677128	-11.88644	
15:33:35	-6.728608	38.94614	134.254	0.1140419	9.77277	0.07	3	99	0	6546	-3.958822	-0.8723157	-11.82792	
15:33:35	-6.728608	38.94614	134.288	0.1018412	8.192003	0.03	3	99	0	6546	-3.992895	-0.8783584	-11.80354	
15:33:36	-6.728608	38.94614	134.337	0.07972299	6.310891	0.03	3	99	0	6546	-3.992755	-0.8529726	-11.7835	
15:33:36	-6.728608	38.94614	134.335	0.05391432	4.03127	0.03	3	99	0	6546	-4.142034	-0.8389329	-11.79939	
15:33:36	-6.728608	38.94614	134.366	0.06872484	4.701991	0.11	3	99	0	6546	-4.326757	-0.7894237	-11.82822	
15:33:36	-6.728608	38.94614	134.393	0.08314987	5.057722	0.04	3	99	0	6546	-4.136924	-0.7661256	-11.7829	
15:33:36	-6.728608	38.94614	134.383	0.09358208	4.652816	0.03	3	99	0	6546	-4.009129	-0.8147989	-11.77794	
15:33:37	-6.728608	38.94614	134.376	0.1009937	3.677596	0.07	3	99	0	6546	-4.145237	-0.8876998	-11.83157	
15:33:37	-6.728608	38.94614	134.393	0.07833754	1.630193	0.04	3	99	0	6546	-4.167105	-0.8573549	-11.81758	
15:33:37	-6.728607	38.94614	134.403	0.0565005	-0.2524892	0.39	3	99	0	6546	-4.093065	-0.4209702	-11.80086	
15:33:37	-6.728608	38.94614	134.286	0.01774298	-2.748572	0.26	3	99	0	6546	-4.219516	-0.03355063	-11.80761	
15:33:37	-6.728608	38.94614	134.22	-0.01815946	-4.921988	0.13	3	99	0	6547	-4.327919	-0.2368517	-11.84603	
15:33:37	-6.728608	38.94614	134.219	-0.07494503	-7.369721	0.13	3	99	0	6546	-4.320618	-0.4255096	-11.8938	
15:33:38	-6.728608	38.94614	134.278	-0.1260876	-10.08536	0.13	3	99	0	6546	-4.339079	-0.4295916	-11.87084	
15:33:38	-6.728608	38.94614	134.305	-0.1230637	-9.38068	0.09	3	99	0	6546	-4.319008	-0.3683904	-11.83328	
15:33:38	-6.728607	38.94614	134.33	-0.1187268	-8.377413	0.04	3	99	0	6546	-4.304789	-0.2822178	-11.77008	
15:33:38	-6.728607	38.94614	134.328	-0.09578887	-6.274102	0.01	3	99	0	6546	-4.296966	-0.2707848	-11.76605	
15:33:39	-6.728607	38.94614	134.34	-0.07152589	-4.122422	0.07	3	99	0	6546	-4.331922	-0.3309506	-11.72642	
15:33:39	-6.728607	38.94614	134.356	-0.08080982	-4.400638	0.03	3	99	0	6546	-4.258859	-0.3860276	-11.73565	
15:33:39	-6.728607	38.94614	134.375	-0.08919108	-4.716309	0.04	3	99	0	6546	-4.236346	-0.364855	-11.68043	
15:33:39	-6.728607	38.94614	134.406	-0.1287765	-6.305773	0.03	3	99	0	6546	-4.18714	-0.3743153	-11.70038	
15:33:39	-6.728607	38.94614	134.408	-0.1642028	-7.977237	0.09	3	99	0	6546	-4.196609	-0.4609524	-11.63059	
15:33:40	-6.728607	38.94614	134.443	-0.163609	-7.197043	0.04	3	99	0	6546	-4.19258	-0.4219389	-11.73824	
15:33:40	-6.728607	38.94614	134.448	-0.1611115	-5.879274	0.08	3	99	0	6546	-4.134434	-0.3136015	-11.74856	
15:33:40	-6.728608	38.94614	134.405	-0.1526293	-4.992433	0.04	3	99	0	6546	-4.151899	-0.3035337	-11.71011	
15:33:40	-6.728608	38.94614	134.399	-0.1371485	-3.728097	0.04	3	99	0	6546	-4.148314	-0.3737743	-11.75458	
15:33:40	-6.728608	38.94614	134.395	-0.1272259	-2.21977	0.14	3	99	0	6546	-4.100555	-0.507162	-11.79731	
15:33:41	-6.728607	38.94614	134.441	-0.1248284	-1.549368	0.19	3	99	0	6546	-4.132854	-0.6223035	-11.77627	
15:33:41	-6.728607	38.94614	134.483	-0.1260826	-1.352927	0.09	3	99	0	6546	-4.131114	-0.570847	-11.78015	
15:33:41	-6.728607	38.94614	134.524	-0.1305525	-1.318513	0.06	3	99	0	6546	-4.137942	-0.4954041	-11.81203	
15:33:41	-6.728607	38.94614	134.555	-0.1049314	0.2482727	0.03	3	99	0	6546	-4.170584	-0.4584726	-11.75773	
15:33:41	-6.728607	38.94614	134.569	-0.06588624	2.563185	0.09	3	99	0	6546	-4.190979	-0.4821241	-11.82131	
15:33:41	-6.728607	38.94614	134.561	-0.02410348	5.372573	0.01	3	99	0	6546	-4.202317	-0.4760763	-11.78792	
15:33:42	-6.728607	38.94614	134.549	0.01957714	6.794865	0.01	3	99	0	6546	-4.164904	-0.4534965	-11.77877	
15:33:42	-6.728607	38.94614	134.551	0.03824235	7.448291	0.03	3	99	0	6546	-4.170563	-0.4505223	-11.75467	
15:33:42	-6.728607	38.94614	134.534	0.03932908	7.052731	0.03	3	99	0	6546	-4.139702	-0.4383087	-11.77639	
15:33:42	-6.728607	38.94614	134.524	0.0442292	6.805211	0.06	3	99	0	6546	-4.093555	-0.4332418	-11.78926	
15:33:42	-6.728608	38.94614	134.53	0.0512261	6.490716	0.04	3	99	0	6546	-4.221284	-0.4386264	-11.82169	
15:33:43	-6.728607	38.94614	134.567	0.06982122	6.989663	0.07	3	99	0	6548	-4.17147	-0.5018384	-11.78187	
15:33:43	-6.728607	38.94614	134.612	0.09521412	8.596452	0.04	3	99	0	6546	-4.18045	-0.5207208	-11.74603	
15:33:43	-6.728607	38.94614	134.64	0.1233459	9.542799	0.01	3	99	0	6546	-4.218689	-0.4954301	-11.76343	
15:33:43	-6.728607	38.94614	134.67	0.1513473	10.06971	0.04	3	99	0	6546	-4.202646	-0.4711235	-11.76227	
15:33:43	-6.728607	38.94614	134.68	0.1682066	9.777282	0.04	3	99	0	6546	-4.196826	-0.4445756	-11.7846	
15:33:44	-6.728607	38.94614	134.708	0.177593	8.85903	0.01	3	99	0	6546	-4.182125	-0.4625705	-11.83008	
15:33:44	-6.728607	38.94614	134.731	0.177902	8.236403	0.04	3	99	0	6546	-4.17682	-0.4555925	-11.89303	
15:33:44	-6.728608	38.94614	134.746	0.1707768	7.313846	0.06	3	99	0	6546	-3.96415	-0.451184	-11.86983	
15:33:44	-6.728608	38.94614	134.774	0.1651284	6.339173	0.02	3	99	0	6546	-3.972715	-0.5099651	-11.93382	
15:33:45	-6.728608	38.94614	134.79	0.1632008	5.501709	0.04	3	99	0	6546	-4.017049	-0.5723791	-11.92894	
15:33:45	-6.728608	38.94614	134.821	0.1599816	4.629547	0.13	3	99	0	6546	-3.896123	-0.628919	-11.90227	
15:33:45	-6.728607	38.94614	134.869	0.1607165	4.696699	0.08	3	99	0	6546	-4.049038	-0.6198329	-11.89585	
15:33:45	-6.728607	38.94614	134.911	0.1609157	4.288707	0.06	3	99	0	6546	-4.330162	-0.4803379	-11.95879	
15:33:45	-6.728607	38.94614	134.938	0.1764316	4.629496	0.06	3	99	0	6546	-4.035675	-0.5009001	-11.89743	
15:33:45	-6.728607	38.94614	134.964	0.1912316	4.738105	0	3	99	0	6546	-3.965573	-0.4921313	-11.92845	
15:33:46	-6.728607	38.94614	134.989	0.2402557	6.54918	0.09	3	99	0	6546	-4.189957	-0.3849106	-11.9433	
15:33:46	-6.728607	38.94614	134.972	0.2869191	8.120726	0.08	3	99	0	6546	-4.225692	-0.3829341	-11.99602	
15:33:46	-6.728608	38.94614	134.932	0.327147	9.603333	0.04	3	99	0	6546	-4.183328	-0.42883	-12.03065	
15:33:46	-6.728608	38.94614	134.935	0.3693236	10.22652	0.04	3	99	0	6546	-4.27549	-0.4381925	-12.00206	
15:33:46	-6.728608	38.94614	134.977	0.4225582	11.7661	0.04	3	99	0	6546	-4.122372	-0.5133058	-12.01457	
15:33:47	-6.728608	38.94614	134.97	0.4681972	12.41209	0.04	3	99	0	6546	-4.203681	-0.5490797	-11.96444	
15:33:47	-6.728608	38.94614	134.991	0.443227	9.973957	0.09	3	99	0	6546	-4.132659	-0.5756217	-11.96958	
15:33:47	-6.728608	38.94614	135.026	0.418283	7.404828	0.06	3	99	0	6546	-3.921355	-0.548734	-11.92958	
15:33:47	-6.728608	38.94614	135.064	0.4257681	7.300769	0.02	3	99	0	6546	-4.076713	-0.5207577	-11.9189	
15:33:48	-6.728608	38.94614	135.087	0.4306661	6.71543	0.06	3	99	0	6546	-4.295863	-0.5626687	-11.91116	
15:33:48	-6.728608	38.94614	135.098	0.3765253	2.879605	0.06	3	99	0	6546	-4.060689	-0.5181311	-11.84785	
15:33:48	-6.728608	38.94614	135.087	0.3356513	0.3989687	0.06	3	99	0	6546	-3.865693	-0.5841981	-11.80635	
15:33:48	-6.728608	38.94614	135.09	0.2312884	-5.508383	0.04	3	99	0	6546	-3.958384	-0.596533	-11.84169	
15:33:48	-6.728608	38.94614	135.104	0.1292858	-10.06382	0.07	3	99	0	6546	-3.764388	-0.5725281	-11.81936	
15:33:49	-6.728608	38.94614	135.127	0.1007154	-10.51512	0.09	3	99	0	6546	-3.439213	-0.6313111	-11.82737	
15:33:49	-6.728608	38.94614	135.127	0.07707621	-10.95193	0.09	3	99	0	6546	-3.471817	-0.6677488	-11.80197	
15:33:49	-6.728608	38.94614	135.194	0.04456289	-11.96854	0.13	3	99	0	6546	-3.989762	-0.6440773	-11.91262	
15:33:49	-6.728608	38.94614	135.236	0.01554675	-12.23439	0.03	3	99	0	6546	-4.302341	-0.6957318	-11.95579	
15:33:49	-6.728608	38.94614	135.236	-0.002827791	-12.32532	0.03	3	99	0	6546	-3.956373	-0.6269889	-11.94792	
15:33:50	-6.728608	38.94614	135.262	-0.01639948	-11.83029	0.06	3	99	0	6546	-3.836454	-0.5737089	-11.9843	
15:33:50	-6.728609	38.94614	135.266	-0.05243081	-13.45567	0.03	3	99	0	6546	-4.111329	-0.4946958	-11.96434	
15:33:50	-6.728609	38.94614	135.278	-0.1029713	-14.69358	0.06	3	99	0	6546	-4.055283	-0.5154877	-11.94543	
15:33:50	-6.728609	38.94614	135.275	-0.1302308	-14.92441	0.06	3	99	0	6546	-3.945151	-0.600899	-11.92584	
15:33:50	-6.728609	38.94614	135.287	-0.137462	-14.02554	0.02	3	99	0	6546	-4.077989	-0.6278402	-12.02884	
15:33:51	-6.728609	38.94614	135.293	-0.1667882	-14.40871	0.01	3	99	0	6546	-4.14262	-0.5807973	-11.99341	
15:33:51	-6.728609	38.94614	135.275	-0.2061257	-15.11684	0.01	3	99	0	6546	-4.038898	-0.5509207	-11.92361	
15:33:51	-6.728609	38.94614	135.275	-0.2298288	-15.19722	0.01	3	99	0	6546	-4.150388	-0.5244341	-11.95909	
15:33:51	-6.728609	38.94614	135.26	-0.2431689	-14.31545	0.06	3	99	0	6546	-4.217178	-0.5673757	-11.91865	
15:33:51	-6.728609	38.94614	135.227	-0.2505427	-13.26097	0.08	3	99	0	6546	-4.143412	-0.446835	-11.91989	
15:33:51	-6.728609	38.94614	135.218	-0.253837	-12.74214	0.04	3	99	0	6546	-4.150064	-0.5092898	-11.95543	
15:33:52	-6.728609	38.94614	135.193	-0.2630881	-12.4086	0.08	3	99	0	6546	-4.26453	-0.4943582	-12.01825	
15:33:52	-6.728609	38.94614	135.193	-0.2771276	-12.03199	0.08	3	99	0	6546	-4.201585	-0.5297146	-11.93536	
15:33:52	-6.728609	38.94614	135.186	-0.2767785	-11.1686	0.13	3	99	0	6546	-4.128276	-0.5225821	-11.88728	
15:33:52	-6.728609	38.94614	135.207	-0.2639549	-9.295808	0.09	3	99	0	6546	-4.125857	-0.5661616	-11.9131	
15:33:53	-6.72861	38.94614	135.225	-0.2517082	-7.899634	0.04	3	99	0	6546	-4.193734	-0.5556927	-11.84591	
15:33:53	-6.72861	38.94614	135.226	-0.2405223	-6.934032	0.08	3	99	0	6546	-4.138609	-0.532473	-11.83028	
15:33:53	-6.72861	38.94614	135.204	-0.2116951	-4.730341	0.08	3	99	0	6546	-4.120201	-0.5536811	-11.84591	
15:33:53	-6.72861	38.94614	135.202	-0.1741375	-2.117545	0.09	3	99	0	6546	-4.245462	-0.5425026	-11.81688	
15:33:53	-6.72861	38.94614	135.214	-0.1507096	-0.8077527	0.04	3	99	0	6546	-4.256261	-0.4183633	-11.84661	
15:33:54	-6.72861	38.94614	135.216	-0.1403016	-0.10306	0.03	3	99	0	6546	-4.152234	-0.4262328	-11.88444	
15:33:54	-6.72861	38.94614	135.207	-0.144775	0.2717481	0.02	3	99	0	6546	-4.107707	-0.4912107	-11.8592	
15:33:54	-6.72861	38.94614	135.18	-0.1619416	-0.8263806	0.12	3	99	0	6546	-4.026757	-0.4862727	-11.85095	
15:33:54	-6.72861	38.94614	135.18	-0.1751337	-1.489191	0.12	3	99	0	6546	-4.073955	-0.4011303	-11.84358	
15:33:54	-6.728611	38.94614	135.13	-0.1837979	-1.830444	0.04	3	99	0	6547	-4.13918	-0.4279113	-11.82643	
15:33:55	-6.728611	38.94614	135.113	-0.191648	-2.143872	0.04	3	99	0	6546	-3.949569	-0.4392093	-11.75526	
15:33:55	-6.728611	38.94614	135.098	-0.1960451	-1.833561	0.03	3	99	0	6546	-3.946008	-0.4880574	-11.77428	
15:33:55	-6.728611	38.94614	135.08	-0.1986778	-1.276876	0.07	3	99	0	6544	-4.147026	-0.4937836	-11.73725	
15:33:55	-6.728611	38.94614	135.081	-0.1517638	1.09509	0.02	3	99	0	6546	-3.985078	-0.5368908	-11.76617	
15:33:55	-6.728611	38.94614	135.074	-0.1091995	3.172824	0.07	3	99	0	6546	-3.934233	-0.559187	-11.70344	
15:33:55	-6.728611	38.94614	135.06	-0.1085439	3.060417	0.04	3	99	0	6546	-3.99246	-0.6010041	-11.71637	
15:33:56	-6.728611	38.94614	135.054	-0.1084055	2.828177	0.02	3	99	0	6546	-3.952888	-0.6267634	-11.77447	
15:33:56	-6.728611	38.94614	135.057	-0.10497	2.393284	0.08	3	99	0	6546	-4.001778	-0.5972031	-11.76792	
15:33:56	-6.728611	38.94614	135.05	-0.1028705	2.158724	0.04	3	99	0	6546	-3.965865	-0.5581604	-11.74455	
15:33:56	-6.728611	38.94614	135.008	-0.04579307	4.442488	0.01	3	99	0	6546	-3.997774	-0.568958	-11.80238	
15:33:56	-6.728611	38.94614	135.008	0.004835126	6.780797	0.04	3	99	0	6546	-3.992589	-0.5365641	-11.73902	
15:33:57	-6.728611	38.94614	135.026	0.03719421	8.018592	0.09	3	99	0	6546	-4.081725	-0.5001298	-11.72409	
15:33:57	-6.728611	38.94614	134.973	0.06541934	8.698453	0.11	3	99	0	6546	-4.04546	-0.4592626	-11.75099	
15:33:57	-6.728611	38.94614	134.955	0.1295048	11.15979	0.02	3	99	0	6546	-4.087163	-0.4323703	-11.764	
15:33:57	-6.728612	38.94614	134.923	0.1853137	12.39836	0.04	3	99	0	6546	-4.087661	-0.4888141	-11.78079	
15:33:58	-6.728612	38.94614	134.909	0.1811146	10.72913	0.14	3	99	0	6546	-4.08601	-0.5894668	-11.77529	
15:33:58	-6.728612	38.94614	134.918	0.1749192	9.703842	0.09	3	99	0	6546	-4.126332	-0.7003813	-11.80265	
15:33:58	-6.728612	38.94614	134.922	0.1558493	7.56985	0.06	3	99	0	6546	-4.101225	-0.6937563	-11.78358	
15:33:58	-6.728612	38.94614	134.918	0.1365728	5.759058	0.02	3	99	0	6546	-4.012874	-0.6407198	-11.78909	
15:33:58	-6.728612	38.94614	134.917	0.1559941	6.386827	0	3	99	0	6546	-4.014787	-0.6011989	-11.81614	
15:33:59	-6.728612	38.94614	134.915	0.1737479	7.193221	0.07	3	99	0	6546	-4.038719	-0.5811243	-11.78654	
15:33:59	-6.728612	38.94614	134.906	0.1879397	7.711236	0.03	3	99	0	6546	-4.051958	-0.6265079	-11.81231	
15:33:59	-6.728612	38.94614	134.882	0.1999905	7.647966	0.03	3	99	0	6546	-3.968255	-0.5789347	-11.72825	
15:33:59	-6.728612	38.94614	134.866	0.2239389	8.135058	0.01	3	99	0	6546	-3.984401	-0.5375062	-11.65186	
15:34:00	-6.728612	38.94614	134.866	0.2442638	8.215664	0.01	3	99	0	6546	-3.974016	-0.5426577	-11.57766	
15:34:00	-6.728613	38.94614	134.846	0.2438964	7.199896	0.04	3	99	0	6546	-3.938045	-0.5543006	-11.69518	
15:34:00	-6.728613	38.94614	134.838	0.2193824	5.087243	0.07	3	99	0	6546	-4.026232	-0.557973	-11.69987	
15:34:00	-6.728612	38.94614	134.846	0.2248077	4.810822	0.04	3	99	0	6546	-4.037398	-0.6609873	-11.81704	
15:34:00	-6.728612	38.94614	134.846	0.2533571	5.437895	0.04	3	99	0	6546	-4.006082	-0.6486446	-11.75499	
15:34:01	-6.728613	38.94614	134.796	0.2695266	5.575009	0.01	3	99	0	6546	-3.991625	-0.5954778	-11.72083	
15:34:01	-6.728613	38.94614	134.786	0.2772651	5.005251	0.02	3	99	0	6544	-3.98819	-0.6305404	-11.69649	
15:34:01	-6.728613	38.94614	134.757	0.2974274	5.527122	0.04	3	99	0	6546	-3.990425	-0.6430029	-11.65209	
15:34:01	-6.728613	38.94614	134.741	0.3228889	6.094737	0.01	3	99	0	6546	-3.981581	-0.6316832	-11.64839	
15:34:02	-6.728613	38.94614	134.752	0.3321047	6.083004	0.02	3	99	0	6546	-3.928426	-0.6706696	-11.66763	
15:34:02	-6.728613	38.94614	134.738	0.325793	5.306992	0.09	3	99	0	6546	-3.937761	-0.701884	-11.64279	
15:34:02	-6.728613	38.94614	134.704	0.3190633	4.697084	0.03	3	99	0	6546	-3.953922	-0.7350909	-11.63505	
15:34:02	-6.728613	38.94614	134.685	0.3128001	4.124107	0.02	3	99	0	6546	-3.981342	-0.747279	-11.69745	
15:34:03	-6.728613	38.94614	134.648	0.3060043	3.155722	0.04	3	99	0	6546	-3.991055	-0.7076508	-11.63483	
15:34:03	-6.728613	38.94614	134.605	0.2997328	2.468549	0.04	3	99	0	6546	-4.022404	-0.7425207	-11.62463	
15:34:03	-6.728613	38.94614	134.584	0.2593445	-0.5511562	0.08	3	99	0	6546	-3.977357	-0.7152321	-11.6323	
15:34:03	-6.728613	38.94614	134.57	0.2016714	-3.682872	0.04	3	99	0	6545	-4.06614	-0.6921812	-11.62489	
15:34:04	-6.728613	38.94614	134.574	0.1414275	-6.397601	0.03	3	99	0	6546	-4.04156	-0.7216081	-11.5391	
15:34:04	-6.728613	38.94614	134.567	0.07127665	-9.57491	0.07	3	99	0	6546	-3.946576	-0.7793162	-11.56772	
15:34:04	-6.728613	38.94614	134.583	-0.00258266	-13.11586	0.02	3	99	0	6546	-4.07135	-0.7049767	-11.54175	
15:34:04	-6.728613	38.94614	134.569	-0.08337376	-16.13813	0.04	3	99	0	6546	-3.985679	-0.796214	-11.52271	
15:34:05	-6.728613	38.94614	134.587	-0.1570564	-18.08363	0.08	3	99	0	6546	-4.010446	-0.8226196	-11.52329	
15:34:05	-6.728613	38.94614	134.592	-0.225514	-20.20047	0.04	3	99	0	6546	-4.024277	-0.8148835	-11.45574	
15:34:05	-6.728613	38.94614	134.585	-0.2819514	-21.17357	0.06	3	99	0	6546	-4.055964	-0.7853561	-11.40375	
15:34:05	-6.728613	38.94614	134.581	-0.3266098	-21.26228	0.02	3	99	0	6546	-3.924257	-0.7300254	-11.38328	
15:34:05	-6.728613	38.94614	134.58	-0.3631269	-21.34607	0.04	3	99	0	6546	-4.043449	-0.7582258	-11.38492	
15:34:05	-6.728613	38.94614	134.579	-0.3456086	-18.59939	0.03	3	99	0	6546	-3.948011	-0.7338807	-11.36986	
15:34:06	-6.728613	38.94614	134.578	-0.3241486	-15.69666	0.08	3	99	0	6546	-3.968879	-0.7909712	-11.34758	
15:34:06	-6.728613	38.94614	134.555	-0.296558	-12.66885	0.06	3	99	0	6547	-3.977506	-0.7142211	-11.34021	
15:34:06	-6.728613	38.94614	134.558	-0.2683394	-10.13043	0.04	3	99	0	6546	-3.918465	-0.7394683	-11.34824	
15:34:06	-6.728613	38.94614	134.561	-0.2731199	-9.887877	0.02	3	99	0	6546	-3.900418	-0.7324407	-11.34385	
15:34:07	-6.728613	38.94614	134.552	-0.2764877	-9.527563	0.06	3	99	0	6546	-3.922123	-0.7431636	-11.37581	
15:34:07	-6.728613	38.94614	134.54	-0.2621349	-8.238837	0.06	3	99	0	6546	-3.942576	-0.8000138	-11.36525	
15:34:07	-6.728613	38.94614	134.537	-0.2461869	-6.101133	0.01	3	99	0	6546	-3.94285	-0.7551017	-11.38975	
15:34:07	-6.728613	38.94614	134.53	-0.2554936	-6.672813	0.01	3	99	0	6546	-3.992775	-0.7559494	-11.45892	
15:34:07	-6.728613	38.94614	134.503	-0.2630964	-6.270804	0.03	3	99	0	6546	-3.992597	-0.7455344	-11.4601	
15:34:07	-6.728613	38.94614	134.505	-0.2729993	-6.299221	0.09	3	99	0	6546	-3.961351	-0.7446002	-11.52868	
15:34:08	-6.728613	38.94614	134.523	-0.2818795	-6.138506	0.04	3	99	0	6546	-4.006116	-0.6543326	-11.50913	
15:34:08	-6.728613	38.94614	134.504	-0.2858691	-5.679765	0.02	3	99	0	6546	-3.990172	-0.6821544	-11.50578	
15:34:08	-6.728613	38.94614	134.432	-0.2883177	-5.285482	0.01	3	99	0	6546	-3.987903	-0.7284287	-11.57548	
15:34:08	-6.728613	38.94614	134.41	-0.2609961	-2.755634	0.04	3	99	0	6546	-3.966469	-0.7543539	-11.63239	
15:34:09	-6.728613	38.94614	134.405	-0.2347722	-1.129696	0.06	3	99	0	6546	-3.999234	-0.7498773	-11.67875	
15:34:09	-6.728613	38.94614	134.385	-0.1933817	0.9646254	0.03	3	99	0	6546	-3.97222	-0.6598002	-11.73275	
15:34:09	-6.728613	38.94614	134.387	-0.1561178	3.018825	0.02	3	99	0	6546	-3.949572	-0.6933311	-11.70629	
15:34:09	-6.728613	38.94614	134.366	-0.1213473	4.914057	0.03	3	99	0	6546	-3.942036	-0.6953942	-11.69229	
15:34:09	-6.728613	38.94614	134.37	-0.09110698	5.656241	0.04	3	99	0	6546	-3.989359	-0.7531172	-11.66538	
15:34:09	-6.728613	38.94614	134.357	-0.06807604	6.462443	0.02	3	99	0	6546	-4.010518	-0.7531774	-11.6167	
15:34:10	-6.728613	38.94614	134.326	-0.04704301	7.801473	0.07	3	99	0	6546	-3.997957	-0.7161018	-11.65905	
15:34:11	-6.728613	38.94614	134.226	-0.06267057	6.158517	0.07	3	97	0	6546	-3.978025	-0.7215973	-11.71684	
15:34:11	-6.728613	38.94614	134.239	-0.07818304	3.591867	0.02	3	97	0	6546	-4.008812	-0.6734892	-11.75708	
15:34:11	-6.728613	38.94614	134.232	-0.03269907	5.618285	0.04	3	97	0	6546	-3.948608	-0.7465475	-11.7258	
15:34:11	-6.728613	38.94614	134.229	-0.01492338	6.19175	0.01	3	97	0	6546	-4.001891	-0.7152575	-11.75422	
15:34:11	-6.728613	38.94614	134.235	-0.01467108	5.729943	0.04	3	97	0	6546	-3.98154	-0.755751	-11.80754	
15:34:11	-6.728613	38.94614	134.236	-0.03625246	3.960169	0.04	3	97	0	6546	-4.027563	-0.6992632	-11.7642	
15:34:12	-6.728613	38.94614	134.245	-0.06973471	1.52758	0.14	3	97	0	6546	-3.994976	-0.6894109	-11.75242	
15:34:12	-6.728613	38.94614	134.275	-0.0989619	-0.4429973	0.13	3	97	0	6546	-4.044863	-0.5597268	-11.67657	
15:34:12	-6.728613	38.94614	134.265	-0.1240119	-1.903718	0.11	3	97	0	6546	-3.987876	-0.5629165	-11.70884	
15:34:12	-6.728613	38.94614	134.265	-0.145512	-3.153083	0.04	3	97	0	6546	-3.991802	-0.6031269	-11.7647	
15:34:12	-6.728613	38.94614	134.245	-0.1707245	-4.499281	0.03	3	97	0	6546	-3.964317	-0.6882031	-11.74433	
15:34:12	-6.728613	38.94614	134.247	-0.1760201	-5.075224	0.04	3	97	0	6546	-3.959057	-0.7720281	-11.79279	
15:34:13	-6.728613	38.94614	134.247	-0.1655998	-4.123126	0.04	3	97	0	6546	-3.975347	-0.7098405	-11.81793	
15:34:13	-6.728614	38.94614	134.244	-0.1562491	-3.571502	0.09	3	97	0	6546	-3.905335	-0.7653251	-11.87089	
15:34:13	-6.728614	38.94614	134.243	-0.1484494	-2.575802	0.03	3	97	0	6546	-3.971277	-0.6979415	-11.91939	
15:34:13	-6.728614	38.94614	134.297	-0.143155	-2.612741	0.04	3	97	0	6546	-3.93734	-0.7331414	-11.95219	
15:34:13	-6.728614	38.94614	134.294	-0.1422761	-2.72015	0.04	3	97	0	6546	-3.961264	-0.7422181	-11.96496	
15:34:13	-6.728614	38.94614	134.32	-0.1555692	-3.053216	0.02	3	97	0	6546	-3.933654	-0.7393552	-12.02822	
15:34:13	-6.728614	38.94614	134.326	-0.18802	-4.657317	0.09	3	97	0	6546	-3.922823	-0.7952346	-12.02121	
15:34:14	-6.728614	38.94614	134.328	-0.2110424	-5.344099	0.04	3	97	0	6546	-3.838404	-0.8085726	-11.99541	
15:34:14	-6.728614	38.94614	134.342	-0.2225056	-5.081188	0.07	3	97	0	6546	-3.988799	-0.7755718	-11.99064	
15:34:14	-6.728614	38.94614	134.332	-0.2275094	-4.988669	0.09	3	97	0	6546	-3.930745	-0.863379	-12.00418	
15:34:14	-6.728614	38.94614	134.378	-0.2254696	-4.437539	0.08	3	97	0	6546	-3.916124	-0.8890893	-11.96349	
15:34:15	-6.728614	38.94614	134.398	-0.2226643	-3.987147	0.07	3	97	0	6546	-3.923661	-0.8668395	-11.93222	
15:34:15	-6.728614	38.94614	134.43	-0.1532884	0.2815279	0.04	3	97	0	6546	-3.95331	-0.77126	-11.98934	
15:34:15	-6.728614	38.94614	134.452	-0.08882225	4.008011	0.04	3	97	0	6546	-4.006015	-0.8670102	-12.00039	
15:34:15	-6.728614	38.94614	134.467	-0.02091904	7.118505	0.09	3	97	0	6546	-3.946649	-0.9116731	-11.96171	
15:34:16	-6.728614	38.94614	134.515	0.04667645	10.27376	0.09	3	97	0	6546	-3.993084	-0.9501008	-11.90365	
15:34:16	-6.728614	38.94614	134.534	0.04402084	9.859547	0.14	3	97	0	6546	-4.041061	-0.7329148	-11.93682	
15:34:16	-6.728614	38.94613	134.551	0.04068558	8.862068	0.01	3	97	0	6546	-4.094165	-0.6590233	-11.90815	
15:34:16	-6.728614	38.94613	134.554	-0.00465973	5.267375	0.02	3	97	0	6546	-4.041181	-0.7732167	-11.88113	
15:34:16	-6.728614	38.94613	134.553	-0.0518494	2.037953	0.06	3	97	0	6546	-4.044703	-0.7799647	-11.84852	
15:34:17	-6.728614	38.94613	134.56	-0.09603313	-1.102688	0.02	3	97	0	6546	-3.970078	-0.8110207	-11.80558	
15:34:17	-6.728614	38.94613	134.561	-0.1374294	-3.393043	0.07	3	97	0	6546	-4.005894	-0.7123691	-11.80619	
15:34:17	-6.728614	38.94613	134.578	-0.2157727	-7.292593	0.02	3	97	0	6547	-4.041299	-0.7590255	-11.80838	
15:34:17	-6.728614	38.94613	134.569	-0.2859145	-10.34642	0.02	3	97	0	6546	-3.964804	-0.8028139	-11.81299	
15:34:17	-6.728614	38.94613	134.568	-0.3051657	-10.40635	0.04	3	97	0	6546	-3.990243	-0.7905738	-11.78909	
15:34:18	-6.728614	38.94613	134.565	-0.3227396	-10.53001	0.04	3	97	0	6546	-3.986857	-0.8287544	-11.8458	
15:34:18	-6.728614	38.94613	134.549	-0.3377787	-10.04981	0.02	3	98	0	6547	-3.956507	-0.7429422	-11.81707	
15:34:18	-6.728614	38.94613	134.536	-0.3497922	-10.23747	0.04	3	98	0	6546	-3.993667	-0.7802951	-11.84815	
15:34:18	-6.728614	38.94613	134.552	-0.3593917	-9.640318	0.07	3	98	0	6546	-3.999562	-0.8161678	-11.84156	
15:34:19	-6.728614	38.94613	134.573	-0.3661828	-8.685693	0.02	3	98	0	6546	-3.960383	-0.8128187	-11.80762	
15:34:19	-6.728614	38.94613	134.588	-0.4087011	-10.18037	0.09	3	98	0	6546	-3.993684	-0.7635553	-11.83165	
15:34:19	-6.728614	38.94613	134.598	-0.4457733	-11.09467	0.22	3	98	0	6546	-3.954148	-0.827562	-11.87407	
15:34:19	-6.728614	38.94613	134.609	-0.5014492	-12.45991	0.19	3	98	0	6546	-3.944326	-0.93826	-11.89439	
15:34:19	-6.728614	38.94613	134.65	-0.549063	-13.60058	0.17	3	98	0	6546	-3.990476	-0.9117753	-11.8427	
15:34:19	-6.728614	38.94613	134.68	-0.5784965	-13.99516	0.02	3	98	0	6546	-4.02084	-0.8445317	-11.81976	
15:34:20	-6.728614	38.94613	134.702	-0.602075	-13.3792	0.03	3	98	0	6547	-3.998574	-0.6998296	-11.82674	
15:34:20	-6.728614	38.94613	134.738	-0.6145781	-12.6039	0.02	3	98	0	6546	-3.992104	-0.6935167	-11.83458	
15:34:20	-6.728614	38.94613	134.784	-0.6182857	-10.8184	0.04	3	98	0	6546	-3.988699	-0.7134178	-11.79556	
15:34:20	-6.728614	38.94613	134.78	-0.6127515	-9.288905	0.03	3	98	0	6546	-4.02153	-0.7190385	-11.7879	
15:34:20	-6.728614	38.94613	134.784	-0.6006374	-8.323435	0.07	3	98	0	6546	-4.03756	-0.6417285	-11.77674	
15:34:21	-6.728614	38.94613	134.798	-0.5652509	-5.531065	0.02	3	98	0	6546	-4.054121	-0.6529178	-11.8115	
15:34:21	-6.728614	38.94613	134.798	-0.5166059	-2.358973	0.06	3	98	0	6546	-4.000091	-0.6601528	-11.84197	
15:34:21	-6.728614	38.94613	134.813	-0.4892062	-0.6866415	0.04	3	98	0	6546	-4.064261	-0.6414933	-11.88673	
15:34:21	-6.728614	38.94613	134.825	-0.4767376	-0.07743891	0.04	3	98	0	6546	-4.066768	-0.6962765	-11.86151	
15:34:21	-6.728614	38.94613	134.86	-0.4758689	-0.6131786	0.04	3	98	0	6546	-4.017927	-0.6735671	-11.81151	
15:34:21	-6.728614	38.94613	134.879	-0.4925905	-1.350285	0.04	3	98	0	6546	-4.035825	-0.7162052	-11.86086	
15:34:22	-6.728614	38.94613	134.88	-0.4855291	-0.9109447	0.04	3	98	0	6546	-4.069813	-0.6411228	-11.8503	
15:34:22	-6.728614	38.94613	134.88	-0.447936	1.376485	0.04	3	98	0	6546	-4.088233	-0.6565432	-11.84758	
15:34:22	-6.728614	38.94613	134.886	-0.4056415	3.850285	0.04	3	98	0	6546	-4.092541	-0.6871213	-11.86339	
15:34:22	-6.728614	38.94613	134.881	-0.3567694	6.405517	0.09	3	98	0	6546	-4.017929	-0.6924422	-11.90943	
15:34:22	-6.728614	38.94613	134.875	-0.330533	6.994422	0.04	3	98	0	6546	-4.038537	-0.608705	-11.85146	
15:34:23	-6.728614	38.94613	134.867	-0.3200379	6.515643	0.01	3	98	0	6546	-3.9911	-0.6981069	-11.87366	
15:34:23	-6.728614	38.94613	134.856	-0.3274058	5.464864	0.06	3	98	0	6546	-4.028959	-0.6861606	-11.84937	
15:34:23	-6.728614	38.94613	134.843	-0.343431	4.0816	0.03	3	98	0	6546	-4.066834	-0.7124882	-11.85439	
15:34:23	-6.728614	38.94613	134.849	-0.3569748	2.641222	0.04	3	98	0	6546	-3.984592	-0.7352929	-11.89166	
15:34:23	-6.728614	38.94613	134.874	-0.3649791	1.998477	0.04	3	98	0	6546	-4.000607	-0.719707	-11.91051	
15:34:24	-6.728614	38.94613	134.892	-0.345383	3.247868	0.04	3	98	0	6546	-4.025516	-0.7729624	-11.90413	
15:34:24	-6.728614	38.94613	134.906	-0.2895781	5.934203	0.04	3	98	0	6546	-4.040954	-0.7613266	-11.89434	
15:34:24	-6.728614	38.94613	134.909	-0.225708	8.434848	0.02	3	98	0	6546	-4.064857	-0.7218611	-11.85552	
15:34:24	-6.728614	38.94613	134.909	-0.1645463	10.48038	0.02	3	98	0	6546	-4.106236	-0.7560507	-11.81855	
15:34:24	-6.728615	38.94613	134.872	-0.1117365	12.12381	0.06	3	98	0	6546	-4.178415	-0.7917293	-11.82629	
15:34:25	-6.728615	38.94613	134.872	-0.1022799	11.61634	0.09	3	98	0	6546	-4.166986	-0.8394804	-11.83338	
15:34:25	-6.728614	38.94613	134.912	-0.09573781	10.94714	0.16	3	98	0	6546	-4.086108	-0.85271	-11.79247	
15:34:25	-6.728614	38.94613	134.932	-0.07879793	11.07281	0.09	3	98	0	6547	-4.109419	-0.9071161	-11.80995	
15:34:25	-6.728615	38.94613	134.914	-0.06335575	10.91961	0.03	3	98	0	6546	-4.118639	-0.8182434	-11.79063	
15:34:25	-6.728615	38.94613	134.907	-0.1135298	6.681437	0.02	3	98	0	6546	-4.00876	-0.7314932	-11.79232	
15:34:25	-6.728615	38.94613	134.888	-0.1530569	3.798081	0.08	3	98	0	6546	-4.069807	-0.7187772	-11.83665	
15:34:26	-6.728615	38.94613	134.9	-0.1785146	2.501975	0.06	3	98	0	6546	-4.064728	-0.7944886	-11.79287	
15:34:26	-6.728615	38.94613	134.878	-0.2034703	1.71811	0.02	3	98	0	6546	-4.079888	-0.767276	-11.84586	
15:34:26	-6.728615	38.94613	134.859	-0.2368543	-0.4725397	0.01	3	98	0	6546	-4.064173	-0.7132362	-11.83982	
15:34:26	-6.728615	38.94613	134.851	-0.2678145	-2.477498	0.06	3	98	0	6546	-4.037642	-0.6778961	-11.81362	
15:34:27	-6.728615	38.94613	134.81	-0.2041559	1.293505	0.04	3	98	0	6546	-4.025316	-0.6481683	-11.79187	
15:34:27	-6.728615	38.94613	134.792	-0.1460263	4.166615	0.03	3	98	0	6546	-4.019406	-0.7008045	-11.78333	
15:34:27	-6.728615	38.94613	134.788	-0.1038224	5.660954	0.06	3	98	0	6546	-4.181518	-0.7000531	-11.79694	
15:34:27	-6.728615	38.94613	134.776	-0.06175511	7.236454	0.26	3	98	0	6546	-4.348548	-0.5232757	-11.81211	
15:34:27	-6.728615	38.94613	134.737	-0.1060671	3.937658	0.19	3	98	0	6546	-4.435138	-0.228717	-11.76347	
15:34:27	-6.728615	38.94613	134.69	-0.1404285	2.050238	0.08	3	98	0	6546	-4.333688	-0.2896889	-11.71964	
15:34:28	-6.728615	38.94613	134.672	-0.2102313	-2.234034	0.09	3	98	0	6546	-4.12404	-0.3849506	-11.71822	
15:34:28	-6.728615	38.94613	134.625	-0.2798767	-5.411901	0.01	3	98	0	6546	-4.048969	-0.380367	-11.76526	
15:34:28	-6.728615	38.94613	134.598	-0.2899191	-5.482122	0.06	3	98	0	6546	-4.219987	-0.4599444	-11.80086	
15:34:28	-6.728615	38.94613	134.569	-0.2979214	-4.948591	0.06	3	98	0	6546	-4.156771	-0.4781487	-11.77309	
15:34:28	-6.728615	38.94613	134.569	-0.2619917	-2.25228	0.14	3	98	0	6546	-4.144746	-0.5553285	-11.8064	
15:34:28	-6.728615	38.94613	134.575	-0.2286523	-0.2570311	0.12	3	98	0	6546	-4.139514	-0.656343	-11.84276	
15:34:29	-6.728615	38.94613	134.579	-0.2236365	0.6067885	0.08	3	98	0	6546	-4.158137	-0.6247194	-11.83572	
15:34:29	-6.728615	38.94613	134.571	-0.2176429	1.347849	0.01	3	98	0	6546	-4.243917	-0.5638153	-11.83842	
15:34:29	-6.728615	38.94613	134.565	-0.1913487	2.833267	0.02	3	98	0	6546	-4.172032	-0.493975	-11.8169	
15:34:29	-6.728615	38.94613	134.557	-0.1369209	5.756455	0.07	3	98	0	6546	-4.198492	-0.4981484	-11.80519	
15:34:30	-6.728615	38.94613	134.563	-0.09275839	7.217761	0.03	3	98	0	6546	-4.173902	-0.5546875	-11.75849	
15:34:30	-6.728615	38.94613	134.547	-0.05728597	8.578452	0.04	3	98	0	6546	-4.149229	-0.5480453	-11.75269	
