Date	Latitude(deg) 	Longitude(deg)	hamsl(m)	hafl(m)	climbrate(cm/s)	GroundSpeed(m/s)	Airspeed(m/s)	Mav_Link(%)	Rssi_Link(%)	Throttle	Roll(deg)	Pitch(deg)	Yaw(deg)
13:08:40	-6.728646	38.94614	133.015	0	0	0.09	0	100	0	0	7.466709	-2.265033	0.1642876	
13:08:40	-6.728644	38.94614	132.775	3.365509	-1.25007	0.04	3	100	0	6546	7.268449	-2.100787	-0.1565838	
13:08:40	-6.728644	38.94614	132.784	3.361055	-3.876401	0.06	3	100	0	6546	7.203258	-2.102576	-0.3906607	
13:08:40	-6.728644	38.94614	132.783	3.045058	-22.72091	0.09	3	100	0	6546	6.941897	-2.07829	-0.631413	
13:08:40	-6.728645	38.94614	132.775	2.753525	-37.69724	0.07	3	100	0	6546	6.728492	-2.127429	-0.8616706	
13:08:41	-6.728645	38.94614	132.796	2.816484	-32.77137	0.04	3	100	0	6546	4.934028	-2.044648	-1.120786	
13:08:41	-6.728645	38.94614	132.772	2.876042	-28.96495	0.03	3	100	0	6545	4.005497	-2.004258	-1.239923	
13:08:41	-6.728645	38.94614	132.772	3.094414	-17.17851	0.03	3	100	0	6546	2.26676	-1.998286	-1.284128	
13:08:41	-6.728645	38.94614	132.735	3.290259	-8.451364	0.03	3	100	0	6546	1.936948	-1.951904	-1.184879	
13:08:41	-6.728646	38.94614	132.725	3.446224	-2.691518	0.08	3	100	0	6546	1.166319	-1.967865	-1.03216	
13:08:42	-6.728646	38.94614	132.737	3.581272	1.160071	0.06	3	100	0	6546	1.067817	-1.935856	-0.955569	
13:08:42	-6.728646	38.94614	132.746	3.557533	-2.996849	0.06	3	100	0	6546	1.497722	-2.041244	-0.7215431	
13:08:42	-6.728646	38.94614	132.742	3.53027	-6.811816	0.12	3	100	0	6546	1.207596	-2.042425	-0.6099682	
13:08:42	-6.728646	38.94614	132.694	3.506853	-9.479231	0.17	3	100	0	6546	1.158387	-2.041411	-0.470719	
13:08:42	-6.728647	38.94614	132.688	3.48198	-12.36735	0.04	3	100	0	6546	0.7807426	-1.959515	-0.2546064	
13:08:43	-6.728648	38.94614	132.671	3.41617	-17.24554	0.04	3	100	0	6546	0.8759595	-2.039842	-0.003622601	
13:08:43	-6.728648	38.94614	132.667	3.316953	-23.48942	0.09	3	100	0	6546	0.2414626	-2.048021	0.1305394	
13:08:43	-6.728648	38.94614	132.685	3.236899	-28.37012	0.16	3	100	0	6546	0.1957357	-2.190184	0.349839	
13:08:43	-6.728648	38.94614	132.642	3.175112	-31.37936	0.04	3	100	0	6546	0.5760946	-1.959294	0.5087973	
13:08:44	-6.728649	38.94614	132.619	3.142461	-32.41725	0.14	3	100	0	6546	0.3787225	-2.036922	0.5934669	
13:08:44	-6.728649	38.94614	132.626	3.127279	-32.8298	0.04	3	100	0	6546	0.4080816	-2.169508	0.8273754	
13:08:44	-6.728649	38.94614	132.612	3.119839	-32.01654	0.06	3	100	0	6546	0.5079442	-2.106737	1.031329	
13:08:44	-6.728649	38.94614	132.621	3.117825	-31.55745	0.04	3	100	0	6546	0.6753782	-2.078418	1.182911	
13:08:44	-6.728649	38.94614	132.627	3.100795	-31.64205	0.01	3	100	0	6546	0.729625	-2.152236	1.281227	
13:08:45	-6.72865	38.94614	132.629	3.076869	-31.94605	0.07	3	100	0	6546	0.942773	-2.133222	1.403054	
13:08:45	-6.72865	38.94614	132.609	3.046171	-32.69246	0.01	3	100	0	6546	1.494211	-2.162462	1.582997	
13:08:45	-6.72865	38.94614	132.637	2.998488	-33.23106	0.09	3	100	0	6546	1.20369	-2.15111	1.677474	
13:08:45	-6.72865	38.94614	132.665	2.974522	-33.32591	0.06	3	100	0	6546	1.051545	-2.183014	1.75603	
13:08:45	-6.72865	38.94614	132.675	2.965641	-32.96327	0.04	3	100	0	6546	1.225434	-2.145854	1.817397	
13:08:45	-6.72865	38.94614	132.728	2.960076	-31.81965	0.03	3	100	0	6546	0.8910421	-2.134882	1.860782	
13:08:46	-6.728651	38.94614	132.772	2.958555	-30.58867	0.07	3	100	0	6546	1.081059	-2.178453	2.012404	
13:08:46	-6.728651	38.94614	132.788	2.968037	-29.40648	0.03	3	100	0	6546	1.123585	-2.225695	2.043889	
13:08:46	-6.728651	38.94614	132.818	2.984556	-27.01281	0.11	3	100	0	6546	1.052021	-2.280501	2.12778	
13:08:46	-6.728651	38.94614	132.831	3.005306	-24.53931	0.08	3	100	0	6546	0.7189837	-2.234159	2.184353	
13:08:46	-6.728651	38.94614	132.835	3.034556	-21.83064	0.09	3	100	0	6546	0.3746967	-2.365267	2.267657	
13:08:47	-6.728651	38.94614	132.868	3.064195	-19.89457	0.09	3	100	0	6546	0.3536628	-2.280781	2.430056	
13:08:47	-6.728651	38.94614	132.906	3.094266	-17.51715	0.03	3	100	0	6546	0.2589704	-2.356441	2.529557	
13:08:47	-6.728651	38.94614	132.955	3.137475	-14.67773	0.04	3	100	0	6546	0.4881808	-2.297916	2.693673	
13:08:47	-6.728651	38.94614	132.997	3.202344	-11.04265	0.06	3	100	0	6546	0.2866056	-2.293013	2.827078	
13:08:47	-6.728651	38.94614	133.057	3.250395	-8.809869	0.03	3	100	0	6546	0.4996915	-2.289778	2.900118	
13:08:48	-6.728651	38.94614	133.104	3.159039	-14.06422	0.07	3	100	0	6546	0.9017736	-2.263702	2.995147	
13:08:48	-6.728651	38.94614	133.155	3.07649	-18.32035	0.14	3	100	0	6546	0.6571115	-2.288127	3.063494	
13:08:48	-6.728651	38.94614	133.232	3.065991	-18.76889	0.07	3	100	0	6546	0.6477011	-2.302542	3.198422	
13:08:48	-6.728651	38.94614	133.281	3.057156	-18.67487	0.12	3	100	0	6546	1.824958	-2.292827	3.292565	
13:08:49	-6.728651	38.94614	133.345	3.062771	-17.8062	0.16	3	100	0	6546	1.644201	-2.349155	3.317209	
13:08:49	-6.728651	38.94614	133.377	3.069394	-16.871	0.02	3	100	0	6546	1.024889	-2.513518	3.334936	
13:08:49	-6.728651	38.94614	133.418	3.089235	-14.83799	0.06	3	100	0	6546	1.24751	-2.340553	3.537694	
13:08:49	-6.728651	38.94614	133.508	3.107632	-14.32607	0.03	3	100	0	6546	1.621574	-2.280729	3.657473	
13:08:49	-6.728651	38.94614	133.561	3.135392	-11.67439	0.13	3	100	0	6546	0.7639638	-2.307085	3.680001	
13:08:49	-6.728651	38.94614	133.629	3.162047	-10.4348	0.03	3	100	0	6546	2.196046	-2.393973	3.761837	
13:08:50	-6.728651	38.94614	133.682	3.176803	-9.018209	0.13	3	100	0	6546	0.5849814	-2.271708	3.776389	
13:08:50	-6.728651	38.94614	133.741	3.191982	-7.622185	0.04	3	100	0	6546	0.7210621	-2.303598	3.86524	
13:08:50	-6.728651	38.94614	133.773	3.200552	-7.103623	0.04	3	100	0	6546	0.3592175	-2.307792	4.023516	
13:08:50	-6.728651	38.94614	133.77	3.209369	-6.862315	0.14	3	100	0	6546	0.991592	-2.342325	4.164653	
13:08:51	-6.728651	38.94614	133.788	3.242327	-4.707599	0.09	3	100	0	6546	0.6456566	-2.388608	4.206124	
13:08:51	-6.728651	38.94614	133.824	3.271134	-4.163554	0.08	3	100	0	6546	1.15856	-2.283358	4.379994	
13:08:51	-6.728651	38.94614	133.852	3.286366	-3.753876	0.14	3	100	0	6546	0.8027608	-2.427391	4.451095	
13:08:51	-6.72865	38.94614	133.866	3.298335	-3.500856	0.07	3	100	0	6546	0.6106607	-2.472446	4.525932	
13:08:52	-6.72865	38.94614	133.908	3.272136	-5.15321	0.11	3	100	0	6546	0.989625	-2.405338	4.613993	
13:08:52	-6.72865	38.94614	133.939	3.24997	-6.795899	0.13	3	100	0	6546	0.6848907	-2.217094	4.689451	
13:08:52	-6.72865	38.94614	133.975	3.181177	-10.42253	0.09	3	100	0	6546	0.8297719	-2.451025	4.773495	
13:08:52	-6.72865	38.94614	134.027	3.118111	-13.86751	0.12	3	100	0	6546	0.9896923	-2.360167	4.851886	
13:08:53	-6.72865	38.94614	134.079	3.103818	-13.61961	0.09	3	100	0	6546	0.9475658	-2.424473	4.846652	
13:08:53	-6.72865	38.94614	134.114	3.090064	-13.41478	0.09	3	100	0	6546	0.7874901	-2.13734	4.868357	
13:08:53	-6.72865	38.94614	134.136	3.064183	-14.25926	0.09	3	100	0	6546	0.4820697	-2.128076	4.995884	
13:08:53	-6.72865	38.94614	134.185	3.01299	-16.34661	0.07	3	100	0	6546	0.5285091	-2.280726	5.103221	
13:08:53	-6.72865	38.94614	134.199	2.98002	-17.48653	0.09	3	100	0	6546	-0.4425543	-2.06237	5.158765	
13:08:53	-6.72865	38.94614	134.22	2.95934	-17.685	0.04	3	100	0	6546	-0.04582876	-2.044705	5.32461	
13:08:54	-6.72865	38.94614	134.22	2.912778	-18.64904	0.08	3	100	0	6546	0.0584391	-2.114669	5.411878	
13:08:54	-6.72865	38.94614	134.228	2.854281	-20.9359	0.03	3	100	0	6546	0.1291388	-2.058634	5.44921	
13:08:54	-6.728649	38.94614	134.233	2.822713	-21.61037	0.01	3	100	0	6546	0.3218359	-2.131491	5.513546	
13:08:54	-6.728649	38.94614	134.223	2.809723	-21.09964	0.01	3	100	0	6546	0.6090868	-2.227443	5.535214	
13:08:55	-6.728649	38.94614	134.195	2.806684	-20.73113	0.11	3	100	0	6546	0.4310887	-2.21871	5.650967	
13:08:55	-6.728649	38.94614	134.223	2.812465	-19.41662	0.07	3	100	0	6546	0.5416097	-2.163448	5.689713	
13:08:55	-6.728649	38.94614	134.252	2.82993	-17.53714	0.07	3	100	0	6546	0.3587957	-2.312461	5.764487	
13:08:55	-6.728649	38.94614	134.292	2.867952	-13.87639	0.08	3	100	0	6546	0.449704	-2.258516	5.898515	
13:08:55	-6.728649	38.94614	134.288	2.921411	-10.42555	0.09	3	100	0	6546	0.660689	-2.302713	5.900221	
13:08:55	-6.728649	38.94614	134.289	2.990067	-5.676922	0.03	3	100	0	6546	0.3890826	-2.277442	5.936325	
13:08:55	-6.728649	38.94615	134.267	3.051318	-0.6547052	0.02	3	100	0	6546	0.6319275	-2.316248	5.974864	
13:08:56	-6.728648	38.94615	134.269	3.106911	1.638803	0.14	3	100	0	6546	0.7414511	-2.268833	5.993701	
13:08:56	-6.728648	38.94615	134.269	3.128272	2.619281	0.01	3	100	0	6546	0.8968539	-2.228935	5.965637	
13:08:56	-6.728648	38.94615	134.305	3.133334	5.754569	0.12	3	100	0	6546	0.7280082	-2.282059	6.074955	
13:08:56	-6.728648	38.94615	134.295	3.141452	5.053233	0.09	3	100	0	6546	1.155901	-2.409419	6.125766	
13:08:56	-6.728648	38.94615	134.338	3.148347	5.058203	0.06	3	100	0	6546	0.887548	-2.379707	6.163814	
13:08:57	-6.728647	38.94615	134.359	3.20055	6.947027	0.09	3	100	0	6546	0.9267741	-2.301479	6.199174	
13:08:57	-6.728647	38.94615	134.387	3.314447	11.95627	0.04	3	100	0	6546	0.9147115	-2.374232	6.205902	
13:08:57	-6.728647	38.94615	134.39	3.428665	16.85287	0.08	3	100	0	6546	0.5951146	-2.316427	6.210702	
13:08:57	-6.728646	38.94615	134.432	3.522681	19.86221	0.08	3	100	0	6546	0.6508866	-2.270307	6.338127	
13:08:58	-6.728646	38.94615	134.474	3.603815	22.00546	0.07	3	100	0	6546	0.7706254	-2.323537	6.332254	
13:08:58	-6.728646	38.94615	134.524	3.581567	18.3152	0.06	3	100	0	6546	1.202793	-2.255389	6.42133	
13:08:58	-6.728646	38.94615	134.555	3.557539	15.60432	0.08	3	100	0	6546	1.147491	-2.26684	6.479208	
13:08:58	-6.728646	38.94615	134.561	3.595303	15.66503	0.07	3	100	0	6546	1.218497	-2.242129	6.39344	
13:08:58	-6.728646	38.94615	134.585	3.628907	15.05516	0.04	3	100	0	6546	1.02586	-2.248969	6.421693	
13:08:59	-6.728646	38.94615	134.583	3.649143	13.36915	0.04	3	100	0	6546	0.8544216	-2.287728	6.429638	
13:08:59	-6.728646	38.94615	134.57	3.662517	11.83904	0.02	3	100	0	6546	1.114662	-2.349967	6.365524	
13:08:59	-6.728646	38.94615	134.537	3.684422	11.93056	0.09	3	100	0	6546	0.9194848	-2.343019	6.388853	
13:08:59	-6.728646	38.94615	134.526	3.704357	12.51154	0.01	3	100	0	6546	1.003302	-2.37921	6.39584	
13:08:59	-6.728646	38.94615	134.495	3.695361	10.32199	0.01	3	100	0	6546	0.91179	-2.300858	6.392458	
13:09:00	-6.728646	38.94615	134.485	3.684194	8.538089	0.26	3	100	0	6546	1.010339	-2.335056	6.36859	
13:09:00	-6.728646	38.94615	134.477	3.693143	8.367666	0.04	3	100	0	6546	1.004349	-2.542061	6.350515	
13:09:00	-6.728646	38.94615	134.448	3.698854	6.835494	0.08	3	100	0	6546	0.9785786	-2.211564	6.306022	
13:09:00	-6.728646	38.94615	134.446	3.697015	6.718303	0.09	3	100	0	6546	0.9719383	-2.343282	6.268635	
13:09:00	-6.728646	38.94615	134.428	3.695518	5.857901	0.02	3	100	0	6546	0.8310655	-2.327287	6.299853	
13:09:00	-6.728646	38.94615	134.425	3.627614	2.101497	0.01	3	100	0	6546	0.8146216	-2.271944	6.314625	
13:09:01	-6.728646	38.94615	134.383	3.564895	-1.775719	0.11	3	100	0	6546	0.8612693	-2.241933	6.336094	
13:09:01	-6.728646	38.94615	134.359	3.512316	-4.928816	0.04	3	100	0	6546	0.6267748	-2.134513	6.287553	
13:09:01	-6.728646	38.94615	134.318	3.460056	-7.397978	0.09	3	100	0	6546	0.6385778	-2.25531	6.288011	
13:09:01	-6.728646	38.94615	134.302	3.426067	-8.682757	0.13	3	100	0	6546	0.7685484	-2.318726	6.311988	
13:09:01	-6.728646	38.94615	134.305	3.397065	-10.06932	0.07	3	100	0	6546	0.7991645	-2.061175	6.28336	
13:09:02	-6.728646	38.94615	134.29	3.395212	-10.44964	0.04	3	100	0	6546	0.6359537	-2.121999	6.269915	
13:09:02	-6.728646	38.94615	134.263	3.394131	-10.04819	0.06	3	100	0	6546	0.9227716	-2.140254	6.303311	
13:09:02	-6.728646	38.94615	134.233	3.385055	-10.41022	0.11	3	100	0	6546	0.6010308	-2.137839	6.336418	
13:09:02	-6.728646	38.94615	134.21	3.375397	-10.51767	0.12	3	100	0	6546	0.7285982	-2.206507	6.357316	
13:09:02	-6.728646	38.94615	134.2	3.351842	-11.55058	0.09	3	100	0	6546	0.7444039	-1.983089	6.392161	
13:09:03	-6.728646	38.94615	134.201	3.305902	-15.78764	0.04	3	100	0	6546	0.7866021	-2.093055	6.380039	
13:09:03	-6.728646	38.94615	134.202	3.273097	-15.7232	0.08	3	100	0	6546	1.895165	-2.223837	6.413843	
13:09:03	-6.728646	38.94615	134.204	3.256944	-15.80285	0.11	3	100	0	6546	6.944144	-2.560577	6.316243	
13:09:03	-6.728646	38.94615	134.238	3.241203	-15.01389	0.11	3	100	0	6546	7.20813	-2.545955	5.893249	
13:09:03	-6.728646	38.94615	134.231	3.227943	-13.7922	0.13	3	100	0	6546	6.687137	-2.431007	5.5012	
13:09:04	-6.728646	38.94615	134.186	3.236627	-11.16824	0.09	3	100	0	6546	1.039188	-2.1271	5.174171	
13:09:04	-6.728646	38.94615	134.139	3.257975	-9.214828	0.08	3	100	0	6546	-2.430717	-1.990283	5.324655	
13:09:04	-6.728646	38.94615	134.125	3.261679	-9.422653	0.14	3	100	0	6546	-2.310493	-1.920641	5.592881	
13:09:04	-6.728646	38.94615	134.112	3.246595	-9.967083	0.03	3	100	0	6546	-2.500477	-1.864623	5.833025	
13:09:04	-6.728646	38.94615	134.107	3.217232	-11.81995	0.13	3	100	0	6546	-1.731926	-1.906421	6.075122	
13:09:04	-6.728646	38.94615	134.096	3.168277	-14.14454	0.04	3	100	0	6546	-1.033765	-1.98455	6.247031	
13:09:05	-6.728646	38.94615	134.088	3.123441	-15.5815	0.04	3	100	0	6546	-0.6525756	-1.897778	6.384892	
13:09:05	-6.728646	38.94615	134.068	3.089967	-16.57919	0.06	3	100	0	6545	-1.085893	-1.949015	6.559537	
13:09:05	-6.728646	38.94615	134.019	3.01846	-20.31602	0.11	3	100	0	6546	-0.8757594	-2.059537	6.728634	
13:09:05	-6.728646	38.94615	134.026	2.927574	-23.87144	0.04	3	100	0	6546	-1.077536	-1.960075	6.90518	
13:09:06	-6.728646	38.94615	134.018	2.871824	-24.64853	0.08	3	100	0	6546	-1.108631	-2.093166	7.068949	
13:09:06	-6.728646	38.94615	134.006	2.842837	-24.97495	0.04	3	100	0	6546	-1.309959	-2.039662	7.196556	
13:09:06	-6.728646	38.94615	133.974	2.821739	-24.28191	0.14	3	100	0	6546	-1.121493	-2.026674	7.38632	
13:09:06	-6.728646	38.94615	133.963	2.814224	-23.15346	0.11	3	100	0	6546	-0.8378267	-1.998433	7.503627	
13:09:06	-6.728646	38.94615	133.953	2.832774	-20.98896	0.04	3	100	0	6546	-0.8660036	-2.129305	7.566493	
13:09:07	-6.728646	38.94615	133.967	2.885805	-16.58144	0.03	3	100	0	6546	-0.6602972	-2.175549	7.664677	
13:09:07	-6.728646	38.94615	133.929	2.953041	-11.78619	0.14	3	100	0	6546	-0.6553093	-2.198318	7.747685	
13:09:07	-6.728647	38.94615	133.899	3.023468	-7.742471	0.11	3	100	0	6546	-0.5830148	-2.206231	7.810835	
13:09:07	-6.728647	38.94615	133.86	3.087543	-3.649692	0.04	3	100	0	6546	-0.7263842	-2.231089	7.857002	
13:09:07	-6.728647	38.94615	133.837	3.095623	-3.325854	0.14	3	100	0	6547	-0.5295409	-2.151113	7.951845	
13:09:07	-6.728647	38.94615	133.804	3.10214	-3.584663	0.14	3	100	0	6546	-0.5415782	-2.242622	8.008564	
13:09:08	-6.728647	38.94615	133.763	3.109512	-3.416958	0.06	3	100	0	6546	-0.4124178	-2.238804	8.011563	
13:09:08	-6.728647	38.94615	133.738	3.116593	-3.259213	0.04	3	100	0	6546	-0.2108648	-2.207884	8.078092	
13:09:08	-6.728648	38.94615	133.692	3.115467	-3.400946	0.08	3	100	0	6546	-0.1277847	-2.126025	8.069118	
13:09:08	-6.728648	38.94615	133.673	3.114387	-3.667729	0.08	3	100	0	6546	-0.001392456	-2.103866	8.087263	
13:09:09	-6.728648	38.94615	133.682	3.105868	-3.8357	0.03	3	100	0	6546	-0.3413883	-2.124107	8.149001	
13:09:09	-6.728648	38.94615	133.673	3.098543	-4.128375	0.04	3	100	0	6546	0.790489	-2.174031	8.204176	
13:09:09	-6.728648	38.94615	133.694	3.101675	-4.428641	0.11	3	100	0	6546	0.4327452	-2.189176	8.193332	
13:09:09	-6.728649	38.94615	133.664	3.104986	-3.692787	0.09	3	100	0	6546	1.420008	-2.169916	8.203234	
13:09:09	-6.728649	38.94615	133.653	3.111585	-2.873433	0.07	3	100	0	6546	1.055611	-2.137378	8.120993	
13:09:10	-6.728649	38.94615	133.607	3.117062	-3.284831	0.09	3	100	0	6546	1.169037	-2.155441	8.020727	
13:09:10	-6.72865	38.94615	133.555	3.164752	0.02459376	0.04	3	100	0	6546	1.637831	-2.214403	8.066148	
13:09:10	-6.72865	38.94615	133.508	3.213696	2.107602	0.03	3	100	0	6546	1.593929	-2.265804	7.990031	
13:09:11	-6.72865	38.94615	133.432	3.291488	6.136254	0.06	3	100	0	6546	1.899393	-2.287303	7.908632	
13:09:11	-6.72865	38.94615	133.402	3.360863	8.904396	0.12	3	100	0	6546	1.927191	-2.206858	7.858709	
13:09:11	-6.72865	38.94615	133.327	3.420206	11.33968	0.14	3	100	0	6545	2.060076	-2.126184	7.768171	
13:09:11	-6.72865	38.94615	133.29	3.472568	13.33237	0.09	3	100	0	6546	1.898708	-2.112231	7.675432	
13:09:11	-6.72865	38.94615	133.259	3.509511	14.15257	0.04	3	100	0	6545	2.110975	-2.199027	7.642969	
13:09:11	-6.72865	38.94615	133.255	3.537003	14.27346	0.08	3	100	0	6546	2.142523	-2.291007	7.586614	
13:09:11	-6.72865	38.94615	133.255	3.579574	15.68152	0.08	3	100	0	6546	2.298564	-2.238196	7.444915	
13:09:12	-6.72865	38.94615	133.218	3.616583	16.88065	0.06	3	100	0	6546	2.448941	-2.19505	7.355221	
13:09:12	-6.72865	38.94615	133.167	3.669003	18.7014	0.04	3	100	0	6546	2.439448	-2.220503	7.194903	
13:09:12	-6.72865	38.94615	133.127	3.719937	19.76018	0.07	3	100	0	6546	2.463589	-2.260554	7.157547	
13:09:12	-6.728651	38.94615	133.086	3.721658	18.24075	0.04	3	100	0	6546	2.446167	-2.215754	7.076812	
13:09:13	-6.728651	38.94615	133.059	3.66135	13.74764	0.01	3	100	0	6546	2.447487	-2.240169	7.043139	
13:09:13	-6.728651	38.94615	133.029	3.61675	10.71753	0.07	3	100	0	6546	2.429735	-2.199732	6.948929	
13:09:13	-6.728651	38.94615	133.001	3.584887	8.705202	0.04	3	100	0	6546	2.435612	-2.186383	6.945669	
13:09:13	-6.728651	38.94615	132.977	3.55186	6.64532	0.01	3	100	0	6545	2.483867	-2.247728	6.832471	
13:09:13	-6.72865	38.94615	132.963	3.515106	4.212523	0.12	3	100	0	6546	2.484048	-2.277303	6.763247	
13:09:14	-6.72865	38.94615	132.911	3.467501	1.174007	0.04	3	100	0	6546	2.561981	-2.354026	6.660136	
13:09:14	-6.72865	38.94615	132.88	3.416322	-1.559515	0.13	3	100	0	6546	2.560517	-2.325201	6.494287	
13:09:14	-6.72865	38.94615	132.833	3.370496	-3.640346	0.08	3	100	0	6546	2.773021	-2.28701	6.417725	
13:09:14	-6.72865	38.94615	132.827	3.317339	-6.008861	0.01	3	100	0	6546	2.761297	-2.213745	6.393655	
13:09:15	-6.72865	38.94615	132.751	3.290941	-6.732619	0.04	3	100	0	6546	2.674652	-2.239688	6.30912	
13:09:15	-6.72865	38.94615	132.706	3.27623	-6.791586	0.07	3	100	0	6546	2.598092	-2.219345	6.270517	
13:09:15	-6.72865	38.94615	132.625	3.309897	-3.900711	0.04	3	100	0	6546	2.712809	-2.207773	6.277765	
13:09:15	-6.72865	38.94615	132.573	3.372554	-0.456678	0.07	3	100	0	6546	2.729838	-2.249575	6.192515	
13:09:16	-6.72865	38.94615	132.505	3.375067	-0.6280384	0.03	3	100	0	6546	2.745653	-2.233872	6.098269	
13:09:16	-6.72865	38.94615	132.474	3.341977	-2.09092	0.08	3	100	0	6546	2.798497	-2.168102	6.054535	
13:09:16	-6.72865	38.94615	132.445	3.329697	-2.768239	0.09	3	100	0	6546	2.829311	-2.226315	5.897528	
13:09:16	-6.72865	38.94615	132.379	3.329964	-2.466837	0.04	3	100	0	6546	2.890785	-2.27681	5.795619	
13:09:16	-6.728651	38.94615	132.339	3.313425	-2.753106	0.08	3	100	0	6546	2.878218	-2.162922	5.724919	
13:09:16	-6.728651	38.94615	132.279	3.273982	-3.900635	0.09	3	100	0	6547	2.840461	-2.131359	5.600125	
13:09:17	-6.728651	38.94615	132.249	3.240668	-4.536937	0.07	3	100	0	6546	2.917333	-2.148107	5.454091	
13:09:17	-6.728651	38.94615	132.205	3.213927	-5.004745	0.03	3	100	0	6546	2.989821	-2.189827	5.355916	
13:09:17	-6.728651	38.94615	132.2	3.209556	-3.772114	0.04	3	100	0	6546	2.961297	-2.216581	5.226428	
13:09:17	-6.728651	38.94615	132.164	3.228811	-1.975046	0.06	3	100	0	6546	3.144732	-2.237216	5.212812	
13:09:17	-6.728651	38.94615	132.142	3.247613	-0.5480824	0.06	3	100	0	6546	3.152114	-2.244876	5.079679	
13:09:17	-6.728651	38.94615	132.145	3.316465	3.302931	0.14	3	100	0	6546	3.184804	-2.259517	4.993028	
13:09:18	-6.728651	38.94615	132.17	3.37913	6.638424	0.09	3	100	0	6546	3.070703	-2.276963	4.849266	
13:09:18	-6.728651	38.94615	132.172	3.440605	10.04465	0.04	3	100	0	6546	3.079601	-2.192588	4.760695	
13:09:18	-6.72865	38.94615	132.138	3.502938	12.43957	0.09	3	100	0	6546	3.09144	-2.201453	4.715833	
13:09:18	-6.72865	38.94615	132.139	3.516651	12.00562	0.09	3	100	0	6546	3.188301	-2.201665	4.610265	
13:09:18	-6.72865	38.94615	132.111	3.526467	10.96296	0.19	3	100	0	6546	3.269541	-2.21053	4.58797	
13:09:18	-6.72865	38.94615	132.07	3.55635	11.52534	0.02	3	100	0	6546	3.301239	-2.202435	4.447956	
13:09:19	-6.72865	38.94615	132.04	3.584396	12.24585	0.06	3	100	0	6546	3.173897	-2.152531	4.427907	
13:09:19	-6.72865	38.94615	132.025	3.603101	12.08358	0.17	3	100	0	6546	3.155691	-2.084794	4.306045	
13:09:19	-6.72865	38.94615	131.992	3.618858	12.4009	0.14	3	100	0	6546	3.080432	-2.041985	4.281597	
13:09:19	-6.72865	38.94615	131.963	3.61051	11.04147	0.06	3	100	0	6546	3.161409	-2.088273	4.258141	
13:09:19	-6.72865	38.94615	131.933	3.600396	9.011717	0.09	3	100	0	6546	3.374704	-2.15202	4.238119	
13:09:20	-6.72865	38.94615	131.902	3.569646	7.124723	0.16	3	100	0	6546	3.346385	-2.213988	4.120552	
13:09:20	-6.72865	38.94615	131.858	3.537903	5.003272	0.04	3	100	0	6546	3.248589	-2.168193	4.113413	
13:09:20	-6.72865	38.94615	131.812	3.547243	5.004478	0.08	3	100	0	6546	3.391644	-2.119295	4.046266	
13:09:20	-6.72865	38.94615	131.793	3.554764	4.687421	0.03	3	100	0	6546	3.422492	-2.139373	3.992508	
13:09:20	-6.72865	38.94615	131.779	3.606839	6.909027	0.14	3	100	0	6546	3.467213	-2.119586	3.827713	
13:09:21	-6.728649	38.94615	131.729	3.657567	9.305935	0.09	3	100	0	6546	3.376812	-2.134146	3.699603	
13:09:21	-6.728649	38.94615	131.653	3.690804	10.4068	0.09	3	100	0	6546	3.279008	-2.092579	3.626318	
13:09:21	-6.728649	38.94615	131.603	3.719607	11.07674	0.09	3	100	0	6546	3.392299	-2.136973	3.503653	
13:09:21	-6.728649	38.94615	131.551	3.677932	7.641743	0.06	3	100	0	6546	3.464041	-2.234884	3.521923	
13:09:21	-6.728648	38.94615	131.503	3.638744	5.026553	0.09	3	100	0	6546	3.48803	-2.150046	3.427341	
13:09:22	-6.728648	38.94615	131.494	3.622843	3.883035	0.04	3	100	0	6546	3.443708	-2.160524	3.375673	
13:09:22	-6.728648	38.94615	131.502	3.605903	2.434432	0.02	3	100	0	6546	3.414325	-2.151981	3.306643	
13:09:22	-6.728648	38.94615	131.493	3.587797	1.356406	0.09	3	100	0	6546	3.3424	-2.094375	3.262726	
13:09:22	-6.728648	38.94615	131.499	3.567142	0.2136619	0.02	3	100	0	6546	3.361887	-2.122795	3.230613	
13:09:22	-6.728648	38.94615	131.479	3.535279	-0.9080771	0.09	3	100	0	6546	3.371887	-2.156277	3.215904	
13:09:23	-6.728648	38.94615	131.465	3.49811	-1.665241	0.04	3	100	0	6546	3.420131	-2.206195	3.102873	
13:09:23	-6.728648	38.94615	131.404	3.461968	-3.171461	0.02	3	100	0	6546	3.459739	-2.203822	3.102325	
13:09:23	-6.728647	38.94615	131.371	3.427597	-4.246157	0.06	3	100	0	6546	3.548717	-2.174884	3.062495	
13:09:23	-6.728647	38.94615	131.325	3.422789	-3.779971	0.19	3	100	0	6546	3.60931	-2.220272	2.957191	
13:09:23	-6.728647	38.94615	131.277	3.434396	-2.845674	0.01	3	100	0	6546	3.55002	-2.210012	2.834735	
13:09:23	-6.728647	38.94615	131.238	3.456167	-1.354487	0.13	3	100	0	6546	3.6272	-2.186503	2.798712	
13:09:24	-6.728647	38.94615	131.2	3.488991	0.3930078	0.04	3	100	0	6546	3.662659	-2.149164	2.688703	
13:09:24	-6.728647	38.94615	131.177	3.500022	1.270093	0.03	3	100	0	6546	3.589549	-2.128656	2.612594	
13:09:24	-6.728647	38.94615	131.122	3.482353	0.1584778	0.12	3	100	0	6546	3.638979	-2.242064	2.530095	
13:09:24	-6.728646	38.94615	131.089	3.473364	-0.07009011	0.06	3	100	0	6546	3.659455	-2.290915	2.469347	
13:09:25	-6.728646	38.94615	131.024	3.474022	-0.5725071	0.04	3	100	0	6546	3.558101	-2.228688	2.35764	
13:09:25	-6.728646	38.94615	130.964	3.481644	-0.08121391	0.07	3	100	0	6546	3.50099	-2.162762	2.340984	
13:09:25	-6.728646	38.94615	130.941	3.493939	1.074806	0.09	3	100	0	6546	3.451926	-2.195498	2.357157	
13:09:25	-6.728646	38.94615	130.885	3.508831	2.142745	0.08	3	100	0	6546	3.390542	-2.211389	2.318537	
13:09:26	-6.728646	38.94615	130.818	3.523217	3.166426	0.11	3	100	0	6546	3.351763	-2.148707	2.300125	
13:09:26	-6.728646	38.94615	130.8	3.53374	3.642964	0.03	3	100	0	6546	3.493309	-2.183956	2.340545	
13:09:26	-6.728646	38.94615	130.805	3.537243	3.545551	0.09	3	100	0	6546	3.665547	-2.214191	2.286424	
13:09:26	-6.728646	38.94615	130.776	3.52701	2.678932	0.09	3	100	0	6546	3.594613	-2.175533	2.249513	
13:09:26	-6.728646	38.94615	130.766	3.498012	0.6746271	0.08	3	100	0	6546	3.505869	-2.17292	2.135892	
13:09:26	-6.728646	38.94615	130.723	3.486163	0.5069473	0.02	3	100	0	6546	3.633487	-2.173558	2.082074	
13:09:27	-6.728646	38.94615	130.71	3.494192	1.486863	0.02	3	100	0	6546	3.677882	-2.166606	2.087888	
13:09:27	-6.728646	38.94615	130.693	3.501728	1.442612	0.22	3	100	0	6546	3.774252	-2.278346	2.113666	
13:09:27	-6.728646	38.94615	130.666	3.413029	-3.305306	0.08	3	100	0	6546	3.666049	-2.323973	2.045391	
13:09:27	-6.728646	38.94615	130.625	3.332289	-7.796779	0.19	3	100	0	6546	3.683089	-2.127317	2.037235	
13:09:27	-6.728646	38.94615	130.598	3.267359	-10.75737	0.04	3	100	0	6546	3.612715	-2.164798	1.935513	
13:09:28	-6.728646	38.94615	130.556	3.203398	-13.15619	0.12	3	100	0	6546	3.620405	-2.184802	1.884497	
13:09:28	-6.728646	38.94615	130.562	3.106962	-16.44023	0.06	3	100	0	6546	3.694987	-2.330457	1.885349	
13:09:28	-6.728646	38.94615	130.547	3.038241	-18.95166	0.07	3	100	0	6546	3.734749	-2.418506	1.856716	
13:09:28	-6.728646	38.94615	130.549	2.968079	-20.87252	0.06	3	100	0	6546	3.681969	-2.40487	1.80701	
13:09:28	-6.728646	38.94615	130.517	2.902637	-22.3146	0.14	3	100	0	6546	3.696506	-2.269841	1.820935	
13:09:29	-6.728646	38.94615	130.467	2.887939	-20.78387	0.04	3	100	0	6546	3.762158	-2.265294	1.754988	
13:09:29	-6.728646	38.94615	130.422	2.878512	-19.41175	0.06	3	100	0	6546	3.786231	-2.2839	1.738138	
13:09:29	-6.728646	38.94615	130.378	2.976233	-11.97978	0.11	3	100	0	6546	3.822036	-2.396012	1.690081	
13:09:29	-6.728646	38.94615	130.327	3.069302	-6.178036	0.07	3	100	0	6546	3.854694	-2.426903	1.599067	
13:09:29	-6.728646	38.94615	130.269	3.170295	-0.2271048	0.03	3	100	0	6546	3.881901	-2.382546	1.519901	
13:09:30	-6.728646	38.94615	130.229	3.273467	5.066744	0.07	3	100	0	6546	3.832309	-2.363147	1.451227	
13:09:30	-6.728646	38.94615	130.196	3.285928	5.205698	0.04	3	100	0	6546	3.763515	-2.381305	1.44726	
13:09:30	-6.728647	38.94615	130.168	3.294742	5.378001	0.04	3	100	0	6546	3.824321	-2.402647	1.441215	
13:09:30	-6.728647	38.94614	130.091	3.292665	4.638514	0.07	3	100	0	6546	3.86419	-2.340377	1.455093	
13:09:30	-6.728647	38.94614	130.05	3.289224	3.689815	0.03	3	100	0	6546	3.845893	-2.333127	1.351637	
13:09:31	-6.728647	38.94614	129.972	3.228392	0.4822355	0.06	3	100	0	6546	3.852897	-2.360404	1.306458	
13:09:31	-6.728647	38.94614	129.949	3.173477	-2.710396	0.04	3	100	0	6546	3.957	-2.36354	1.249029	
13:09:31	-6.728648	38.94614	129.882	3.105172	-5.628274	0.06	3	100	0	6546	4.022245	-2.401001	1.287628	
13:09:31	-6.728648	38.94614	129.836	3.044127	-8.11659	0.04	3	100	0	6546	4.046614	-2.394372	1.226797	
13:09:31	-6.728648	38.94614	129.813	3.007478	-9.139936	0.07	3	100	0	6546	4.023906	-2.402735	1.240796	
13:09:32	-6.728648	38.94614	129.771	2.971885	-10.18823	0.01	3	100	0	6546	4.05088	-2.362781	1.154402	
13:09:32	-6.728648	38.94614	129.719	2.999684	-8.079283	0.11	3	100	0	6545	3.953094	-2.247686	1.065179	
13:09:32	-6.728648	38.94614	129.674	3.109812	-1.117902	0.03	3	100	0	6546	3.919531	-2.297664	1.034099	
13:09:32	-6.728648	38.94614	129.651	3.227418	5.541778	0.11	3	100	0	6546	3.870773	-2.318529	0.941318	
13:09:32	-6.728648	38.94614	129.651	3.367152	12.18801	0.06	3	100	0	6546	4.178767	-2.350552	0.9202949	
13:09:33	-6.728648	38.94614	129.634	3.451614	16.03208	0.14	3	100	0	6546	3.779202	-2.244383	0.8065376	
13:09:33	-6.728648	38.94614	129.582	3.507404	17.59084	0.08	3	100	0	6546	3.759277	-2.272959	0.7736388	
13:09:33	-6.728648	38.94614	129.576	3.538818	17.36984	0.09	3	100	0	6546	3.840224	-2.295425	0.7600107	
13:09:33	-6.728648	38.94614	129.57	3.553632	16.46576	0.03	3	100	0	6546	3.823908	-2.326267	0.770112	
13:09:33	-6.728648	38.94614	129.565	3.576569	16.41586	0.08	3	100	0	6546	3.850917	-2.262845	0.7470246	
13:09:34	-6.728648	38.94614	129.577	3.614814	16.98951	0.03	3	100	0	6546	3.983691	-2.264009	0.7575177	
13:09:34	-6.728648	38.94614	129.601	3.636561	15.82481	0.07	3	100	0	6546	3.869945	-2.338865	0.6738293	
13:09:34	-6.728648	38.94614	129.614	3.63761	14.23381	0.09	3	100	0	6546	3.948242	-2.296109	0.636242	
13:09:34	-6.728648	38.94614	129.558	3.63371	12.76477	0.04	3	100	0	6546	3.98086	-2.32972	0.5566787	
13:09:34	-6.728648	38.94614	129.514	3.625926	11.3312	0.12	3	100	0	6546	3.90869	-2.434033	0.5284606	
13:09:35	-6.728648	38.94614	129.514	3.607003	9.489007	0.12	3	100	0	6546	3.848231	-2.48091	0.5358021	
13:09:35	-6.728648	38.94614	129.489	3.58093	6.728783	0.01	3	100	0	6546	3.856885	-2.427435	0.5313224	
13:09:35	-6.728648	38.94614	129.453	3.560349	5.069151	0.16	3	100	0	6546	3.850914	-2.547433	0.4942156	
13:09:35	-6.728648	38.94614	129.467	3.547567	4.324678	0.04	3	100	0	6546	3.820263	-2.535049	0.5379381	
13:09:35	-6.728648	38.94614	129.463	3.53024	3.125155	0.06	3	100	0	6546	3.793065	-2.567551	0.6210328	
13:09:36	-6.728648	38.94614	129.477	3.509451	2.36303	0.11	3	100	0	6546	3.926891	-2.654311	0.5937884	
13:09:36	-6.728648	38.94614	129.477	3.521575	2.576789	0.11	3	100	0	6546	3.772367	-2.478643	0.5860848	
13:09:36	-6.728648	38.94614	129.483	3.560353	4.395566	0.04	3	100	0	6546	3.818731	-2.456253	0.6217445	
13:09:36	-6.728648	38.94614	129.53	3.607303	6.388026	0.12	3	100	0	6546	3.852889	-2.471433	0.5879021	
13:09:36	-6.728648	38.94614	129.574	3.650392	8.169007	0.06	3	100	0	6546	3.926384	-2.370172	0.5971831	
13:09:37	-6.728649	38.94614	129.562	3.687622	9.518365	0.14	3	100	0	6546	3.798571	-2.469486	0.5942145	
13:09:37	-6.728649	38.94614	129.562	3.705812	9.83876	0.14	3	100	0	6546	3.66677	-2.43267	0.6247899	
13:09:37	-6.728649	38.94614	129.58	3.720294	9.552356	0.02	3	100	0	6546	3.768338	-2.443919	0.5791709	
13:09:37	-6.728649	38.94614	129.604	3.741762	9.441843	0.08	3	100	0	6546	3.66898	-2.430426	0.595272	
13:09:37	-6.728649	38.94614	129.636	3.759102	9.542133	0.01	3	100	0	6546	3.797013	-2.35615	0.5864059	
13:09:38	-6.72865	38.94614	129.663	3.766785	9.696431	0.04	3	100	0	6546	4.108402	-2.420572	0.6459628	
13:09:38	-6.72865	38.94614	129.663	3.773129	9.504854	0.04	3	100	0	6546	4.038627	-2.398637	0.6020967	
13:09:38	-6.728649	38.94614	129.761	3.802497	10.85767	0.16	3	100	0	6546	4.154855	-2.485805	0.6461347	
13:09:38	-6.72865	38.94614	129.816	3.834161	11.3416	0.04	3	100	0	6546	4.243357	-2.516525	0.6160699	
13:09:38	-6.72865	38.94614	129.854	3.856035	11.27972	0.06	3	100	0	6546	4.134067	-2.389317	0.6226952	
13:09:39	-6.72865	38.94614	129.906	3.872724	10.64379	0.09	3	100	0	6546	4.081157	-2.429224	0.6204543	
13:09:39	-6.72865	38.94614	129.938	3.885304	10.1549	0.04	3	100	0	6546	4.005269	-2.328227	0.6056159	
13:09:39	-6.72865	38.94614	129.938	3.894803	10.21355	0.04	3	100	0	6546	3.98746	-2.35954	0.6400686	
13:09:39	-6.72865	38.94614	130.044	3.896308	9.520931	0.04	3	100	0	6546	4.027934	-2.437958	0.5842935	
13:09:39	-6.72865	38.94614	130.097	3.896069	8.440043	0.11	3	100	0	6546	3.978217	-2.345205	0.5913557	
13:09:40	-6.72865	38.94614	130.131	3.86813	5.964251	0.01	3	100	0	6547	3.895455	-2.436604	0.5998921	
13:09:40	-6.72865	38.94614	130.19	3.840632	3.799098	0.09	3	100	0	6546	3.965353	-2.418306	0.6261488	
13:09:40	-6.72865	38.94614	130.21	3.849518	3.980089	0.07	3	100	0	6546	4.031308	-2.439029	0.5480338	
13:09:40	-6.728651	38.94614	130.239	3.856735	3.604419	0.14	3	100	0	6546	3.922246	-2.314231	0.5557566	
13:09:40	-6.728651	38.94614	130.281	3.819132	1.626526	0.02	3	100	0	6546	3.864722	-2.300896	0.5335224	
13:09:41	-6.728651	38.94614	130.342	3.784538	-0.6897976	0.12	3	100	0	6546	3.96317	-2.358176	0.5036421	
13:09:41	-6.728651	38.94614	130.362	3.729511	-3.001101	0.04	3	100	0	6546	4.072748	-2.402271	0.5016521	
13:09:41	-6.728651	38.94614	130.362	3.680039	-5.549367	0.04	3	100	0	6546	3.943935	-2.427176	0.5336186	
13:09:41	-6.728651	38.94614	130.415	3.672119	-5.258594	0.06	3	100	0	6546	3.858581	-2.416995	0.5804761	
13:09:42	-6.728651	38.94614	130.452	3.665539	-4.971114	0.09	3	100	0	6546	3.949305	-2.440575	0.6695578	
13:09:42	-6.728651	38.94614	130.515	3.633511	-6.392766	0.07	3	100	0	6546	3.904218	-2.37691	0.6195461	
13:09:42	-6.728651	38.94614	130.583	3.561795	-9.615061	0.06	3	100	0	6546	3.912057	-2.38578	0.6458014	
13:09:42	-6.728651	38.94614	130.635	3.522913	-10.41845	0.06	3	100	0	6546	3.999798	-2.470604	0.6366506	
13:09:42	-6.728651	38.94614	130.664	3.50166	-10.3785	0.19	3	100	0	6546	4.033991	-2.494647	0.6629729	
13:09:43	-6.728651	38.94614	130.733	3.498127	-9.196148	0.03	3	100	0	6546	4.11984	-2.622586	0.6917234	
13:09:43	-6.728651	38.94614	130.77	3.504603	-7.990602	0.04	3	100	0	6546	4.163138	-2.36677	0.6712198	
13:09:43	-6.728651	38.94614	130.826	3.521954	-6.119342	0.07	3	100	0	6546	4.210709	-2.359623	0.5606753	
13:09:43	-6.728651	38.94614	130.826	3.543103	-4.73033	0.07	3	100	0	6546	4.16305	-2.385171	0.5283187	
13:09:43	-6.728651	38.94614	130.892	3.575987	-2.827826	0.17	3	100	0	6546	4.194062	-2.351963	0.5459244	
13:09:43	-6.728651	38.94614	130.974	3.619684	0.1147743	0.03	3	100	0	6546	4.05163	-2.188779	0.4419135	
13:09:44	-6.728651	38.94614	131.003	3.65492	2.068851	0.03	3	100	0	6546	4.034968	-2.371811	0.4708964	
13:09:44	-6.728651	38.94614	130.995	3.688833	3.864009	0.03	3	100	0	6546	4.123838	-2.37436	0.4063005	
13:09:44	-6.728651	38.94614	130.995	3.706943	4.369675	0.03	3	100	0	6546	4.182483	-2.361121	0.3471907	
13:09:44	-6.728651	38.94614	131.033	3.706046	4.245065	0.08	3	100	0	6546	4.299656	-2.496675	0.3541009	
13:09:45	-6.728651	38.94614	131.063	3.722283	4.524464	0.09	3	100	0	6546	4.038928	-2.378112	0.4107863	
13:09:45	-6.728651	38.94614	131.102	3.760467	6.857829	0.06	3	100	0	6546	4.110396	-2.327106	0.3644965	
13:09:45	-6.728651	38.94614	131.138	3.779822	7.271327	0.08	3	100	0	6546	4.079773	-2.273544	0.2835067	
13:09:45	-6.728651	38.94614	131.128	3.782386	6.230256	0.11	3	100	0	6546	4.04464	-2.347105	0.2586021	
13:09:45	-6.728652	38.94614	131.105	3.75279	4.322755	0.06	3	100	0	6546	4.10887	-2.246046	0.3226789	
13:09:46	-6.728652	38.94614	131.117	3.701967	1.411851	0.13	3	100	0	6546	4.161508	-2.333051	0.3436431	
13:09:46	-6.728652	38.94614	131.149	3.609918	-3.45289	0.04	3	100	0	6546	4.053162	-2.310643	0.4110903	
13:09:46	-6.728652	38.94614	131.188	3.470532	-10.28229	0.04	3	100	0	6546	4.246736	-2.36348	0.4385312	
13:09:46	-6.728652	38.94614	131.188	3.356341	-15.16644	0.04	3	100	0	6546	4.284745	-2.371439	0.3899129	
13:09:46	-6.728652	38.94614	131.193	3.286319	-17.52182	0.03	3	100	0	6546	4.239399	-2.435151	0.4086964	
13:09:47	-6.728652	38.94614	131.192	3.230438	-19.1248	0.02	3	100	0	6546	4.29705	-2.454067	0.3249432	
13:09:47	-6.728652	38.94614	131.217	3.192609	-18.8469	0.08	3	100	0	6546	4.310804	-2.392312	0.3497368	
13:09:47	-6.728652	38.94614	131.219	3.16187	-18.30634	0.04	3	100	0	6546	4.254095	-2.458177	0.4105693	
13:09:47	-6.728652	38.94614	131.219	3.172625	-15.48383	0.04	3	100	0	6547	4.271784	-2.448693	0.3269558	
13:09:47	-6.728652	38.94614	131.258	3.185819	-13.14484	0.02	3	100	0	6546	4.368607	-2.334365	0.3343354	
13:09:47	-6.728652	38.94614	131.248	3.181338	-11.72206	0.04	3	100	0	6546	4.197508	-2.469796	0.334649	
13:09:48	-6.728652	38.94614	131.248	3.1807	-10.15674	0.09	3	100	0	6546	4.208903	-2.472359	0.3921567	
13:09:48	-6.728652	38.94615	131.248	3.174074	-9.189365	0.19	3	100	0	6546	4.212456	-2.552149	0.3824494	
13:09:48	-6.728652	38.94615	131.261	3.169816	-8.819596	0.02	3	100	0	6546	4.371233	-2.54409	0.3939066	
13:09:48	-6.728652	38.94615	131.258	3.159282	-8.75506	0.03	3	100	0	6546	4.261268	-2.440497	0.4038884	
13:09:49	-6.728652	38.94615	131.282	3.150808	-8.577815	0.03	3	100	0	6546	4.197433	-2.40748	0.3815693	
13:09:49	-6.728652	38.94615	131.282	3.175007	-7.022887	0.02	3	100	0	6546	4.191043	-2.456199	0.4046861	
13:09:49	-6.728652	38.94615	131.305	3.197526	-5.313537	0.07	3	100	0	6546	4.299287	-2.455317	0.3875624	
13:09:49	-6.728652	38.94615	131.325	3.209772	-3.793649	0.12	3	100	0	6546	4.200454	-2.364423	0.320758	
13:09:49	-6.728653	38.94615	131.338	3.223088	-3.102774	0.04	3	100	0	6546	4.422975	-2.374468	0.4073105	
13:09:50	-6.728653	38.94615	131.367	3.220098	-3.527035	0.09	3	100	0	6546	4.279093	-2.328323	0.3901737	
13:09:50	-6.728653	38.94615	131.414	3.217464	-3.140026	0.13	3	100	0	6546	4.240914	-2.485464	0.4222097	
13:09:50	-6.728653	38.94615	131.452	3.2175	-2.38933	0.07	3	100	0	6547	4.345152	-2.405262	0.4064044	
13:09:50	-6.728653	38.94615	131.457	3.218523	-1.985568	0.02	3	100	0	6546	4.288865	-2.488739	0.3704078	
13:09:50	-6.728652	38.94615	131.48	3.218008	-1.827677	0.03	3	100	0	6546	4.216942	-2.438087	0.4092974	
13:09:50	-6.728652	38.94615	131.487	3.217815	-2.414952	0.19	3	100	0	6546	4.311443	-2.449388	0.4484483	
13:09:51	-6.728653	38.94615	131.495	3.236178	-1.817197	0.12	3	100	0	6546	4.039587	-2.315277	0.3598293	
13:09:51	-6.728653	38.94615	131.552	3.253344	-0.3692529	0.09	3	100	0	6546	4.222097	-2.256654	0.3374766	
13:09:51	-6.728653	38.94615	131.594	3.295835	1.240099	0.04	3	100	0	6546	4.268445	-2.456257	0.3701312	
13:09:51	-6.728653	38.94615	131.645	3.333148	3.161366	0.07	3	100	0	6546	4.242084	-2.320929	0.3525519	
13:09:52	-6.728653	38.94615	131.679	3.379152	5.102134	0.11	3	100	0	6546	4.144543	-2.267994	0.3673143	
13:09:52	-6.728653	38.94615	131.69	3.432431	7.611828	0.03	3	100	0	6546	4.123403	-2.268482	0.4493023	
13:09:52	-6.728653	38.94615	131.699	3.503656	10.38711	0.06	3	100	0	6546	4.256603	-2.327013	0.4650348	
13:09:52	-6.728653	38.94615	131.701	3.589293	14.16191	0.09	3	100	0	6546	4.217219	-2.365989	0.4978699	
13:09:52	-6.728653	38.94615	131.698	3.649074	16.82887	0.09	3	100	0	6546	4.178855	-2.251385	0.4339584	
13:09:52	-6.728653	38.94615	131.715	3.691891	18.09882	0.09	3	100	0	6546	4.287796	-2.389073	0.4325216	
13:09:53	-6.728653	38.94615	131.713	3.74127	18.68329	0.08	3	100	0	6546	4.504068	-2.392205	0.3706454	
13:09:53	-6.728653	38.94615	131.709	3.791699	19.78092	0.12	3	100	0	6546	4.363994	-2.217654	0.4247537	
13:09:53	-6.728653	38.94615	131.739	3.833729	20.74014	0.14	3	100	0	6546	4.537384	-2.34991	0.3755644	
13:09:53	-6.728653	38.94615	131.762	3.868053	20.92627	0.06	3	100	0	6546	4.534633	-2.431801	0.376958	
13:09:53	-6.728653	38.94615	131.789	3.906925	20.70192	0.04	3	100	0	6546	4.489996	-2.203128	0.3848636	
13:09:54	-6.728653	38.94615	131.81	3.950456	20.93993	0.07	3	100	0	6546	4.372566	-2.202429	0.3527654	
13:09:54	-6.728652	38.94615	131.828	3.989515	21.03798	0.02	3	100	0	6546	4.514762	-2.265877	0.3583165	
13:09:54	-6.728652	38.94615	131.841	4.024538	20.72051	0.03	3	100	0	6546	4.376101	-2.23685	0.2963098	
13:09:54	-6.728652	38.94615	131.812	4.019186	18.57435	0.07	3	100	0	6546	4.45098	-2.265344	0.3184856	
13:09:54	-6.728653	38.94615	131.782	3.989578	14.88216	0.07	3	100	0	6545	4.580252	-2.158159	0.3385176	
13:09:55	-6.728653	38.94615	131.731	3.955019	11.22954	0.02	3	100	0	6546	4.634418	-2.180477	0.2606042	
13:09:55	-6.728653	38.94615	131.719	3.918821	8.18057	0.08	3	100	0	6546	4.440682	-2.240084	0.2614782	
13:09:55	-6.728652	38.94615	131.701	3.883148	5.354665	0.09	3	100	0	6546	4.454824	-2.328756	0.2447611	
13:09:55	-6.728652	38.94615	131.72	3.849762	3.718776	0.09	3	100	0	6546	4.569938	-2.278713	0.2009975	
13:09:55	-6.728652	38.94615	131.732	3.833448	2.67834	0.04	3	100	0	6546	4.625906	-2.313318	0.1875951	
13:09:56	-6.728652	38.94615	131.711	3.831241	2.238475	0.13	3	100	0	6546	4.515058	-2.265186	0.1310346	
13:09:56	-6.728652	38.94615	131.675	3.819982	1.478169	0.14	3	100	0	6546	4.394085	-2.367209	0.1249532	
13:09:56	-6.728652	38.94614	131.621	3.799571	-0.08671344	0.08	3	100	0	6545	4.361639	-2.141798	0.08615321	
13:09:56	-6.728652	38.94614	131.597	3.782948	-0.6023468	0.01	3	100	0	6546	4.419408	-2.211247	0.04677542	
13:09:56	-6.728652	38.94614	131.54	3.755788	-1.412846	0.08	3	100	0	6546	4.534014	-2.234069	0.05369384	
13:09:57	-6.728652	38.94614	131.539	3.736485	-2.372925	0.11	3	100	0	6546	4.688148	-2.328062	0.03356877	
13:09:57	-6.728652	38.94614	131.518	3.711255	-3.298818	0.13	3	100	0	6546	4.752158	-2.293149	0.02669872	
13:09:57	-6.728652	38.94614	131.524	3.691354	-4.151233	0.17	3	100	0	6546	4.751318	-2.363284	-0.01733661	
13:09:57	-6.728652	38.94614	131.518	3.663024	-5.277221	0.11	3	100	0	6546	4.741617	-2.243128	-0.02961393	
13:09:57	-6.728652	38.94614	131.496	3.635432	-5.946476	0.14	3	100	0	6546	4.474038	-2.173905	-0.06863659	
13:09:58	-6.728652	38.94614	131.461	3.60364	-6.727265	0.01	3	100	0	6546	4.450345	-2.18908	-0.04547264	
13:09:58	-6.728653	38.94614	131.448	3.574802	-7.038192	0.13	3	100	0	6546	4.555871	-2.248225	-0.01201804	
13:09:58	-6.728652	38.94614	131.441	3.551365	-8.208316	0.09	3	100	0	6546	4.335162	-2.241032	0.0464015	
13:09:58	-6.728652	38.94614	131.414	3.531638	-8.414903	0.09	3	100	0	6546	4.531966	-2.365256	0.04943151	
13:09:59	-6.728652	38.94614	131.41	3.472143	-10.98831	0.09	3	100	0	6546	4.635499	-2.38978	0.05235797	
13:09:59	-6.728652	38.94614	131.378	3.419423	-12.93264	0.14	3	100	0	6546	4.535377	-2.370223	-0.04193736	
13:09:59	-6.728652	38.94614	131.361	3.390949	-13.47495	0.03	3	100	0	6546	4.480003	-2.328485	-0.04375189	
13:09:59	-6.728652	38.94614	131.348	3.363652	-14.06961	0.06	3	100	0	6546	4.649889	-2.26498	-0.04171215	
13:09:59	-6.728652	38.94614	131.322	3.310105	-15.20385	0.09	3	100	0	6546	4.58972	-2.253548	-0.07621903	
13:09:59	-6.728652	38.94614	131.252	3.264911	-15.94634	0.06	3	100	0	6546	4.637407	-2.211486	-0.08413693	
13:10:00	-6.728652	38.94614	131.212	3.233764	-15.9101	0.16	3	100	0	6546	4.686361	-2.256042	-0.168553	
13:10:00	-6.728651	38.94614	131.182	3.207023	-14.89238	0.14	3	100	0	6546	4.742494	-2.438247	-0.127756	
13:10:00	-6.728651	38.94614	131.159	3.247047	-10.85033	0.06	3	100	0	6546	4.76957	-2.375122	-0.1002154	
13:10:00	-6.728651	38.94614	131.137	3.286622	-7.4438	0.12	3	100	0	6546	4.55429	-2.333519	-0.0264361	
13:10:01	-6.728651	38.94614	131.076	3.369989	-2.407054	0.02	3	100	0	6546	4.581129	-2.190047	-0.1054896	
13:10:01	-6.728651	38.94614	131.037	3.446212	1.88182	0.09	3	100	0	6545	4.561126	-2.292145	-0.1677095	
13:10:01	-6.728651	38.94614	131.002	3.515615	5.341152	0.06	3	100	0	6546	4.543971	-2.371291	-0.1858387	
13:10:01	-6.728651	38.94614	130.997	3.584882	8.126939	0.06	3	100	0	6546	4.600178	-2.301248	-0.1623648	
13:10:02	-6.728651	38.94614	130.965	3.634583	9.896185	0.11	3	100	0	6546	4.684483	-2.391319	-0.08737489	
13:10:02	-6.728651	38.94614	130.942	3.66236	10.28627	0.09	3	100	0	6546	4.688018	-2.282896	-0.108109	
13:10:02	-6.728651	38.94614	130.93	3.678426	9.912972	0.09	3	100	0	6546	4.716918	-2.508523	-0.1458597	
13:10:02	-6.728651	38.94614	130.861	3.681091	9.326074	0.04	3	100	0	6546	4.611155	-2.477	-0.1917403	
13:10:02	-6.728651	38.94614	130.819	3.689319	8.82221	0.09	3	100	0	6546	4.677459	-2.3891	-0.2958257	
13:10:02	-6.728651	38.94614	130.796	3.702522	8.287973	0.07	3	100	0	6546	4.748254	-2.504981	-0.3187682	
13:10:03	-6.728651	38.94614	130.794	3.699799	7.846906	0.09	3	100	0	6546	4.632155	-2.490245	-0.3450534	
13:10:03	-6.72865	38.94614	130.823	3.684476	5.837003	0.03	3	100	0	6546	4.756329	-2.533034	-0.3383301	
13:10:03	-6.72865	38.94614	130.766	3.673354	4.619854	0.04	3	100	0	6546	4.821749	-2.466084	-0.3460129	
13:10:03	-6.72865	38.94614	130.743	3.665275	4.211713	0.06	3	100	0	6546	4.704795	-2.483165	-0.3492954	
13:10:03	-6.72865	38.94614	130.74	3.660773	3.357538	0.06	3	100	0	6546	4.683787	-2.470127	-0.3124852	
13:10:03	-6.72865	38.94614	130.747	3.660731	2.578041	0.13	3	100	0	6546	4.670367	-2.409948	-0.3287931	
13:10:04	-6.72865	38.94614	130.738	3.667786	2.520962	0.09	3	100	0	6546	4.66521	-2.331761	-0.3357671	
13:10:04	-6.72865	38.94614	130.742	3.681996	3.033499	0.04	3	100	0	6546	4.72265	-2.358165	-0.3382353	
13:10:04	-6.72865	38.94614	130.75	3.656215	1.261849	0.12	3	100	0	6546	4.748822	-2.459266	-0.3661775	
13:10:04	-6.728649	38.94614	130.751	3.608439	-0.7959241	0.03	3	100	0	6546	4.747582	-2.575762	-0.347937	
13:10:04	-6.728649	38.94614	130.787	3.593021	-0.8571317	0.02	3	100	0	6546	4.652991	-2.486128	-0.3459564	
13:10:05	-6.728649	38.94614	130.773	3.596662	-0.3932008	0.04	3	100	0	6546	4.653433	-2.441803	-0.3674483	
13:10:05	-6.728649	38.94614	130.736	3.610735	0.4999273	0.11	3	100	0	6546	4.559536	-2.49477	-0.3593442	
13:10:05	-6.728649	38.94614	130.757	3.639422	2.645679	0.02	3	100	0	6546	4.425487	-2.416071	-0.3008346	
13:10:05	-6.728648	38.94614	130.77	3.679378	4.95796	0.07	3	100	0	6546	4.502516	-2.465603	-0.2645803	
13:10:06	-6.728648	38.94614	130.785	3.719393	6.478182	0.02	3	100	0	6546	4.344349	-2.466808	-0.1772997	
13:10:06	-6.728648	38.94614	130.794	3.762114	8.294973	0.09	3	100	0	6545	4.155881	-2.389281	-0.08447383	
13:10:06	-6.728648	38.94614	130.77	3.795924	9.587826	0.04	3	100	0	6546	4.297742	-2.400707	-0.005269927	
13:10:06	-6.728648	38.94614	130.804	3.825683	10.76689	0.04	3	100	0	6546	4.322566	-2.512086	-0.02904766	
13:10:07	-6.728648	38.94614	130.898	3.796317	8.23657	0.14	3	100	0	6546	4.207558	-2.411539	-0.005223894	
13:10:07	-6.728648	38.94614	130.915	3.768007	6.225973	0.24	3	100	0	6546	4.092833	-2.324154	0.08650076	
13:10:07	-6.728648	38.94614	130.85	3.755586	4.94799	0.36	3	100	0	6546	4.237224	-2.268161	0.1959345	
13:10:08	-6.728648	38.94614	130.731	3.741323	3.06542	0.17	3	100	0	6546	4.467545	-2.052046	0.3025931	
13:10:08	-6.728648	38.94614	130.7	3.723176	2.086538	0.04	3	100	0	6546	4.521625	-2.170988	0.2628241	
13:10:08	-6.728648	38.94614	130.708	3.705641	1.401228	0.02	3	100	0	6546	4.536975	-2.296423	0.3060568	
13:10:08	-6.728648	38.94614	130.704	3.717912	1.412207	0.04	3	100	0	6546	4.508033	-2.313359	0.3209905	
13:10:08	-6.728648	38.94614	130.696	3.730094	1.203582	0.09	3	100	0	6546	4.48916	-2.327688	0.404472	
13:10:08	-6.728648	38.94614	130.702	3.729448	0.8661091	0.09	3	100	0	6546	4.501	-2.455753	0.3610279	
13:10:09	-6.728647	38.94614	130.734	3.72906	0.8621935	0.22	3	100	0	6546	4.431903	-2.474825	0.3552206	
13:10:09	-6.728647	38.94614	130.737	3.624543	-4.580672	0.11	3	100	0	6546	4.556703	-2.510171	0.3649822	
13:10:09	-6.728647	38.94614	130.736	3.528534	-9.085862	0.04	3	100	0	6546	4.410773	-2.327664	0.3503241	
13:10:09	-6.728647	38.94614	130.705	3.453758	-11.96726	0.11	3	100	0	6546	4.427754	-2.260314	0.3563415	
13:10:09	-6.728646	38.94614	130.687	3.379799	-14.11057	0.12	3	100	0	6546	4.411849	-2.41324	0.3613648	
13:10:10	-6.728646	38.94614	130.682	3.385352	-12.31488	0.03	3	100	0	6546	4.480231	-2.366335	0.338186	
13:10:10	-6.728646	38.94614	130.685	3.393345	-10.77246	0.09	3	100	0	6546	4.572066	-2.235535	0.3249086	
13:10:10	-6.728646	38.94614	130.672	3.399639	-9.481971	0.14	3	100	0	6546	4.711799	-2.246517	0.340283	
13:10:10	-6.728646	38.94614	130.651	3.406794	-8.508926	0.08	3	100	0	6546	4.624376	-2.301374	0.337461	
13:10:10	-6.728646	38.94614	130.663	3.428884	-5.983164	0.09	3	100	0	6546	4.50448	-2.250313	0.3234865	
13:10:11	-6.728646	38.94614	130.606	3.4482	-4.935885	0.09	3	100	0	6546	4.558666	-2.264394	0.2547696	
13:10:11	-6.728646	38.94614	130.567	3.474088	-2.963199	0.02	3	100	0	6546	4.501993	-2.144831	0.3308958	
13:10:11	-6.728646	38.94614	130.55	3.498865	-1.029717	0.14	3	100	0	6546	4.588549	-2.152107	0.317336	
13:10:11	-6.728646	38.94614	130.508	3.523197	-0.1849408	0.14	3	100	0	6546	4.526217	-2.11525	0.3624642	
13:10:11	-6.728646	38.94614	130.473	3.546976	0.7105294	0.19	3	100	0	6546	4.47149	-2.209038	0.2762677	
13:10:11	-6.728646	38.94614	130.445	3.518687	-0.9337488	0.07	3	100	0	6546	4.460823	-1.822868	0.2753398	
13:10:11	-6.728646	38.94614	130.445	3.409373	-6.892914	0.07	3	100	0	6546	4.622323	-1.989854	0.2890418	
13:10:12	-6.728646	38.94614	130.392	3.333213	-9.727721	0.14	3	100	0	6546	4.738124	-2.053451	0.2507226	
13:10:12	-6.728646	38.94614	130.252	3.278431	-11.53383	0.04	3	100	0	6546	4.746246	-2.05015	0.1569372	
13:10:12	-6.728646	38.94614	130.23	3.233738	-13.15479	0.11	3	100	0	6546	4.883458	-2.155845	0.09425276	
13:10:12	-6.728646	38.94614	130.244	3.19796	-13.5945	0.14	3	100	0	6546	4.841929	-2.095447	0.01793532	
13:10:12	-6.728646	38.94614	130.243	3.162434	-14.46797	0.09	3	100	0	6546	4.836291	-2.015666	0.01042678	
13:10:12	-6.728646	38.94614	130.201	3.129004	-14.80475	0.14	3	100	0	6546	4.873271	-2.136519	0.02737871	
13:10:13	-6.728646	38.94614	130.169	3.093966	-15.14595	0.07	3	100	0	6546	4.951508	-2.127192	0.04918319	
13:10:13	-6.728646	38.94614	130.116	3.051825	-15.68303	0.14	3	100	0	6546	4.853314	-2.19351	0.0955598	
13:10:13	-6.728646	38.94614	130.095	3.031508	-14.49182	0.08	3	100	0	6546	4.831509	-2.131819	0.02376233	
13:10:13	-6.728646	38.94614	130.09	3.029444	-13.50596	0.08	3	100	0	6546	4.932584	-2.026494	0.01451591	
13:10:14	-6.728646	38.94614	130.089	3.048985	-11.15915	0.04	3	100	0	6546	4.906732	-2.077067	-0.008797768	
13:10:14	-6.728646	38.94614	130.076	3.081529	-8.551435	0.03	3	100	0	6546	4.88901	-2.129933	0.008124053	
13:10:14	-6.728646	38.94614	130.102	3.141895	-4.497094	0.06	3	100	0	6546	4.829784	-2.149382	-0.01805277	
13:10:14	-6.728646	38.94614	130.155	3.215302	-0.1900686	0.09	3	100	0	6546	4.849686	-2.18225	-0.04577563	
13:10:15	-6.728646	38.94614	130.204	3.27951	3.362472	0.02	3	100	0	6546	4.860282	-2.132708	0.002523923	
13:10:15	-6.728646	38.94614	130.225	3.328821	5.441183	0.04	3	100	0	6546	4.806121	-2.090227	0.03237034	
13:10:15	-6.728646	38.94614	130.247	3.386555	7.846978	0.09	3	100	0	6546	4.854779	-2.043269	0.03445804	
13:10:15	-6.728646	38.94614	130.265	3.447111	10.95092	0.08	3	100	0	6546	4.818028	-2.088011	-0.008670788	
13:10:15	-6.728646	38.94614	130.312	3.490201	12.63708	0.01	3	100	0	6546	4.80755	-2.157675	-0.01565905	
13:10:15	-6.728646	38.94614	130.317	3.518829	13.02142	0.04	3	100	0	6546	4.828116	-2.139629	-0.06997146	
13:10:16	-6.728646	38.94614	130.335	3.547042	14.11374	0.01	3	100	0	6546	4.805482	-2.169395	-0.09606215	
13:10:16	-6.728646	38.94614	130.344	3.575387	14.34429	0.09	3	100	0	6546	4.810686	-2.179798	-0.06767628	
13:10:16	-6.728646	38.94614	130.341	3.597948	14.01985	0.07	3	100	0	6546	4.791468	-2.14429	-0.1008604	
13:10:16	-6.728646	38.94614	130.35	3.584581	11.71707	0.09	3	100	0	6546	4.849041	-2.10393	-0.1233914	
13:10:16	-6.728646	38.94614	130.366	3.570345	10.29737	0.09	3	100	0	6546	4.85496	-2.153872	-0.07324468	
13:10:17	-6.728646	38.94614	130.392	3.581439	10.22037	0.16	3	100	0	6546	4.941714	-2.119627	-0.09752484	
13:10:17	-6.728646	38.94614	130.366	3.590786	9.68895	0.04	3	100	0	6546	5.027614	-2.194185	-0.1166561	
13:10:17	-6.728646	38.94614	130.367	3.538543	6.521543	0.13	3	100	0	6546	5.013088	-2.191476	-0.1033312	
13:10:17	-6.728646	38.94614	130.421	3.490298	3.358237	0.02	3	100	0	6546	4.99861	-2.262043	-0.1810723	
13:10:17	-6.728646	38.94614	130.452	3.416162	-0.9701522	0.11	3	100	0	6546	5.101868	-2.201843	-0.1763975	
13:10:18	-6.728646	38.94614	130.458	3.343281	-4.622186	0.12	3	100	0	6546	5.120156	-2.146112	-0.2052345	
13:10:18	-6.728646	38.94614	130.475	3.316144	-4.96864	0.06	3	100	0	6546	5.086246	-2.156788	-0.1797391	
13:10:18	-6.728646	38.94615	130.493	3.29336	-5.575001	0.06	3	100	0	6546	5.137723	-2.222386	-0.2408714	
13:10:18	-6.728647	38.94615	130.5	3.258576	-7.077728	0.14	3	100	0	6546	5.01349	-2.143398	-0.2760153	
13:10:18	-6.728647	38.94615	130.531	3.228084	-7.52961	0.06	3	100	0	6546	4.879779	-2.200928	-0.2716464	
13:10:18	-6.728647	38.94615	130.559	3.225054	-7.433664	0.14	3	100	0	6546	4.959625	-2.34061	-0.3121348	
13:10:19	-6.728647	38.94615	130.579	3.222677	-6.940808	0.04	3	100	0	6546	4.83474	-2.303804	-0.3523984	
13:10:19	-6.728647	38.94615	130.632	3.225629	-5.910349	0.03	3	100	0	6544	5.142269	-2.22469	-0.3977402	
13:10:19	-6.728647	38.94615	130.65	3.229228	-5.42383	0.09	3	100	0	6546	5.213148	-2.202407	-0.4057198	
13:10:20	-6.728647	38.94615	130.668	3.259373	-3.316695	0.04	3	100	0	6546	5.101295	-2.173627	-0.3869836	
13:10:20	-6.728647	38.94615	130.681	3.29018	-1.172113	0.04	3	100	0	6546	5.424338	-2.282238	-0.3432907	
13:10:20	-6.728647	38.94615	130.703	3.341425	0.8663443	0.12	3	100	0	6546	5.294273	-2.347507	-0.3390136	
13:10:20	-6.728647	38.94615	130.779	3.3862	2.651608	0.16	3	100	0	6546	5.259653	-2.428095	-0.3297933	
13:10:20	-6.728647	38.94615	130.819	3.439262	4.804832	0.14	3	100	0	6546	5.316323	-2.442616	-0.4171676	
13:10:20	-6.728647	38.94615	130.883	3.486778	6.814705	0.13	3	100	0	6546	5.499296	-2.405457	-0.3875811	
13:10:21	-6.728647	38.94615	130.937	3.535277	8.704354	0.09	3	100	0	6546	5.558177	-2.316964	-0.4609917	
13:10:21	-6.728647	38.94615	130.974	3.583276	10.11897	0.04	3	100	0	6546	5.553954	-2.235787	-0.4947098	
13:10:21	-6.728647	38.94615	130.982	3.600168	10.12476	0.03	3	100	0	6544	5.510014	-2.22333	-0.4980053	
13:10:21	-6.728647	38.94615	131.041	3.577835	7.791676	0.08	3	100	0	6546	5.525407	-2.23246	-0.5731617	
13:10:21	-6.728648	38.94615	131.099	3.559329	5.832125	0.07	3	100	0	6546	5.539325	-2.221008	-0.6700075	
13:10:22	-6.728648	38.94615	131.16	3.549106	4.818854	0.03	3	100	0	6546	5.574714	-2.253587	-0.7365261	
13:10:22	-6.728648	38.94615	131.168	3.547964	4.182688	0.03	3	100	0	6546	5.546592	-2.257147	-0.7695066	
13:10:22	-6.728648	38.94615	131.228	3.555014	4.542809	0.07	3	100	0	6546	5.475506	-2.256206	-0.7782675	
13:10:22	-6.728648	38.94615	131.25	3.553257	4.012286	0.07	3	100	0	6546	5.485708	-2.231236	-0.8114803	
13:10:22	-6.728649	38.94615	131.293	3.544918	3.364789	0.04	3	100	0	6546	5.507883	-2.250918	-0.8478485	
13:10:23	-6.728649	38.94615	131.368	3.527219	2.077979	0.19	3	100	0	6546	5.467947	-2.219461	-0.9553128	
13:10:23	-6.728649	38.94615	131.415	3.497546	0.4974619	0.13	3	100	0	6546	5.413409	-2.19173	-0.9748417	
13:10:23	-6.728649	38.94615	131.485	3.464183	-2.109341	0.09	3	100	0	6546	5.554152	-2.216614	-0.9208246	
13:10:23	-6.728649	38.94615	131.569	3.424402	-4.311084	0.09	3	100	0	6546	5.680792	-2.190037	-1.039838	
13:10:23	-6.728649	38.94615	131.674	3.382149	-6.203884	0.06	3	100	0	6546	5.619997	-2.249907	-1.140604	
13:10:23	-6.728649	38.94615	131.757	3.345535	-7.405403	0.06	3	100	0	6546	5.462903	-2.259295	-1.151669	
13:10:24	-6.72865	38.94615	131.817	3.2692	-10.95158	0.09	3	100	0	6546	5.379015	-2.254836	-1.172434	
13:10:24	-6.72865	38.94615	131.904	3.158706	-15.60453	0.04	3	100	0	6546	5.347377	-2.283374	-1.159137	
13:10:24	-6.72865	38.94615	131.999	3.066396	-19.19327	0.12	3	100	0	6546	5.432546	-2.211632	-1.143496	
13:10:24	-6.72865	38.94615	132.094	2.995762	-21.67816	0.09	3	100	0	6546	5.402524	-2.182489	-1.126401	
13:10:25	-6.728651	38.94615	132.137	2.934345	-22.97953	0.09	3	100	0	6546	5.376957	-2.224596	-1.128523	
13:10:25	-6.728651	38.94615	132.222	2.891415	-23.4384	0.09	3	100	0	6546	5.492846	-2.268055	-1.073509	
13:10:25	-6.728651	38.94616	132.293	2.889873	-21.33562	0.12	3	100	0	6545	5.423007	-2.330878	-1.120713	
13:10:26	-6.728651	38.94615	132.345	2.941343	-16.38264	0.13	3	100	0	6546	5.262259	-2.363052	-1.154745	
13:10:26	-6.728651	38.94615	132.395	2.979238	-12.57111	0.09	3	100	0	6546	5.311893	-2.282301	-1.14996	
13:10:26	-6.728651	38.94615	132.439	2.99582	-10.04111	0.04	3	100	0	6546	5.322291	-2.244602	-1.103441	
13:10:26	-6.728651	38.94615	132.496	3.013104	-8.148824	0.09	3	100	0	6546	5.391193	-2.251303	-1.145803	
13:10:26	-6.728651	38.94615	132.564	3.041602	-5.32641	0.14	3	100	0	6546	5.331549	-2.216577	-1.111717	
13:10:27	-6.728651	38.94615	132.647	3.06898	-3.810317	0.06	3	100	0	6546	5.309342	-2.238076	-1.166787	
13:10:27	-6.728652	38.94616	132.733	3.074299	-3.476628	0.03	3	100	0	6546	5.416222	-2.315285	-1.153917	
13:10:27	-6.728652	38.94616	132.801	3.080226	-2.358346	0.04	3	100	0	6546	5.341162	-2.335011	-1.139161	
13:10:27	-6.728652	38.94616	132.851	3.05467	-3.613728	0.13	3	100	0	6546	5.442958	-2.31893	-1.209363	
13:10:27	-6.728652	38.94616	132.921	3.035745	-4.667896	0.09	3	100	0	6546	6.160888	-2.410619	-1.167533	
13:10:27	-6.728652	38.94616	132.938	3.064765	-3.004395	0.12	3	100	0	6547	6.780341	-2.383495	-1.261319	
13:10:28	-6.728653	38.94616	132.973	3.094329	-1.243201	0.12	3	100	0	6546	7.865212	-2.443005	-1.439565	
13:10:28	-6.728653	38.94616	133.014	3.114864	0.2893879	0.07	3	100	0	6546	7.404986	-2.394446	-1.643517	
13:10:28	-6.728653	38.94616	133.079	3.134321	1.559317	0.11	3	100	0	6546	7.08063	-2.267746	-1.761885	
13:10:28	-6.728653	38.94616	133.164	3.209994	5.011737	0.07	3	100	0	6546	6.881728	-2.291817	-1.881067	
13:10:28	-6.728653	38.94616	133.196	3.278153	7.858846	0.04	3	100	0	6546	7.055948	-2.302091	-1.891065	
13:10:29	-6.728653	38.94616	133.286	3.281159	7.267007	0.13	3	100	0	6546	6.953753	-2.233888	-1.986985	
13:10:29	-6.728653	38.94616	133.278	3.282897	6.567606	0.13	3	100	0	6546	6.993224	-2.211375	-2.050546	
13:10:29	-6.728654	38.94615	133.313	3.264178	5.200463	0.04	3	100	0	6546	6.901152	-2.255972	-2.187521	
13:10:29	-6.728654	38.94616	133.346	3.246614	3.911837	0.09	3	100	0	6546	7.126442	-2.271095	-2.262792	
13:10:29	-6.728654	38.94616	133.336	3.259375	3.933909	0.03	3	100	0	6546	7.185895	-2.259504	-2.416186	
13:10:29	-6.728654	38.94616	133.372	3.271143	4.387023	0.11	3	100	0	6546	7.045302	-2.199168	-2.504485	
13:10:30	-6.728654	38.94616	133.377	3.275529	3.998055	0.06	3	100	0	6546	7.203844	-2.189513	-2.602923	
13:10:30	-6.728654	38.94616	133.352	3.278518	3.779192	0.08	3	100	0	6546	6.991707	-2.327457	-2.628239	
13:10:30	-6.728654	38.94616	133.347	3.298844	4.278271	0.06	3	100	0	6546	7.111624	-2.338475	-2.68706	
13:10:30	-6.728655	38.94616	133.309	3.316766	4.910381	0.13	3	100	0	6546	6.908627	-2.28297	-2.755371	
13:10:30	-6.728655	38.94616	133.302	3.37735	7.438053	0.06	3	100	0	6546	6.841217	-2.283318	-2.868736	
13:10:31	-6.728656	38.94616	133.31	3.443028	10.24611	0.21	3	100	0	6546	7.565792	-2.182647	-2.942696	
13:10:31	-6.728656	38.94616	133.271	3.441181	8.691115	0.09	3	100	0	6546	7.822038	-2.295541	-2.980546	
13:10:31	-6.728656	38.94616	133.245	3.389846	4.852883	0.08	3	100	0	6546	8.521358	-2.417419	-3.093914	
13:10:31	-6.728656	38.94616	133.237	3.346214	2.253436	0.09	3	100	0	6546	8.111738	-2.377445	-3.212884	
13:10:32	-6.728657	38.94616	133.255	3.316222	0.1171663	0.12	3	100	0	6546	8.196359	-2.377715	-3.324085	
13:10:32	-6.728657	38.94616	133.277	3.315728	0.07185207	0.14	3	100	0	6546	7.900202	-2.439297	-3.429061	
13:10:32	-6.728657	38.94616	133.284	3.331523	0.9483367	0.03	3	100	0	6546	7.971478	-2.348779	-3.470485	
13:10:32	-6.728657	38.94616	133.299	3.360012	2.293618	0.04	3	100	0	6546	7.974265	-2.309733	-3.510707	
13:10:33	-6.728657	38.94616	133.345	3.394302	3.966019	0.07	3	100	0	6546	7.320882	-2.274215	-3.650655	
13:10:33	-6.728658	38.94616	133.344	3.418961	5.028399	0.14	3	100	0	6546	7.353788	-2.334615	-3.737113	
13:10:33	-6.728658	38.94616	133.361	3.439212	5.798241	0.14	3	100	0	6546	6.937848	-2.234562	-3.807988	
13:10:33	-6.728658	38.94616	133.366	3.438126	5.011569	0.04	3	100	0	6546	6.907201	-2.291794	-3.878456	
13:10:33	-6.728658	38.94616	133.359	3.409425	3.035048	0.04	3	100	0	6546	6.579096	-2.299546	-3.940156	
13:10:34	-6.728658	38.94616	133.375	3.388522	0.8023938	0.02	3	100	0	6546	8.588244	-2.37839	-3.924061	
13:10:34	-6.728658	38.94616	133.403	3.378725	0.399579	0.11	3	100	0	6546	8.717047	-2.310678	-4.058002	
13:10:34	-6.728659	38.94616	133.396	3.403134	2.745401	0.18	3	100	0	6546	8.795863	-2.21624	-4.193477	
13:10:34	-6.728659	38.94616	133.411	3.446274	5.073701	0.04	3	100	0	6546	8.938628	-2.338818	-4.350193	
13:10:34	-6.728659	38.94616	133.436	3.504632	7.601868	0.06	3	100	0	6546	8.863981	-2.355856	-4.523014	
13:10:34	-6.72866	38.94616	133.46	3.561335	9.766332	0.13	3	100	0	6546	8.883467	-2.385972	-4.664604	
13:10:35	-6.72866	38.94616	133.481	3.620728	11.76206	0.08	3	100	0	6546	9.022265	-2.417974	-4.794677	
13:10:35	-6.72866	38.94616	133.442	3.677943	14.04615	0.04	3	100	0	6546	9.115835	-2.346254	-4.953067	
13:10:35	-6.72866	38.94616	133.438	3.72606	15.07871	0.07	3	100	0	6546	9.191407	-2.336695	-5.138367	
13:10:35	-6.72866	38.94616	133.426	3.764893	15.72094	0.08	3	100	0	6546	9.252711	-2.288926	-5.203421	
13:10:35	-6.72866	38.94616	133.447	3.81016	16.87202	0.14	3	100	0	6546	9.268016	-2.288508	-5.361303	
13:10:35	-6.72866	38.94616	133.442	3.855673	18.12812	0.02	3	100	0	6546	9.152406	-2.220495	-5.487422	
13:10:36	-6.72866	38.94616	133.442	3.895126	19.03902	0.02	3	100	0	6546	9.253552	-2.184673	-5.603664	
13:10:36	-6.72866	38.94616	133.466	3.913541	17.90298	0.04	3	100	0	6546	9.36405	-2.162423	-5.764837	
13:10:36	-6.72866	38.94616	133.499	3.927152	17.55066	0.09	3	100	0	6546	9.418674	-2.116491	-5.854964	
13:10:36	-6.728661	38.94616	133.476	3.965889	18.26545	0.12	3	100	0	6546	9.450699	-2.116542	-5.913025	
13:10:36	-6.728661	38.94616	133.467	4.00599	18.59269	0.16	3	100	0	6546	9.469119	-2.01564	-6.063734	
13:10:36	-6.728661	38.94616	133.444	4.039044	17.93904	0.09	3	100	0	6546	9.547003	-2.246032	-6.179508	
13:10:37	-6.728661	38.94616	133.444	4.064732	16.90421	0.09	3	100	0	6546	9.650263	-2.149217	-6.330576	
13:10:37	-6.728661	38.94616	133.428	4.090551	16.41344	0.09	3	100	0	6546	9.721941	-2.053962	-6.431309	
13:10:37	-6.728661	38.94616	133.346	4.115608	16.00993	0.12	3	100	0	6546	9.702899	-1.972873	-6.635767	
