Date	Latitude(deg) 	Longitude(deg)	hamsl(m)	hafl(m)	climbrate(cm/s)	GroundSpeed(m/s)	Airspeed(m/s)	Mav_Link(%)	Rssi_Link(%)	Throttle	Roll(deg)	Pitch(deg)	Yaw(deg)
11:05:06	-6.733788	38.95362	121.535	0	0	0.21	0	100	0	0	18.1229	-1.908933	44.08183	
11:05:06	-6.733804	38.95362	120.079	0.8347299	-1.135153	0.09	3	100	0	50	18.02995	-2.737117	44.03117	
11:05:06	-6.733804	38.95362	120.277	0.8360042	-3.503061	0.04	3	100	0	50	17.9024	-2.570267	43.93792	
11:05:07	-6.733805	38.95362	120.211	0.6231992	-16.58607	0.26	3	100	0	50	17.97651	-2.526209	43.86842	
11:05:07	-6.733806	38.95362	120.252	0.2264867	-37.51636	0.14	3	100	0	50	18.41331	-2.480686	43.7667	
11:05:07	-6.733806	38.95362	120.266	0.07634643	-43.74793	0.17	3	100	0	50	18.26858	-2.341139	43.67331	
11:05:07	-6.733807	38.95362	120.295	0.07599564	-41.4667	0.13	3	100	0	50	18.22374	-2.453923	43.60245	
11:05:07	-6.733807	38.95362	120.216	0.1810298	-33.87337	0.47	3	100	0	50	18.24881	-2.314383	43.51907	
11:05:08	-6.733807	38.95362	120.159	0.3445976	-24.05992	0.25	3	100	0	50	18.59971	-2.507028	43.41928	
11:05:08	-6.733807	38.95362	120.216	0.4757841	-16.59734	0.37	3	100	0	50	18.43454	-2.342317	43.32017	
11:05:08	-6.733808	38.95362	120.22	0.6014593	-10.5071	0.19	3	100	0	50	18.31833	-2.551342	43.24041	
11:05:08	-6.733808	38.95362	120.333	0.6866771	-6.936196	0.29	3	100	0	50	18.29175	-2.384101	43.15831	
11:05:08	-6.733808	38.95362	120.35	0.7244667	-6.5307	0.16	3	100	0	50	18.16305	-2.452162	43.10342	
11:05:09	-6.733808	38.95362	120.01	0.7862734	-4.665973	0.18	3	100	0	50	18.12725	-2.004927	43.06592	
11:05:09	-6.733808	38.95362	119.623	0.8631953	-2.046565	0.33	3	100	0	50	18.35517	-2.599069	43.0259	
11:05:09	-6.733808	38.95362	119.391	0.9307494	0.6157466	0.11	3	100	0	50	18.29564	-2.695464	42.95178	
11:05:09	-6.733808	38.95362	118.915	0.8819062	-3.36262	0.26	3	100	0	50	18.27785	-2.365639	42.89126	
11:05:09	-6.733808	38.95362	118.743	0.8347794	-7.027807	0.21	3	100	0	50	18.40079	-2.481687	42.81046	
11:05:10	-6.733808	38.95362	118.661	0.798492	-9.58745	0.24	3	100	0	50	18.3447	-2.42544	42.74559	
11:05:10	-6.733808	38.95362	118.588	0.7601946	-12.28692	0.19	3	100	0	50	18.28842	-2.430736	42.67733	
11:05:10	-6.733808	38.95362	118.333	0.7145825	-15.43109	0.14	3	100	0	50	18.41284	-2.293849	42.62717	
11:05:10	-6.733809	38.95362	118.317	0.6726521	-17.75176	0.09	3	100	0	50	18.39588	-2.107005	42.57921	
11:05:10	-6.733809	38.95362	118.434	0.6854542	-17.52761	0.14	3	100	0	50	18.27163	-2.146451	42.57395	
11:05:11	-6.733809	38.95362	118.778	0.6969737	-17.19775	0.24	3	100	0	50	18.35569	-2.067662	42.56028	
11:05:11	-6.733809	38.95362	118.971	0.6874776	-17.91902	0.14	3	100	0	50	18.14055	-2.179879	42.55975	
11:05:11	-6.733809	38.95362	119.288	0.6792173	-17.95382	0.36	3	100	0	50	18.26901	-2.112733	42.53815	
11:05:11	-6.733809	38.95362	119.332	0.6841118	-17.55216	0.07	3	100	0	50	17.96324	-1.931427	42.55215	
11:05:11	-6.733809	38.95362	119.441	0.6882715	-17.42123	0.04	3	100	0	50	18.23818	-1.927857	42.57144	
11:05:12	-6.733809	38.95362	119.383	0.6876155	-17.66056	0.17	3	100	0	50	18.30052	-1.926794	42.57359	
11:05:12	-6.733809	38.95362	119.435	0.6871603	-17.7382	0.09	3	100	0	50	18.53127	-1.831542	42.55448	
11:05:12	-6.733809	38.95362	119.521	0.6590635	-18.55569	0.07	3	100	0	50	18.42674	-1.916978	42.52789	
11:05:12	-6.733809	38.95362	119.524	0.6324278	-19.26546	0.14	3	100	0	50	18.3539	-1.734885	42.52314	
11:05:12	-6.73381	38.95362	119.527	0.6114966	-19.71493	0.22	3	100	0	50	18.52517	-1.812829	42.49405	
11:05:13	-6.73381	38.95362	119.708	0.5898202	-20.09132	0.14	3	100	0	50	18.42991	-1.961624	42.47495	
11:05:13	-6.73381	38.95362	119.589	0.6114802	-18.38456	0.21	3	100	0	50	18.30478	-1.906006	42.47033	
11:05:13	-6.73381	38.95362	119.597	0.6316634	-17.19422	0.19	3	100	0	50	18.50844	-1.968943	42.44671	
11:05:13	-6.73381	38.95362	119.705	0.6715125	-14.75152	0.09	3	100	0	50	18.39649	-1.983303	42.42197	
11:05:13	-6.733811	38.95362	119.919	0.7080644	-12.85076	0.04	3	100	0	50	18.34703	-1.859809	42.41396	
11:05:14	-6.733811	38.95362	120.033	0.7312368	-12.1889	0.17	3	100	0	50	18.33741	-1.77342	42.42681	
11:05:14	-6.733811	38.95362	120.165	0.7529665	-11.82138	0.04	3	100	0	50	18.38806	-1.915469	42.41336	
11:05:14	-6.733812	38.95362	119.96	0.7394362	-12.79624	0.29	3	100	0	50	18.26738	-1.685583	42.39561	
11:05:14	-6.733812	38.95362	119.867	0.6746497	-16.47439	0.41	3	100	0	50	18.54706	-1.806593	42.3849	
11:05:14	-6.733812	38.95362	119.592	0.6479142	-17.48091	0.19	3	100	0	50	18.4431	-2.045013	42.34539	
11:05:15	-6.733812	38.95362	119.489	0.6508339	-17.01766	0.26	3	100	0	50	18.27667	-1.919091	42.31373	
11:05:15	-6.733812	38.95362	119.283	0.6751102	-16.16891	0.21	3	100	0	50	18.2126	-1.989542	42.3057	
11:05:15	-6.733812	38.95362	119.178	0.7119617	-13.64175	0.16	3	100	0	50	18.10388	-1.956598	42.3073	
11:05:15	-6.733812	38.95362	119.296	0.7365752	-11.91434	0.19	3	100	0	50	18.22157	-1.887681	42.31058	
11:05:15	-6.733812	38.95362	119.193	0.7524479	-11.6509	0.19	3	100	0	50	18.16236	-1.961065	42.30949	
11:05:16	-6.733812	38.95363	119.156	0.7510347	-12.10413	0.01	3	100	0	50	18.16162	-1.928259	42.31206	
11:05:16	-6.733812	38.95363	119.197	0.7319306	-13.13798	0.17	3	100	0	50	18.07466	-1.814297	42.33035	
11:05:16	-6.733812	38.95363	119.346	0.7174797	-13.43012	0.36	3	100	0	50	18.0897	-1.991868	42.35721	
11:05:16	-6.733812	38.95363	119.541	0.7108225	-13.69143	0.19	3	100	0	50	18.21842	-2.073221	42.3408	
11:05:16	-6.733812	38.95363	119.556	0.7082874	-14.04942	0.18	3	100	0	50	18.18019	-1.897727	42.3092	
11:05:17	-6.733813	38.95363	119.514	0.7111537	-13.86656	0.33	3	100	0	50	18.36695	-1.662187	42.31348	
11:05:17	-6.733813	38.95363	119.462	0.7233463	-13.1218	0.34	3	100	0	50	18.4378	-1.786106	42.31384	
11:05:17	-6.733813	38.95363	119.567	0.7408013	-12.04387	0.19	3	100	0	50	18.23727	-1.975296	42.30447	
11:05:17	-6.733813	38.95363	119.509	0.7770462	-10.09837	0.03	3	100	0	50	18.00724	-1.895332	42.31608	
11:05:17	-6.733813	38.95363	119.428	0.8220866	-8.267329	0.17	3	100	0	50	18.09491	-1.788594	42.34307	
11:05:18	-6.733813	38.95363	119.504	0.8733535	-5.62613	0.04	3	100	0	50	18.07244	-1.950206	42.37069	
11:05:18	-6.733813	38.95363	119.492	0.9242598	-3.395094	0.06	3	100	0	50	18.03258	-1.83348	42.39799	
11:05:18	-6.733813	38.95363	119.528	0.9512355	-3.483148	0.25	3	100	0	50	18.13527	-1.92197	42.43272	
11:05:18	-6.733813	38.95363	119.504	0.9413636	-4.414872	0.11	3	100	0	50	18.21599	-2.021499	42.43434	
11:05:18	-6.733813	38.95363	119.403	0.9344709	-5.71519	0.09	3	100	0	50	18.07207	-1.976958	42.43509	
11:05:19	-6.733813	38.95363	119.372	0.9311203	-7.052964	0.25	3	100	0	50	18.1539	-1.951094	42.451	
11:05:19	-6.733813	38.95363	119.299	0.9270689	-6.834032	0.26	3	100	0	50	18.20571	-2.041785	42.45124	
11:05:19	-6.733813	38.95363	119.243	0.8548552	-10.93353	0.09	3	100	0	50	18.25126	-1.961714	42.43012	
11:05:19	-6.733813	38.95363	119.172	0.7884967	-15.11174	0.19	3	100	0	50	18.13544	-1.937655	42.44134	
11:05:19	-6.733813	38.95363	119.202	0.7737028	-15.64114	0.19	3	100	0	50	18.10032	-2.026434	42.45722	
11:05:20	-6.733813	38.95363	119.167	0.7596085	-16.278	0.04	3	100	0	50	18.13824	-1.961492	42.4637	
11:05:20	-6.733813	38.95363	119.045	0.7223389	-18.0407	0.21	3	100	0	50	18.03023	-1.947645	42.48074	
11:05:20	-6.733813	38.95363	118.976	0.6898956	-19.01299	0.19	3	100	0	50	18.01367	-1.977867	42.47772	
11:05:20	-6.733812	38.95363	118.911	0.6620926	-19.71074	0.17	3	100	0	50	17.87705	-1.86717	42.52926	
11:05:20	-6.733812	38.95363	118.864	0.6367042	-19.9159	0.24	3	100	0	50	17.93968	-2.027478	42.55542	
11:05:21	-6.733811	38.95364	118.572	0.6567464	-17.46959	0.08	3	100	0	50	17.79358	-1.929777	42.5943	
11:05:21	-6.733811	38.95364	118.441	0.6773816	-15.74068	0.12	3	100	0	50	17.99187	-1.91427	42.62238	
11:05:21	-6.733811	38.95364	118.288	0.6539764	-16.52589	0.11	3	100	0	50	17.99769	-2.010514	42.63108	
11:05:21	-6.733811	38.95364	118.114	0.6339298	-16.52227	0.06	3	100	0	50	18.01495	-1.83317	42.64342	
11:05:21	-6.733811	38.95364	117.885	0.6494337	-15.30049	0.13	3	100	0	50	17.99783	-1.927831	42.65836	
11:05:22	-6.733811	38.95364	117.595	0.6659313	-13.93383	0.21	3	100	0	50	18.08887	-2.083528	42.65041	
11:05:22	-6.733811	38.95364	117.243	0.6959628	-12.55962	0.13	3	100	0	50	18.05836	-2.128165	42.63818	
11:05:22	-6.733811	38.95364	116.806	0.722533	-11.20372	0.09	3	100	0	50	17.85602	-2.042296	42.65802	
11:05:22	-6.733811	38.95364	116.259	0.7776413	-8.109386	0.19	3	100	0	50	17.89607	-2.089481	42.69152	
11:05:22	-6.73381	38.95364	115.714	0.8331463	-5.047329	0.18	3	100	0	50	18.05185	-2.379627	42.6923	
11:05:23	-6.733811	38.95364	115.207	0.8273283	-5.679736	0.14	3	100	0	50	18.15911	-2.225396	42.66928	
11:05:23	-6.733811	38.95364	114.736	0.8214192	-6.432077	0.16	3	100	0	50	18.11745	-2.269253	42.64235	
11:05:23	-6.733811	38.95364	114.458	0.8303307	-6.172001	0.22	3	100	0	50	18.13959	-2.23968	42.61862	
11:05:23	-6.733811	38.95364	114.28	0.8374159	-6.338836	0.13	3	100	0	50	18.08669	-2.321293	42.6035	
11:05:23	-6.733811	38.95364	114.132	0.8560454	-4.964934	0.08	3	100	0	50	17.97027	-2.228194	42.5985	
11:05:24	-6.733811	38.95364	113.794	0.8751073	-3.760317	0.14	3	100	0	50	17.92907	-2.134591	42.60168	
11:05:24	-6.733811	38.95364	113.497	0.8997768	-2.256026	0.13	3	100	0	50	17.81234	-2.273511	42.6144	
11:05:24	-6.73381	38.95364	113.086	0.9320185	-0.7853292	0.07	3	100	0	50	17.87825	-2.287159	42.63971	
11:05:24	-6.73381	38.95364	112.789	0.9743508	0.8935151	0.18	3	100	0	50	17.89219	-2.295238	42.65218	
11:05:24	-6.73381	38.95364	112.661	1.016234	1.899313	0.22	3	100	0	50	17.78419	-2.22668	42.68338	
11:05:25	-6.733811	38.95364	112.509	1.013763	0.4973999	0.03	3	100	0	50	17.79297	-2.09595	42.70089	
11:05:25	-6.733811	38.95364	112.269	0.984973	-1.994845	0.16	3	100	0	50	17.93566	-2.056487	42.70906	
11:05:25	-6.733811	38.95364	112.245	0.9848535	-2.734979	0.17	3	100	0	50	17.89944	-2.022532	42.72518	
11:05:25	-6.733811	38.95364	112.033	0.9995402	-2.551129	0.04	3	100	0	50	17.83033	-2.116982	42.74567	
11:05:25	-6.733811	38.95364	112.013	0.9947296	-3.203167	0.25	3	100	0	50	17.87377	-2.01866	42.76207	
11:05:26	-6.733811	38.95364	111.926	0.9713858	-4.909654	0.01	3	100	0	50	17.82919	-1.96354	42.80853	
11:05:26	-6.733811	38.95364	111.842	0.9426045	-7.095658	0.22	3	100	0	50	18.04751	-2.160255	42.83696	
11:05:26	-6.733811	38.95364	111.721	0.906418	-9.116253	0.17	3	100	0	50	18.04958	-2.225064	42.80514	
11:05:26	-6.733811	38.95364	111.912	0.8732828	-10.75761	0.24	3	100	0	50	17.89594	-2.040612	42.8058	
11:05:26	-6.733811	38.95364	111.893	0.8515683	-11.77473	0.41	3	100	0	50	18.22687	-2.235158	42.80139	
11:05:27	-6.733811	38.95364	111.644	0.8116813	-13.40325	0.12	3	100	0	50	18.55102	-2.458446	42.70733	
11:05:27	-6.733811	38.95364	111.411	0.7680094	-14.75508	0.16	3	100	0	50	18.39077	-2.278803	42.65331	
11:05:27	-6.733811	38.95364	111.335	0.7270691	-15.85315	0.18	3	100	0	50	18.42984	-2.415515	42.59417	
11:05:27	-6.733811	38.95364	111.331	0.6927277	-17.13198	0.14	3	100	0	50	18.27476	-2.499785	42.52795	
11:05:27	-6.733811	38.95364	111.381	0.6562563	-18.30046	0.04	3	100	0	50	18.21249	-2.388634	42.48578	
11:05:28	-6.733811	38.95364	111.179	0.6227967	-18.80945	0.14	3	100	0	50	18.29335	-2.312144	42.46303	
11:05:28	-6.733811	38.95364	111.016	0.6002315	-18.74217	0.11	3	100	0	50	18.32373	-2.224974	42.44356	
11:05:28	-6.733811	38.95364	110.973	0.5871149	-18.57813	0.17	3	100	0	50	18.30674	-2.090295	42.42633	
11:05:28	-6.733811	38.95364	110.817	0.6048725	-16.50025	0.22	3	100	0	50	18.39483	-2.061574	42.40546	
11:05:28	-6.733811	38.95364	110.737	0.6422145	-13.8012	0.31	3	100	0	50	18.33106	-2.240974	42.38182	
11:05:29	-6.733811	38.95364	110.914	0.6776864	-11.47442	0.13	3	100	0	50	18.18085	-2.462789	42.35055	
11:05:29	-6.733811	38.95364	111.204	0.5914885	-15.65033	0.26	3	100	0	50	18.08199	-2.18815	42.33523	
11:05:29	-6.733811	38.95364	111.252	0.5151379	-18.87543	0.09	3	100	0	50	18.13124	-2.263203	42.32771	
11:05:29	-6.733811	38.95364	111.426	0.5150096	-17.76469	0.14	3	100	0	50	18.19154	-2.532128	42.29447	
11:05:29	-6.733812	38.95364	111.754	0.5167345	-16.82108	0.19	3	100	0	50	18.12589	-2.361666	42.27985	
11:05:30	-6.733812	38.95364	111.879	0.5784351	-12.35394	0.09	3	100	0	50	18.13959	-2.369528	42.28173	
11:05:30	-6.733811	38.95364	111.964	0.6365495	-8.651708	0.14	3	100	0	50	18.10718	-2.531838	42.26538	
11:05:30	-6.733811	38.95364	111.89	0.7327062	-3.059201	0.07	3	100	0	50	18.11154	-2.575996	42.24855	
11:05:30	-6.733811	38.95364	112.008	0.8293992	2.075684	0.13	3	100	0	50	18.16806	-2.445031	42.21616	
11:05:30	-6.733811	38.95364	111.948	0.8891608	4.541284	0.14	3	100	0	50	18.25682	-2.444088	42.18544	
11:05:31	-6.733811	38.95364	112.063	0.9417009	6.27986	0.09	3	100	0	50	18.31697	-2.588728	42.13307	
11:05:31	-6.733811	38.95364	112.268	0.9371872	5.047261	0.03	3	100	0	50	18.28777	-2.494101	42.08529	
11:05:31	-6.733812	38.95364	112.633	0.9309999	3.370603	0.5	3	100	0	50	18.46437	-2.586563	42.04052	
11:05:31	-6.733812	38.95364	112.846	0.9693115	4.923594	0.26	3	100	0	50	18.29833	-2.413138	41.96358	
11:05:31	-6.733812	38.95364	113.074	1.007003	6.018866	0.06	3	100	0	50	18.05148	-2.147457	41.98086	
11:05:32	-6.733813	38.95364	113.463	0.9986532	4.349395	0.17	3	100	0	50	18.08075	-2.197097	41.98514	
11:05:32	-6.733813	38.95364	113.566	0.9894857	3.282081	0.07	3	100	0	50	18.10344	-2.207355	42.00276	
11:05:32	-6.733813	38.95364	113.7	0.9578795	0.7726092	0.12	3	100	0	50	18.25126	-2.262575	41.99743	
11:05:32	-6.733814	38.95364	113.697	0.9251455	-1.783489	0.14	3	100	0	50	18.2521	-2.196289	41.9934	
11:05:32	-6.733814	38.95364	113.607	0.8813491	-4.281653	0.14	3	100	0	50	18.13948	-2.1366	41.99091	
11:05:33	-6.733814	38.95364	113.708	0.8409322	-7.149864	0.09	3	100	0	50	18.04028	-2.241436	42.00195	
11:05:33	-6.733814	38.95364	113.907	0.8118616	-8.652239	0.04	3	100	0	50	18.05731	-2.327498	41.99643	
11:05:33	-6.733814	38.95364	113.967	0.7860703	-9.635722	0.18	3	100	0	50	18.11765	-2.177808	41.99166	
11:05:33	-6.733814	38.95364	114.193	0.7742447	-9.912241	0.09	3	100	0	50	18.06982	-2.10944	42.01773	
11:05:33	-6.733814	38.95364	114.442	0.7632171	-9.9236	0.03	3	100	0	50	18.02851	-2.213576	42.03684	
11:05:34	-6.733814	38.95364	114.661	0.7222833	-11.79506	0.18	3	100	0	50	18.03104	-2.328159	42.05978	
11:05:34	-6.733814	38.95364	114.876	0.6628667	-14.28395	0.19	3	100	0	50	17.9211	-2.355859	42.06302	
11:05:34	-6.733814	38.95364	115.04	0.6073073	-16.18191	0.14	3	100	0	50	17.87411	-2.23157	42.0806	
11:05:34	-6.733814	38.95364	115.155	0.5726054	-16.67104	0.18	3	100	0	50	18.08062	-2.218522	42.10135	
11:05:34	-6.733814	38.95364	115.149	0.5648201	-16.26996	0.13	3	100	0	50	18.22194	-2.235785	42.08297	
11:05:35	-6.733815	38.95364	115.379	0.5802857	-14.36375	0.22	3	100	0	50	18.21891	-2.176307	42.08197	
11:05:35	-6.733815	38.95364	115.475	0.6088157	-11.80533	0.08	3	100	0	50	18.0869	-2.241705	42.09501	
11:05:35	-6.733815	38.95364	115.648	0.6441408	-9.250495	0.08	3	100	0	50	17.96425	-2.251156	42.1038	
11:05:35	-6.733815	38.95364	115.749	0.6784837	-6.797095	0.04	3	100	0	50	18.01842	-2.196888	42.11303	
11:05:35	-6.733815	38.95364	115.897	0.7078892	-5.164181	0.14	3	100	0	50	18.04055	-2.282508	42.10898	
11:05:36	-6.733815	38.95364	116.012	0.7138845	-4.163517	0.09	3	100	0	50	18.0556	-2.284732	42.11341	
11:05:36	-6.733815	38.95364	116.135	0.702812	-4.855777	0.06	3	100	0	50	18.03907	-2.222164	42.12461	
11:05:36	-6.733816	38.95364	116.37	0.7077699	-4.550702	0.14	3	100	0	50	17.92408	-2.097928	42.15069	
11:05:36	-6.733816	38.95364	116.556	0.7299168	-3.078468	0.03	3	100	0	50	17.87575	-2.053178	42.20683	
11:05:36	-6.733816	38.95364	116.691	0.7248499	-3.077795	0.08	3	100	0	50	17.86697	-2.138698	42.24781	
11:05:37	-6.733816	38.95364	116.861	0.6955664	-4.745896	0.14	3	100	0	50	17.81995	-2.124952	42.28611	
11:05:37	-6.733816	38.95364	117.012	0.6675091	-5.349956	0.16	3	100	0	50	17.79772	-2.052756	42.34138	
11:05:37	-6.733816	38.95363	117.146	0.6434785	-6.750749	0.31	3	100	0	50	17.71817	-2.187751	42.39288	
11:05:37	-6.733815	38.95363	117.092	0.6315318	-6.556405	0.22	3	100	0	50	17.65931	-2.257981	42.4234	
11:05:37	-6.733814	38.95363	117.159	0.6370706	-5.711822	0.34	3	100	0	50	17.62845	-2.152298	42.48462	
