Date	Latitude(deg) 	Longitude(deg)	hamsl(m)	hafl(m)	climbrate(cm/s)	GroundSpeed(m/s)	Airspeed(m/s)	Mav_Link(%)	Rssi_Link(%)	Throttle	Roll(deg)	Pitch(deg)	Yaw(deg)
10:51:32	-6.733807	38.95368	121.21	0	0	0.48	0	100	0	0	0	0	0	
10:51:32	-6.733807	38.95368	121.398	0.8508056	-0.06615639	0.29	3	100	0	50	17.97922	-1.281409	44.97613	
10:51:32	-6.733797	38.95368	122.376	0.8494679	-1.507956	0.11	3	100	0	50	18.00392	-1.753017	44.95227	
10:51:32	-6.733797	38.95368	122.408	0.6980071	-9.945895	0.11	3	100	0	50	17.8855	-2.139233	44.90588	
10:51:32	-6.733796	38.95368	122.292	0.5858985	-15.64622	0.13	3	100	0	50	17.83207	-2.058231	44.84143	
10:51:33	-6.733796	38.95368	122.259	0.7755561	-5.007111	0.13	3	100	0	50	17.63127	-2.161075	44.81021	
10:51:33	-6.733796	38.95368	122.225	0.9467094	3.176446	0.14	3	100	0	50	17.69571	-2.13105	44.77508	
10:51:33	-6.733795	38.95368	122.306	1.274144	18.20427	0.16	3	100	0	50	17.39667	-2.210862	44.7588	
10:51:33	-6.733795	38.95368	122.277	1.513165	28.31923	0.26	3	100	0	50	17.44678	-2.153123	44.76754	
10:51:33	-6.733794	38.95368	122.212	1.620216	29.52248	0.06	3	100	0	50	17.73838	-2.395747	44.73071	
10:51:34	-6.733795	38.95368	122.272	1.70074	30.10062	0.34	3	100	0	50	17.68196	-2.081926	44.69319	
10:51:34	-6.733795	38.95368	122.262	1.668919	24.34926	0.26	3	100	0	50	17.68062	-1.848801	44.7061	
10:51:34	-6.733795	38.95367	122.195	1.63624	19.29924	0.35	3	100	0	50	17.57681	-1.91984	44.73069	
10:51:34	-6.733795	38.95367	122.049	1.607402	14.6078	1.04	3	100	0	50	17.47922	-1.752325	44.74877	
10:51:34	-6.733795	38.95367	122.058	1.588375	10.44356	0.14	3	100	0	50	17.57166	-1.456103	44.80404	
10:51:35	-6.733795	38.95367	121.952	1.529082	5.711023	0.11	3	100	0	50	17.63596	-2.337752	44.81694	
10:51:35	-6.733795	38.95367	121.974	1.413083	-1.1422	0.22	3	100	0	50	17.61044	-2.093266	44.79501	
10:51:35	-6.733794	38.95367	121.96	1.331487	-5.958655	0.26	3	100	0	50	17.68049	-2.069294	44.79842	
10:51:35	-6.733794	38.95367	121.926	1.299651	-8.002676	0.65	3	100	0	50	17.82589	-2.212616	44.76522	
10:51:35	-6.733794	38.95367	121.967	1.29675	-8.550614	0.04	3	100	0	50	17.71046	-1.82374	44.75588	
10:51:36	-6.733794	38.95367	121.921	1.318949	-7.401031	0.14	3	100	0	50	17.76059	-2.361485	44.72956	
10:51:36	-6.733794	38.95367	121.987	1.33814	-6.824952	0.24	3	100	0	50	17.76011	-2.318108	44.70136	
10:51:36	-6.733794	38.95367	122.096	1.353367	-6.266538	0.03	3	100	0	50	17.79152	-2.414894	44.65673	
10:51:36	-6.733793	38.95367	122.24	1.345337	-6.802032	0.09	3	100	0	50	17.69469	-2.154074	44.63276	
10:51:36	-6.733792	38.95367	122.234	1.303621	-9.051926	0.21	3	100	0	50	17.71624	-2.239672	44.62483	
10:51:37	-6.733792	38.95367	122.336	1.254647	-11.30409	0.25	3	100	0	50	17.75209	-2.339704	44.585	
10:51:37	-6.733791	38.95367	122.323	1.194055	-14.38941	0.38	3	100	0	50	17.55483	-2.043574	44.56319	
10:51:37	-6.733791	38.95367	122.298	1.133156	-17.0873	0.37	3	100	0	50	17.62617	-1.787816	44.58282	
10:51:37	-6.733791	38.95367	122.414	1.082163	-18.81081	0.14	3	100	0	50	17.75014	-1.791382	44.60229	
10:51:37	-6.73379	38.95367	122.53	1.029896	-20.3483	0.24	3	100	0	50	17.77569	-1.919464	44.60413	
10:51:38	-6.73379	38.95367	122.652	0.9760057	-21.63165	0.09	3	100	0	50	17.82495	-1.926788	44.58938	
10:51:38	-6.73379	38.95367	122.921	0.954516	-21.64013	0.32	3	100	0	50	18.04748	-2.141616	44.5444	
10:51:38	-6.733789	38.95367	123.093	0.9602475	-20.18294	0.36	3	100	0	50	17.95181	-2.352964	44.49295	
10:51:38	-6.733788	38.95367	123.256	0.9746248	-18.5735	0.22	3	100	0	50	17.92825	-2.279088	44.41987	
10:51:38	-6.733788	38.95367	123.461	0.9930612	-16.60759	0.36	3	100	0	50	17.96722	-1.897047	44.38343	
10:51:39	-6.733788	38.95367	123.568	1.002161	-15.50167	0.12	3	100	0	50	18.21362	-1.587104	44.35918	
10:51:39	-6.733787	38.95367	123.64	0.994953	-15.14548	0.26	3	100	0	50	18.16588	-1.774684	44.32597	
10:51:39	-6.733787	38.95367	123.767	0.9891783	-14.5453	0.13	3	100	0	50	18.30322	-1.523312	44.30022	
10:51:39	-6.733787	38.95367	123.776	0.9981084	-13.65072	0.26	3	100	0	50	18.0927	-1.485652	44.3033	
10:51:39	-6.733787	38.95367	123.816	1.007038	-12.67264	0.12	3	100	0	50	18.22837	-1.387459	44.28629	
10:51:40	-6.733787	38.95367	123.907	1.007348	-12.09483	0.11	3	100	0	50	18.16137	-1.550046	44.26802	
10:51:40	-6.733787	38.95367	124.064	1.008811	-11.66972	0.21	3	100	0	50	18.14273	-1.67268	44.26188	
10:51:40	-6.733787	38.95367	124.076	1.004466	-11.61695	0.13	3	100	0	50	18.37271	-1.712704	44.21913	
10:51:40	-6.733787	38.95367	124.117	1.001088	-11.02829	0.31	3	100	0	50	18.17537	-1.506191	44.18453	
10:51:40	-6.733786	38.95367	124.216	0.9527911	-13.36104	0.14	3	100	0	50	17.93537	-1.540136	44.19967	
10:51:41	-6.733786	38.95367	124.268	0.9098632	-15.14083	0.11	3	100	0	50	18.03104	-1.802803	44.20407	
10:51:41	-6.733785	38.95367	124.44	0.9284049	-13.07886	0.19	3	100	0	50	18.04833	-1.84463	44.17974	
10:51:41	-6.733785	38.95367	124.508	0.945778	-11.80969	0.13	3	100	0	50	18.08095	-1.808403	44.15359	
10:51:41	-6.733785	38.95367	124.583	0.8816202	-15.11863	0.09	3	100	0	50	18.20582	-1.545492	44.12709	
10:51:41	-6.733785	38.95367	124.655	0.8246219	-17.49961	0.14	3	100	0	50	18.25118	-1.637491	44.09678	
10:51:42	-6.733784	38.95367	124.848	0.7637692	-20.52515	0.14	3	100	0	50	18.29879	-1.688949	44.05431	
10:51:42	-6.733784	38.95367	124.758	0.7109959	-21.79983	0.14	3	100	0	50	18.19735	-1.582245	44.04866	
10:51:42	-6.733785	38.95367	124.751	0.6942051	-21.44562	0.35	3	100	0	50	18.3154	-1.489086	44.04274	
10:51:42	-6.733785	38.95367	124.865	0.6787586	-21.55689	0.06	3	100	0	50	18.3391	-1.497347	44.04169	
10:51:42	-6.733784	38.95367	124.865	0.7059156	-19.20411	0.13	3	100	0	50	18.28282	-1.748362	44.0268	
10:51:43	-6.733785	38.95367	124.798	0.7326051	-16.89284	0.32	3	100	0	50	18.33188	-1.623006	43.97857	
10:51:43	-6.733785	38.95367	124.826	0.7788746	-13.05628	0.29	3	100	0	50	18.37332	-1.291222	43.96444	
10:51:43	-6.733785	38.95367	124.988	0.8193414	-10.1663	0.19	3	100	0	50	18.36395	-1.389801	43.95778	
10:51:43	-6.733785	38.95367	125.044	0.860534	-7.920525	0.29	3	100	0	50	18.3048	-1.690225	43.91365	
10:51:43	-6.733784	38.95367	125.077	0.8982256	-5.425562	0.13	3	100	0	50	18.2273	-1.78946	43.88121	
10:51:44	-6.733784	38.95367	125.193	0.914614	-4.562782	0.32	3	100	0	50	18.24763	-1.761235	43.84114	
10:51:44	-6.733783	38.95367	125.279	0.9276165	-3.890463	0.42	3	100	0	50	18.17347	-2.021112	43.79247	
10:51:44	-6.733782	38.95368	125.333	0.9524238	-2.689903	0.14	3	100	0	50	18.10264	-1.956522	43.75539	
10:51:44	-6.733782	38.95368	125.439	0.9850935	-1.426578	0.19	3	100	0	50	18.00778	-1.676431	43.74432	
10:51:44	-6.733782	38.95367	125.53	1.00336	-1.456545	0.24	3	100	0	50	17.90148	-1.529576	43.77044	
10:51:45	-6.733781	38.95367	125.553	1.008655	-1.757281	0.32	3	100	0	50	17.84896	-1.45038	43.79971	
10:51:45	-6.73378	38.95367	125.698	1.00315	-2.158874	0.34	3	100	0	50	17.87251	-1.65545	43.84592	
10:51:45	-6.733779	38.95367	125.757	0.9876429	-3.065263	0.09	3	100	0	50	18.04761	-1.864391	43.83098	
10:51:45	-6.733779	38.95367	125.852	0.9698173	-3.784969	0.14	3	100	0	50	18.15125	-1.756804	43.80689	
10:51:45	-6.733779	38.95368	125.939	0.9507279	-5.059264	0.13	3	100	0	50	18.18323	-1.761649	43.78542	
10:51:46	-6.733779	38.95367	126.011	0.9594327	-4.665386	0.17	3	100	0	50	18.14588	-1.631726	43.75677	
10:51:46	-6.733779	38.95367	125.99	0.9819158	-3.349815	0.24	3	100	0	50	18.09326	-1.408558	43.76411	
10:51:46	-6.733779	38.95367	126.091	1.008332	-2.032907	0.16	3	100	0	50	18.18621	-1.405928	43.774	
10:51:46	-6.733779	38.95367	126.182	1.034806	-1.397296	0.35	3	100	0	50	18.21081	-1.710145	43.76048	
10:51:46	-6.733779	38.95367	126.232	1.064782	-1.08524	0.08	3	100	0	50	18.09239	-1.837361	43.74895	
10:51:47	-6.733779	38.95367	126.228	1.097875	-0.01479608	0.07	3	100	0	50	18.12244	-1.556197	43.73678	
10:51:47	-6.733779	38.95367	126.233	1.145655	1.686164	0.16	3	100	0	50	18.2149	-1.629754	43.74503	
10:51:47	-6.733779	38.95367	126.257	1.195387	3.95644	0.07	3	100	0	50	18.21968	-1.644008	43.72688	
10:51:47	-6.733779	38.95367	126.228	1.210533	4.019919	0.09	3	100	0	50	18.19505	-1.530631	43.73671	
10:51:47	-6.733779	38.95367	126.346	1.203413	2.652326	0.29	3	100	0	50	18.07951	-1.744374	43.72897	
10:51:48	-6.733779	38.95367	126.376	1.192789	1.217413	0.16	3	100	0	50	18.01666	-1.894931	43.72089	
10:51:48	-6.733779	38.95367	126.415	1.18084	-0.1503508	0.25	3	100	0	50	17.93577	-1.854797	43.70392	
10:51:48	-6.733778	38.95367	126.401	1.166388	-0.8882382	0.26	3	100	0	50	17.95234	-1.945557	43.69782	
10:51:48	-6.733778	38.95367	126.366	1.151936	-2.06231	0.25	3	100	0	50	18.10606	-1.974841	43.65027	
10:51:48	-6.733778	38.95367	126.407	1.152203	-2.217587	0.33	3	100	0	50	18.11356	-1.687575	43.61536	
10:51:49	-6.733778	38.95367	126.488	1.171746	-1.278328	0.34	3	100	0	50	18.1154	-1.589619	43.61323	
10:51:49	-6.733778	38.95367	126.521	1.190645	-0.4388424	0.14	3	100	0	50	18.07295	-1.826099	43.58984	
10:51:49	-6.733778	38.95367	126.599	1.198134	-1.060435	0.19	3	100	0	50	18.19487	-1.668851	43.5766	
10:51:49	-6.733778	38.95367	126.601	1.204092	-0.7851766	0.13	3	100	0	50	18.19702	-1.72423	43.55392	
10:51:49	-6.733778	38.95367	126.653	1.225849	0.2595032	0.17	3	100	0	50	18.16373	-1.674259	43.53384	
10:51:50	-6.733779	38.95367	126.668	1.244938	0.3703078	0.95	3	100	0	50	18.10236	-1.23904	43.5421	
10:51:50	-6.733779	38.95367	126.793	1.235127	-0.4296225	0.04	3	100	0	50	18.01123	-1.412811	43.59831	
10:51:50	-6.733779	38.95367	126.845	1.224506	-1.395208	0.32	3	100	0	50	17.98512	-1.796372	43.60699	
10:51:50	-6.733779	38.95367	126.83	1.279767	1.600693	0.29	3	100	0	50	18.0494	-1.673552	43.59562	
10:51:50	-6.73378	38.95367	127.059	1.329012	3.178445	0.14	3	100	0	50	18.14005	-1.90735	43.58872	
10:51:51	-6.733779	38.95367	127.187	1.38653	5.59643	0.26	3	100	0	50	18.16502	-2.197667	43.53947	
10:51:51	-6.733779	38.95367	127.293	1.441134	6.81905	0.19	3	100	0	50	17.94596	-2.189632	43.50591	
10:51:51	-6.733779	38.95367	127.35	1.447211	6.241553	0.14	3	100	0	50	17.87436	-1.944253	43.50098	
10:51:51	-6.733778	38.95367	127.428	1.451088	5.693027	0.58	3	100	0	50	17.97045	-2.129161	43.49082	
10:51:51	-6.733778	38.95367	127.314	1.42447	3.596704	0.01	3	100	0	50	17.94856	-2.083249	43.45088	
10:51:52	-6.733778	38.95367	127.277	1.398808	1.589525	0.39	3	100	0	50	18.13487	-1.49724	43.45308	
10:51:52	-6.733779	38.95367	127.261	1.390883	0.6611825	0.48	3	100	0	50	18.34184	-1.245679	43.46636	
10:51:52	-6.73378	38.95367	127.227	1.381347	-0.6187379	0.38	3	100	0	50	18.30687	-1.238183	43.47793	
10:51:52	-6.73378	38.95367	127.311	1.357145	-1.894416	0.22	3	100	0	50	18.1164	-1.583451	43.50518	
10:51:53	-6.73378	38.95367	127.313	1.335459	-2.817346	0.26	3	100	0	50	18.11789	-1.667592	43.50975	
10:51:53	-6.73378	38.95367	127.246	1.320941	-4.044415	0.19	3	100	0	50	18.12508	-1.636139	43.49992	
10:51:53	-6.73378	38.95367	127.144	1.30605	-4.93856	0.22	3	100	0	50	18.08256	-1.613199	43.4819	
10:51:53	-6.733781	38.95367	127.2	1.317819	-4.277079	0.09	3	100	0	50	18.09606	-1.451017	43.47913	
10:51:53	-6.733781	38.95367	127.223	1.328529	-3.944178	0.07	3	100	0	50	18.01572	-1.598922	43.49757	
10:51:54	-6.73378	38.95367	127.195	1.27599	-7.515831	0.55	3	100	0	50	18.12581	-1.96692	43.49687	
10:51:54	-6.73378	38.95367	127.294	1.227483	-10.03247	0.39	3	100	0	50	18.0401	-2.124499	43.44745	
10:51:54	-6.73378	38.95367	127.274	1.219931	-9.891662	0.19	3	100	0	50	18.00658	-1.628383	43.42852	
10:51:54	-6.73378	38.95367	127.342	1.255197	-7.559677	0.35	3	100	0	50	18.13685	-1.510971	43.45143	
10:51:54	-6.73378	38.95367	127.29	1.290483	-5.297985	0.39	3	100	0	50	18.19079	-1.094312	43.46862	
10:51:55	-6.73378	38.95367	127.331	1.325883	-2.953576	0.18	3	100	0	50	18.10912	-0.7410917	43.54071	
10:51:55	-6.733779	38.95367	127.383	1.345547	-2.082888	0.53	3	100	0	50	18.01419	-1.232819	43.63356	
10:51:55	-6.733779	38.95367	127.43	1.345196	-1.965013	0.38	3	100	0	50	17.9147	-1.456793	43.67301	
10:51:55	-6.733778	38.95367	127.502	1.328822	-2.623193	0.22	3	100	0	50	17.91447	-1.327834	43.74221	
10:51:55	-6.733778	38.95368	127.504	1.298536	-4.27018	0.17	3	100	0	50	17.99319	-1.121909	43.7668	
10:51:56	-6.733778	38.95367	127.424	1.275463	-5.263182	0.19	3	100	0	50	17.94819	-0.9447305	43.83343	
10:51:56	-6.733778	38.95368	127.492	1.259986	-6.094685	0.42	3	100	0	50	18.11409	-1.235513	43.89182	
10:51:56	-6.733778	38.95368	127.519	1.210363	-8.509821	0.19	3	100	0	50	18.08703	-1.17442	43.90137	
10:51:56	-6.733778	38.95368	127.442	1.116772	-13.32428	0.29	3	100	0	50	17.88597	-0.799648	43.9788	
10:51:56	-6.733778	38.95368	127.497	1.030031	-17.18004	0.18	3	100	0	50	17.90942	-0.8917717	44.07162	
10:51:57	-6.733778	38.95368	127.472	0.9497252	-19.65358	0.11	3	100	0	50	17.9201	-1.049573	44.1397	
10:51:57	-6.733778	38.95368	127.262	0.8604655	-22.33637	0.19	3	100	0	50	17.85905	-1.138763	44.1923	
10:51:57	-6.733777	38.95368	127.219	0.7761234	-25.36758	0.09	3	100	0	50	17.85283	-1.27673	44.24332	
10:51:57	-6.733777	38.95368	127.046	0.7472402	-24.87671	0.35	3	100	0	50	17.84938	-1.119759	44.28785	
10:51:57	-6.733776	38.95368	126.944	0.7667931	-21.64836	0.14	3	100	0	50	17.93028	-1.241515	44.34417	
10:51:58	-6.733776	38.95367	126.823	0.8071962	-17.94159	0.24	3	100	0	50	17.95441	-1.158551	44.35753	
10:51:58	-6.733775	38.95367	126.698	0.8535959	-14.26447	0.11	3	100	0	50	17.90858	-1.118648	44.41079	
10:51:58	-6.733775	38.95367	126.525	0.9151022	-9.695415	0.24	3	100	0	50	17.89812	-1.434415	44.44944	
10:51:58	-6.733774	38.95367	126.448	0.9682198	-6.018935	0.22	3	100	0	50	17.94523	-1.585945	44.4546	
10:51:58	-6.733774	38.95367	126.287	1.027487	-2.496788	0.48	3	100	0	50	18.12159	-1.14676	44.45699	
10:51:59	-6.733774	38.95367	126.118	1.071097	0.09172456	0.22	3	100	0	50	18.22108	-1.125588	44.47818	
10:51:59	-6.733774	38.95367	125.962	1.119501	2.64705	0.04	3	100	0	50	18.06877	-1.372963	44.49641	
10:51:59	-6.733774	38.95367	125.819	1.174192	4.734059	0.09	3	100	0	50	17.99445	-1.351861	44.50808	
10:51:59	-6.733774	38.95367	125.786	1.222003	6.463061	0.26	3	100	0	50	17.88074	-1.497993	44.50877	
10:51:59	-6.733774	38.95367	125.678	1.208681	4.848907	0.11	3	100	0	50	17.96142	-1.580004	44.51008	
10:52:00	-6.733774	38.95367	125.483	1.195152	3.349185	0.26	3	100	0	50	18.21616	-1.374264	44.48845	
10:52:00	-6.733774	38.95367	125.424	1.213475	3.780589	0.14	3	100	0	50	18.25308	-1.396792	44.48606	
10:52:00	-6.733774	38.95367	125.365	1.230864	4.23623	0.22	3	100	0	50	18.2081	-1.606925	44.46944	
10:52:00	-6.733774	38.95367	125.255	1.232206	4.059434	0.14	3	100	0	50	18.15637	-1.492926	44.45177	
10:52:00	-6.733774	38.95367	125.161	1.233378	4.062762	0.03	3	100	0	50	18.08494	-1.539113	44.45754	
10:52:01	-6.733774	38.95367	125.073	1.28489	5.639843	0.22	3	100	0	50	18.11536	-1.721641	44.42635	
10:52:01	-6.733774	38.95367	124.918	1.329778	7.510341	0.39	3	100	0	50	18.03935	-1.39212	44.3979	
10:52:01	-6.733775	38.95367	124.735	1.382304	9.485958	0.19	3	100	0	50	18.037	-1.279511	44.41877	
10:52:01	-6.733775	38.95367	124.623	1.428873	11.29747	0.26	3	100	0	50	18.0195	-1.754969	44.40728	
10:52:01	-6.733775	38.95367	124.515	1.444223	11.22774	0.01	3	100	0	50	17.95548	-1.741542	44.38858	
10:52:02	-6.733775	38.95367	124.426	1.455932	10.53755	0.04	3	100	0	50	17.96479	-1.674066	44.38804	
10:52:02	-6.733775	38.95367	124.279	1.472629	10.32283	0.19	3	100	0	50	18.08926	-1.662855	44.37123	
10:52:02	-6.733776	38.95367	124.146	1.484828	10.03099	0.16	3	100	0	50	17.83354	-1.655128	44.36934	
10:52:02	-6.733776	38.95367	124.074	1.495074	9.735436	0.29	3	100	0	50	17.85352	-1.909948	44.37676	
10:52:02	-6.733776	38.95367	124.041	1.502308	9.108662	0.09	3	100	0	50	17.90067	-1.755995	44.34764	
10:52:03	-6.733776	38.95367	123.987	1.512004	8.281313	0.24	3	100	0	50	17.92819	-1.885714	44.33378	
10:52:03	-6.733776	38.95367	123.881	1.517914	7.303567	0.19	3	100	0	50	17.92362	-1.694795	44.29615	
10:52:03	-6.733777	38.95367	123.782	1.47376	4.125444	0.14	3	100	0	50	17.95092	-1.648095	44.30605	
10:52:03	-6.733777	38.95367	123.752	1.431507	0.9297967	0.06	3	100	0	50	17.89805	-1.778379	44.3037	
10:52:03	-6.733777	38.95367	123.767	1.405161	-0.5102639	0.14	3	100	0	50	17.72251	-1.735387	44.31083	
10:52:04	-6.733777	38.95367	123.732	1.383826	-1.142157	0.14	3	100	0	50	17.6502	-1.748216	44.3292	
10:52:04	-6.733777	38.95367	123.722	1.374126	-1.814065	0.18	3	100	0	50	17.79049	-1.899512	44.33995	
10:52:04	-6.733778	38.95367	123.83	1.379239	-1.61466	0.12	3	100	0	50	17.80653	-1.919593	44.3206	
10:52:04	-6.733778	38.95367	123.827	1.353256	-3.249125	0.44	3	100	0	50	17.6159	-1.516623	44.33008	
10:52:04	-6.733778	38.95367	123.723	1.285765	-6.624992	0.11	3	100	0	50	17.79523	-1.738818	44.38988	
10:52:05	-6.733778	38.95367	123.675	1.191093	-10.92857	0.16	3	100	0	50	17.81562	-1.739328	44.39954	
10:52:05	-6.733778	38.95367	123.852	1.086044	-15.74643	0.11	3	100	0	50	17.93509	-1.751641	44.39937	
10:52:05	-6.733779	38.95367	124.062	1.042702	-16.96129	0.32	3	100	0	50	17.91684	-1.764616	44.37806	
10:52:05	-6.733779	38.95367	124.062	1.036857	-16.0846	0.32	3	100	0	50	18.21528	-1.931588	44.34665	
10:52:05	-6.73378	38.95367	124.073	1.047858	-14.61613	0.14	3	100	0	50	18.10458	-1.918721	44.28396	
10:52:06	-6.73378	38.95367	124.073	1.069168	-12.32745	0.14	3	100	0	50	18.07672	-2.023839	44.23445	
10:52:06	-6.73378	38.95367	124.133	1.079078	-11.57724	0.25	3	100	0	50	18.06107	-1.99824	44.19719	
10:52:06	-6.73378	38.95367	124.015	1.079643	-10.29039	0.18	3	100	0	50	17.8504	-1.746747	44.18388	
10:52:06	-6.73378	38.95367	124.035	1.060782	-10.41498	0.17	3	100	0	50	17.90041	-2.013957	44.18354	
10:52:06	-6.733781	38.95367	123.933	1.024378	-11.71691	0.17	3	100	0	50	18.16758	-1.812307	44.13037	
10:52:07	-6.733781	38.95367	123.933	1.02028	-11.02344	0.17	3	100	0	50	18.17246	-1.69427	44.10075	
10:52:07	-6.733781	38.95368	123.691	1.035669	-9.258336	0.31	3	100	0	50	18.07584	-1.835013	44.08047	
10:52:07	-6.733781	38.95368	123.719	1.081817	-6.199217	0.16	3	100	0	50	18.22348	-2.0417	44.02159	
10:52:07	-6.733781	38.95368	123.604	1.143815	-2.993328	0.29	3	100	0	50	18.01854	-1.882238	43.97954	
10:52:07	-6.733781	38.95367	123.519	1.209352	0.3344589	0.09	3	100	0	50	17.85001	-1.592678	43.98042	
10:52:08	-6.733781	38.95367	123.519	1.274689	3.362316	0.09	3	100	0	50	17.93039	-1.680035	43.99482	
10:52:08	-6.733781	38.95368	123.552	1.322689	5.551709	0.17	3	100	0	50	17.93177	-1.798635	44.0103	
10:52:08	-6.733781	38.95368	123.372	1.368697	7.841723	0.06	3	100	0	50	18.32765	-1.979719	43.97002	
10:52:08	-6.733781	38.95368	123.473	1.369575	6.977443	0.28	3	100	0	50	18.33442	-1.832053	43.89352	
10:52:08	-6.733781	38.95368	123.451	1.33531	4.533096	0.37	3	100	0	50	18.38715	-1.975943	43.82899	
10:52:09	-6.733781	38.95368	123.442	1.303476	2.389956	0.19	3	100	0	50	18.0017	-1.577054	43.79112	
10:52:09	-6.733781	38.95368	123.353	1.254936	-0.4808415	0.39	3	100	0	50	18.08526	-1.800629	43.80044	
10:52:09	-6.733781	38.95368	123.265	1.210999	-2.648502	0.04	3	100	0	50	18.32907	-2.128601	43.76421	
10:52:09	-6.733781	38.95368	123.273	1.184271	-3.98835	0.18	3	100	0	50	18.36155	-1.882359	43.70406	
10:52:09	-6.733781	38.95368	123.229	1.161072	-4.934246	0.34	3	100	0	50	18.17864	-1.786977	43.67897	
10:52:10	-6.73378	38.95368	123.067	1.157365	-5.249622	0.37	3	100	0	50	18.24386	-2.088281	43.67134	
10:52:10	-6.733779	38.95368	123.036	1.154613	-5.024466	0.29	3	100	0	50	18.23694	-2.186432	43.61165	
10:52:10	-6.733778	38.95368	123.065	1.133189	-5.581428	0.14	3	100	0	50	18.0623	-1.964343	43.55873	
10:52:10	-6.733778	38.95368	123.03	1.114176	-6.742126	0.18	3	100	0	50	18.17858	-1.846295	43.52989	
10:52:10	-6.733778	38.95368	122.945	1.077831	-8.41132	0.35	3	100	0	50	18.25953	-1.535962	43.51361	
10:52:11	-6.733778	38.95368	122.925	1.046168	-9.43621	0.09	3	100	0	50	18.22388	-1.321345	43.52905	
10:52:11	-6.733778	38.95368	122.874	1.066751	-7.867013	0.12	3	100	0	50	18.33679	-1.478936	43.54561	
10:52:11	-6.733778	38.95368	122.941	1.086456	-6.333387	0.14	3	100	0	50	18.30444	-1.754169	43.53484	
10:52:11	-6.733778	38.95368	122.939	1.165531	-1.819941	0.45	3	100	0	50	18.21988	-1.817271	43.48705	
10:52:11	-6.733777	38.95368	122.973	1.253919	3.078155	0.07	3	100	0	50	18.05535	-2.033784	43.45605	
10:52:12	-6.733777	38.95368	122.97	1.311059	5.442827	0.19	3	100	0	50	18.31766	-1.511261	43.42822	
10:52:12	-6.733777	38.95368	122.926	1.372908	8.261273	0.17	3	100	0	50	18.50674	-1.483372	43.40081	
10:52:12	-6.733777	38.95368	122.771	1.371341	7.606291	0.45	3	100	0	50	18.00895	-1.397768	43.39892	
10:52:12	-6.733778	38.95368	122.8	1.368422	6.601215	0.33	3	100	0	50	17.95431	-1.071884	43.44739	
10:52:12	-6.733778	38.95368	122.796	1.383183	6.643685	0.19	3	100	0	50	18.01379	-1.207219	43.52013	
10:52:13	-6.733778	38.95368	122.684	1.396839	7.098046	0.04	3	100	0	50	18.11779	-1.745292	43.54887	
10:52:13	-6.733778	38.95368	122.616	1.37721	5.14541	0.21	3	100	0	50	18.07692	-1.778821	43.55222	
10:52:13	-6.733778	38.95368	122.481	1.359293	3.286766	0.09	3	100	0	50	18.02112	-1.521127	43.53348	
10:52:13	-6.733778	38.95368	122.43	1.314895	0.3236962	0.38	3	100	0	50	18.09825	-1.710431	43.52618	
10:52:13	-6.733779	38.95368	122.546	1.273649	-2.047751	0.31	3	100	0	50	18.01186	-1.46251	43.52284	
10:52:14	-6.733779	38.95368	122.533	1.237212	-3.255091	0.28	3	100	0	50	17.99272	-1.507191	43.55734	
10:52:14	-6.733779	38.95368	122.587	1.203464	-5.262518	0.17	3	100	0	50	17.94277	-2.191585	43.56827	
10:52:14	-6.73378	38.95368	122.637	1.191887	-5.363348	0.26	3	100	0	50	18.00106	-2.20265	43.53479	
10:52:14	-6.733781	38.95368	122.576	1.198063	-4.909978	0.26	3	100	0	50	18.01527	-1.728746	43.50401	
10:52:14	-6.733781	38.95368	122.457	1.214116	-4.029451	0.14	3	100	0	50	17.75066	-1.847864	43.52583	
10:52:15	-6.733781	38.95368	122.469	1.243891	-1.890554	0.29	3	100	0	50	17.90788	-1.831063	43.54156	
10:52:15	-6.733781	38.95368	122.346	1.275777	0.325389	0.04	3	100	0	50	18.19015	-2.268186	43.51765	
10:52:15	-6.733782	38.95368	122.318	1.308958	2.1753	0.37	3	100	0	50	18.08893	-2.08399	43.45758	
10:52:15	-6.733782	38.95368	122.349	1.343607	3.756278	0.21	3	100	0	50	17.93922	-1.687503	43.43563	
10:52:15	-6.733782	38.95368	122.23	1.378379	4.854782	0.11	3	100	0	50	17.9344	-2.236008	43.42921	
10:52:16	-6.733781	38.95368	122.199	1.412705	5.856811	0.32	3	100	0	50	17.98384	-2.23508	43.37902	
10:52:16	-6.733781	38.95368	122.13	1.448303	6.98493	0.14	3	100	0	50	18.13077	-2.399574	43.32724	
10:52:16	-6.733781	38.95368	122.041	1.481206	7.856869	0.04	3	100	0	50	17.94969	-2.239649	43.26438	
10:52:16	-6.733781	38.95368	121.982	1.51247	8.721285	0.19	3	100	0	50	17.94992	-2.056988	43.24678	
10:52:16	-6.733781	38.95368	121.884	1.531837	8.491122	0.19	3	100	0	50	18.07161	-2.268267	43.23727	
10:52:17	-6.733781	38.95368	121.874	1.538997	7.984231	0.26	3	100	0	50	17.87668	-1.944863	43.2152	
10:52:17	-6.733782	38.95368	121.782	1.451286	2.680892	0.07	3	100	0	50	18.02394	-2.338087	43.20588	
10:52:17	-6.733782	38.95368	121.713	1.286695	-6.350552	0.09	3	100	0	50	18.07738	-2.016747	43.17949	
10:52:17	-6.733782	38.95368	121.639	1.119543	-14.6613	0.22	3	100	0	50	17.94393	-2.162548	43.15723	
10:52:17	-6.733782	38.95368	121.679	0.9931846	-20.13549	0.22	3	100	0	50	17.89268	-1.957576	43.14933	
10:52:18	-6.733782	38.95368	121.652	0.8845276	-24.48676	0.24	3	100	0	50	18.1673	-2.51635	43.10041	
10:52:18	-6.733782	38.95368	121.647	0.8303493	-25.33467	0.06	3	100	0	50	18.12444	-2.579684	43.01886	
10:52:18	-6.733783	38.95368	121.634	0.8277618	-22.77293	0.04	3	100	0	50	18.22147	-2.186224	42.95726	
10:52:18	-6.733784	38.95368	121.64	0.8815352	-18.60783	0.24	3	100	0	50	18.15457	-2.085722	42.92411	
10:52:18	-6.733785	38.95368	121.558	0.9340509	-14.01497	0.25	3	100	0	50	18.32255	-1.880577	42.87099	
10:52:19	-6.733786	38.95368	121.512	1.018799	-8.188238	0.35	3	100	0	50	18.2564	-1.824093	42.85517	
10:52:19	-6.733786	38.95368	121.493	1.098205	-3.204059	0.09	3	100	0	50	17.88085	-1.828649	42.86652	
10:52:19	-6.733787	38.95368	121.47	1.111558	-2.712538	0.16	3	100	0	50	18.10401	-2.050621	42.85835	
10:52:19	-6.733787	38.95368	121.483	1.123952	-1.535528	0.14	3	100	0	50	18.11231	-2.314508	42.82501	
10:52:19	-6.733787	38.95368	121.452	1.159838	0.3314503	0.09	3	100	0	50	18.0068	-2.090132	42.7885	
10:52:20	-6.733787	38.95368	121.398	1.192301	1.736271	0.16	3	100	0	50	18.06888	-2.106857	42.78895	
10:52:20	-6.733788	38.95368	121.289	1.229248	3.709934	0.25	3	100	0	50	18.18476	-2.316301	42.76376	
10:52:20	-6.733788	38.95368	121.247	1.26223	5.046714	0.22	3	100	0	50	18.32775	-2.37705	42.69849	
10:52:20	-6.733788	38.95368	121.179	1.341204	9.07795	0.19	3	100	0	50	18.0416	-2.330306	42.65631	
10:52:20	-6.733789	38.95368	121.132	1.411667	11.69297	0.11	3	100	0	50	18.40514	-2.30859	42.60485	
10:52:21	-6.733789	38.95368	121.158	1.433381	11.4618	0.07	3	100	0	50	18.3387	-1.966834	42.55085	
10:52:21	-6.733789	38.95368	121.101	1.450198	10.87217	0.18	3	100	0	50	18.32831	-2.085769	42.51719	
10:52:21	-6.73379	38.95368	121.099	1.434776	8.993872	0.09	3	100	0	50	18.3191	-2.245386	42.46406	
10:52:21	-6.73379	38.95368	121.118	1.41877	7.138741	0.26	3	100	0	50	18.12854	-2.131411	42.44778	
10:52:21	-6.733791	38.95367	121.096	1.439218	8.025692	0.04	3	100	0	50	17.98059	-1.870347	42.46882	
10:52:22	-6.733792	38.95367	121.101	1.457113	8.23216	0.07	3	100	0	50	18.14811	-2.055507	42.47554	
10:52:22	-6.733793	38.95367	121.103	1.446969	6.746779	0.17	3	100	0	50	18.18999	-2.124384	42.47172	
10:52:22	-6.733794	38.95367	121.022	1.436651	5.585322	0.14	3	100	0	50	18.40721	-1.944171	42.45525	
10:52:22	-6.733794	38.95367	121.033	1.47495	7.055252	0.06	3	100	0	50	18.28531	-2.153754	42.42792	
10:52:22	-6.733794	38.95367	121.013	1.508548	8.167895	0.21	3	100	0	50	18.26887	-2.016525	42.40389	
10:52:23	-6.733795	38.95367	120.983	1.46427	4.936054	0.34	3	100	0	50	17.94991	-1.92856	42.39737	
10:52:23	-6.733797	38.95367	120.888	1.423364	2.746485	0.25	3	100	0	50	18.54747	-1.878133	42.36139	
10:52:23	-6.733797	38.95367	120.873	1.378631	0.3114303	0.07	3	100	0	50	18.39922	-2.171047	42.33203	
10:52:23	-6.733798	38.95367	120.804	1.338504	-1.675765	0.11	3	100	0	50	18.09895	-1.983682	42.32988	
10:52:23	-6.733799	38.95367	120.761	1.300147	-3.273218	0.12	3	100	0	50	18.10231	-1.863615	42.33155	
10:52:24	-6.733799	38.95367	120.705	1.263548	-4.929974	0.06	3	100	0	50	18.25011	-2.039824	42.3322	
10:52:24	-6.7338	38.95367	120.685	1.227981	-6.117861	0.08	3	100	0	50	18.1037	-1.925341	42.3352	
10:52:24	-6.7338	38.95367	120.689	1.197255	-7.127318	0.19	3	100	0	50	18.08757	-1.956303	42.32933	
10:52:24	-6.733801	38.95367	120.646	1.152939	-8.478275	0.26	3	100	0	50	18.30083	-2.133093	42.30454	
10:52:24	-6.733801	38.95367	120.602	1.104808	-10.35729	0.08	3	100	0	50	18.13946	-2.293229	42.28142	
10:52:25	-6.733801	38.95367	120.511	1.075855	-10.66438	0.04	3	100	0	50	18.04165	-1.968115	42.28033	
10:52:25	-6.733802	38.95367	120.422	1.059936	-10.23137	0.08	3	100	0	50	18.10396	-1.921206	42.30137	
10:52:25	-6.733802	38.95367	120.44	1.067936	-9.08732	0.11	3	100	0	50	18.08139	-1.893624	42.31716	
10:52:25	-6.733803	38.95367	120.355	1.094513	-6.691984	0.13	3	100	0	50	18.03595	-2.068598	42.33644	
10:52:25	-6.733803	38.95367	120.438	1.11771	-5.226464	0.16	3	100	0	50	18.07747	-2.122335	42.34626	
10:52:26	-6.733803	38.95367	120.47	1.13638	-4.239591	0.14	3	100	0	50	17.98868	-2.078228	42.35291	
10:52:26	-6.733804	38.95367	120.399	1.146854	-3.613467	0.11	3	100	0	50	18.09334	-2.123831	42.33875	
10:52:26	-6.733804	38.95367	120.497	1.147896	-3.268672	0.19	3	100	0	50	18.21365	-2.081292	42.32092	
10:52:26	-6.733805	38.95367	120.57	1.150694	-3.330325	0.03	3	100	0	50	18.05165	-2.107749	42.31161	
10:52:26	-6.733805	38.95367	120.538	1.154455	-2.7228	0.42	3	100	0	50	18.18349	-1.994646	42.28856	
10:52:27	-6.733806	38.95367	120.465	1.117804	-4.117383	0.04	3	100	0	50	18.42494	-2.265414	42.24785	
10:52:27	-6.733806	38.95367	120.433	1.059075	-6.496409	0.12	3	100	0	50	18.18178	-1.933732	42.22466	
10:52:27	-6.733807	38.95367	120.437	1.031328	-7.631017	0.34	3	100	0	50	18.2728	-1.784338	42.21306	
10:52:27	-6.733807	38.95367	120.419	1.022683	-7.389592	0.08	3	100	0	50	18.51888	-1.917786	42.19489	
10:52:27	-6.733807	38.95367	120.342	1.045543	-5.560616	0.09	3	100	0	50	18.16219	-1.968688	42.18925	
10:52:28	-6.733808	38.95367	120.261	1.108191	-1.466289	0.09	3	100	0	50	18.26469	-1.9714	42.17763	
10:52:28	-6.733809	38.95367	120.216	1.179272	2.355527	0.19	3	100	0	50	18.30102	-1.810129	42.16967	
10:52:28	-6.733809	38.95367	120.205	1.261206	6.480812	0.25	3	100	0	50	18.37647	-1.754459	42.16503	
10:52:28	-6.733809	38.95367	120.142	1.342933	10.44572	0.03	3	100	0	50	18.43554	-1.843815	42.16527	
10:52:28	-6.733809	38.95367	120.007	1.383074	11.46607	0.16	3	100	0	50	18.13194	-1.871197	42.16682	
10:52:29	-6.73381	38.95367	119.928	1.416686	11.72443	0.22	3	100	0	50	18.02559	-1.83528	42.19287	
10:52:29	-6.733811	38.95367	119.939	1.415262	10.80242	0.22	3	100	0	50	18.38063	-1.785503	42.18843	
10:52:29	-6.733812	38.95367	119.994	1.412397	9.527421	0.02	3	100	0	50	18.37713	-1.886882	42.17948	
10:52:29	-6.733812	38.95367	119.934	1.404536	7.959459	0.04	3	100	0	50	18.137	-1.962033	42.17347	
10:52:29	-6.733813	38.95367	119.9	1.394225	6.379495	0.02	3	100	0	50	18.1288	-1.93431	42.1683	
10:52:30	-6.733813	38.95367	119.873	1.345857	3.378375	0.07	3	100	0	50	18.11462	-1.987121	42.16986	
10:52:30	-6.733813	38.95367	119.887	1.301323	1.047884	0.09	3	100	0	50	18.04982	-2.065204	42.19258	
10:52:30	-6.733814	38.95367	119.861	1.268996	-0.5638578	0.22	3	100	0	50	17.99116	-2.019715	42.21328	
10:52:30	-6.733814	38.95367	119.794	1.242587	-2.058232	0.22	3	100	0	50	18.06876	-2.238659	42.2013	
10:52:30	-6.733814	38.95367	119.713	1.282331	0.1498452	0.14	3	100	0	50	18.29435	-2.147546	42.18269	
10:52:31	-6.733814	38.95367	119.641	1.31894	2.564826	0.22	3	100	0	50	18.2293	-2.096455	42.15746	
10:52:31	-6.733814	38.95367	119.591	1.35881	4.541121	0.06	3	100	0	50	18.25125	-2.120417	42.13827	
10:52:31	-6.733814	38.95367	119.516	1.390777	5.719123	0.22	3	100	0	50	18.0509	-2.064045	42.13134	
10:52:31	-6.733815	38.95367	119.469	1.461411	9.023504	0.08	3	100	0	50	17.92249	-2.165506	42.14241	
10:52:31	-6.733816	38.95367	119.414	1.524818	11.37149	0.22	3	100	0	50	18.12019	-2.025148	42.13133	
10:52:32	-6.733816	38.95367	119.449	1.531938	10.25742	0.11	3	100	0	50	18.14584	-1.757288	42.13621	
10:52:32	-6.733817	38.95367	119.427	1.536009	9.323592	0.14	3	100	0	50	18.16487	-1.889918	42.14404	
10:52:32	-6.733818	38.95367	119.355	1.554572	9.150011	0.17	3	100	0	50	18.14949	-1.971234	42.15147	
10:52:32	-6.733818	38.95367	119.316	1.567406	8.579164	0.08	3	100	0	50	17.92434	-2.001935	42.16311	
10:52:32	-6.733819	38.95367	119.395	1.5346	6.142115	0.09	3	100	0	50	18.13222	-2.054933	42.17362	
10:52:33	-6.733819	38.95367	119.411	1.504084	4.161655	0.08	3	100	0	50	18.1095	-2.011821	42.16543	
10:52:33	-6.733819	38.95367	119.431	1.486739	2.956899	0.04	3	100	0	50	17.96048	-2.101426	42.16673	
10:52:33	-6.733819	38.95367	119.399	1.472701	2.126918	0.26	3	100	0	50	17.89993	-2.062836	42.17407	
10:52:33	-6.733819	38.95367	119.412	1.460388	0.644556	0.14	3	100	0	50	17.72236	-2.012071	42.22121	
10:52:33	-6.73382	38.95367	119.424	1.452379	-0.4154165	0.09	3	100	0	50	17.94579	-1.924625	42.26268	
10:52:34	-6.73382	38.95367	119.429	1.456188	-0.1814026	0.17	3	100	0	50	17.8934	-2.040274	42.27999	
10:52:34	-6.73382	38.95367	119.424	1.476626	0.6931947	0.26	3	100	0	50	17.83919	-2.258153	42.29072	
10:52:34	-6.73382	38.95367	119.516	1.502712	2.141098	0.24	3	100	0	50	17.94651	-2.301479	42.259	
10:52:34	-6.733821	38.95367	119.559	1.530289	3.678523	0.08	3	100	0	50	18.14985	-2.026255	42.23431	
10:52:34	-6.733821	38.95367	119.604	1.542051	4.23777	0.25	3	100	0	50	18.00163	-2.161269	42.21074	
10:52:35	-6.733821	38.95367	119.711	1.538798	3.457779	0.17	3	100	0	50	17.83723	-1.991503	42.23054	
10:52:35	-6.733822	38.95367	119.706	1.538997	2.588124	0.14	3	100	0	50	17.89926	-2.135026	42.26008	
10:52:35	-6.733822	38.95367	119.663	1.540481	2.217364	0.09	3	100	0	50	18.13472	-2.247067	42.2514	
10:52:35	-6.733822	38.95367	119.738	1.540657	1.977367	0.14	3	100	0	50	18.0663	-2.327432	42.23479	
10:52:35	-6.733823	38.95367	119.825	1.539538	1.336005	0.04	3	100	0	50	18.12357	-2.256422	42.22201	
10:52:36	-6.733824	38.95367	119.863	1.523025	0.01750807	0.26	3	100	0	50	18.02469	-2.199841	42.20633	
10:52:36	-6.733825	38.95367	119.869	1.486356	-1.950939	0.19	3	100	0	50	18.08069	-2.024185	42.22805	
10:52:36	-6.733826	38.95367	119.878	1.470256	-2.627685	0.41	3	100	0	50	18.04633	-2.020349	42.23839	
10:52:36	-6.733826	38.95366	119.874	1.479183	-2.017188	0.13	3	100	0	50	18.07824	-2.02032	42.24397	
10:52:36	-6.733826	38.95366	119.853	1.461095	-2.983672	0.21	3	100	0	50	17.78595	-2.157888	42.26897	
10:52:37	-6.733826	38.95366	119.895	1.420883	-5.028021	0.07	3	100	0	50	17.81933	-2.144256	42.30328	
10:52:37	-6.733827	38.95366	119.903	1.398305	-5.982957	0.09	3	100	0	50	17.93025	-2.291001	42.30477	
10:52:37	-6.733827	38.95366	119.967	1.392217	-5.776916	0.29	3	100	0	50	17.89916	-2.191497	42.30456	
10:52:37	-6.733827	38.95366	119.955	1.392321	-5.32799	0.31	3	100	0	50	17.64932	-2.128871	42.33785	
10:52:37	-6.733827	38.95366	119.932	1.400349	-4.489343	0.29	3	100	0	50	17.89403	-2.011034	42.37207	
10:52:38	-6.733827	38.95366	119.992	1.396453	-4.507061	0.08	3	100	0	50	18.04664	-2.266518	42.37639	
10:52:38	-6.733827	38.95366	120.073	1.374694	-5.991675	0.09	3	100	0	50	17.77993	-2.148802	42.388	
10:52:38	-6.733828	38.95366	120.18	1.353358	-6.426498	0.19	3	100	0	50	17.83878	-2.040284	42.4177	
10:52:38	-6.733829	38.95366	120.241	1.32728	-6.528983	0.28	3	100	0	50	17.90147	-1.987117	42.4388	
10:52:38	-6.733829	38.95366	120.297	1.305484	-7.057131	0.14	3	100	0	50	17.75546	-2.029641	42.48558	
10:52:39	-6.733829	38.95366	120.328	1.301772	-6.847826	0.22	3	100	0	50	18.05778	-2.161511	42.49943	
10:52:39	-6.733829	38.95366	120.365	1.299425	-6.50635	0.21	3	100	0	50	18.06347	-2.106814	42.51058	
10:52:39	-6.73383	38.95366	120.382	1.323382	-5.264088	0.26	3	100	0	50	17.90275	-2.206844	42.52198	
10:52:39	-6.73383	38.95366	120.444	1.34836	-3.528725	0.26	3	100	0	50	17.73384	-1.852333	42.56065	
10:52:39	-6.733831	38.95366	120.558	1.333994	-3.721786	0.13	3	100	0	50	17.71919	-1.976358	42.62507	
10:52:40	-6.733831	38.95366	120.659	1.322369	-3.557069	0.19	3	100	0	50	17.87199	-2.167075	42.64859	
10:52:40	-6.733832	38.95366	120.692	1.310136	-3.971379	0.04	3	100	0	50	18.00126	-2.179617	42.63842	
10:52:40	-6.733832	38.95366	120.699	1.298667	-4.505623	0.31	3	100	0	50	18.00853	-2.083568	42.62909	
10:52:40	-6.733833	38.95366	120.806	1.314509	-3.491045	0.24	3	100	0	50	18.0096	-1.924038	42.6419	
10:52:40	-6.733834	38.95366	120.825	1.328865	-2.671074	0.06	3	100	0	50	17.80273	-1.92029	42.68001	
10:52:41	-6.733834	38.95366	120.777	1.38685	0.7728898	0.21	3	100	0	50	17.77849	-2.122405	42.7168	
10:52:41	-6.733833	38.95366	120.758	1.434538	3.204058	0.12	3	100	0	50	17.71166	-2.24162	42.73941	
10:52:41	-6.733834	38.95366	120.813	1.508633	6.92147	0.45	3	100	0	50	17.698	-1.93818	42.74911	
10:52:41	-6.733834	38.95366	120.9	1.574815	10.03718	0.09	3	100	0	50	17.655	-1.729053	42.81894	
10:52:41	-6.733834	38.95366	120.929	1.608768	10.50051	0.41	3	100	0	50	18.01472	-2.004931	42.84036	
10:52:42	-6.733835	38.95366	120.926	1.637872	11.34667	0.12	3	100	0	50	18.03756	-2.072814	42.83106	
10:52:42	-6.733834	38.95366	120.973	1.623785	8.976224	0.42	3	100	0	50	17.63248	-2.211924	42.86146	
10:52:42	-6.733834	38.95366	121.028	1.609652	7.431862	0.12	3	100	0	50	17.56611	-2.216013	42.89762	
10:52:42	-6.733834	38.95366	121.087	1.579018	5.047385	0.21	3	100	0	50	18.01735	-2.162815	42.8894	
10:52:42	-6.733835	38.95366	121.165	1.544569	3.302312	0.12	3	100	0	50	18.13298	-2.044242	42.87478	
10:52:43	-6.733835	38.95366	121.167	1.521238	1.631249	0.08	3	100	0	50	18.02409	-2.043383	42.87685	
10:52:43	-6.733835	38.95366	121.168	1.50174	0.4204881	0.28	3	100	0	50	18.17378	-2.204203	42.85218	
10:52:43	-6.733835	38.95366	121.196	1.4667	-1.560968	0.09	3	100	0	50	18.20841	-2.236096	42.8089	
10:52:43	-6.733835	38.95366	121.175	1.421432	-3.533525	0.26	3	100	0	50	18.25015	-2.175558	42.78284	
10:52:43	-6.733835	38.95366	121.189	1.384479	-5.349392	0.12	3	100	0	50	18.21749	-2.320341	42.73337	
10:52:44	-6.733835	38.95366	121.204	1.354277	-6.805852	0.22	3	100	0	50	18.1743	-2.266272	42.7003	
10:52:44	-6.733834	38.95366	121.111	1.337644	-7.426838	0.39	3	100	0	50	18.18051	-2.362525	42.6587	
10:52:44	-6.733834	38.95366	121.23	1.339146	-6.837994	0.01	3	100	0	50	18.04368	-2.281686	42.62514	
10:52:44	-6.733834	38.95366	121.315	1.334721	-6.444463	0.21	3	100	0	50	18.09529	-2.044655	42.63261	
10:52:44	-6.733835	38.95366	121.304	1.327166	-6.228637	0.29	3	100	0	50	18.19274	-1.942382	42.6192	
10:52:45	-6.733835	38.95366	121.412	1.331285	-6.01789	0.19	3	100	0	50	18.34871	-1.735186	42.60099	
10:52:45	-6.733835	38.95366	121.434	1.3405	-5.353328	0.22	3	100	0	50	18.17235	-1.881368	42.60286	
10:52:45	-6.733835	38.95366	121.328	1.355537	-4.168657	0.19	3	100	0	50	18.02316	-1.968092	42.62482	
10:52:45	-6.733835	38.95366	121.355	1.375462	-2.342743	0.22	3	100	0	50	18.20526	-1.951227	42.59605	
10:52:45	-6.733836	38.95366	121.504	1.423402	0.2675959	0.45	3	100	0	50	18.2096	-1.554516	42.59377	
10:52:46	-6.733837	38.95366	121.549	1.496139	4.199626	0.19	3	100	0	50	18.09227	-1.486023	42.64654	
10:52:46	-6.733837	38.95366	121.448	1.584774	8.036276	0.26	3	100	0	50	18.27131	-1.872214	42.69493	
10:52:46	-6.733837	38.95366	121.463	1.66885	11.67387	0.01	3	100	0	50	18.47981	-2.07188	42.63641	
10:52:46	-6.733837	38.95366	121.568	1.71822	13.35882	0.26	3	100	0	50	18.52642	-1.890231	42.59455	
10:52:46	-6.733838	38.95366	121.587	1.742875	13.12769	0.25	3	100	0	50	18.56506	-1.729582	42.56149	
10:52:47	-6.733839	38.95366	121.624	1.760296	12.48629	0.28	3	100	0	50	18.51358	-1.640592	42.55029	
10:52:47	-6.733839	38.95366	121.651	1.771654	12.72749	0.14	3	100	0	50	18.56049	-1.660643	42.53022	
10:52:47	-6.733839	38.95366	121.617	1.752815	10.85378	0.36	3	100	0	50	18.56952	-1.604065	42.50439	
10:52:47	-6.733839	38.95366	121.581	1.691105	6.567689	0.25	3	100	0	50	18.57097	-1.498476	42.49829	
10:52:47	-6.733839	38.95366	121.471	1.613662	1.723652	0.16	3	100	0	50	18.57497	-1.660781	42.49378	
10:52:48	-6.733839	38.95366	121.401	1.523113	-2.696525	0.17	3	100	0	50	18.6123	-1.73361	42.48159	
10:52:48	-6.73384	38.95366	121.419	1.434029	-6.910776	0.11	3	100	0	50	18.56212	-1.762816	42.46784	
10:52:48	-6.73384	38.95366	121.434	1.368122	-9.653675	0.33	3	100	0	50	18.74025	-1.767621	42.4253	
10:52:48	-6.73384	38.95366	121.463	1.309979	-11.8248	0.25	3	100	0	50	18.82979	-1.709388	42.38343	
10:52:48	-6.73384	38.95365	121.518	1.348435	-8.977134	0.22	3	100	0	50	18.52243	-1.662147	42.33771	
10:52:49	-6.73384	38.95365	121.43	1.384457	-6.627189	0.09	3	100	0	50	18.37981	-1.719985	42.35393	
10:52:49	-6.733839	38.95365	121.401	1.430054	-4.539607	0.08	3	100	0	50	18.40013	-1.883103	42.33282	
10:52:49	-6.733839	38.95365	121.182	1.476375	-1.269511	0.13	3	100	0	50	18.23744	-1.903517	42.33474	
10:52:49	-6.733839	38.95365	121.197	1.448119	-2.204048	0.33	3	100	0	50	18.09192	-1.950944	42.36116	
10:52:49	-6.733837	38.95365	121.089	1.423397	-3.137578	0.33	3	100	0	50	17.99454	-2.003228	42.3694	
10:52:50	-6.733836	38.95365	120.999	1.439763	-1.643661	0.21	3	100	0	50	18.11327	-2.003157	42.39017	
10:52:50	-6.733836	38.95365	120.968	1.455994	-0.9243969	0.34	3	100	0	50	18.38008	-1.770518	42.38422	
10:52:50	-6.733836	38.95365	120.935	1.455967	-1.183854	0.04	3	100	0	50	18.45693	-1.654117	42.38892	
10:52:50	-6.733835	38.95365	120.841	1.455289	-1.701298	0.12	3	100	0	50	18.31321	-1.860569	42.38518	
10:52:51	-6.733835	38.95365	120.816	1.453802	-1.508702	0.04	3	100	0	50	18.29617	-1.854646	42.39017	
10:52:51	-6.733834	38.95365	120.625	1.453358	-1.266605	0.11	3	100	0	50	18.26496	-1.821526	42.40287	
10:52:51	-6.733834	38.95365	120.447	1.508492	1.716283	0.14	3	100	0	50	18.21351	-1.745326	42.41514	
10:52:51	-6.733834	38.95365	120.36	1.564226	4.571979	0.14	3	100	0	50	18.28937	-1.778808	42.43522	
10:52:51	-6.733834	38.95365	120.256	1.582759	5.050315	0.13	3	100	0	50	18.19508	-1.804577	42.44985	
10:52:51	-6.733834	38.95365	120.269	1.598284	5.315447	0.19	3	100	0	50	18.0877	-1.638301	42.46918	
10:52:52	-6.733834	38.95365	120.162	1.620575	5.35761	0.11	3	100	0	50	18.19717	-1.700999	42.51263	
10:52:52	-6.733834	38.95365	120.151	1.640716	5.781991	0.09	3	100	0	50	18.22411	-1.885771	42.51069	
10:52:52	-6.733834	38.95365	120.158	1.611529	3.366073	0.31	3	100	0	50	18.04279	-1.791859	42.52837	
10:52:52	-6.733834	38.95365	120.284	1.584313	1.939018	0.21	3	100	0	50	18.13347	-1.926191	42.56437	
10:52:52	-6.733834	38.95365	120.367	1.55611	0.2028875	0.21	3	100	0	50	18.42703	-2.102628	42.55893	
10:52:53	-6.733835	38.95364	120.357	1.530028	-1.556289	0.55	3	100	0	50	18.58963	-1.812742	42.51472	
10:52:53	-6.733836	38.95364	120.429	1.499538	-2.93016	0.19	3	100	0	50	18.50777	-1.713804	42.50317	
10:52:53	-6.733837	38.95364	120.465	1.458412	-4.154902	0.16	3	100	0	50	18.3509	-1.840886	42.50455	
10:52:53	-6.733838	38.95364	120.512	1.417847	-5.340858	0.26	3	100	0	50	18.36281	-1.875388	42.49401	
10:52:54	-6.733839	38.95364	120.58	1.374359	-6.946579	0.37	3	100	0	50	18.47312	-1.851227	42.47203	
10:52:54	-6.733839	38.95364	120.5	1.353604	-7.136368	0.26	3	100	0	50	18.25084	-1.795659	42.47248	
10:52:54	-6.733839	38.95364	120.474	1.359792	-6.218404	0.11	3	100	0	50	18.17383	-1.891208	42.50092	
10:52:54	-6.733839	38.95364	120.453	1.361426	-4.566585	0.26	3	100	0	50	18.18896	-2.139016	42.4847	
10:52:54	-6.733839	38.95364	120.38	1.361482	-3.558506	0.22	3	100	0	50	18.08115	-2.060013	42.45492	
10:52:55	-6.733839	38.95364	120.594	1.388262	-1.592492	0.19	3	100	0	50	18.24814	-1.859225	42.44431	
10:52:55	-6.733839	38.95364	120.589	1.424198	0.4991534	0.07	3	100	0	50	18.2673	-2.011802	42.4463	
10:52:55	-6.733839	38.95364	120.548	1.46515	2.740465	0.22	3	100	0	50	18.29536	-2.216489	42.44846	
10:52:55	-6.733839	38.95364	120.57	1.506336	4.534649	0.19	3	100	0	50	18.23723	-2.278831	42.39561	
10:52:55	-6.733839	38.95364	120.598	1.53994	6.329832	0.19	3	100	0	50	18.14303	-1.951785	42.39396	
10:52:56	-6.733839	38.95364	120.547	1.567414	7.179357	0.19	3	100	0	50	18.04876	-1.894753	42.43227	
10:52:56	-6.73384	38.95364	120.704	1.599316	8.254571	0.12	3	100	0	50	18.20854	-1.979779	42.44163	
10:52:56	-6.73384	38.95364	120.776	1.634335	9.583716	0.11	3	100	0	50	18.24514	-1.864099	42.43299	
10:52:56	-6.73384	38.95364	120.755	1.671592	10.24835	0.17	3	100	0	50	18.14347	-1.970218	42.45417	
10:52:56	-6.73384	38.95364	120.743	1.707588	11.05617	0.17	3	100	0	50	18.16089	-2.118204	42.44751	
10:52:57	-6.73384	38.95364	120.855	1.747467	12.34528	0.17	3	100	0	50	18.25383	-2.128643	42.43367	
10:52:57	-6.733841	38.95364	120.976	1.787353	13.13324	0.19	3	100	0	50	18.36664	-2.014095	42.42546	
10:52:57	-6.733841	38.95364	120.982	1.812389	13.09292	0.04	3	100	0	50	18.316	-1.957539	42.41413	
10:52:57	-6.733841	38.95364	121.081	1.827714	12.47465	0.07	3	100	0	50	18.26005	-1.90139	42.42507	
10:52:57	-6.733841	38.95364	121.159	1.82399	10.90688	0.06	3	100	0	50	18.1964	-1.861978	42.42871	
10:52:58	-6.733841	38.95363	121.164	1.803818	8.716534	0.09	3	100	0	50	18.15751	-1.85269	42.44284	
10:52:58	-6.733842	38.95363	121.228	1.779764	7.095833	0.21	3	100	0	50	18.31923	-1.827275	42.46056	
10:52:58	-6.733842	38.95363	121.072	1.744113	4.516477	0.11	3	100	0	50	18.35548	-1.946796	42.45556	
10:52:58	-6.733842	38.95363	121.087	1.71058	2.359931	0.21	3	100	0	50	18.38089	-1.978045	42.43731	
10:52:58	-6.733843	38.95363	121.065	1.654004	-0.633948	0.04	3	100	0	50	18.29256	-1.934753	42.41996	
10:52:59	-6.733843	38.95363	121.171	1.602951	-3.300067	0.33	3	100	0	50	18.37517	-2.035551	42.41822	
10:52:59	-6.733843	38.95363	121.02	1.581023	-4.377831	0.07	3	100	0	50	18.29762	-2.004643	42.38153	
10:52:59	-6.733843	38.95363	120.963	1.558867	-5.607033	0.13	3	100	0	50	18.22286	-1.997177	42.36572	
10:52:59	-6.733843	38.95363	120.938	1.507666	-7.933556	0.13	3	100	0	50	18.23067	-2.029665	42.35286	
10:52:59	-6.733843	38.95363	120.928	1.462339	-9.19552	0.06	3	100	0	50	18.17204	-1.926088	42.36133	
10:53:00	-6.733843	38.95363	120.896	1.467194	-7.810451	0.32	3	100	0	50	18.14473	-1.668972	42.36576	
10:53:00	-6.733843	38.95363	120.935	1.473724	-6.490885	0.25	3	100	0	50	17.98871	-1.798276	42.42039	
10:53:00	-6.733843	38.95363	120.906	1.516069	-3.767997	0.32	3	100	0	50	18.16161	-1.561467	42.45347	
10:53:00	-6.733844	38.95363	120.821	1.554711	-1.609833	0.07	3	100	0	50	18.2596	-1.648399	42.4882	
10:53:00	-6.733844	38.95363	120.843	1.571502	-0.6525446	0.14	3	100	0	50	18.14869	-1.748711	42.49768	
10:53:01	-6.733844	38.95362	120.817	1.585035	-0.2305789	0.09	3	100	0	50	18.18348	-1.907036	42.52212	
10:53:01	-6.733843	38.95362	120.753	1.661431	3.780787	0.09	3	100	0	50	18.24025	-1.99507	42.5118	
10:53:01	-6.733843	38.95362	120.752	1.718126	6.591258	0.19	3	100	0	50	18.05938	-2.041694	42.51464	
10:53:01	-6.733843	38.95362	120.687	1.769729	8.637239	0.09	3	100	0	50	18.14714	-1.962756	42.51456	
10:53:01	-6.733843	38.95362	120.626	1.815166	10.26551	0.19	3	100	0	50	18.31008	-1.945508	42.51252	
10:53:02	-6.733843	38.95362	120.605	1.861649	11.6861	0.19	3	100	0	50	18.13558	-2.032991	42.509	
10:53:02	-6.733843	38.95362	120.547	1.897276	12.12422	0.39	3	100	0	50	18.103	-1.618079	42.53494	
10:53:02	-6.733844	38.95362	120.438	1.931733	13.21262	0.24	3	100	0	50	18.08542	-1.586281	42.59229	
10:53:02	-6.733844	38.95362	120.356	1.961582	13.74032	0.07	3	100	0	50	18.15684	-1.843549	42.65083	
10:53:02	-6.733843	38.95362	120.328	1.998098	14.23802	0.52	3	100	0	50	18.10648	-2.270048	42.65656	
10:53:03	-6.733842	38.95362	120.274	2.025103	13.98032	0.04	3	100	0	50	18.12967	-2.062097	42.63343	
10:53:03	-6.733842	38.95362	120.164	2.042338	12.73938	0.11	3	100	0	50	18.0636	-1.775515	42.65137	
10:53:03	-6.733842	38.95362	120.095	2.043868	11.79019	0.13	3	100	0	50	18.08273	-1.689719	42.6944	
10:53:03	-6.733841	38.95362	119.989	2.00238	8.121198	0.42	3	100	0	50	17.91843	-1.963881	42.72517	
10:53:03	-6.733841	38.95362	119.926	1.903157	1.518856	0.02	3	100	0	50	18.10894	-1.777225	42.74513	
10:53:04	-6.733841	38.95362	119.826	1.80313	-3.903698	0.13	3	100	0	50	18.1667	-1.574314	42.76605	
10:53:04	-6.733839	38.95362	119.452	1.72143	-7.82323	0.26	3	100	0	50	18.20652	-1.887621	42.78917	
10:53:04	-6.733839	38.95362	119.452	1.658629	-10.39724	0.26	3	100	0	50	18.27914	-1.996852	42.75789	
10:53:04	-6.733838	38.95362	119.165	1.611474	-11.48521	0.21	3	100	0	50	18.03911	-1.953423	42.72842	
10:53:04	-6.733837	38.95362	119.039	1.591242	-10.9662	0.09	3	100	0	50	18.11998	-1.878883	42.7341	
10:53:05	-6.733837	38.95362	119.039	1.589427	-9.502314	0.09	3	100	0	50	18.2853	-1.825573	42.72355	
10:53:05	-6.733837	38.95362	118.975	1.584544	-8.702526	0.33	3	100	0	50	18.53352	-1.544211	42.70742	
10:53:05	-6.733836	38.95362	118.712	1.574332	-7.949704	0.13	3	100	0	50	18.29904	-1.589697	42.70455	
10:53:05	-6.733836	38.95362	118.712	1.566682	-7.352211	0.13	3	100	0	50	18.33815	-1.781558	42.71484	
10:53:05	-6.733836	38.95362	118.521	1.561809	-7.015358	0.66	3	100	0	50	18.41891	-1.665188	42.7145	
10:53:06	-6.733837	38.95362	118.362	1.557224	-6.220134	0.42	3	100	0	50	18.22651	-0.8087982	42.75271	
10:53:06	-6.733837	38.95362	118.29	1.555289	-5.492501	0.37	3	100	0	50	18.15444	-0.8485519	42.87732	
10:53:06	-6.733837	38.95362	118.202	1.529955	-6.444033	0.08	3	100	0	50	18.19904	-0.9889742	42.97645	
10:53:06	-6.733836	38.95362	118.125	1.493557	-7.106438	0.09	3	100	0	50	18.18559	-1.4664	43.04351	
10:53:06	-6.733836	38.95362	118.08	1.500242	-5.932231	0.12	3	100	0	50	18.20897	-1.608353	43.07817	
10:53:07	-6.733836	38.95362	117.952	1.530287	-3.746947	0.22	3	100	0	50	18.12356	-1.442793	43.115	
10:53:07	-6.733836	38.95362	117.913	1.556201	-1.867328	0.25	3	100	0	50	18.1203	-1.32013	43.16375	
10:53:07	-6.733835	38.95362	117.802	1.577508	-0.4960384	0.22	3	100	0	50	18.19178	-1.726544	43.2047	
10:53:07	-6.733835	38.95362	117.794	1.585291	-0.03193074	0.19	3	100	0	50	18.26187	-1.78541	43.19047	
10:53:07	-6.733835	38.95362	117.699	1.582919	0.4822161	0.14	3	100	0	50	18.27761	-1.725342	43.18282	
10:53:08	-6.733835	38.95362	117.688	1.581049	0.3443886	0.29	3	100	0	50	17.99327	-1.492622	43.19695	
10:53:08	-6.733835	38.95362	117.585	1.606424	1.558645	0.09	3	100	0	50	17.82541	-1.379325	43.26889	
10:53:08	-6.733835	38.95362	117.534	1.630203	3.205698	0.14	3	100	0	50	18.07982	-1.612044	43.32441	
10:53:08	-6.733835	38.95362	117.534	1.63781	3.114615	0.13	3	100	0	50	18.12219	-1.75347	43.34232	
10:53:08	-6.733834	38.95362	117.44	1.644238	3.274441	0.13	3	100	0	50	17.96755	-1.666275	43.33581	
10:53:09	-6.733834	38.95362	117.42	1.663664	4.304554	0.08	3	100	0	50	17.96014	-1.590532	43.36559	
10:53:09	-6.733835	38.95362	117.276	1.680796	4.666977	0.22	3	100	0	50	18.07463	-1.576443	43.41857	
10:53:09	-6.733834	38.95362	117.206	1.632483	1.700317	0.29	3	100	0	50	17.97509	-1.442574	43.43849	
10:53:09	-6.733834	38.95362	117.278	1.588067	-0.6368683	0.35	3	100	0	50	17.87332	-1.785167	43.48638	
10:53:09	-6.733835	38.95362	117.254	1.597097	-0.1320525	0.14	3	100	0	50	17.89122	-1.464852	43.51745	
10:53:10	-6.733835	38.95362	117.238	1.605155	0.02542983	0.25	3	100	0	50	18.1347	-1.622355	43.55103	
10:53:10	-6.733834	38.95362	117.227	1.615745	0.2784546	0.37	3	100	0	50	17.92663	-1.754832	43.57582	
10:53:10	-6.733835	38.95362	117.234	1.62581	1.272584	0.28	3	100	0	50	18.27086	-2.089069	43.53564	
10:53:10	-6.733835	38.95362	117.166	1.663108	2.76038	0.08	3	100	0	50	18.12353	-1.663599	43.4775	
10:53:10	-6.733835	38.95362	117.147	1.695921	4.193865	0.19	3	100	0	50	18.04457	-1.81052	43.47017	
10:53:11	-6.733835	38.95362	117.085	1.714001	4.366119	0.18	3	100	0	50	18.18682	-1.754728	43.4624	
10:53:11	-6.733835	38.95362	117.016	1.728579	4.211282	0.06	3	100	0	50	17.97816	-1.858265	43.46135	
10:53:11	-6.733836	38.95362	117.016	1.715614	2.914331	0.14	3	100	0	50	18.24309	-1.886314	43.46207	
10:53:11	-6.733836	38.95362	116.975	1.700955	1.162789	0.14	3	100	0	50	18.35381	-1.919251	43.41714	
10:53:11	-6.733836	38.95362	116.952	1.679031	-0.07402629	0.09	3	100	0	50	18.14532	-1.857336	43.40145	
10:53:12	-6.733835	38.95362	116.803	1.662671	-1.035042	0.25	3	100	0	50	18.16712	-1.877645	43.4061	
10:53:12	-6.733835	38.95362	116.819	1.647882	-1.345914	0.04	3	100	0	50	18.00384	-1.965471	43.41357	
10:53:12	-6.733835	38.95362	116.863	1.636826	-2.28118	0.22	3	100	0	50	18.27845	-1.887938	43.40535	
10:53:12	-6.733835	38.95362	116.839	1.661182	-0.8224547	0.14	3	100	0	50	18.06764	-1.740213	43.39405	
10:53:12	-6.733835	38.95362	116.803	1.683478	0.428865	0.08	3	100	0	50	18.11923	-1.953104	43.41158	
10:53:13	-6.733835	38.95362	116.817	1.702949	1.404247	0.12	3	100	0	50	18.13667	-1.85811	43.38116	
10:53:13	-6.733835	38.95362	116.816	1.71957	2.166939	0.13	3	100	0	50	18.10093	-1.884538	43.3856	
10:53:13	-6.733835	38.95362	116.791	1.741636	3.187953	0.14	3	100	0	50	18.23803	-1.940655	43.35206	
10:53:13	-6.733834	38.95362	116.736	1.771127	4.377388	0.22	3	100	0	50	18.35248	-1.784338	43.33581	
10:53:13	-6.733834	38.95362	116.683	1.811973	6.145264	0.09	3	100	0	50	18.05692	-1.949688	43.31836	
10:53:14	-6.733834	38.95362	116.655	1.870051	9.106978	0.17	3	100	0	50	18.08918	-1.877948	43.30878	
10:53:14	-6.733834	38.95362	116.739	1.878931	8.767171	0.04	3	100	0	50	18.07073	-1.94892	43.31375	
10:53:14	-6.733834	38.95362	116.809	1.845827	6.258236	0.12	3	100	0	50	18.13955	-1.782811	43.31567	
10:53:14	-6.733834	38.95362	116.934	1.814921	3.951759	0.04	3	100	0	50	18.28539	-1.891182	43.32232	
10:53:14	-6.733834	38.95362	116.933	1.785596	1.788465	0.22	3	100	0	50	18.15433	-1.836959	43.30395	
10:53:15	-6.733834	38.95362	116.997	1.752064	-0.5925753	0.02	3	100	0	50	18.35061	-1.642843	43.30657	
10:53:15	-6.733833	38.95362	117.025	1.714235	-2.637142	0.19	3	100	0	50	18.20987	-1.7924	43.318	
10:53:15	-6.733833	38.95362	117.058	1.671737	-4.492214	0.08	3	100	0	50	17.99212	-1.892772	43.32265	
10:53:15	-6.733833	38.95362	117.169	1.622436	-6.895356	0.12	3	100	0	50	18.19521	-1.768711	43.31569	
10:53:15	-6.733833	38.95362	117.216	1.609109	-6.718333	0.14	3	100	0	50	18.28415	-1.816239	43.29789	
10:53:16	-6.733833	38.95362	117.177	1.623358	-5.439222	0.02	3	100	0	50	18.25437	-1.713732	43.28617	
10:53:16	-6.733833	38.95362	117.244	1.657176	-3.34276	0.06	3	100	0	50	18.15466	-1.834171	43.29513	
10:53:16	-6.733833	38.95362	117.278	1.693933	-1.340754	0.02	3	100	0	50	18.14676	-1.748165	43.28461	
10:53:16	-6.733832	38.95362	117.247	1.738731	0.9124305	0.22	3	100	0	50	18.14404	-1.799996	43.29561	
10:53:16	-6.733832	38.95362	117.314	1.787409	3.37714	0.09	3	100	0	50	18.09339	-2.03855	43.28929	
10:53:17	-6.733832	38.95362	117.39	1.789133	2.756377	0.16	3	100	0	50	18.00009	-1.834139	43.26656	
10:53:17	-6.733832	38.95362	117.447	1.732547	-0.4806003	0.04	3	100	0	50	18.00731	-1.645352	43.29256	
10:53:17	-6.733831	38.95362	117.518	1.682181	-2.855815	0.13	3	100	0	50	18.10574	-1.799471	43.31001	
10:53:17	-6.733831	38.95362	117.606	1.634604	-4.796442	0.18	3	100	0	50	18.1873	-1.921184	43.30454	
10:53:17	-6.733831	38.95362	117.685	1.599548	-6.429793	0.25	3	100	0	50	17.9357	-1.878919	43.29989	
10:53:18	-6.733831	38.95362	117.72	1.536865	-8.655928	0.09	3	100	0	50	18.31686	-1.528426	43.30965	
10:53:18	-6.73383	38.95362	117.763	1.491734	-10.22899	0.13	3	100	0	50	18.31026	-1.804144	43.30682	
10:53:18	-6.73383	38.95362	117.847	1.454876	-11.15342	0.17	3	100	0	50	18.12908	-1.850379	43.30539	
10:53:18	-6.733829	38.95362	117.975	1.429064	-11.67276	0.04	3	100	0	50	18.1546	-1.90851	43.30544	
10:53:18	-6.733829	38.95362	118.011	1.403403	-12.13192	0.09	3	100	0	50	18.18825	-1.697308	43.28907	
10:53:19	-6.733829	38.95362	118.117	1.385784	-11.84599	0.16	3	100	0	50	18.08164	-1.642465	43.30038	
10:53:19	-6.733829	38.95362	118.081	1.386983	-10.65205	0.14	3	100	0	50	18.17792	-1.577132	43.33363	
10:53:19	-6.733829	38.95362	118.135	1.390384	-9.794634	0.07	3	100	0	50	18.26772	-1.790197	43.33214	
10:53:19	-6.733829	38.95362	118.066	1.405347	-8.417667	0.22	3	100	0	50	18.16479	-1.760903	43.32813	
10:53:19	-6.733829	38.95362	118.084	1.42009	-6.945243	0.29	3	100	0	50	18.4017	-1.84878	43.30912	
10:53:20	-6.733828	38.95362	117.997	1.427962	-6.091727	0.22	3	100	0	50	18.0663	-1.54912	43.3057	
10:53:20	-6.733827	38.95362	118.021	1.435535	-5.510944	0.22	3	100	0	50	18.05537	-2.062274	43.31802	
10:53:20	-6.733827	38.95362	117.949	1.445334	-4.237838	0.19	3	100	0	50	18.00608	-2.044597	43.31799	
10:53:20	-6.733826	38.95362	117.863	1.455192	-3.638194	0.09	3	100	0	50	18.19415	-1.590376	43.31715	
10:53:20	-6.733825	38.95362	117.721	1.496176	-0.9749674	0.09	3	100	0	50	18.04187	-1.945781	43.33347	
10:53:21	-6.733825	38.95363	117.639	1.533548	1.014661	0.26	3	100	0	50	18.0761	-1.977351	43.3264	
10:53:21	-6.733825	38.95363	117.453	1.588602	3.799062	0.39	3	100	0	50	18.12631	-1.458386	43.34495	
10:53:21	-6.733825	38.95363	117.4	1.637591	5.379913	0.19	3	100	0	50	18.13001	-1.317399	43.36757	
10:53:21	-6.733825	38.95363	117.441	1.707367	8.382309	0.06	3	100	0	50	18.12183	-1.823489	43.39908	
10:53:21	-6.733825	38.95363	117.442	1.768309	10.28566	0.07	3	100	0	50	18.16099	-1.597111	43.41239	
10:53:22	-6.733824	38.95363	117.459	1.779992	10.21839	0.06	3	100	0	50	18.04633	-1.68228	43.42144	
10:53:22	-6.733824	38.95363	117.463	1.787944	9.805654	0.22	3	100	0	50	18.12012	-1.674911	43.42936	
10:53:22	-6.733824	38.95363	117.412	1.79093	8.983877	0.17	3	100	0	50	18.04777	-1.341536	43.45935	
10:53:22	-6.733823	38.95363	117.436	1.790878	8.012274	0.14	3	100	0	50	17.91411	-1.685615	43.50425	
10:53:22	-6.733823	38.95363	117.413	1.798894	7.557877	0.25	3	100	0	50	18.00765	-1.722899	43.53734	
10:53:23	-6.733823	38.95363	117.351	1.813884	7.38363	0.18	3	100	0	50	18.39367	-1.611683	43.54288	
10:53:23	-6.733822	38.95363	117.275	1.817583	6.739459	0.19	3	100	0	50	17.96389	-1.374325	43.55999	
10:53:23	-6.733822	38.95363	117.262	1.811604	5.697682	0.11	3	100	0	50	17.93684	-1.383018	43.61829	
10:53:23	-6.733822	38.95363	117.207	1.808988	5.244695	0.04	3	100	0	50	18.19584	-1.651061	43.66315	
10:53:23	-6.733822	38.95363	117.1	1.809203	4.400743	0.22	3	100	0	50	18.14842	-1.541461	43.67146	
10:53:24	-6.733823	38.95363	117.002	1.769225	1.651287	0.19	3	100	0	50	18.2805	-1.397456	43.68526	
10:53:24	-6.733823	38.95363	116.906	1.709164	-1.205971	0.13	3	100	0	50	18.17536	-1.374493	43.69524	
10:53:24	-6.733822	38.95363	116.782	1.667111	-2.898652	0.06	3	100	0	50	18.20835	-1.681902	43.72177	
10:53:24	-6.733822	38.95363	116.621	1.637623	-4.189708	0.07	3	100	0	50	18.13212	-1.61085	43.73679	
10:53:24	-6.733822	38.95363	116.571	1.619836	-4.354175	0.13	3	100	0	50	18.03925	-1.552751	43.75341	
10:53:25	-6.733822	38.95364	116.507	1.609408	-4.679862	0.09	3	100	0	50	18.15002	-1.555568	43.76796	
10:53:25	-6.733822	38.95364	116.402	1.617043	-3.678868	0.03	3	100	0	50	17.96533	-1.564786	43.79532	
10:53:25	-6.733821	38.95364	116.373	1.63994	-1.942778	0.07	3	100	0	50	17.9578	-1.685756	43.83875	
10:53:25	-6.733821	38.95364	116.301	1.653796	-1.082754	0.09	3	100	0	50	18.03531	-1.735859	43.85161	
10:53:25	-6.733821	38.95364	116.199	1.659468	-0.8651869	0.17	3	100	0	50	17.97046	-1.778689	43.85499	
10:53:26	-6.733821	38.95364	116.123	1.653506	-0.6835679	0.12	3	100	0	50	17.85421	-1.866916	43.85101	
10:53:26	-6.73382	38.95364	116.054	1.641379	-1.03652	0.28	3	100	0	50	17.86599	-1.882274	43.84481	
10:53:26	-6.733819	38.95364	116.025	1.657132	0.01118453	0.02	3	100	0	50	17.9036	-2.106946	43.8247	
10:53:26	-6.733819	38.95364	115.969	1.686342	1.625783	0.09	3	100	0	50	17.95128	-1.860282	43.79747	
10:53:26	-6.733819	38.95364	115.826	1.693059	1.677875	0.13	3	100	0	50	18.06603	-1.818486	43.78395	
10:53:27	-6.733819	38.95364	115.8	1.66695	0.5339915	0.22	3	100	0	50	18.09654	-1.81353	43.78225	
10:53:27	-6.733819	38.95364	115.802	1.653918	0.0322497	0.22	3	100	0	50	17.93956	-1.985803	43.76711	
10:53:27	-6.733818	38.95364	115.788	1.656937	-0.04415313	0.19	3	100	0	50	17.90596	-1.512676	43.77457	
10:53:27	-6.733818	38.95364	115.747	1.660013	0.7173582	0.13	3	100	0	50	18.02175	-1.528463	43.797	
10:53:27	-6.733818	38.95364	115.671	1.677921	1.834269	0.18	3	100	0	50	17.99181	-1.649512	43.81254	
10:53:28	-6.733818	38.95364	115.645	1.694348	2.715743	0.09	3	100	0	50	18.21868	-1.723808	43.8131	
10:53:28	-6.733818	38.95364	115.541	1.747264	5.029741	0.09	3	100	0	50	18.07843	-1.719206	43.80398	
10:53:28	-6.733816	38.95364	115.308	1.79502	6.934313	0.35	3	100	0	50	18.12837	-1.805108	43.79427	
10:53:28	-6.733816	38.95364	115.251	1.864353	9.844098	0.16	3	100	0	50	17.87743	-2.098198	43.79061	
10:53:28	-6.733815	38.95364	115.22	1.933464	12.45541	0.13	3	100	0	50	18.17251	-1.743304	43.76707	
10:53:29	-6.733815	38.95364	115.146	1.937946	11.10595	0.21	3	100	0	50	18.02795	-1.93638	43.75168	
10:53:29	-6.733814	38.95364	115.18	1.938637	9.673773	0.04	3	100	0	50	18.00693	-1.592626	43.71707	
10:53:29	-6.733814	38.95364	115.245	1.898202	7.01366	0.25	3	100	0	50	18.08619	-1.712535	43.72707	
10:53:29	-6.733814	38.95364	115.123	1.857302	3.974111	0.08	3	100	0	50	18.10624	-1.547817	43.72571	
10:53:29	-6.733814	38.95364	115.038	1.83726	2.501612	0.04	3	100	0	50	17.95168	-1.942049	43.74242	
10:53:30	-6.733813	38.95364	114.893	1.819939	1.318213	0.28	3	100	0	50	17.98224	-1.879783	43.74074	
10:53:30	-6.733813	38.95364	114.844	1.80187	0.720215	0.06	3	100	0	50	17.61781	-1.774797	43.7657	
10:53:30	-6.733812	38.95364	114.826	1.787233	-0.1917319	0.09	3	100	0	50	17.81079	-1.874556	43.80172	
10:53:30	-6.733811	38.95364	114.728	1.807168	1.031184	0.33	3	100	0	50	17.90164	-2.005647	43.8124	
10:53:30	-6.733811	38.95364	114.724	1.827934	2.142727	0.14	3	100	0	50	17.62645	-2.173179	43.82423	
10:53:31	-6.73381	38.95364	114.642	1.747206	-1.673455	0.22	3	100	0	50	17.74987	-2.016933	43.82425	
10:53:31	-6.733809	38.95364	114.637	1.675221	-5.170158	0.13	3	100	0	50	17.63569	-1.868823	43.83777	
10:53:31	-6.733809	38.95364	114.503	1.643918	-6.857186	0.29	3	100	0	50	17.88938	-1.859567	43.84163	
10:53:31	-6.733809	38.95364	114.303	1.618255	-8.064973	0.25	3	100	0	50	18.15044	-1.946509	43.82365	
10:53:31	-6.733809	38.95364	114.177	1.586207	-9.274426	0.08	3	100	0	50	17.861	-1.714296	43.84116	
10:53:32	-6.733809	38.95364	114.175	1.55822	-10.00713	0.14	3	100	0	50	17.82281	-1.989224	43.85225	
10:53:32	-6.733808	38.95364	114.16	1.578268	-7.930942	0.16	3	100	0	50	17.92562	-1.873283	43.84056	
10:53:32	-6.733808	38.95364	114.112	1.595666	-6.739631	0.09	3	100	0	50	17.81077	-1.811101	43.85307	
10:53:32	-6.733807	38.95364	114.065	1.608383	-5.624334	0.21	3	100	0	50	17.67391	-1.919954	43.86967	
10:53:32	-6.733807	38.95364	114.039	1.6133	-4.830158	0.26	3	100	0	50	17.68561	-1.974977	43.88831	
10:53:33	-6.733806	38.95364	113.892	1.629698	-3.956351	0.16	3	100	0	50	18.07476	-2.252967	43.8621	
