Date	Latitude(deg) 	Longitude(deg)	hamsl(m)	hafl(m)	climbrate(cm/s)	GroundSpeed(m/s)	Airspeed(m/s)	Mav_Link(%)	Rssi_Link(%)	Throttle	Roll(deg)	Pitch(deg)	Yaw(deg)
12:43:42	-6.795938	38.98532	100.316	0	0	0.45	0	100	0	0	-1.328073	-27.69338	10.24025	
12:43:42	-6.795938	38.98532	100.179	0.567478	-1.114316	0.48	3	100	0	22	-1.213789	-27.71701	10.18159	
12:43:43	-6.795929	38.98531	105.107	0.5632939	-3.463317	0.33	3	100	0	22	-1.529244	-27.84583	10.31126	
12:43:43	-6.795928	38.98531	105.391	0.2701721	-20.10055	0.22	3	100	0	22	-1.637775	-27.89875	10.36536	
12:43:43	-6.795928	38.98531	105.329	0.002491891	-34.36018	0.36	3	100	0	22	-1.73084	-28.34208	10.41081	
12:43:43	-6.795928	38.9853	105.23	-0.3358729	-51.5745	0.29	3	100	0	22	-1.502689	-28.19944	10.30082	
12:43:43	-6.795928	38.9853	105.207	-0.6387725	-64.84999	0.13	3	100	0	22	-1.408767	-28.17772	10.24705	
12:43:44	-6.795928	38.9853	105.337	-0.6031244	-59.1261	0.39	3	100	0	22	-1.107659	-28.22752	10.08348	
12:43:44	-6.795928	38.9853	105.629	-0.5594625	-53.11435	0.16	3	100	0	22	-1.149347	-28.24035	10.08045	
12:43:44	-6.795927	38.9853	105.96	-0.3159698	-37.04199	0.32	3	100	0	22	-1.629169	-28.53391	10.28623	
12:43:44	-6.795927	38.9853	106.217	-0.112483	-25.1047	0.37	3	100	0	22	-1.889923	-28.55819	10.40224	
12:43:44	-6.795927	38.9853	106.485	0.06732722	-15.36998	0.29	3	100	0	22	-1.438949	-28.47112	10.18089	
12:43:45	-6.795926	38.9853	106.947	0.2679439	-5.284985	0.26	3	100	0	22	-1.561136	-28.60525	10.22098	
12:43:45	-6.795925	38.9853	107.059	0.2909842	-5.608048	0.44	3	100	0	22	-2.228387	-27.78716	11.01962	
12:43:45	0	0	0	0.2539342	-9.068218	0	3	100	0	22	-3.057826	-24.30038	12.78623	
12:43:45	0	0	0	0.2812548	53.8378	0	3	100	0	22	-3.555714	-20.34929	14.17839	
12:43:45	47.46292	-122.3151	99.4	4.274549	334.7314	29.29	3	100	0	22	-3.956762	-15.79628	16.46428	
12:43:46	47.46292	-122.3151	99.4	23.50453	1385.384	29.29	29.32718	100	0	22	-4.166173	-10.87803	20.18684	
12:43:46	47.46292	-122.3151	99.4	39.26479	2170.823	29.29	29.32718	100	0	22	-4.767319	-6.63302	23.99019	
12:43:46	47.46292	-122.3151	99.4	56.55812	2939.802	29.29	29.32718	100	0	22	-5.060541	-2.38518	27.43632	
12:43:46	47.46292	-122.3151	99.4	70.34916	3470.479	29.29	29.32718	100	0	22	-5.071637	1.847975	30.91538	
12:43:46	47.46292	-122.3151	99.4	81.41685	3832.612	29.29	29.32718	100	0	22	-4.721881	5.916341	35.03403	
12:43:47	47.46292	-122.3151	99.4	92.12098	4115.049	29.29	29.32718	100	0	22	-4.127656	9.920736	38.83851	
12:43:47	47.46292	-122.3151	99.4	102.0132	4295.079	29.29	29.32718	100	0	22	-3.165431	13.55986	43.42375	
12:43:47	47.46292	-122.3151	99.4	109.5517	4359.111	29.29	29.32718	100	0	22	-1.997893	16.68582	48.16127	
12:43:47	47.46292	-122.3151	99.4	115.2814	4346.686	29.29	29.32718	100	0	22	-0.5971688	19.51178	53.09663	
12:43:47	47.46292	-122.3151	99.4	120.6496	4256.613	29.29	29.32718	100	0	22	1.032875	22.1075	58.21473	
12:43:48	47.46292	-122.3151	99.4	124.4695	4113.46	29.29	29.32718	100	0	22	2.864871	24.45835	63.47897	
12:43:48	47.46292	-122.3151	99.4	127.0452	3944.382	29.29	29.32718	100	0	22	5.211977	25.8775	68.87498	
12:43:48	47.46292	-122.3151	99.4	129.1744	3686.416	29.29	29.32718	100	0	22	8.618301	21.79539	73.80446	
12:43:48	47.46286	-122.3151	99.368	130.101	3212.243	28.93	29.32718	100	0	22	10.40606	13.64019	77.87427	
12:43:48	47.46281	-122.3151	98.767	129.7905	2575.182	28.15	28.96973	100	0	22	10.07869	7.945886	81.34205	
12:43:49	47.46276	-122.315	97.504	128.0365	1839.651	27.24	27.20748	100	0	22	10.47665	5.164867	85.69624	
12:43:49	47.46272	-122.315	95.876	125.726	1341.362	26.61	26.29169	100	0	22	9.300654	4.689532	91.01114	
12:43:49	47.46272	-122.315	95.876	122.6328	939.999	26.61	25.65779	100	0	22	2.742624	7.57646	96.66833	
12:43:49	47.46267	-122.315	93.587	119.2299	724.6805	26.22	25.65779	100	0	22	-3.907481	11.31484	101.0104	
12:43:49	47.4626	-122.315	90.55	115.79	598.1312	26.55	25.27172	100	0	48	-9.560371	15.1054	104.279	
12:43:50	47.46255	-122.3149	88.617	111.9909	443.2856	26.91	24.75515	100	0	62	-11.21364	17.92687	106.9298	
12:43:50	47.46251	-122.3149	87.015	108.5205	247.2043	27.13	25.14864	100	0	63	-10.43688	18.22575	109.9379	
12:43:50	47.46246	-122.3149	85.544	104.7983	-23.9141	27.29	25.40171	100	0	82	-9.319276	16.6794	113.4619	
12:43:50	47.46239	-122.3149	83.052	101.3994	-297.1295	27.5	25.47871	100	0	88	-9.213925	14.60568	116.9543	
12:43:50	47.46234	-122.3149	81.223	97.13741	-618.4639	27.66	25.69986	100	0	88	-10.04174	13.21451	119.8949	
12:43:51	47.46228	-122.3149	79.108	93.47232	-843.9976	28.04	25.86036	100	0	98	-11.25478	12.55936	122.3669	
12:43:51	47.46223	-122.3149	76.751	89.49275	-1031.598	28.68	25.6021	100	0	99	-11.9326	12.12548	124.7358	
12:43:51	47.46223	-122.3149	76.751	85.18922	-1203.96	28.68	26.24535	100	0	99	-7.694118	10.39327	127.4815	
12:43:51	47.46217	-122.3149	74.203	81.33859	-1391.166	29.44	26.24535	100	0	99	-0.6125002	7.225873	130.1609	
12:43:52	47.46212	-122.3149	71.58	77.77229	-1606.766	29.93	27.01285	100	0	99	3.311916	4.438944	132.215	
12:43:52	47.46204	-122.3149	66.825	73.26717	-1852.4	30.09	27.50538	100	0	99	3.570191	3.346962	131.8494	
12:43:52	47.46198	-122.3149	63.269	69.01467	-1998.909	30.32	26.91313	100	0	99	3.098276	3.184948	131.9421	
12:43:52	47.46193	-122.3149	59.638	64.59476	-2080.748	30.8	27.1449	100	0	99	2.809385	3.343563	131.8142	
12:43:52	47.46185	-122.3149	54.175	60.77184	-2113.553	31.71	27.62708	100	0	99	2.848253	3.480446	131.3488	
12:43:53	47.46178	-122.3149	50.11	56.65939	-2139.356	32.36	28.54662	100	0	99	3.5039	3.337021	131.0415	
12:43:53	47.46175	-122.3149	47.918	51.78534	-2193.094	32.66	29.20308	100	0	99	3.933399	2.970242	130.6294	
12:43:53	47.46175	-122.3149	47.918	47.3496	-2247.281	32.66	29.51153	100	0	99	3.610489	2.522138	129.7465	
12:43:53	47.46169	-122.3149	43.622	43.2954	-2274.921	33.14	29.51153	100	0	99	3.12334	2.237239	129.1112	
12:43:53	47.46159	-122.3149	37.401	39.95927	-2252.785	33.74	29.99685	100	0	99	2.859109	2.024407	128.6819	
12:43:54	47.46154	-122.3149	33.517	36.03151	-2254.122	34.16	30.61506	100	0	99	2.963835	1.943769	127.6782	
12:43:54	47.46148	-122.3149	29.734	31.84698	-2283.234	34.57	31.04513	100	0	99	3.03003	1.684966	128.5622	
12:43:54	47.46142	-122.3149	25.625	26.9209	-2304.101	35.02	31.46452	100	0	99	2.282558	1.571364	131.1048	
12:43:54	47.46135	-122.3149	21.29	22.70509	-2292.957	35.44	31.92291	100	0	99	-2.576257	3.880481	133.3927	
12:43:54	47.46128	-122.3149	17.02	18.75824	-2091.649	35.98	32.356	100	0	99	-11.26448	10.84049	134.8285	
12:43:55	47.46119	-122.315	11.831	15.88286	-1678.476	38.31	32.90349	100	0	99	-16.2823	17.49695	134.8147	
12:43:55	47.46112	-122.315	9.321	13.26806	-1228.675	39.79	35.24709	100	0	99	-16.18454	21.87158	134.2461	
12:43:55	47.46112	-122.315	9.321	10.86136	-910.152	39.79	36.71317	100	0	99	-14.0313	22.80499	135.0949	
12:43:55	47.46102	-122.315	7.101	9.198647	-807.8835	40.49	36.71317	100	0	99	-12.56293	21.90168	136.4579	
12:43:55	47.46094	-122.315	6.139	7.379398	-822.5372	40.26	37.3747	100	0	99	-12.06526	20.74429	137.347	
12:43:56	47.46087	-122.315	5.541	5.501316	-855.2629	39.93	37.13417	100	0	99	-11.8417	20.08584	138.1763	
12:43:56	47.46076	-122.315	4.604	3.965083	-856.91	39.39	36.80219	100	0	99	-12.67586	19.73764	136.3152	
12:43:56	47.46069	-122.315	4.205	2.799009	-811.4623	39.09	36.25181	100	0	99	-13.63282	20.16636	134.304	
12:43:56	47.46062	-122.3151	3.902	1.632802	-703.9357	38.78	35.95075	100	0	99	-13.74238	21.13789	133.1971	
12:43:56	47.46055	-122.3151	3.782	0.9259976	-575.1666	38.35	35.62793	100	0	99	-12.93939	21.79239	132.6045	
12:43:57	47.46045	-122.3151	4.276	0.5556058	-477.9818	37.65	35.19321	100	0	99	-11.55327	21.45898	132.2354	
12:43:57	47.46039	-122.3151	4.847	0.3301883	-421.0726	37.18	34.48187	100	0	99	-10.65475	21.16491	132.7387	
12:43:57	47.46039	-122.3151	4.847	0.3050696	-379.1172	37.18	34.00753	100	0	99	-9.737357	21.12544	133.4079	
12:43:57	47.46032	-122.3151	5.441	0.4852071	-319.1158	36.69	34.00753	100	0	99	-9.598843	21.20047	133.7935	
12:43:57	47.46026	-122.3151	6.138	0.8799746	-247.3644	36.25	33.51645	100	0	99	-11.12565	21.93416	134.2482	
12:43:58	47.46019	-122.3151	7.093	1.429077	-157.4466	35.68	33.07677	100	0	99	-12.49073	22.88456	134.619	
12:43:58	47.46012	-122.3151	8.049	2.321107	-38.5976	35.14	32.50887	100	0	99	-13.69161	23.46481	134.6059	
12:43:58	47.46003	-122.3151	9.749	3.345319	51.3792	34.26	31.96472	100	0	99	-14.49775	23.78989	134.7781	
12:43:58	47.45998	-122.3151	10.847	4.412548	115.0039	33.79	31.08312	100	0	99	-14.27525	23.91984	135.0047	
12:43:58	47.45992	-122.315	12.489	5.68525	172.7674	33.17	30.61028	100	0	99	-12.99025	23.79637	135.234	
12:43:59	47.45992	-122.315	12.489	7.330751	237.6432	33.17	29.98919	100	0	99	-11.38671	23.64254	135.6461	
12:43:59	47.45986	-122.315	13.891	8.908103	294.3682	32.69	29.98919	100	0	99	-8.439309	23.35071	136.3993	
12:43:59	47.45977	-122.315	16.374	10.60419	352.9541	31.91	29.50484	100	0	99	-5.539064	23.07239	136.9932	
12:43:59	47.45971	-122.315	18.047	12.21472	408.3784	31.41	28.72992	100	0	99	-2.793968	22.98111	137.4915	
12:43:59	47.45965	-122.315	19.917	14.29885	481.2941	30.89	28.23359	100	0	99	0.1406634	22.98776	138.3567	
12:44:00	47.45959	-122.315	21.707	16.08779	544.9443	30.38	27.70696	100	0	99	3.487049	23.0882	139.5555	
12:44:00	47.45954	-122.315	23.429	18.22364	618.0098	29.92	27.19803	100	0	99	7.25004	23.16592	141.0079	
12:44:00	47.45954	-122.315	23.429	20.49129	685.6597	29.92	26.73841	100	0	99	8.877001	23.25117	142.5138	
12:44:00	47.45946	-122.315	26.103	22.52627	742.0564	29.17	26.73841	100	0	99	7.415374	23.62403	144.1934	
12:44:00	47.45941	-122.315	28.209	25.07223	807.9546	28.65	25.9876	100	0	99	2.890964	24.13184	145.8036	
12:44:01	47.45935	-122.315	30.333	27.31557	857.4427	28.14	25.46632	100	0	99	-6.083951	24.65389	146.9034	
12:44:01	47.4593	-122.315	32.334	29.58818	894.4851	27.66	24.96022	100	0	99	-16.77799	25.06306	147.422	
12:44:01	47.45925	-122.315	34.597	31.57169	910.322	27.17	24.47877	100	0	99	-25.19187	25.08861	147.3311	
12:44:01	47.45918	-122.315	37.85	33.75871	906.7822	26.56	23.98977	100	0	98	-21.62887	25.20855	146.7193	
12:44:01	47.45913	-122.3149	39.902	36.0132	912.6948	26.27	23.38192	100	0	99	-12.00615	25.36328	146.145	
12:44:02	47.45913	-122.3149	39.902	38.25372	940.8419	26.27	23.08831	100	0	99	-2.306169	25.11789	146.0046	
12:44:02	47.45909	-122.3149	42.046	40.85143	978.7014	25.94	23.08831	100	0	99	7.31348	24.42851	146.4884	
12:44:02	47.45904	-122.3149	44.234	42.93519	991.7512	25.51	22.76409	100	0	99	15.37786	23.5828	147.8183	
12:44:02	47.45899	-122.3149	46.17	45.32793	989.3085	25.13	22.33238	100	0	99	20.24351	23.15432	149.3615	
12:44:02	47.45893	-122.3149	49.423	47.45234	999.5339	24.69	21.95624	100	0	99	17.34156	23.38468	151.2418	
12:44:03	47.45888	-122.3149	51.541	50.08206	1028.866	24.41	21.51058	100	0	99	8.105812	24.16998	153.131	
12:44:03	47.45884	-122.3149	53.787	52.48203	1073.966	24.1	21.23452	100	0	99	-0.8480349	25.04519	154.7542	
12:44:03	47.45879	-122.3149	56.051	54.85875	1114.403	23.7	20.92064	100	0	99	-9.76391	25.64343	155.5517	
12:44:03	47.45875	-122.3149	58.219	57.03482	1129.241	23.26	20.52269	100	0	99	-19.37123	25.6868	155.1503	
12:44:03	47.45871	-122.3149	60.496	59.35787	1116.864	22.86	20.08189	100	0	99	-28.63584	25.29628	154.0786	
12:44:04	47.45864	-122.3149	64.059	61.80278	1081.964	22.49	19.68427	100	0	99	-28.43717	25.13933	152.7641	
12:44:04	47.4586	-122.3149	66.384	64.1414	1063.535	22.41	19.30697	100	0	99	-20.75901	25.50883	151.2135	
12:44:04	47.45856	-122.3149	68.335	66.24522	1074.938	22.3	19.2315	100	0	99	-12.43986	25.72235	149.7061	
12:44:04	47.45852	-122.3149	70.497	68.67971	1100.949	21.99	19.12398	100	0	99	-4.14888	25.47252	148.8881	
12:44:04	47.45852	-122.3149	70.497	70.90459	1109.82	21.99	18.82711	100	0	99	4.046267	24.96646	148.9481	
12:44:05	47.45847	-122.3148	73.444	73.0169	1101.66	21.56	18.82711	100	0	99	11.78464	24.4314	149.5912	
12:44:05	47.45843	-122.3148	75.387	75.25662	1090.321	21.36	18.41229	100	0	99	20.21114	24.01475	150.7182	
12:44:05	47.45839	-122.3148	77.623	77.10557	1071.55	21.18	18.22047	100	0	100	24.06335	23.83087	152.2251	
12:44:05	47.45835	-122.3148	79.886	79.44952	1060.334	21.01	18.037	100	0	99	15.68006	24.41609	153.9523	
12:44:05	47.45832	-122.3148	81.831	81.5568	1075.244	20.89	17.86228	100	0	99	6.643363	25.27106	155.8062	
12:44:06	47.45826	-122.3148	84.945	83.64944	1100.985	20.43	17.72111	100	0	99	-2.302441	25.87075	156.7209	
12:44:06	47.45823	-122.3148	86.959	85.73641	1119.98	20.05	17.25918	100	0	99	-11.84436	26.03253	156.3251	
12:44:06	47.45819	-122.3148	89.095	88.16891	1112.638	19.73	16.87198	100	0	99	-22.47677	25.58416	155.0375	
12:44:06	47.45819	-122.3148	89.095	90.30026	1081.445	19.73	16.55234	100	0	99	-32.37335	24.94054	153.3864	
12:44:06	47.45816	-122.3148	91.283	91.97557	1038.648	19.54	16.55234	100	0	99	-31.56697	24.80893	150.833	
12:44:07	47.4581	-122.3147	94.561	94.03195	996.5313	19.53	16.37033	100	0	99	-24.28423	25.37303	147.2325	
12:44:07	47.45807	-122.3147	96.748	95.98036	1015.844	19.61	16.37029	100	0	99	-16.53113	26.1152	144.1169	
12:44:07	47.45803	-122.3147	98.737	98.11427	1047.604	19.5	16.47953	100	0	99	-8.307823	26.49268	142.7594	
12:44:07	47.458	-122.3147	100.614	100.2539	1069.564	19.22	16.41556	100	0	99	0.5504153	26.16713	142.5166	
12:44:07	47.45797	-122.3147	102.776	102.3051	1065.282	18.93	16.19205	100	0	99	9.761422	25.41347	142.6249	
12:44:08	47.45794	-122.3147	104.769	104.3821	1043.301	18.75	15.95044	100	0	99	19.26254	24.66845	143.0886	
12:44:08	47.4579	-122.3146	106.907	106.5276	1007.592	18.67	15.80347	100	0	99	24.81758	24.23818	144.2099	
12:44:08	47.45786	-122.3146	109.693	108.4636	977.2647	18.67	15.7272	100	0	99	21.12673	24.48564	145.8843	
12:44:08	47.45783	-122.3146	111.682	110.1343	971.1741	18.66	15.70879	100	0	99	13.57937	25.35177	147.9557	
12:44:08	47.45779	-122.3146	113.6	112.2516	1004.907	18.48	15.6619	100	0	99	4.406598	26.19724	149.5379	
12:44:09	47.45776	-122.3145	115.512	114.5452	1040.73	18.12	15.44238	100	0	99	-5.224786	26.38786	149.793	
12:44:09	47.45773	-122.3145	117.592	116.3821	1043.886	17.74	15.06658	100	0	99	-15.49306	25.94045	148.7418	
12:44:09	47.4577	-122.3145	119.763	118.2561	1017.661	17.53	14.67713	100	0	99	-25.46564	25.34012	147.1336	
12:44:09	47.4577	-122.3145	119.763	120.4685	982.7437	17.53	14.47131	100	0	99	-25.6751	25.11095	145.5129	
12:44:09	47.45768	-122.3145	121.929	122.358	950.6599	17.51	14.47131	100	0	99	-16.22741	26.01107	143.7787	
12:44:10	47.45764	-122.3145	123.957	123.9555	951.2668	17.61	14.48403	100	0	99	-6.698764	26.98481	142.181	
12:44:10	47.45761	-122.3145	126.061	125.754	970.4174	17.63	14.63097	100	0	99	3.053993	26.98675	141.9428	
12:44:10	47.45753	-122.3144	131.11	127.7868	980.848	16.96	14.71216	100	0	99	13.14835	25.94503	142.8667	
12:44:10	47.45751	-122.3144	133.129	130.0718	962.8641	16.95	14.1396	100	0	99	22.99788	25.00149	144.3336	
12:44:10	47.45748	-122.3144	135.065	131.8594	931.499	17.06	14.11685	100	0	99	29.01658	22.97561	145.7055	
12:44:11	47.45748	-122.3144	135.065	133.9129	867.5685	17.06	14.19366	100	0	99	22.71431	22.90463	147.5987	
12:44:11	47.45745	-122.3143	137.032	135.6703	851.0164	17.39	14.19366	100	0	99	13.29774	25.06258	150.4384	
12:44:11	47.45742	-122.3143	138.65	137.5791	913.3184	17.45	14.46852	100	0	99	4.346854	27.00665	152.6143	
12:44:11	47.4574	-122.3143	140.568	139.5699	985.0825	16.99	14.48905	100	0	99	-5.105021	27.49345	152.8383	
12:44:11	47.45736	-122.3143	142.499	141.4803	1002.186	16.39	13.98522	100	0	99	-15.4318	26.83773	151.6183	
12:44:12	47.45734	-122.3143	144.449	143.2624	993.3019	16.11	13.36446	100	0	99	-25.29827	25.41315	150.0351	
12:44:12	47.45731	-122.3143	146.428	145.3242	939.0868	16.07	13.08108	100	0	99	-19.30844	25.15458	148.8115	
12:44:12	47.45727	-122.3142	149.476	147.1057	896.5189	16.4	13.06782	100	0	99	-9.245594	26.36457	147.4257	
12:44:12	47.45724	-122.3142	151.309	149.0093	915.2793	16.42	13.46729	100	0	99	0.1981816	27.05078	145.9334	
12:44:12	47.45724	-122.3142	151.309	150.9888	942.1589	16.42	13.545	100	0	100	9.80002	26.52751	145.6895	
12:44:13	47.45721	-122.3142	153.131	152.983	941.8886	16.18	13.545	100	0	99	20.04142	25.29917	146.8743	
12:44:13	47.45719	-122.3141	155.035	154.791	903.4826	16.04	13.34267	100	0	99	29.54156	24.33374	148.7408	
12:44:13	47.45716	-122.3141	156.83	156.4542	857.9422	16.12	13.22019	100	0	99	34.9947	24.43747	151.4064	
12:44:13	47.45714	-122.3141	158.63	157.9528	834.0929	16.3	13.29358	100	0	99	33.90497	25.78587	155.2083	
12:44:13	47.4571	-122.3141	161.276	159.5808	844.5799	16.39	13.42556	100	0	99	31.90358	27.48468	160.1162	
12:44:14	47.45707	-122.3141	162.883	161.4337	892.6373	16.12	13.4102	100	0	99	30.76075	28.66281	164.669	
12:44:14	47.45704	-122.3141	164.963	163.2139	930.728	15.58	12.84151	100	0	99	28.18819	29.11069	168.0264	
12:44:14	47.457	-122.314	167.881	165.0078	939.6261	14.98	12.24464	100	0	99	21.03182	29.38071	170.6683	
12:44:14	47.45697	-122.314	169.923	166.955	954.8689	14.73	11.62143	100	0	99	11.35589	29.35521	172.6665	
12:44:14	47.45695	-122.314	171.98	169.2807	964.9643	14.51	11.38893	100	0	99	0.4622869	28.33499	173.4153	
12:44:15	47.45692	-122.314	173.886	171.1612	945.5926	14.42	11.5785	100	0	99	-10.96557	26.64526	173.263	
12:44:15	47.4569	-122.314	175.95	173.1019	906.5337	14.52	11.49279	100	0	99	-21.38255	24.65538	171.9514	
12:44:15	47.45687	-122.314	177.919	175.0269	854.6951	14.79	11.59169	100	0	99	-18.01814	24.2039	170.3812	
12:44:15	47.45687	-122.314	177.919	176.8264	824.1792	14.79	11.8482	100	0	99	-7.351448	25.9148	168.8027	
12:44:16	47.45683	-122.314	180.62	178.5701	843.9333	15.18	11.8482	100	0	99	2.583268	27.42771	167.4475	
12:44:16	47.4568	-122.314	182.268	180.5651	888.6198	15.06	12.20959	100	0	99	12.6586	27.19553	167.5804	
12:44:16	47.45678	-122.314	184.174	182.4607	891.4837	14.76	12.08329	100	0	99	23.1174	25.69308	169.0659	
12:44:16	47.45675	-122.314	185.984	184.1239	862.3345	14.69	11.78259	100	0	99	28.8181	24.59648	171.3679	
12:44:16	47.45675	-122.314	185.984	185.778	813.402	14.69	11.70794	100	0	99	24.0619	25.60039	173.854	
12:44:17	47.45668	-122.314	190.024	187.5284	807.905	15.16	11.70794	100	0	99	14.19038	28.22693	176.4664	
12:44:17	47.45666	-122.314	191.855	189.2464	874.4154	14.9	12.20668	100	0	99	5.086028	29.57361	178.1609	
12:44:17	47.45663	-122.314	193.816	191.4001	951.7641	14.29	11.97316	100	0	99	-0.4382985	25.69797	178.2389	
12:44:17	47.45659	-122.314	196.777	193.3501	888.0198	14.27	11.39261	100	0	99	-2.590242	12.94561	177.3423	
12:44:17	47.45656	-122.314	198.425	194.9677	600.2637	15.75	11.38533	100	0	99	-2.084636	-0.791171	177.2144	
12:44:18	47.45653	-122.314	199.328	195.9921	236.4189	17.15	12.55332	100	0	99	-1.266056	-6.0005	177.5839	
12:44:18	47.45653	-122.314	199.328	196.6119	-50.27993	17.15	13.76195	100	0	77	-0.6323587	-3.148768	177.5382	
12:44:18	47.4565	-122.314	199.461	196.9364	-72.3643	18.07	13.76195	100	0	71	-0.1750555	2.361292	176.533	
12:44:18	47.45646	-122.314	199.355	197.3644	53.12683	19.03	14.68429	100	0	69	0.043525	5.523607	176.2206	
12:44:18	47.45643	-122.314	199.405	197.9053	166.7064	19.4	15.63595	100	0	64	0.4707948	4.701647	177.0098	
12:44:19	47.45639	-122.314	199.646	198.58	195.5228	19.53	15.99759	100	0	55	1.007578	2.649186	177.5045	
12:44:19	47.45636	-122.314	200.008	199.0991	158.2744	19.69	16.11367	100	0	48	1.350174	0.947659	177.4829	
12:44:19	47.45631	-122.314	200.439	199.4672	113.2525	19.96	16.27017	100	0	46	1.532664	-0.09539977	177.3132	
12:44:19	47.45627	-122.314	200.58	199.7221	83.94933	20.06	16.54214	100	0	44	1.568862	-0.7696714	177.3007	
12:44:19	47.45623	-122.314	200.623	199.9869	65.48984	20.12	16.64257	100	0	42	1.546742	-1.031528	177.5707	
12:44:20	47.45623	-122.314	200.623	200.2193	65.2179	20.12	16.70182	100	0	42	1.606976	-1.101343	177.8949	
12:44:20	47.4562	-122.314	200.74	200.4299	72.727	20.14	16.70182	100	0	42	1.655238	-1.125957	178.0939	
12:44:20	47.45612	-122.314	200.769	200.6327	81.20321	20.11	16.72178	100	0	42	1.626972	-1.204308	178.2078	
12:44:20	47.45608	-122.314	200.884	200.8138	87.54202	20.09	16.69374	100	0	42	1.506764	-1.273103	178.3275	
12:44:20	47.45608	-122.314	200.884	200.9754	91.3815	20.09	16.67509	100	0	41	1.292894	-1.377655	178.4692	
12:44:21	47.45605	-122.314	200.874	201.1166	93.12838	20.07	16.67509	100	0	41	1.133296	-1.434706	178.6351	
12:44:21	47.45601	-122.314	200.93	201.2558	94.04181	20.05	16.65579	100	0	41	0.9912906	-1.397214	178.7546	
12:44:21	47.45597	-122.314	201.065	201.3721	96.01476	20.04	16.6365	100	0	41	0.8845117	-1.304775	178.9097	
12:44:21	47.45591	-122.314	201.203	201.4969	99.99864	20.02	16.62652	100	0	42	0.7742425	-1.200575	179.0916	
12:44:21	47.45588	-122.314	201.258	201.6199	104.2197	20	16.60656	100	0	42	0.6672182	-1.102302	179.2261	
12:44:22	47.45584	-122.314	201.384	201.7577	107.8784	19.98	16.58594	100	0	42	0.6077719	-1.020161	179.3376	
12:44:22	47.4558	-122.314	201.54	201.8812	110.1848	19.95	16.56598	100	0	42	0.6273412	-0.9667333	179.5224	
12:44:22	47.45576	-122.314	201.653	202.0069	111.4424	19.92	16.53539	100	0	42	0.5751143	-0.8684416	179.7161	
12:44:22	47.45573	-122.314	201.839	202.1255	113.0056	19.89	16.5048	100	0	42	0.4920272	-0.7758503	179.8765	
12:44:22	47.45568	-122.314	202.06	202.2583	114.0179	19.83	16.47421	100	0	42	0.4601572	-0.7112371	-179.9968	
12:44:23	47.45568	-122.314	202.06	202.3797	114.7047	19.83	16.41368	100	0	41	0.407447	-0.6183085	-179.9157	
12:44:23	47.45564	-122.314	202.293	202.5456	115.9735	19.79	16.41368	100	0	41	0.3457828	-0.5516498	-179.822	
12:44:23	47.45561	-122.314	202.398	202.7028	117.5861	19.74	16.37377	100	0	42	0.276692	-0.5007672	-179.687	
12:44:23	47.45557	-122.314	202.641	202.875	117.5862	19.69	16.32323	100	0	42	0.2203432	-0.4573107	-179.5451	
12:44:23	47.45554	-122.314	202.849	203.0397	117.7169	19.64	16.27268	100	0	42	0.1794587	-0.3885422	-179.4354	
12:44:24	47.45547	-122.314	203.203	203.184	117.7351	19.55	16.22151	100	0	42	0.1806795	-0.3035882	-179.3101	
12:44:24	47.45544	-122.314	203.381	203.3532	117.8672	19.49	16.13044	100	0	42	0.2021362	-0.2056449	-179.1432	
12:44:24	47.4554	-122.314	203.695	203.538	120.2244	19.43	16.06993	100	0	42	0.2534394	-0.1747105	-179.0141	
12:44:24	47.45536	-122.3141	203.945	203.7344	120.9169	19.35	16.00943	100	0	41	0.2198929	-0.1942594	-178.9388	
12:44:24	47.45533	-122.3141	204.119	203.9502	120.6162	19.29	15.92897	100	0	42	0.2073288	-0.201852	-178.8407	
12:44:25	47.4553	-122.3141	204.368	204.1833	119.7651	19.23	15.86908	100	0	42	0.1407098	-1.38761	-178.6848	
12:44:25	47.45525	-122.3141	204.646	204.3794	96.1834	19.18	15.80858	100	0	42	-0.4130432	-6.666662	-178.541	
12:44:25	47.45525	-122.3141	204.646	204.4293	-48.86796	19.18	15.75807	100	0	41	-0.968473	-13.73123	-178.3943	
12:44:25	47.45522	-122.3141	204.775	204.1684	-259.6	19.26	15.75807	100	0	42	-1.182521	-16.69998	-178.3564	
12:44:25	47.45517	-122.3141	204.285	203.6189	-415.2823	19.35	15.83914	100	0	42	-0.8181731	-14.21836	-178.4106	
12:44:26	47.45517	-122.3141	204.285	203.0339	-386.5771	19.35	15.16316	100	0	41	-0.393369	-9.284759	-178.4522	
12:44:26	47.4551	-122.3141	202.695	202.5796	-236.927	20.09	15.16316	100	0	42	-0.09953463	-4.777499	-178.3895	
12:44:26	47.45506	-122.3141	202.167	202.4039	-49.15105	20.4	15.90106	100	0	41	0.01501659	-1.699221	-178.2309	
12:44:26	47.45506	-122.3141	202.167	202.4205	80.48053	20.4	16.20892	100	0	42	0.06764459	-0.05953754	-178.0228	
12:44:26	47.45502	-122.3141	201.923	202.5745	152.852	20.45	15.86191	100	0	42	0.1616518	0.6235566	-177.8158	
12:44:27	47.45499	-122.3141	201.982	202.7733	181.5927	20.31	15.91052	100	0	41	0.1528422	0.7229911	-177.7479	
12:44:27	47.45495	-122.3141	202.251	202.9924	184.6232	20.11	15.77014	100	0	42	0.100514	0.7604101	-177.6491	
12:44:27	47.4549	-122.3141	202.76	203.2019	177.5841	19.87	15.56979	100	0	42	0.1271842	0.8249416	-177.5029	
12:44:27	47.45486	-122.3141	203.093	203.4201	171.5719	19.74	15.33003	100	0	41	0.1892451	0.9052557	-177.35	
12:44:27	47.45482	-122.3141	203.462	203.6798	162.702	19.61	15.20006	100	0	42	0.1770361	0.813967	-177.196	
12:44:28	47.45479	-122.3141	203.818	203.9009	155.4151	19.49	15.07008	100	0	42	0.1856935	0.678017	-177.1102	
12:44:28	47.45473	-122.3141	204.356	204.1645	145.779	19.32	14.95031	100	0	41	0.176779	0.4683881	-177.0473	
12:44:28	47.4547	-122.3141	204.627	204.3719	133.7155	19.24	14.78079	100	0	42	0.1763975	0.376241	-176.9612	
12:44:28	47.4547	-122.3141	204.627	204.6419	127.2844	19.24	14.70104	100	0	41	0.1487845	0.348226	-176.8572	
12:44:28	47.45465	-122.3141	205.113	204.8959	125.8205	19.12	14.70104	100	0	42	0.1449729	0.3423348	-176.6975	
12:44:29	47.45462	-122.3141	205.405	205.2069	125.3153	19.04	14.58107	100	0	41	0.1312045	0.3215498	-176.5203	
12:44:29	47.45459	-122.3141	205.711	205.4752	123.9673	18.97	14.50133	100	0	42	0.1228209	0.2781766	-176.4055	
12:44:29	47.45455	-122.3141	206.028	205.7477	122.9839	18.88	14.43135	100	0	42	0.08789156	0.2353833	-176.3333	
12:44:29	47.4545	-122.3141	206.489	206.0149	121.4676	18.78	14.34163	100	0	42	0.09314906	0.1876403	-176.272	
12:44:29	47.45446	-122.3141	206.822	206.2637	120.3782	18.71	14.24218	100	0	42	0.1060817	0.1757943	-176.1674	
12:44:30	47.45443	-122.3141	207.06	206.5707	119.9949	18.65	14.17248	100	0	42	0.1222152	0.168738	-176.0705	
12:44:30	47.45439	-122.3141	207.354	206.8498	121.9984	18.6	14.11251	100	0	42	0.1195039	0.1794055	-175.9758	
12:44:30	47.45439	-122.3141	207.354	207.1466	123.9812	18.6	14.06281	100	0	42	0.1224685	0.1844278	-175.8101	
12:44:30	47.45436	-122.3141	207.646	207.4384	124.25	18.54	14.06281	100	0	42	0.1290968	0.1935521	-175.6628	
12:44:30	47.45436	-122.3141	207.646	207.6844	123.994	18.54	14.00313	100	0	42	0.1433294	0.2058433	-175.5812	
12:44:31	47.45429	-122.3141	208.182	207.8861	122.8752	18.43	14.00313	100	0	42	0.1418441	0.2187044	-175.5097	
12:44:31	47.45422	-122.3141	208.736	208.1463	122.1739	18.33	13.89378	100	0	42	0.117577	0.2612252	-175.4556	
12:44:31	47.45422	-122.3141	208.736	208.4423	124.5865	18.33	13.79447	100	0	42	0.09714988	0.3442574	-175.3504	
12:44:31	47.45419	-122.3141	208.974	208.7031	126.5739	18.28	13.79447	100	0	42	0.08079179	0.4190633	-175.2098	
12:44:31	47.45413	-122.3141	209.527	208.9704	127.3539	18.18	13.7445	100	0	42	0.09087599	0.4989021	-175.0998	
12:44:32	47.45413	-122.3141	209.527	209.2852	129.4946	18.18	13.64489	100	0	42	0.2172578	0.5311332	-175.0665	
12:44:32	47.45408	-122.3141	209.953	209.5677	130.9483	18.11	13.64489	100	0	41	0.2350885	0.4504005	-175.0567	
12:44:32	47.45404	-122.3141	210.24	209.904	131.4485	18.06	13.57563	100	0	42	0.1365947	0.4387914	-175.0339	
12:44:32	47.45404	-122.3141	210.24	210.2497	130.3068	18.06	13.52602	100	0	42	0.04026161	0.4425471	-174.9829	
12:44:32	47.45404	-122.3141	210.24	210.5188	128.0283	18.06	13.52602	100	0	42	-0.04337514	0.4538595	-174.9052	
12:44:33	47.45404	-122.3141	210.24	210.7318	123.1101	18.06	13.52602	100	0	41	-0.1264583	0.4652515	-174.8126	
12:44:33	47.45404	-122.3141	210.24	210.8799	116.8542	18.06	13.52602	100	0	42	-0.2094303	0.4768108	-174.7088	
12:44:33	47.45398	-122.3141	210.624	211.0119	107.3996	17.99	13.52602	100	0	41	-0.1646966	0.4275043	-174.6047	
12:44:33	47.45384	-122.3141	211.596	211.1314	98.71895	17.86	13.4572	100	0	42	0.03576868	0.4233476	-174.6033	
12:44:33	47.45381	-122.3141	211.737	211.3819	98.23043	17.84	13.33022	100	0	42	0.1847281	0.4743745	-174.6372	
12:44:34	47.45377	-122.3141	211.928	211.625	98.31754	17.82	13.31161	100	0	42	0.1531882	0.4774342	-174.5	
12:44:34	47.45374	-122.3141	212.138	211.8521	98.59163	17.81	13.29259	100	0	42	0.1870189	0.4548517	-174.2794	
12:44:34	47.45374	-122.3141	212.138	212.0588	97.27331	17.81	13.28409	100	0	42	0.2051035	0.423073	-174.0775	
12:44:34	47.45374	-122.3141	212.138	212.2337	95.77597	17.81	13.28409	100	0	42	0.1977342	0.3771978	-173.9075	
12:44:34	47.45374	-122.3141	212.138	212.4036	91.60825	17.81	13.28409	100	0	41	0.1903559	0.3315235	-173.7238	
12:44:35	47.45374	-122.3141	212.138	212.5183	86.21513	17.81	13.28409	100	0	42	0.1828133	0.2853814	-173.5275	
12:44:35	47.45366	-122.3141	212.62	212.5948	80.25282	17.78	13.28409	100	0	42	0.1909566	0.2360768	-173.3301	
12:44:35	47.45354	-122.3141	213.265	212.7039	74.35308	17.78	13.2573	100	0	42	-7.074826	0.2188366	-173.5207	
12:44:35	47.45354	-122.3141	213.265	212.8733	72.14442	17.78	13.25515	100	0	42	-18.32949	0.1807638	-174.2314	
12:44:35	47.45349	-122.3141	213.502	213.0837	65.36684	17.77	13.25515	100	0	42	-29.33083	-0.06327085	-175.8733	
12:44:36	47.45346	-122.3141	213.654	213.254	45.58384	17.78	13.24325	100	0	42	-36.95844	-0.5314902	-178.8336	
12:44:36	47.45346	-122.3141	213.654	213.3884	13.78832	17.78	13.24478	100	0	42	-41.59492	-1.023173	176.6307	
12:44:36	47.45346	-122.3141	213.654	213.4502	-11.43444	17.78	13.24478	100	0	41	-45.34522	-1.66977	171.6927	
12:44:36	47.45346	-122.3141	213.654	213.4588	-45.3447	17.78	13.24478	100	0	42	-49.0448	-2.639132	166.7807	
12:44:36	47.45346	-122.3141	213.654	213.3941	-88.73227	17.78	13.24478	100	0	42	-52.65052	-3.9179	161.9357	
12:44:37	47.45339	-122.3141	213.78	213.2338	-146.9904	17.84	13.24478	100	0	41	-54.69609	-4.517468	155.5365	
12:44:37	47.45327	-122.314	213.601	213.0365	-168.5026	17.91	13.29838	100	0	41	-51.94336	-3.193337	145.5528	
12:44:37	47.45324	-122.314	213.435	212.8453	-139.6313	17.92	13.96426	100	0	42	-49.52631	-0.6659144	133.9624	
12:44:37	47.45324	-122.314	213.435	212.7851	-64.61245	17.92	14.32973	100	0	42	-47.42287	2.422057	123.4707	
12:44:37	47.4532	-122.314	213.422	212.8922	35.63285	17.72	14.73203	100	0	42	-45.94975	4.965316	115.11	
12:44:38	47.45319	-122.3139	213.389	213.1261	102.6532	17.39	14.81711	100	0	42	-46.32343	5.907764	108.0418	
12:44:38	47.45319	-122.3139	213.389	213.4038	134.6233	17.39	15.27136	100	0	42	-46.60176	6.519747	101.4438	
12:44:38	47.45319	-122.3139	213.389	213.6678	153.5534	17.39	15.27136	100	0	42	-46.95104	7.100194	94.80344	
12:44:38	47.45319	-122.3139	213.389	213.9149	168.4305	17.39	15.27136	100	0	42	-47.36356	7.635162	88.18569	
12:44:38	47.45316	-122.3139	213.847	214.1179	178.1963	16.76	15.27136	100	0	42	-47.60085	7.151215	81.30064	
12:44:39	47.45316	-122.3139	213.847	214.3641	160.0667	16.76	16.41815	100	0	42	-46.42407	6.059575	74.7524	
12:44:39	47.45317	-122.3137	214.486	214.6072	124.7089	16.44	16.32214	100	0	42	-45.49002	4.887136	68.74948	
12:44:39	47.45319	-122.3136	214.48	214.7875	91.12933	16.52	17.59077	100	0	41	-45.6925	3.54416	62.88499	
12:44:39	47.45321	-122.3136	214.346	214.8672	58.76927	16.62	18.80219	100	0	42	-45.2552	2.439854	57.06232	
12:44:39	47.45324	-122.3135	214.004	214.8547	23.23311	16.84	19.20657	100	0	42	-44.2738	1.516038	51.15929	
12:44:40	47.45324	-122.3135	214.004	214.7264	-13.11394	16.84	19.89771	100	0	42	-43.51056	0.8302779	45.14802	
12:44:40	47.45324	-122.3135	214.004	214.5647	-36.11342	16.84	19.89771	100	0	41	-42.70196	0.2907327	39.15468	
12:44:40	47.45324	-122.3135	214.004	214.3733	-58.06967	16.84	19.89771	100	0	42	-41.83892	-0.1392533	33.15065	
12:44:40	47.45325	-122.3135	213.71	214.1609	-77.40567	17.01	19.89771	100	0	42	-40.53219	-0.1541587	27.40593	
12:44:40	47.45335	-122.3134	212.244	213.946	-83.89511	17.82	20.24031	100	0	42	-37.34691	0.4939688	22.09446	
12:44:41	47.45338	-122.3134	211.884	213.6818	-78.81914	18.04	21.0243	100	0	42	-34.14449	0.5927947	17.02565	
12:44:41	47.45343	-122.3134	211.27	213.2754	-69.43164	18.39	21.30701	100	0	42	-29.71424	1.083383	12.55453	
12:44:41	47.45343	-122.3134	211.27	212.9043	-54.27636	18.39	22.15344	100	0	42	-25.02623	1.588905	8.84837	
12:44:41	47.45347	-122.3134	210.944	212.5478	-36.52878	18.59	22.15344	100	0	42	-18.0981	2.448668	5.995452	
12:44:41	47.45347	-122.3134	210.944	212.2366	-14.4617	18.59	22.33653	100	0	41	-11.95683	3.318737	3.747366	
12:44:42	47.45347	-122.3134	210.944	211.9269	14.55026	18.59	22.33653	100	0	42	-5.963871	4.421548	1.708481	
12:44:42	47.45347	-122.3134	210.944	211.7694	45.43022	18.59	22.33653	100	0	42	-0.0272967	5.726398	-0.1352645	
12:44:42	47.45354	-122.3134	210.543	211.6894	82.97804	18.91	22.33653	100	0	41	5.243933	6.577772	-0.2130156	
12:44:42	47.45365	-122.3134	210.635	211.646	102.0796	19.06	22.58022	100	0	42	6.351861	6.53515	0.298901	
12:44:43	47.45367	-122.3134	210.729	211.6555	105.1709	19.05	22.5087	100	0	42	5.726152	5.684733	0.9203885	
12:44:43	47.45372	-122.3134	211.045	211.6554	80.44101	19.03	22.49507	100	0	42	5.335618	4.738874	1.554693	
12:44:43	47.45376	-122.3134	211.254	211.6472	52.57011	19.05	22.49013	100	0	41	5.209138	3.966575	2.100378	
12:44:43	47.45379	-122.3134	211.393	211.6373	29.30968	19.09	22.52234	100	0	41	4.716483	3.394501	2.503254	
12:44:43	47.45379	-122.3134	211.393	211.6032	11.25055	19.09	22.56696	100	0	41	4.105732	2.873948	2.897659	
12:44:44	47.45379	-122.3134	211.393	211.5497	-4.429518	19.09	22.56696	100	0	42	3.496115	2.358157	3.326122	
12:44:44	47.45383	-122.3134	211.502	211.4624	-22.54158	19.13	22.56696	100	0	42	2.988376	2.015326	3.668838	
12:44:44	47.45393	-122.3134	211.731	211.4162	-27.51392	19.29	22.62234	100	0	42	2.89815	1.862891	3.925239	
12:44:44	47.45397	-122.3134	211.799	211.4142	-24.18316	19.35	22.79574	100	0	42	3.165176	1.869537	4.205225	
12:44:44	47.454	-122.3134	211.863	211.4424	-13.90073	19.4	22.86519	100	0	42	3.287237	1.991627	4.481133	
12:44:45	47.45404	-122.3134	211.935	211.4967	-1.220875	19.42	22.91541	100	0	42	3.288297	2.106705	4.70084	
12:44:45	47.45404	-122.3134	211.935	211.5706	9.741732	19.42	22.94645	100	0	41	3.177575	2.196148	4.901916	
12:44:45	47.45404	-122.3134	211.935	211.6659	20.51425	19.42	22.94645	100	0	41	3.078244	2.27918	5.168187	
12:44:45	47.45404	-122.3134	211.935	211.7726	31.12961	19.42	22.94645	100	0	42	2.981825	2.35958	5.483518	
12:44:45	47.45404	-122.3134	211.935	211.8682	39.67859	19.42	22.94645	100	0	42	2.886935	2.438987	5.837862	
12:44:46	47.45404	-122.3134	211.935	211.9522	46.53794	19.42	22.94645	100	0	42	2.794186	2.517213	6.217854	
12:44:46	47.45407	-122.3134	212.03	212.0411	53.17689	19.45	22.94645	100	0	42	2.702856	2.595074	6.618054	
12:44:46	47.45407	-122.3134	212.03	212.1124	57.85231	19.45	22.97851	100	0	42	2.468948	2.633654	6.814725	
12:44:46	47.45431	-122.3134	213.067	212.2154	61.47314	19.37	22.97851	100	0	41	2.758503	2.451201	7.038722	
12:44:46	47.45434	-122.3134	213.272	212.4694	68.96849	19.33	22.93044	100	0	42	2.87543	2.187618	7.243024	
12:44:47	47.45438	-122.3134	213.479	212.7646	70.12434	19.31	22.89748	100	0	41	2.668599	1.932653	7.390107	
12:44:47	47.45441	-122.3134	213.675	213.0127	69.29571	19.29	22.87515	100	0	42	2.401936	1.720621	7.548828	
12:44:47	47.45444	-122.3134	213.871	213.2331	69.03255	19.28	22.86272	100	0	42	2.145233	1.576893	7.693395	
12:44:47	47.4545	-122.3134	214.137	213.473	70.35529	19.27	22.85085	100	0	41	1.920139	1.494365	7.822447	
12:44:47	47.45451	-122.3134	214.229	213.7356	73.84724	19.26	22.84277	100	0	42	1.755824	1.432814	7.987686	
12:44:48	47.45456	-122.3134	214.469	213.9553	76.8606	19.25	22.83697	100	0	42	1.663245	1.395451	8.095653	
12:44:48	47.4546	-122.3134	214.626	214.1633	79.46416	19.24	22.82841	100	0	41	1.60423	1.35429	8.176575	
12:44:48	47.45463	-122.3134	214.788	214.3798	82.40919	19.23	22.82582	100	0	42	1.576921	1.302551	8.263807	
12:44:48	47.45467	-122.3134	214.946	214.5863	84.17613	19.22	22.81356	100	0	41	1.487255	1.236147	8.303652	
12:44:48	47.4547	-122.3134	215.115	214.776	85.22707	19.21	22.81153	100	0	41	1.313626	1.166497	8.356659	
12:44:49	47.45473	-122.3134	215.271	214.9782	85.79781	19.21	22.79985	100	0	42	1.119467	1.10895	8.495158	
12:44:49	47.45473	-122.3134	215.271	215.1869	85.63012	19.21	22.79733	100	0	42	1.019949	1.052833	8.686444	
12:44:49	47.45473	-122.3134	215.271	215.3605	84.75732	19.21	22.79733	100	0	42	0.9206122	0.9959486	8.927312	
12:44:49	47.45473	-122.3134	215.271	215.4977	82.07826	19.21	22.79733	100	0	42	0.8216441	0.9389351	9.204272	
12:44:49	47.45473	-122.3134	215.271	215.6037	78.00626	19.21	22.79733	100	0	42	0.723314	0.8823267	9.506219	
12:44:50	47.45479	-122.3134	215.527	215.6815	72.90452	19.19	22.79733	100	0	42	0.6504908	0.8696975	9.60569	
12:44:50	47.45479	-122.3134	215.527	215.7679	70.83533	19.19	22.78842	100	0	42	0.6266153	0.8619371	9.547675	
12:44:50	47.45494	-122.3134	216.265	215.8591	68.55238	19.13	22.78842	100	0	42	0.6670703	0.8685638	9.501674	
12:44:50	47.45501	-122.3133	216.618	216.0366	70.66093	19.11	22.73341	100	0	41	0.7934899	0.9035236	9.420485	
12:44:50	47.45504	-122.3133	216.769	216.2566	74.7025	19.1	22.71167	100	0	42	0.785094	0.9197237	9.472025	
12:44:51	47.45504	-122.3133	216.769	216.444	77.63013	19.1	22.70115	100	0	42	0.6430753	0.91866	9.637737	
12:44:51	47.45508	-122.3133	216.947	216.6372	78.85646	19.08	22.70115	100	0	41	0.539829	0.9098808	9.823313	
12:44:51	47.45515	-122.3133	217.252	216.8052	78.73735	19.04	22.68095	100	0	42	0.640669	0.8739313	9.776605	
12:44:51	47.45518	-122.3133	217.426	216.9779	78.47391	19.03	22.39334	100	0	41	0.793644	0.8539857	9.629215	
12:44:51	47.45523	-122.3133	217.655	217.1946	78.87002	19.02	22.37673	100	0	42	0.757043	0.8408296	9.565806	
12:44:52	47.45527	-122.3133	217.798	217.3832	79.04917	19.02	22.37496	100	0	42	0.7258096	0.8468107	9.671176	
12:44:52	47.4553	-122.3133	217.937	217.5651	80.54322	19.01	22.37432	100	0	41	0.7196042	0.8480151	9.815825	
12:44:52	47.4553	-122.3133	217.937	217.7548	81.63164	19.01	22.36397	100	0	42	0.745718	0.8380924	9.946463	
12:44:52	47.4553	-122.3133	217.937	217.9259	80.62588	19.01	22.36397	100	0	41	0.773495	0.8282927	10.12504	
12:44:52	47.45533	-122.3133	218.099	218.0484	78.04439	19	22.36397	100	0	42	0.7672307	0.8017381	10.24642	
12:44:53	47.45533	-122.3133	218.099	218.167	75.46102	19	22.35702	100	0	42	0.7336819	0.7452236	10.28366	
12:44:53	47.45543	-122.3133	218.504	218.307	72.86868	18.98	22.35702	100	0	42	0.7626517	0.6906825	10.50565	
12:44:53	47.45547	-122.3132	218.736	218.5026	72.09231	18.97	22.33283	100	0	42	0.9168646	0.6537394	10.67817	
12:44:53	47.45551	-122.3132	218.883	218.6789	71.61033	18.96	22.3224	100	0	42	0.9469238	0.6103031	10.7688	
12:44:53	47.45551	-122.3132	218.883	218.8275	70.73449	18.96	22.31698	100	0	42	0.9027101	0.5893341	10.82633	
12:44:54	47.45554	-122.3132	219.008	218.9789	68.84363	18.95	22.31698	100	0	42	0.8243991	0.554741	10.91805	
12:44:54	47.45563	-122.3132	219.377	219.1045	66.52834	18.95	22.31185	100	0	42	0.7175866	0.5118437	11.03658	
12:44:54	47.45563	-122.3132	219.377	219.2083	64.01929	18.95	22.31211	100	0	42	0.8250126	0.5132477	11.17391	
12:44:54	47.45563	-122.3132	219.377	219.3562	63.9912	18.95	22.31211	100	0	42	0.9215984	0.5219829	11.33745	
12:44:54	47.45567	-122.3132	219.544	219.4881	62.40047	18.96	22.31211	100	0	42	0.993754	0.5520408	11.52377	
12:44:55	47.45578	-122.3132	219.91	219.5822	61.76103	18.94	22.3238	100	0	42	1.018348	0.6426674	11.64355	
12:44:55	47.45581	-122.3131	220.04	219.7066	64.21828	18.93	22.30405	100	0	41	1.113354	0.7050124	11.66299	
12:44:55	47.45584	-122.3131	220.178	219.8665	66.23967	18.93	22.28945	100	0	42	0.9317673	0.7291885	11.74583	
12:44:55	47.45587	-122.3131	220.309	220.0463	66.82761	18.91	22.28702	100	0	42	0.8156235	0.7452183	11.92205	
12:44:55	47.4559	-122.3131	220.438	220.1868	66.64787	18.9	22.27076	100	0	42	0.6809205	0.7587293	12.09095	
12:44:56	47.4559	-122.3131	220.438	220.3336	66.09648	18.9	22.26223	100	0	42	0.5535764	0.7408652	12.17056	
12:44:56	47.4559	-122.3131	220.438	220.4719	64.50874	18.9	22.26223	100	0	41	0.4264529	0.7198074	12.25142	
12:44:56	47.45593	-122.3131	220.575	220.5915	61.15481	18.9	22.26223	100	0	42	0.2682069	0.6929616	12.32341	
12:44:56	47.45604	-122.3131	221.038	220.6898	57.30003	18.89	22.2583	100	0	42	0.07990197	0.6657963	12.38647	
12:44:56	47.45604	-122.3131	221.038	220.7813	54.33503	18.89	22.24835	100	0	42	0.1643958	0.6807528	12.51211	
12:44:57	47.45607	-122.3131	221.102	220.9431	55.14092	18.88	22.24835	100	0	42	0.3121702	0.6989391	12.64541	
12:44:57	47.45613	-122.313	221.352	221.0673	54.71381	18.89	22.2456	100	0	41	0.3669698	0.7191136	12.72948	
12:44:57	47.45617	-122.313	221.514	221.1757	54.26232	18.9	22.25467	100	0	41	0.3691877	0.6984775	12.68953	
12:44:57	47.4562	-122.313	221.594	221.324	54.14559	18.89	22.25685	100	0	41	0.3129919	0.661636	12.74073	
12:44:57	47.45625	-122.313	221.791	221.447	53.51306	18.89	22.24943	100	0	42	0.2926971	0.6409897	12.90758	
12:44:58	47.45628	-122.313	221.88	221.5794	51.80834	18.9	22.25184	100	0	42	0.3527711	0.6368609	13.05347	
12:44:58	47.45628	-122.313	221.88	221.6833	50.16589	18.9	22.26407	100	0	42	0.3523781	0.6163155	13.11797	
12:44:58	47.45631	-122.313	222.031	221.8104	50.08733	18.9	22.26407	100	0	41	0.2591824	0.590839	13.15701	
12:44:58	47.45634	-122.313	222.144	221.9437	50.06673	18.91	22.26423	100	0	42	0.1857915	0.5833243	13.21591	
12:44:58	47.45638	-122.313	222.262	222.0665	49.66356	18.92	22.26697	100	0	42	0.1428894	0.591311	13.30344	
12:44:59	47.45641	-122.3129	222.33	222.1854	49.5641	18.93	22.27698	100	0	42	0.1235241	0.6001773	13.46656	
12:44:59	47.45644	-122.3129	222.439	222.3012	49.6817	18.93	22.28706	100	0	42	0.1269266	0.581701	13.64701	
12:44:59	47.4565	-122.3129	222.605	222.4041	48.82041	18.94	22.28499	100	0	42	0.1957461	0.593606	13.66182	
12:44:59	47.45653	-122.3129	222.797	222.5099	48.07615	18.94	22.30033	100	0	41	0.2443875	0.5765638	13.64882	
12:44:59	47.45657	-122.3129	222.795	222.6239	47.89458	18.96	22.30356	100	0	42	0.1700161	0.5600052	13.72102	
12:45:00	47.4566	-122.3129	222.975	222.7355	47.69389	18.96	22.31395	100	0	41	0.1268248	0.5594597	13.8602	
12:45:00	47.4566	-122.3129	222.975	222.8426	46.71947	18.96	22.32179	100	0	42	0.1156906	0.5901642	14.03583	
12:45:00	47.45665	-122.3128	223.092	222.9426	46.40232	18.98	22.32179	100	0	42	0.1398589	0.6448323	14.14378	
12:45:00	47.45668	-122.3128	223.127	223.0458	47.10036	18.99	22.33494	100	0	42	0.1308339	0.6638664	14.23557	
12:45:00	47.45673	-122.3128	223.358	223.1541	46.29554	18.99	22.34553	100	0	42	0.1356489	0.6935766	14.33144	
12:45:01	47.45676	-122.3128	223.417	223.2448	46.05499	19.01	22.35191	100	0	41	0.09615263	0.7422215	14.41093	
12:45:01	47.45676	-122.3128	223.417	223.3669	46.90038	19.01	22.36267	100	0	41	0.06420453	0.7231905	14.46301	
12:45:01	47.45676	-122.3128	223.417	223.4612	45.96264	19.01	22.36267	100	0	42	0.05307768	0.6819785	14.50605	
12:45:01	47.45676	-122.3128	223.417	223.5294	44.07716	19.01	22.36267	100	0	41	0.0418478	0.6407795	14.54284	
12:45:01	47.45679	-122.3128	223.514	223.5872	41.25348	19.01	22.36267	100	0	42	0.08292671	0.666725	14.63728	
12:45:02	47.45679	-122.3128	223.514	223.6487	39.54379	19.01	22.36388	100	0	41	0.1266401	0.7172757	14.7438	
12:45:02	47.45692	-122.3127	223.941	223.6915	38.4119	19.03	22.36388	100	0	41	0.1675242	0.7933282	14.82272	
12:45:02	47.45697	-122.3127	224.064	223.8066	40.67624	19.04	22.38994	100	0	42	0.2364075	0.8288726	14.90432	
12:45:02	47.45701	-122.3127	224.153	223.9154	42.73304	19.04	22.39025	100	0	42	0.2720756	0.8017344	15.05779	
12:45:02	47.45705	-122.3127	224.29	224.0358	42.41317	19.05	22.39472	100	0	42	0.3077029	0.7461559	15.22289	
12:45:03	47.45705	-122.3127	224.29	224.132	40.82763	19.05	22.39931	100	0	42	0.325902	0.7129967	15.34916	
12:45:03	47.45708	-122.3126	224.38	224.2437	39.03391	19.05	22.39931	100	0	42	0.3164674	0.693506	15.48403	
12:45:03	47.45713	-122.3126	224.487	224.3465	38.35707	19.06	22.40115	100	0	42	0.3254291	0.6834314	15.55848	
12:45:03	47.45716	-122.3126	224.658	224.448	37.9589	19.07	22.41172	100	0	41	0.3056365	0.6555499	15.59941	
12:45:03	47.45719	-122.3126	224.691	224.5475	37.77763	19.08	22.42624	100	0	41	0.253801	0.6578487	15.70329	
12:45:04	47.45724	-122.3126	224.78	224.6443	37.3638	19.1	22.42838	100	0	41	0.2178316	0.6393102	15.89365	
12:45:04	47.45727	-122.3126	224.866	224.7329	36.64161	19.11	22.44604	100	0	42	0.2369035	0.6224144	16.11616	
12:45:04	47.4573	-122.3125	224.947	224.8196	35.88966	19.12	22.4579	100	0	41	0.2769718	0.5924662	16.32062	
12:45:04	47.45735	-122.3125	224.993	224.9068	34.29318	19.14	22.46982	100	0	41	0.3061593	0.5622571	16.42501	
12:45:04	47.45739	-122.3125	225.132	224.9802	32.39259	19.16	22.49084	100	0	41	0.3319936	0.5496361	16.42477	
12:45:05	47.45742	-122.3125	225.227	225.0457	31.17387	19.17	22.50598	100	0	41	0.2384319	0.5282858	16.48072	
12:45:05	47.45745	-122.3125	225.283	225.1217	30.22525	19.19	22.52122	100	0	42	0.1852244	0.5289255	16.63046	
12:45:05	47.45749	-122.3124	225.348	225.19	30.03895	19.2	22.53348	100	0	41	0.1636017	0.5642046	16.84953	
12:45:05	47.45749	-122.3124	225.348	225.271	30.09698	19.2	22.54581	100	0	42	0.1715369	0.5721228	17.0768	
12:45:05	47.45753	-122.3124	225.411	225.3357	29.5743	19.22	22.54581	100	0	42	0.1905542	0.5900649	17.20004	
12:45:06	47.45757	-122.3124	225.43	225.4033	28.56979	19.23	22.56131	100	0	41	0.2138415	0.6783482	17.25086	
12:45:06	47.4576	-122.3124	225.519	225.4617	29.35742	19.25	22.57691	100	0	42	0.1937782	0.7452366	17.32502	
12:45:06	47.45763	-122.3124	225.613	225.523	30.26722	19.26	22.58946	100	0	42	0.1998685	0.7678473	17.46745	
12:45:06	47.45768	-122.3123	225.622	225.5938	30.34047	19.29	22.60207	100	0	41	0.2055119	0.7658773	17.67353	
12:45:06	47.45771	-122.3123	225.734	225.6481	29.31601	19.3	22.62741	100	0	42	0.2287654	0.7554129	17.88617	
12:45:07	47.45774	-122.3123	225.751	225.6978	27.60695	19.32	22.64336	100	0	41	0.2548531	0.7398428	18.05433	
12:45:07	47.45778	-122.3123	225.909	225.7598	25.81207	19.32	22.65619	100	0	42	0.2942364	0.7282728	18.12486	
12:45:07	47.45782	-122.3123	225.922	225.804	23.68453	19.34	22.66286	100	0	40	0.2998224	0.7327559	18.18414	
12:45:07	47.45786	-122.3122	225.923	225.8622	22.87137	19.36	22.6791	100	0	42	0.2882682	0.7285172	18.30798	
12:45:08	47.45786	-122.3122	225.923	225.9155	22.15648	19.36	22.69871	100	0	42	0.2880188	0.7095711	18.48441	
12:45:08	47.45789	-122.3122	226.022	225.9561	20.67364	19.37	22.69871	100	0	42	0.3072421	0.6608639	18.694	
12:45:08	47.45792	-122.3122	226.103	226.0009	18.97831	19.39	22.70857	100	0	42	0.3661533	0.5979837	18.8693	
12:45:08	47.45796	-122.3122	226.097	226.057	16.37294	19.41	22.7312	100	0	42	0.4221083	0.58972	18.99352	
12:45:08	47.458	-122.3122	226.163	226.0932	15.04229	19.44	22.74779	100	0	42	0.3901646	0.6005023	19.091	
12:45:08	47.45803	-122.3122	226.101	226.1281	14.94222	19.46	22.77724	100	0	42	0.3171411	0.6201918	19.18359	
12:45:09	47.45806	-122.3121	226.192	226.1561	14.67586	19.48	22.79403	100	0	41	0.392046	0.6467203	19.32868	
12:45:09	47.45811	-122.3121	226.291	226.1798	14.27629	19.51	22.81693	100	0	42	0.4130797	0.6412875	19.53139	
12:45:09	47.45815	-122.3121	226.243	226.2145	13.7178	19.53	22.8407	100	0	42	0.4079913	0.6736397	19.71589	
12:45:09	47.45818	-122.3121	226.317	226.2542	14.37737	19.55	22.86376	100	0	42	0.3433036	0.7023191	19.79711	
12:45:10	47.45823	-122.312	226.391	226.2781	14.65967	19.58	22.88093	100	0	41	0.2393584	0.7035419	19.93194	
12:45:10	47.45823	-122.312	226.391	226.3112	14.25099	19.58	22.90512	100	0	42	0.2063708	0.7233739	20.06578	
12:45:10	47.45826	-122.312	226.384	226.3433	14.6717	19.59	22.90512	100	0	42	0.2296769	0.7468876	20.22092	
12:45:10	47.45829	-122.312	226.441	226.381	14.90739	19.62	22.91902	100	0	80	-1.07181	0.7605625	20.37374	
12:45:10	47.45832	-122.312	226.414	226.4194	16.39696	19.63	22.94236	100	0	50	-3.576173	0.5119363	20.38316	
12:45:11	47.45835	-122.312	226.474	226.4466	10.17352	19.65	22.95638	100	0	47	-5.076621	0.02171236	20.20235	
12:45:11	47.45839	-122.312	226.523	226.4527	-5.143062	19.75	22.9763	100	0	43	-6.060137	-0.6046079	19.87443	
12:45:11	47.45844	-122.3119	226.511	226.4304	-26.06787	19.98	23.07928	100	0	39	-6.805875	-1.33113	19.50906	
12:45:11	47.45844	-122.3119	226.511	226.376	-51.05966	19.98	23.31406	100	0	36	-7.303665	-2.48402	19.12678	
12:45:11	47.45851	-122.3119	226.444	226.2876	-82.50703	20.21	23.31406	100	0	31	-7.600704	-3.912156	18.78792	
12:45:12	47.45854	-122.3118	226.212	226.133	-125.2814	20.27	23.54156	100	0	26	-7.734364	-5.465868	18.45765	
12:45:12	47.45854	-122.3118	226.212	225.8729	-181.0272	20.27	23.61208	100	0	21	-7.680379	-7.045862	18.12587	
12:45:12	47.45857	-122.3118	225.978	225.5894	-226.539	20.32	23.61208	100	0	18	-7.436756	-8.767998	17.81428	
12:45:12	47.45861	-122.3118	225.503	225.186	-282.555	20.35	23.66169	100	0	14	-7.134272	-10.61966	17.53987	
12:45:12	47.45869	-122.3118	224.133	224.6046	-349.396	20.33	23.69311	100	0	10	-6.796061	-12.50151	17.28472	
12:45:13	47.45873	-122.3118	223.373	224.0879	-402.1841	20.31	23.68332	100	0	7	-6.489698	-14.283	17.01267	
12:45:13	47.45873	-122.3118	223.373	223.2007	-471.2458	20.31	23.65996	100	0	5	-6.145083	-15.9548	16.72364	
12:45:13	47.45876	-122.3117	222.381	222.308	-528.4789	20.3	23.65996	100	0	4	-5.799541	-17.4572	16.45944	
12:45:13	47.45879	-122.3117	221.437	221.4321	-574.1115	20.3	23.64665	100	0	4	-5.426733	-18.68066	16.14837	
12:45:13	47.45885	-122.3117	219.672	220.41	-615.7023	20.35	22.81843	100	0	4	-5.089162	-19.69704	15.78427	
12:45:14	47.45888	-122.3117	218.398	219.1018	-659.7739	20.42	22.86698	100	0	4	-4.888523	-20.41883	15.398	
12:45:14	47.45888	-122.3117	218.398	217.8917	-686.1624	20.42	22.93337	100	0	4	-4.564741	-20.81302	15.02497	
12:45:14	47.45892	-122.3117	216.973	216.6497	-702.1551	20.54	22.93337	100	0	4	-4.436084	-21.00747	14.73374	
12:45:14	47.45895	-122.3117	215.372	215.3641	-711.9367	20.72	23.05778	100	0	4	-4.426091	-21.06228	14.49491	
12:45:14	47.45899	-122.3116	213.778	214.1002	-722.2323	20.92	23.2377	100	0	4	-4.416677	-21.02949	14.25712	
12:45:15	47.45905	-122.3116	211.452	212.5742	-728.0521	21.26	23.443	100	0	4	-4.387547	-20.97078	13.97704	
12:45:15	47.45908	-122.3116	209.971	211.1445	-738.7021	21.49	23.77884	100	0	5	-4.40853	-20.93721	13.68836	
12:45:15	47.45912	-122.3116	208.304	209.6576	-742.3291	21.72	24.00751	100	0	7	-4.380965	-20.65997	13.37792	
12:45:15	47.45916	-122.3116	206.5	207.861	-747.3736	21.98	24.2367	100	0	10	-4.328857	-20.20395	13.07962	
12:45:15	47.45921	-122.3116	204.937	206.2355	-744.9484	22.22	24.50025	100	0	12	-4.374477	-19.67196	12.81932	
12:45:16	47.45921	-122.3116	204.937	204.7837	-737.1013	22.22	24.73788	100	0	14	-4.410623	-18.96464	12.54607	
12:45:16	47.45928	-122.3115	201.87	203.1733	-717.157	22.73	24.73788	100	0	16	-4.419203	-18.23187	12.2589	
12:45:16	47.45934	-122.3115	199.66	201.6861	-696.8204	23.12	25.25149	100	0	17	-4.519691	-17.48876	11.94878	
12:45:16	47.45937	-122.3115	198.246	200.1705	-682.9058	23.36	25.63785	100	0	20	-4.57348	-16.57246	11.59875	
12:45:16	47.45942	-122.3115	196.769	198.5967	-648.7256	23.66	25.88355	100	0	23	-4.515144	-15.44006	11.23628	
12:45:17	47.45946	-122.3115	195.49	197.2604	-610.6674	23.9	26.1767	100	0	24	-4.503086	-14.39416	10.90189	
12:45:17	47.4595	-122.3114	194.246	195.982	-573.7581	24.15	26.4198	100	0	26	-4.512122	-13.40396	10.57403	
12:45:17	47.45956	-122.3114	192.563	194.8274	-532.9822	24.45	26.6638	100	0	27	-4.451656	-12.4748	10.22311	
12:45:17	47.4596	-122.3114	191.574	193.686	-497.7982	24.61	26.96569	100	0	27	-4.50803	-11.75563	9.901992	
12:45:17	47.4596	-122.3114	191.574	192.5831	-468.7443	24.61	27.12152	100	0	29	-4.496278	-11.05206	9.584631	
12:45:18	47.45965	-122.3114	190.454	191.662	-446.0306	24.76	27.12152	100	0	30	-4.378958	-10.36686	9.280098	
12:45:18	47.45965	-122.3114	190.454	190.5871	-419.4535	24.76	27.27263	100	0	30	-4.224024	-9.711892	8.98611	
12:45:18	47.45974	-122.3114	188.605	189.8213	-388.1702	24.96	27.27263	100	0	31	-4.094128	-9.124233	8.691762	
12:45:18	47.45979	-122.3114	187.807	188.9669	-373.0197	25.02	27.47302	100	0	31	-3.904557	-8.649455	8.412487	
12:45:18	47.45984	-122.3114	187.022	188.127	-356.5475	25.06	27.53171	100	0	31	-3.522256	-8.295126	8.177298	
12:45:19	47.45984	-122.3114	187.022	187.3249	-345.6784	25.06	27.57129	100	0	32	-3.345313	-8.062689	7.971422	
12:45:19	47.4599	-122.3114	186.074	186.5909	-333.2324	25.08	27.57129	100	0	32	-3.174336	-7.902404	7.785266	
12:45:19	47.45999	-122.3113	184.927	185.8517	-330.3952	25.06	27.36093	100	0	31	-3.012197	-7.83413	7.624982	
12:45:19	47.46003	-122.3113	184.475	185.0964	-331.7399	25.05	27.34245	100	0	31	-2.802678	-7.876934	7.493887	
12:45:19	47.4601	-122.3113	183.693	184.4987	-333.066	24.99	27.32049	100	0	31	-2.526634	-8.040457	7.362991	
12:45:20	47.4601	-122.3113	183.693	183.7927	-338.8597	24.99	27.26237	100	0	30	-2.346496	-8.188302	7.258493	
12:45:20	47.46014	-122.3113	183.212	183.0939	-347.4632	24.95	27.26237	100	0	30	-2.15595	-8.373523	7.174363	
12:45:20	47.46018	-122.3113	182.708	182.4554	-352.3509	24.92	27.22443	100	0	30	-2.096855	-8.581777	7.112277	
12:45:20	47.46023	-122.3113	182.14	181.9016	-356.0728	24.88	27.18656	100	0	29	-1.995574	-8.797796	7.051612	
12:45:20	47.46027	-122.3113	181.597	181.2256	-360.3115	24.85	27.1504	100	0	29	-1.858087	-9.018805	6.99355	
12:45:21	47.46027	-122.3113	181.597	180.6253	-362.622	24.85	27.11428	100	0	28	-1.730871	-9.241845	6.949067	
12:45:21	47.46038	-122.3113	180.095	180.1402	-359.2654	24.79	27.11428	100	0	28	-1.635139	-9.47702	6.915948	
12:45:21	47.46043	-122.3112	179.5	179.4497	-367.6178	24.77	27.05365	100	0	27	-1.878646	-9.731042	6.880206	
12:45:21	47.46048	-122.3112	178.867	178.858	-373.3276	24.75	27.03071	100	0	27	-2.170558	-10.00485	6.843097	
12:45:21	47.46048	-122.3112	178.867	178.1156	-381.4873	24.75	27.00937	100	0	27	-2.445643	-10.28881	6.794269	
12:45:22	47.46053	-122.3112	177.908	177.4531	-388.2096	24.72	27.00937	100	0	26	-2.64432	-10.57332	6.712497	
12:45:22	47.46062	-122.3112	176.488	176.8239	-394.1438	24.69	26.98327	100	0	26	-2.821541	-10.81322	6.604634	
12:45:22	47.46067	-122.3112	175.758	176.1063	-401.6304	24.69	26.95255	100	0	26	-3.112057	-11.03724	6.483572	
12:45:22	47.46073	-122.3112	174.628	175.4044	-405.8949	24.69	26.94635	100	0	26	-3.540785	-11.22206	6.354038	
12:45:22	47.46078	-122.3112	173.772	174.7149	-407.7889	24.7	26.94402	100	0	25	-3.884046	-11.40458	6.21371	
12:45:23	47.46078	-122.3112	173.772	173.8743	-413.7545	24.7	26.95331	100	0	25	-4.198099	-11.60841	6.032487	
12:45:23	47.46082	-122.3112	172.994	173.1197	-418.6532	24.71	26.95331	100	0	25	-4.555944	-11.78441	5.805969	
12:45:23	47.46087	-122.3112	172.136	172.3179	-424.5004	24.72	26.96133	100	0	25	-4.846824	-11.90811	5.540185	
12:45:23	47.46091	-122.3112	171.232	171.5519	-425.8698	24.73	26.9696	100	0	25	-5.08939	-11.97177	5.259767	
12:45:23	47.46097	-122.3112	170.002	170.7	-428.4757	24.77	26.97396	100	0	24	-5.2168	-12.01298	4.966912	
12:45:24	47.46102	-122.3111	169.029	169.843	-431.1823	24.8	27.00184	100	0	24	-5.420799	-12.10287	4.673295	
12:45:24	47.46107	-122.3111	168.11	169.1207	-431.2302	24.83	27.03327	100	0	24	-5.521855	-12.20447	4.364331	
12:45:24	47.46107	-122.3111	168.11	168.1983	-438.024	24.83	27.05677	100	0	24	-5.588303	-12.25841	4.040829	
12:45:24	47.46111	-122.3111	167.202	167.3051	-442.1137	24.86	27.05677	100	0	25	-5.672907	-12.31846	3.701025	
12:45:24	47.46115	-122.3111	166.344	166.4471	-443.029	24.89	27.07976	100	0	25	-5.715509	-12.38504	3.371011	
12:45:25	47.46122	-122.3111	164.991	165.5355	-443.3089	24.94	27.10351	100	0	25	-5.727395	-12.38294	3.030747	
12:45:25	47.46127	-122.3111	163.991	164.6138	-445.8705	24.98	27.14057	100	0	25	-5.678299	-12.35116	2.675252	
12:45:25	47.46133	-122.3111	162.595	163.6855	-445.9355	25.04	27.17422	100	0	25	-5.629105	-12.31018	2.328313	
12:45:25	47.46138	-122.3111	161.704	162.7605	-445.6984	25.09	27.23241	100	0	26	-5.537505	-12.25589	1.99307	
12:45:25	47.46145	-122.3111	160.348	161.9201	-444.9568	25.15	27.27013	100	0	26	-5.25688	-12.17686	1.650666	
12:45:26	47.46149	-122.3111	159.425	161.0544	-439.7255	25.19	27.3224	100	0	26	-4.977449	-12.06128	1.35165	
12:45:26	47.46149	-122.3111	159.425	160.0635	-435.2335	25.19	27.36136	100	0	26	-4.788182	-11.9298	1.05437	
12:45:26	47.46154	-122.3111	158.449	159.2664	-431.3358	25.24	27.36136	100	0	26	-4.637585	-11.8258	0.7708697	
12:45:26	47.46159	-122.3111	157.512	158.3908	-423.1844	25.29	27.40182	100	0	26	-4.419158	-11.71869	0.5047145	
12:45:26	47.46165	-122.3111	156.19	157.4809	-421.1049	25.35	27.44363	100	0	26	-4.181364	-11.65254	0.2522363	
12:45:27	47.4617	-122.3111	155.382	156.6161	-419.719	25.38	27.49335	100	0	27	-4.072751	-11.69341	0.02253204	
12:45:27	47.46175	-122.3111	154.532	155.7064	-427.7135	25.4	27.51768	100	0	27	-3.933788	-11.67551	-0.1912755	
12:45:27	47.46175	-122.3111	154.532	154.6786	-431.4135	25.4	27.53247	100	0	27	-3.750125	-11.61687	-0.381038	
12:45:27	47.46181	-122.3111	153.308	153.7465	-434.0707	25.43	27.53247	100	0	27	-3.533023	-11.54217	-0.5726994	
12:45:27	47.46189	-122.3111	151.961	152.8836	-431.3783	25.48	27.55649	100	0	28	-3.350935	-11.42847	-0.7639759	
12:45:28	47.46194	-122.3111	151.015	152.0986	-423.0848	25.51	27.60121	100	0	28	-3.128212	-11.3357	-0.9372674	
12:45:28	47.46199	-122.3111	150.171	151.2909	-415.6177	25.54	27.62789	100	0	27	-2.970886	-11.26042	-1.078381	
12:45:28	47.46204	-122.3111	149.378	150.3918	-415.2583	25.56	27.65577	100	0	28	-2.745542	-11.23118	-1.20135	
12:45:28	47.46204	-122.3111	149.378	149.5166	-414.8965	25.56	27.67385	100	0	28	-2.537593	-11.22844	-1.316144	
12:45:28	47.46207	-122.3111	148.692	148.7796	-413.7617	25.58	27.67385	100	0	27	-2.435199	-11.20099	-1.420465	
12:45:29	47.46212	-122.3111	147.842	147.8925	-411.2173	25.59	27.69258	100	0	27	-2.295961	-11.16952	-1.51251	
12:45:29	47.46217	-122.3111	147.115	147.1954	-407.3428	25.6	27.70119	100	0	27	-2.098315	-11.17946	-1.595375	
12:45:29	47.46224	-122.3111	145.962	146.3573	-403.4781	25.62	27.71033	100	0	27	-1.910487	-11.22994	-1.660547	
12:45:29	47.46229	-122.3111	145.118	145.5767	-403.2962	25.63	27.71915	100	0	27	-1.740913	-11.30979	-1.708186	
12:45:29	47.46233	-122.3111	144.393	144.8213	-403.3065	25.63	27.72861	100	0	26	-1.534737	-11.41425	-1.740158	
12:45:30	47.46238	-122.3111	143.602	144.0665	-407.891	25.63	27.7281	100	0	26	-1.26518	-11.51046	-1.759361	
12:45:30	47.46238	-122.3111	143.602	143.211	-409.4496	25.63	27.72778	100	0	26	-1.070886	-11.56758	-1.763816	
12:45:30	47.46244	-122.3111	142.389	142.4882	-406.9007	25.63	27.72778	100	0	26	-0.8459539	-11.63515	-1.750151	
12:45:30	47.46249	-122.3111	141.57	141.6662	-409.1689	25.63	27.72763	100	0	25	-0.7188647	-11.71684	-1.721033	
12:45:30	47.46259	-122.3111	139.925	140.9327	-411.5374	25.63	27.72748	100	0	25	-0.6878622	-11.84907	-1.681704	
12:45:31	47.46263	-122.3111	139.159	139.9459	-419.3517	25.63	27.72778	100	0	25	-0.683636	-11.95579	-1.63848	
12:45:31	47.46263	-122.3111	139.159	139.1218	-422.5909	25.63	27.7281	100	0	25	-0.7443396	-12.06358	-1.584608	
12:45:31	47.4627	-122.3111	137.836	138.402	-423.1354	25.62	27.7281	100	0	25	-0.8225713	-12.14504	-1.533736	
12:45:31	47.46275	-122.3111	136.981	137.4271	-429.0104	25.62	27.71844	100	0	25	-0.7840317	-12.20562	-1.499627	
12:45:31	47.46279	-122.3111	136.093	136.6865	-429.4898	25.63	27.71861	100	0	25	-0.6806647	-12.26021	-1.484133	
12:45:32	47.46284	-122.3111	135.146	135.8105	-432.3086	25.64	27.72897	100	0	25	-0.6387494	-12.32605	-1.452321	
12:45:32	47.4629	-122.3111	134.061	134.9474	-430.5775	25.64	27.73915	100	0	25	-0.6163923	-12.34956	-1.394641	
12:45:32	47.46295	-122.3111	133.035	134.0186	-434.7095	25.66	27.74952	100	0	25	-0.6348758	-12.33775	-1.330409	
12:45:32	47.463	-122.3111	132.1	133.1462	-434.7302	25.68	27.76991	100	0	26	-0.6755675	-12.30156	-1.277223	
12:45:32	47.463	-122.3111	132.1	132.3175	-430.3808	25.68	27.79031	100	0	25	-0.7713292	-12.26795	-1.235227	
12:45:33	47.46309	-122.3111	130.347	131.4953	-430.6748	25.72	27.79031	100	0	25	-0.8861718	-12.24413	-1.195487	
12:45:33	47.46309	-122.3111	130.347	130.6061	-431.0976	25.72	27.83094	100	0	25	-0.9712717	-12.30713	-1.159696	
12:45:33	47.46316	-122.3111	129.037	129.6806	-431.6837	25.74	27.83094	100	0	25	-0.9595547	-12.35274	-1.13623	
12:45:33	47.4632	-122.3111	128.197	128.8159	-437.3827	25.75	27.85137	100	0	25	-0.9465984	-12.3722	-1.118411	
12:45:33	47.46325	-122.3111	127.25	127.7806	-441.6795	25.76	27.8616	100	0	25	-0.9723229	-12.36454	-1.094935	
12:45:34	47.46331	-122.3112	126.033	126.8595	-443.6856	25.78	27.87182	100	0	25	-1.054508	-12.31004	-1.06405	
12:45:34	47.46336	-122.3112	125.08	125.933	-442.9834	25.8	27.89228	100	0	25	-1.130673	-12.27906	-1.034403	
12:45:34	47.4634	-122.3112	124.243	125.0185	-442.1904	25.82	27.91252	100	0	26	-0.9667636	-12.28121	-1.027801	
12:45:34	47.4634	-122.3112	124.243	124.2248	-441.7295	25.82	27.93251	100	0	26	-0.800469	-12.28932	-1.03129	
12:45:34	47.4634	-122.3112	124.243	123.3383	-436.3228	25.82	27.93251	100	0	26	-0.6342993	-12.29742	-1.034191	
12:45:35	47.4634	-122.3112	124.243	122.7062	-422.8764	25.82	27.93251	100	0	25	-0.4690423	-12.30547	-1.036653	
12:45:35	47.4634	-122.3112	124.243	122.268	-405.1206	25.82	27.93251	100	0	24	-0.3038508	-12.31351	-1.038806	
12:45:35	47.4634	-122.3112	124.243	121.8763	-378.0695	25.82	27.93251	100	0	23	-0.1387061	-12.32154	-1.040739	
12:45:35	47.4634	-122.3112	124.243	121.6411	-349.723	25.82	27.93251	100	0	21	0.02640553	-12.32956	-1.042516	
