Date	Latitude(deg) 	Longitude(deg)	hamsl(m)	hafl(m)	climbrate(cm/s)	GroundSpeed(m/s)	Airspeed(m/s)	Mav_Link(%)	Rssi_Link(%)	Throttle	Roll(deg)	Pitch(deg)	Yaw(deg)
13:44:07	-6.728572	38.94612	134.431	0	0	0.09	0	100	0	0	10.41189	1.436037	149.6915	
13:44:07	-6.728574	38.94612	134.741	0.248945	-2.387352	0.17	3	100	0	6546	10.39358	1.132489	149.808	
13:44:08	-6.728575	38.94612	134.685	0.1434184	-9.079563	0.32	3	100	0	6546	10.45314	1.043751	149.8911	
13:44:08	-6.728575	38.94612	134.667	-0.03382138	-19.07883	0.18	3	100	0	6546	10.25914	0.8120731	150.0539	
13:44:08	-6.728575	38.94612	134.684	-0.1757421	-25.81394	0.03	3	100	0	6546	10.44957	1.065185	150.24	
13:44:08	-6.728575	38.94612	134.666	-0.2359519	-27.64061	0.13	3	100	0	6546	10.22691	1.055323	150.3643	
13:44:08	-6.728575	38.94612	134.654	-0.288484	-28.77166	0.14	3	100	0	6546	10.20749	1.015605	150.5455	
13:44:09	-6.728576	38.94612	134.624	-0.2264272	-24.16118	0.07	3	100	0	6546	10.34494	1.253823	150.6154	
13:44:09	-6.728576	38.94612	134.603	-0.1547704	-19.59911	0.04	3	100	0	6546	10.26743	1.130273	150.6888	
13:44:09	-6.728576	38.94612	134.642	-0.006886326	-11.40762	0.07	3	100	0	6546	10.28183	1.246755	150.7551	
13:44:09	-6.728576	38.94612	134.588	0.1142285	-5.492364	0.11	3	100	0	6546	10.23949	1.309834	150.9479	
13:44:09	-6.728576	38.94612	134.553	0.2815409	2.762751	0.04	3	100	0	6546	10.24835	1.340141	151.1018	
13:44:09	-6.728576	38.94612	134.612	0.4313901	9.261724	0.24	3	100	0	6546	10.15026	1.255973	151.2709	
13:44:10	-6.728576	38.94612	134.607	0.44057	7.446404	0.07	3	100	0	6547	10.20684	1.478466	151.4027	
13:44:10	-6.728576	38.94612	134.652	0.4441723	5.473925	0.04	3	100	0	6546	10.01217	1.228609	151.5713	
13:44:10	-6.728577	38.94612	134.688	0.4907062	5.944263	0.21	3	100	0	6546	10.15109	1.131665	151.5499	
13:44:11	-6.728577	38.94613	134.683	0.5697465	5.286899	0.07	3	100	0	6546	10.19265	0.969714	151.6472	
13:44:11	-6.728577	38.94613	134.696	0.5844426	4.527216	0.09	3	100	0	6546	10.13575	1.121711	151.7101	
13:44:11	-6.728578	38.94613	134.682	0.5940284	3.62308	0.04	3	100	0	6546	10.12824	1.159646	151.6201	
13:44:11	-6.728579	38.94613	134.583	0.5619758	0.3486868	0.14	3	100	0	6546	10.12665	1.262729	151.7115	
13:44:12	-6.728579	38.94613	134.594	0.5302449	-2.263404	0.03	3	100	0	6546	10.07552	1.11853	151.7972	
13:44:12	-6.728579	38.94613	134.627	0.5062246	-4.253202	0.01	3	100	0	6546	10.16734	1.258081	151.8992	
13:44:12	-6.728579	38.94613	134.652	0.4830639	-6.309609	0.04	3	100	0	6546	10.14868	1.241533	151.9889	
13:44:12	-6.728579	38.94613	134.666	0.5142424	-4.658858	0.04	3	100	0	6546	10.1938	1.241388	152.1818	
13:44:12	-6.728579	38.94613	134.664	0.5389004	-4.195799	0.08	3	100	0	6546	10.10509	1.286919	152.1596	
13:44:13	-6.728579	38.94613	134.645	0.5589533	-3.7857	0.08	3	100	0	6546	10.08578	1.316999	152.2933	
13:44:13	-6.728579	38.94613	134.619	0.5761121	-3.713452	0.07	3	100	0	6546	10.08065	1.300833	152.3789	
13:44:13	-6.72858	38.94613	134.599	0.6024387	-2.62181	0.11	3	100	0	6546	10.10842	1.333881	152.4356	
13:44:13	-6.728581	38.94613	134.586	0.6235026	-2.154552	0.16	3	100	0	6546	10.10604	1.366804	152.4588	
13:44:13	-6.728581	38.94613	134.623	0.622204	-3.215828	0.17	3	100	0	6546	10.22837	1.390025	152.4924	
13:44:14	-6.728581	38.94613	134.647	0.5897305	-5.883728	0.09	3	100	0	6546	10.1636	1.400486	152.5933	
13:44:14	-6.728581	38.94613	134.65	0.5510609	-8.738169	0.26	3	100	0	6546	10.09696	1.37761	152.5538	
13:44:14	-6.728581	38.94613	134.603	0.5041736	-11.56304	0.04	3	100	0	6546	10.12094	1.449261	152.697	
13:44:14	-6.728581	38.94613	134.616	0.460434	-14.24308	0.14	3	100	0	6546	10.16843	1.266606	152.7121	
13:44:14	-6.728581	38.94613	134.558	0.4273632	-15.34607	0.14	3	100	0	6546	10.21721	1.352914	152.8002	
13:44:15	-6.728581	38.94613	134.603	0.3546413	-18.54622	0.03	3	100	0	6546	10.14801	1.395978	152.847	
13:44:15	-6.728581	38.94613	134.632	0.2617704	-22.28916	0.19	3	100	0	6546	10.11864	1.210764	152.8147	
13:44:15	-6.728581	38.94613	134.686	0.2042932	-24.1977	0.17	3	100	0	6546	10.16566	1.085715	152.7899	
13:44:15	-6.728581	38.94613	134.693	0.173826	-24.05461	0.19	3	100	0	6546	10.28552	1.320459	152.7903	
13:44:16	-6.728581	38.94613	134.714	0.1568416	-23.66544	0.08	3	100	0	6546	10.24945	1.40652	152.7774	
13:44:16	-6.728581	38.94613	134.722	0.1606998	-21.69139	0.08	3	100	0	6546	10.18292	1.297565	152.752	
13:44:16	-6.728581	38.94613	134.782	0.1817008	-19.41438	0.06	3	100	0	6546	10.12074	1.435155	152.7039	
13:44:16	-6.728581	38.94613	134.763	0.2289785	-15.40342	0.11	3	100	0	6546	10.11831	1.411092	152.7388	
13:44:16	-6.728581	38.94613	134.741	0.2502949	-13.50079	0.06	3	100	0	6546	10.26831	1.357747	152.7547	
13:44:17	-6.728581	38.94613	134.779	0.2578949	-12.67684	0.11	3	100	0	6546	10.16994	1.306891	152.7346	
13:44:17	-6.728581	38.94613	134.759	0.2760318	-11.58736	0.02	3	100	0	6546	10.22648	1.339602	152.7861	
13:44:17	-6.728581	38.94613	134.742	0.30705	-9.69768	0.13	3	100	0	6546	10.15223	1.415304	152.828	
13:44:18	-6.728581	38.94613	134.767	0.3414596	-8.108934	0.02	3	100	0	6546	10.25979	1.485528	152.883	
13:44:18	-6.728581	38.94613	134.766	0.3847299	-6.12073	0.03	3	100	0	6546	10.14609	1.457744	152.9291	
13:44:18	-6.728581	38.94613	134.828	0.4011035	-5.313646	0.09	3	100	0	6546	10.09237	1.465379	152.9577	
13:44:18	-6.728581	38.94613	134.79	0.3880745	-5.993051	0.04	3	100	0	6546	10.03964	1.589182	152.6095	
13:44:18	-6.728581	38.94613	134.88	0.3724887	-7.056244	0.06	3	100	0	6546	10.08236	1.612454	152.419	
13:44:19	-6.728581	38.94613	134.852	0.3530511	-7.802465	0.04	3	100	0	6546	10.05295	1.589832	152.432	
13:44:19	-6.728581	38.94613	134.836	0.3382317	-7.915817	0.14	3	100	0	6546	10.14384	1.62137	152.5215	
13:44:19	-6.728581	38.94613	134.803	0.3163618	-9.176852	0.09	3	100	0	6546	10.07154	1.747456	152.4859	
13:44:19	-6.728581	38.94613	134.798	0.2964795	-10.4289	0.08	3	100	0	6546	9.985045	1.613332	152.4963	
13:44:19	-6.728581	38.94613	134.841	0.2670854	-11.53397	0.08	3	100	0	6546	10.07916	1.478676	152.5307	
13:44:20	-6.728581	38.94613	134.834	0.2438188	-12.49809	0.06	3	100	0	6546	10.00959	1.465527	152.5078	
13:44:20	-6.728581	38.94613	134.85	0.2155349	-13.757	0.24	3	100	0	6547	10.02129	1.429096	152.6234	
13:44:20	-6.728581	38.94613	134.865	0.1905991	-14.37399	0.09	3	100	0	6546	10.01364	1.308721	152.5342	
13:44:20	-6.728581	38.94613	134.86	0.1827286	-14.16966	0.29	3	100	0	6546	10.04599	1.402918	152.6239	
13:44:21	-6.728581	38.94613	134.849	0.1775152	-14.44767	0.13	3	100	0	6546	10.09514	1.270911	152.6861	
13:44:21	-6.72858	38.94613	134.946	0.2376684	-10.09227	1.14	3	100	0	6546	10.20248	1.144469	152.6543	
13:44:21	-6.72858	38.94613	134.968	0.2884325	-6.89066	0.58	3	100	0	6546	10.39698	-0.02298784	152.496	
13:44:21	-6.728579	38.94613	135.157	0.3119232	-5.848163	0.42	3	100	0	6546	10.4184	0.3573467	152.5199	
13:44:21	-6.728579	38.94612	135.132	0.332663	-4.568951	0.48	3	100	0	6546	10.37927	0.5178489	152.4355	
13:44:22	-6.728579	38.94612	135.09	0.3641892	-3.08714	0.31	3	100	0	6546	10.25747	0.5146936	152.413	
13:44:22	-6.728579	38.94612	135.074	0.390133	-1.613209	0.04	3	100	0	6546	10.21704	0.7682898	152.4972	
13:44:22	-6.72858	38.94612	135.054	0.4318461	0.4265852	0.09	3	100	0	6546	10.06362	1.02204	152.461	
13:44:22	-6.72858	38.94612	135.061	0.4688545	1.6229	0.19	3	100	0	6546	9.995131	1.141475	152.3896	
13:44:22	-6.728579	38.94612	135.139	0.4704792	0.9288455	0.29	3	100	0	6546	10.01632	1.299806	152.384	
13:44:22	-6.72858	38.94612	135.128	0.4704921	0.2588401	0.06	3	100	0	6546	10.00158	1.245454	152.467	
13:44:23	-6.72858	38.94612	135.154	0.4380637	-2.037843	0.09	3	100	0	6546	9.993227	1.004623	152.4719	
13:44:23	-6.72858	38.94612	135.174	0.4109581	-3.464731	0.04	3	100	0	6546	10.00426	1.032619	152.4969	
13:44:23	-6.728579	38.94612	135.171	0.3135479	-9.163502	0.19	3	100	0	6546	10.05722	1.073789	152.5254	
13:44:23	-6.728579	38.94612	135.155	0.2258799	-12.77192	0.01	3	100	0	6546	10.06473	1.196969	152.5284	
13:44:24	-6.728579	38.94612	135.12	0.1356248	-16.78069	0.03	3	100	0	6546	10.08084	1.059024	152.5118	
13:44:24	-6.728579	38.94612	135.082	0.06336258	-19.72345	0.03	3	100	0	6546	10.06252	1.068296	152.485	
13:44:24	-6.728579	38.94612	135.096	0.002019491	-21.51511	0.06	3	100	0	6546	10.04743	1.103618	152.4071	
13:44:24	-6.72858	38.94612	135.082	-0.03620444	-21.73334	0.08	3	100	0	6546	10.04474	1.174404	152.3664	
13:44:25	-6.728579	38.94612	135.094	-0.02716019	-18.94156	0.08	3	100	0	6546	10.09431	1.263588	152.3206	
13:44:25	-6.728579	38.94612	135.1	0.04438088	-13.60707	0.06	3	100	0	6546	10.05523	1.272236	152.3803	
13:44:25	-6.728579	38.94612	135.061	0.1265015	-8.399611	0.11	3	100	0	6546	10.06125	1.265851	152.3623	
13:44:25	-6.728579	38.94612	135.083	0.2049603	-4.137679	0.11	3	100	0	6546	10.13975	1.324612	152.3124	
13:44:25	-6.728579	38.94612	135.111	0.2516951	-2.855706	0.04	3	100	0	6546	10.06233	1.374374	152.2698	
13:44:26	-6.728579	38.94612	135.109	0.2699318	-2.017087	0.08	3	100	0	6546	10.09432	1.339031	152.2535	
13:44:26	-6.728579	38.94612	135.124	0.2943407	-0.8365871	0.09	3	100	0	6546	10.14302	1.320544	152.2615	
13:44:26	-6.728579	38.94612	135.144	0.3216522	0.3611517	0.12	3	100	0	6546	10.13283	1.165385	152.3028	
13:44:26	-6.728579	38.94612	135.146	0.3440511	1.167514	0.04	3	100	0	6546	10.06124	1.150158	152.3594	
13:44:26	-6.728579	38.94612	135.136	0.3581614	1.497529	0.08	3	100	0	6546	10.07969	1.263275	152.4385	
13:44:26	-6.728578	38.94612	135.2	0.3842866	1.991183	0.12	3	100	0	6546	10.12103	1.383769	152.3764	
13:44:27	-6.728578	38.94612	135.25	0.428119	3.77401	0.13	3	100	0	6546	10.09087	1.413559	152.5147	
13:44:27	-6.728578	38.94612	135.252	0.4691359	4.843742	0.06	3	100	0	6546	10.13594	1.380113	152.5659	
13:44:27	-6.728578	38.94612	135.282	0.5000434	5.605437	0.16	3	100	0	6546	9.981188	1.352383	152.6229	
13:44:27	-6.728578	38.94612	135.308	0.4956615	4.093129	0.09	3	100	0	6546	9.975715	1.404247	152.6322	
13:44:28	-6.728577	38.94612	135.305	0.4590907	0.8186016	0.07	3	100	0	6546	10.06919	1.435047	152.6696	
13:44:28	-6.728577	38.94612	135.352	0.4368083	-0.8721005	0.06	3	100	0	6546	10.10184	1.407347	152.7208	
13:44:28	-6.728577	38.94612	135.393	0.4276811	-0.4203067	0.03	3	100	0	6546	10.18817	1.344546	152.8543	
13:44:28	-6.728576	38.94612	135.468	0.431217	-0.6138005	0.06	3	100	0	6546	10.1592	1.363194	152.7688	
13:44:28	-6.728576	38.94612	135.497	0.455582	1.789554	0.08	3	100	0	6546	10.12708	1.415387	152.8503	
13:44:29	-6.728576	38.94612	135.51	0.4804452	3.58471	0.04	3	100	0	6546	10.07902	1.422303	152.8109	
13:44:29	-6.728576	38.94612	135.552	0.509234	4.345554	0.14	3	100	0	6546	10.08052	1.444883	152.8315	
13:44:29	-6.728576	38.94612	135.541	0.531177	4.863042	0.11	3	100	0	6546	10.10583	1.523664	152.8664	
13:44:29	-6.728576	38.94612	135.578	0.4715625	0.5304595	0.09	3	100	0	6546	10.14628	1.51275	152.8439	
13:44:30	-6.728576	38.94612	135.622	0.4159056	-2.673069	0.14	3	100	0	6546	10.19683	1.498654	152.8225	
13:44:30	-6.728576	38.94612	135.644	0.3077422	-8.255612	0.07	3	100	0	6546	10.05117	1.59063	152.7884	
13:44:30	-6.728576	38.94612	135.652	0.210475	-13.60594	0.08	3	100	0	6546	10.08774	1.453879	152.8337	
13:44:30	-6.728576	38.94612	135.681	0.2145287	-11.11836	0.16	3	100	0	6546	10.12877	1.376756	152.9174	
13:44:30	-6.728575	38.94612	135.746	0.2210235	-10.41928	0.04	3	100	0	6546	10.15169	1.489306	152.8914	
13:44:32	-6.728574	38.94612	136.029	0.2582633	-5.77579	0.06	3	93	0	6545	10.12043	1.394416	153.0118	
13:44:32	-6.728574	38.94612	136.042	0.3209136	-2.125746	0.13	3	93	0	6546	10.13686	1.362135	153.083	
13:44:32	-6.728574	38.94612	136.023	0.3570743	-0.6282736	0.09	3	94	0	6546	10.12735	1.298047	153.2608	
13:44:32	-6.728574	38.94612	136.037	0.3576932	-0.06462257	0.01	3	94	0	6546	10.19744	1.390337	153.3015	
13:44:32	-6.728574	38.94612	136.053	0.3584938	-0.7030154	0.01	3	94	0	6546	10.12426	1.32684	153.3172	
13:44:33	-6.728574	38.94612	136.058	0.3307176	-1.474395	0.09	3	94	0	6546	10.11647	1.393659	153.276	
13:44:33	-6.728574	38.94612	136.082	0.3059867	-3.026694	0.16	3	94	0	6546	10.15192	1.511459	153.2512	
13:44:33	-6.728573	38.94612	136.187	0.3178851	-2.757705	0.11	3	93	0	6546	10.07526	1.496553	153.2794	
13:44:33	-6.728573	38.94612	136.23	0.3129589	-2.83975	0.08	3	93	0	6546	10.0481	1.466856	153.3128	
13:44:33	-6.728572	38.94612	136.267	0.3007829	-3.331824	0.13	3	93	0	6546	10.0896	1.510595	153.2591	
13:44:34	-6.728572	38.94612	136.291	0.3280988	-1.722503	0.09	3	93	0	6546	10.09838	1.5352	153.2393	
13:44:34	-6.728572	38.94612	136.301	0.3504353	-0.6903563	0.06	3	93	0	6546	10.14236	1.513388	153.2577	
13:44:34	-6.728571	38.94612	136.326	0.3809432	0.4529381	0.04	3	93	0	6546	10.11235	1.459522	153.4139	
13:44:34	-6.728571	38.94612	136.308	0.4158102	1.947928	0.19	3	93	0	6546	10.11372	1.507612	153.4724	
13:44:34	-6.728571	38.94612	136.306	0.466645	4.211849	0.07	3	93	0	6546	10.12536	1.549725	153.5512	
13:44:35	-6.728571	38.94612	136.292	0.5314636	7.178066	0.04	3	93	0	6546	10.1015	1.466047	153.443	
13:44:35	-6.728571	38.94612	136.246	0.5979758	10.38422	0.09	3	93	0	6546	10.09282	1.458385	153.4937	
13:44:35	-6.728571	38.94612	136.268	0.6548769	12.29522	0.03	3	94	0	6546	10.12269	1.482682	153.4935	
13:44:35	-6.72857	38.94612	136.258	0.6149271	8.550404	0.09	3	94	0	6546	10.10356	1.482154	153.5351	
13:44:35	-6.72857	38.94612	136.249	0.5177473	2.211218	0.04	3	94	0	6546	10.10876	1.505523	153.4881	
13:44:36	-6.72857	38.94612	136.263	0.4593551	-1.941059	0.14	3	94	0	6546	10.15004	1.535924	153.515	
13:44:36	-6.72857	38.94612	136.242	0.4286031	-4.338162	0.16	3	94	0	6546	10.14813	1.601735	153.7144	
13:44:36	-6.72857	38.94612	136.232	0.4209797	-4.623175	0.14	3	94	0	6546	10.06634	1.610456	153.688	
13:44:36	-6.72857	38.94612	136.211	0.4464932	-4.530562	0.12	3	94	0	6546	10.03637	1.584642	153.6421	
13:44:36	-6.72857	38.94612	136.23	0.472652	-3.747199	0.16	3	94	0	6546	10.03082	1.58453	153.6958	
13:44:37	-6.72857	38.94612	136.263	0.5062109	-1.395095	0.07	3	94	0	6545	10.02923	1.576561	153.6303	
13:44:37	-6.72857	38.94612	136.301	0.5382441	-0.5826666	0.19	3	94	0	6546	10.00169	1.596017	153.555	
13:44:37	-6.72857	38.94612	136.304	0.5724058	1.004678	0.03	3	94	0	6546	10.04041	1.566087	153.5679	
13:44:37	-6.72857	38.94612	136.351	0.5980456	0.7675514	0.04	3	94	0	6546	10.05893	1.485021	153.6378	
13:44:37	-6.72857	38.94612	136.358	0.6161509	1.114624	0.07	3	94	0	6546	10.04999	1.524828	153.6101	
13:44:38	-6.72857	38.94612	136.382	0.6244566	0.9139558	0.11	3	94	0	6546	10.04036	1.583796	153.579	
13:44:38	-6.72857	38.94612	136.407	0.6242297	0.7197061	0.12	3	94	0	6546	10.01966	1.622331	153.5127	
13:44:38	-6.728569	38.94612	136.489	0.6386131	1.156441	0.04	3	95	0	6546	10.02867	1.60631	153.4837	
13:44:38	-6.728569	38.94612	136.507	0.6708407	2.082885	0.11	3	95	0	6546	9.992127	1.498338	153.4879	
13:44:38	-6.72857	38.94612	136.463	0.7012624	3.396728	0.03	3	95	0	6546	10.01177	1.509429	153.4683	
13:44:38	-6.72857	38.94612	136.472	0.7340433	4.692656	0.04	3	95	0	6546	10.09546	1.588571	153.4109	
13:44:39	-6.728569	38.94612	136.506	0.7597752	5.472727	0.09	3	95	0	6546	10.07375	1.619156	153.4619	
13:44:39	-6.728569	38.94612	136.591	0.7283415	2.358411	0.07	3	95	0	6546	10.01732	1.597778	153.5013	
13:44:39	-6.728568	38.94612	136.655	0.6973083	-0.2221241	0.17	3	95	0	6546	10.03224	1.639175	153.5115	
13:44:39	-6.728568	38.94612	136.636	0.6117783	-4.534911	0.14	3	95	0	6546	10.16862	1.567553	153.4174	
13:44:40	-6.728569	38.94612	136.616	0.5424198	-7.999559	0.34	3	95	0	6546	10.11891	1.240146	153.4174	
13:44:40	-6.728569	38.94612	136.589	0.4899248	-10.10338	0.31	3	95	0	6546	10.05339	1.082736	153.4437	
13:44:40	-6.728569	38.94612	136.597	0.4438	-11.89603	0.16	3	95	0	6546	10.1079	1.194154	153.4601	
13:44:40	-6.728569	38.94612	136.579	0.4123248	-13.01255	0.06	3	95	0	6546	10.13083	1.39096	153.3347	
13:44:40	-6.728569	38.94612	136.617	0.3855774	-13.26388	0.12	3	95	0	6546	10.09585	1.56202	153.2798	
13:44:40	-6.728568	38.94612	136.608	0.3841653	-12.75337	0.26	3	95	0	6546	10.00563	1.680643	153.384	
13:44:41	-6.728568	38.94612	136.66	0.3842594	-11.67696	0.44	3	95	0	6546	10.0606	1.877012	153.3701	
13:44:41	-6.728567	38.94612	136.743	0.3320909	-13.75183	0.13	3	95	0	6546	10.02362	1.743248	153.4221	
13:44:41	-6.728568	38.94612	136.747	0.2860764	-15.41659	0.07	3	95	0	6546	9.921966	1.479895	153.3282	
13:44:41	-6.728568	38.94612	136.778	0.2387538	-16.81597	0.13	3	95	0	6546	9.915102	1.483987	153.3436	
13:44:41	-6.728568	38.94612	136.784	0.2019943	-17.6139	0.12	3	95	0	6546	9.953427	1.585167	153.3537	
13:44:42	-6.728568	38.94612	136.772	0.2444824	-14.04142	0.26	3	96	0	6546	9.995036	1.708654	153.371	
13:44:42	-6.728567	38.94612	136.852	0.2841569	-11.53002	0.06	3	96	0	6546	9.961337	1.62236	153.2886	
13:44:42	-6.728567	38.94612	136.92	0.3329467	-8.150219	0.44	3	96	0	6546	10.17265	1.749349	153.2599	
13:44:42	-6.728567	38.94612	136.891	0.3783007	-5.270419	0.13	3	96	0	6546	10.09114	1.553935	153.2635	
13:44:42	-6.728568	38.94612	136.823	0.4568222	-0.5704116	0.13	3	96	0	6546	9.995551	1.297062	153.3345	
13:44:42	-6.728568	38.94612	136.83	0.5220209	2.609498	0.14	3	96	0	6546	10.05326	1.461862	153.2937	
13:44:43	-6.728568	38.94612	136.727	0.5746478	4.964088	0.18	3	96	0	6546	10.03783	1.613129	153.3361	
13:44:43	-6.728568	38.94612	136.726	0.6207633	6.638066	0.08	3	96	0	6546	9.965824	1.516183	153.3868	
13:44:43	-6.728568	38.94612	136.71	0.6992077	10.06711	0.06	3	96	0	6546	9.933611	1.411715	153.3668	
13:44:43	-6.728568	38.94612	136.766	0.7620839	12.47272	0.17	3	96	0	6546	10.06022	1.27957	153.4467	
13:44:44	-6.728569	38.94612	136.587	0.7962842	12.91624	0.13	3	96	0	6546	10.10806	1.255844	153.3656	
13:44:44	-6.72857	38.94612	136.518	0.7855288	10.44853	0.26	3	96	0	6546	10.0688	1.204228	153.462	
13:44:44	-6.72857	38.94612	136.379	0.7471476	7.199086	0.16	3	96	0	6546	9.980607	1.314395	153.339	
13:44:44	-6.72857	38.94612	136.348	0.6724512	2.2385	0.06	3	96	0	6546	9.998431	1.513676	153.2229	
13:44:44	-6.728571	38.94612	136.258	0.6040059	-1.873965	0.09	3	96	0	6546	9.99545	1.549615	153.1095	
13:44:45	-6.728571	38.94612	136.177	0.5523549	-4.541767	0.09	3	96	0	6546	10.03932	1.581219	153.1964	
13:44:45	-6.728572	38.94612	136.069	0.4557356	-9.344532	0.14	3	96	0	6546	10.08513	1.656589	153.2293	
13:44:45	-6.728573	38.94612	135.956	0.338341	-14.61888	0.17	3	96	0	6546	10.10493	1.705063	153.2173	
13:44:45	-6.728573	38.94612	135.892	0.2551188	-16.97951	0.24	3	96	0	6546	10.11115	1.768354	153.1264	
13:44:45	-6.728573	38.94612	135.866	0.1957947	-18.57899	0.32	3	96	0	6546	10.08914	1.834091	153.2676	
13:44:45	-6.728574	38.94612	135.783	0.1511546	-19.50116	0.21	3	96	0	6546	10.00846	1.801959	153.2879	
13:44:46	-6.728574	38.94612	135.695	0.1118934	-19.77156	0.26	3	96	0	6546	10.09405	1.751034	153.2344	
13:44:46	-6.728574	38.94612	135.598	0.09354749	-19.02368	0.14	3	96	0	6546	10.03039	1.651483	153.2786	
13:44:46	-6.728575	38.94612	135.501	0.1013267	-16.4103	0.22	3	96	0	6546	9.98596	1.697894	153.2035	
13:44:46	-6.728575	38.94612	135.504	0.1079988	-14.79952	0.42	3	96	0	6546	10.09586	1.87543	153.2795	
13:44:46	-6.728575	38.94612	135.505	0.1144415	-13.2464	0.31	3	96	0	6546	10.04908	1.880767	153.1992	
13:44:47	-6.728576	38.94612	135.447	0.1457405	-10.48408	0.47	3	96	0	6546	10.05682	1.983567	153.2397	
13:44:47	-6.728576	38.94612	135.384	0.1896764	-7.947086	0.29	3	97	0	6546	10.11449	1.915991	153.2736	
13:44:47	-6.728576	38.94612	135.326	0.2167103	-6.016907	0.29	3	97	0	6546	10.09653	1.808072	153.3578	
13:44:47	-6.728576	38.94612	135.355	0.2334965	-4.59488	0.06	3	97	0	6546	10.04587	1.642704	153.3139	
13:44:47	-6.728577	38.94612	135.306	0.2394925	-4.120657	0.12	3	97	0	6546	10.00612	1.5896	153.344	
13:44:48	-6.728577	38.94612	135.298	0.2383672	-4.184071	0.07	3	97	0	6546	10.02523	1.459594	153.2897	
13:44:48	-6.728577	38.94612	135.308	0.2482856	-3.351523	0.03	3	97	0	6546	10.06135	1.407482	153.3833	
13:44:48	-6.728578	38.94612	135.296	0.2755649	-1.519422	0.03	3	97	0	6546	10.05868	1.43887	153.3597	
13:44:48	-6.728577	38.94612	135.296	0.2985581	-0.1201425	0.11	3	97	0	6546	10.04345	1.528877	153.3132	
13:44:48	-6.728577	38.94612	135.306	0.3179989	0.6137112	0.06	3	97	0	6546	10.02062	1.544999	153.2978	
13:44:49	-6.728577	38.94612	135.31	0.3355545	1.487522	0.04	3	97	0	6546	10.09278	1.550428	153.2359	
13:44:49	-6.728577	38.94612	135.326	0.3461313	1.637736	0.01	3	97	0	6546	10.12039	1.542778	153.2418	
13:44:49	-6.728577	38.94612	135.295	0.3543918	1.626512	0.04	3	97	0	6546	10.1022	1.60379	153.1533	
13:44:49	-6.728577	38.94612	135.318	0.3557728	1.987219	0.06	3	97	0	6546	10.08874	1.505732	153.2477	
13:44:50	-6.728577	38.94612	135.36	0.3570327	1.762924	0.09	3	97	0	6546	10.13309	1.4855	153.1182	
13:44:50	-6.728577	38.94612	135.385	0.2946314	-2.124683	0.39	3	97	0	6546	10.27338	1.105234	153.1659	
13:44:50	-6.728577	38.94612	135.355	0.2379264	-4.919499	0.48	3	97	0	6546	10.27795	0.9132226	153.1083	
13:44:50	-6.728577	38.94612	135.335	0.2126576	-5.776801	0.29	3	97	0	6546	10.28118	1.071427	152.9462	
13:44:50	-6.728577	38.94612	135.354	0.1922563	-6.780107	0.42	3	97	0	6546	10.15498	1.010899	153.0296	
13:44:51	-6.728577	38.94612	135.309	0.1490258	-8.939125	0.19	3	97	0	6546	10.12725	1.127262	152.9352	
13:44:51	-6.728577	38.94612	135.309	0.1096783	-10.25198	0.19	3	97	0	6546	10.26307	1.492374	152.9224	
13:44:51	-6.728577	38.94612	135.357	0.07316457	-11.04329	0.08	3	97	0	6546	10.22521	1.610827	152.9617	
13:44:51	-6.728577	38.94612	135.357	0.04076829	-12.31013	0.08	3	97	0	6546	10.2239	1.447156	152.9551	
13:44:51	-6.728577	38.94612	135.341	0.03218709	-12.05812	0.08	3	97	0	6546	10.19882	1.49953	152.9258	
13:44:52	-6.728576	38.94612	135.349	0.02532265	-11.16179	0.11	3	97	0	6546	10.14053	1.514185	152.8788	
13:44:52	-6.728576	38.94612	135.33	0.02620446	-10.17532	0.09	3	97	0	6546	10.10622	1.384852	152.8287	
13:44:52	-6.728576	38.94612	135.328	0.02848297	-9.751141	0.06	3	97	0	6546	10.25497	1.493459	152.8033	
13:44:52	-6.728576	38.94612	135.391	0.07348262	-6.83162	0.09	3	97	0	6546	10.21905	1.437999	152.8436	
13:44:52	-6.728575	38.94612	135.417	0.1150858	-3.892577	0.17	3	97	0	6546	10.15701	1.407402	152.9001	
13:44:53	-6.728575	38.94612	135.434	0.1380363	-2.518158	0.22	3	97	0	6546	10.17054	1.60994	152.8214	
13:44:53	-6.728574	38.94612	135.459	0.1593405	-1.019132	0.21	3	97	0	6546	10.18454	1.734411	152.7516	
13:44:53	-6.728574	38.94612	135.459	0.1741931	-0.01186922	0.21	3	97	0	6546	10.11945	1.753293	152.7027	
13:44:53	-6.728574	38.94612	135.482	0.1868217	1.008893	0.26	3	97	0	6546	10.08999	1.767851	152.7049	
13:44:53	-6.728574	38.94612	135.481	0.2040269	1.481861	0.14	3	97	0	6546	10.20501	1.788899	152.7589	
13:44:54	-6.728574	38.94612	135.414	0.2203912	2.090147	0.09	3	97	0	6546	10.16427	1.680255	152.7552	
13:44:54	-6.728574	38.94612	135.399	0.2356975	2.633254	0.13	3	97	0	6546	10.16892	1.592807	152.784	
13:44:54	-6.728574	38.94612	135.38	0.2505881	3.612123	0.03	3	97	0	6546	10.19159	1.608288	152.8193	
13:44:54	-6.728574	38.94612	135.385	0.2946592	5.651803	0.21	3	97	0	6546	10.18021	1.481289	152.8212	
13:44:54	-6.728574	38.94612	135.43	0.351561	7.741189	0.16	3	97	0	6546	10.15042	1.675025	152.8169	
13:44:55	-6.728574	38.94612	135.421	0.3773389	7.851036	0.01	3	97	0	6546	10.0989	1.653094	152.9103	
13:44:55	-6.728574	38.94612	135.382	0.3839746	6.969677	0.07	3	98	0	6546	10.1559	1.525502	152.8457	
13:44:55	-6.728574	38.94612	135.407	0.4093689	7.435852	0.08	3	98	0	6546	10.14967	1.498721	152.9589	
13:44:55	-6.728574	38.94612	135.399	0.4437198	8.183945	0.12	3	98	0	6546	10.0793	1.466955	152.9181	
13:44:56	-6.728574	38.94612	135.413	0.4713655	8.63351	0.22	3	98	0	6546	10.14237	1.570755	152.8344	
13:44:56	-6.728574	38.94612	135.392	0.4926527	8.763215	0.06	3	98	0	6546	10.09891	1.69694	152.7693	
13:44:56	-6.728574	38.94612	135.413	0.5389506	10.32513	0.09	3	98	0	6546	10.04508	1.508858	152.7545	
13:44:56	-6.728574	38.94612	135.416	0.6057798	12.51358	0.12	3	98	0	6546	10.18148	1.498336	152.752	
13:44:57	-6.728574	38.94612	135.451	0.6797106	14.93566	0.09	3	98	0	6546	10.18051	1.543489	152.8029	
13:44:57	-6.728574	38.94612	135.423	0.7567152	17.52156	0.18	3	98	0	6546	10.04932	1.440122	152.8133	
13:44:57	-6.728574	38.94612	135.441	0.7605436	15.79564	0.14	3	98	0	6546	10.17255	1.593526	152.8293	
13:44:57	-6.728574	38.94612	135.431	0.7219329	11.81999	0.04	3	98	0	6546	10.17235	1.357134	152.8036	
13:44:57	-6.728574	38.94612	135.409	0.6896303	9.232928	0.09	3	98	0	6546	10.16145	1.403427	152.7905	
13:44:58	-6.728574	38.94612	135.364	0.6644193	6.518036	0.04	3	98	0	6546	10.11402	1.31732	152.7574	
13:44:58	-6.728574	38.94612	135.326	0.6374632	4.674003	0.09	3	98	0	6546	10.04633	1.485584	152.6151	
13:44:58	-6.728574	38.94612	135.296	0.613234	2.938408	0.09	3	98	0	6546	10.05189	1.533553	152.662	
13:44:58	-6.728574	38.94612	135.309	0.6029112	1.921604	0.19	3	98	0	6546	9.946233	1.475197	152.5666	
13:44:59	-6.728574	38.94612	135.294	0.6111509	2.103616	0.11	3	98	0	6546	10.03966	1.683189	152.4998	
13:44:59	-6.728574	38.94612	135.318	0.6186962	2.391338	0.04	3	98	0	6546	10.07769	1.627837	152.58	
13:44:59	-6.728574	38.94612	135.321	0.6236705	2.512178	0.14	3	98	0	6547	10.03779	1.492509	152.57	
13:44:59	-6.728574	38.94612	135.331	0.6283687	2.812578	0.02	3	98	0	6546	10.10186	1.659627	152.5137	
13:44:59	-6.728574	38.94612	135.402	0.633397	2.834893	0.22	3	96	0	6546	9.97388	1.603126	152.3921	
13:45:00	-6.728574	38.94612	135.388	0.656908	3.665876	0.16	3	96	0	6546	9.941153	1.722255	152.4142	
13:45:00	-6.728574	38.94612	135.367	0.6501191	2.340461	0.24	3	96	0	6546	9.971273	1.66488	152.4786	
13:45:00	-6.728574	38.94612	135.379	0.6426488	1.224008	0.14	3	96	0	6546	10.03573	1.739816	152.5724	
13:45:00	-6.728574	38.94612	135.342	0.6562547	1.972449	0.13	3	96	0	6546	9.919268	1.477233	152.5133	
13:45:00	-6.728574	38.94612	135.336	0.6685187	2.428406	0.09	3	96	0	6546	9.958368	1.526646	152.4877	
13:45:00	-6.728574	38.94612	135.298	0.6428946	0.6290999	0.19	3	96	0	6546	10.01889	1.574627	152.4234	
13:45:01	-6.728574	38.94612	135.291	0.618837	-1.048821	0.14	3	97	0	6546	9.957577	1.642952	152.5261	
13:45:01	-6.728574	38.94612	135.262	0.5539397	-4.53602	0.21	3	97	0	6546	10.14441	1.598224	152.5815	
13:45:01	-6.728574	38.94612	135.299	0.4958428	-7.229259	0.17	3	97	0	6546	9.957332	1.641643	152.5652	
13:45:01	-6.728574	38.94612	135.271	0.4463585	-8.922067	0.03	3	97	0	6546	9.977691	1.640986	152.5767	
13:45:01	-6.728574	38.94612	135.231	0.403014	-10.32757	0.11	3	97	0	6546	10.03086	1.457028	152.5994	
13:45:01	-6.728574	38.94612	135.18	0.4490851	-7.06432	0.14	3	97	0	6546	10.01655	1.558164	152.6676	
13:45:02	-6.728574	38.94612	135.167	0.4913307	-4.379634	0.07	3	97	0	6546	9.989143	1.584463	152.6387	
13:45:02	-6.728574	38.94612	135.15	0.5409074	-1.940914	0.25	3	97	0	6546	10.00187	1.477837	152.5825	
13:45:02	-6.728574	38.94612	135.142	0.5895705	0.7005353	0.02	3	97	0	6546	9.999181	1.118599	152.4992	
13:45:02	-6.728574	38.94612	135.171	0.5898015	0.679266	0.14	3	97	0	6546	10.10322	1.376768	152.5947	
13:45:02	-6.728574	38.94612	135.193	0.5893792	0.07885444	0.22	3	97	0	6546	10.0908	1.26581	152.6309	
13:45:02	-6.728574	38.94612	135.21	0.6020035	0.6142965	0.31	3	97	0	6546	10.3948	1.446529	152.5571	
13:45:02	-6.728574	38.94612	135.222	0.6122088	1.16925	0.21	3	97	0	6546	10.16584	1.102038	152.6668	
13:45:03	-6.728574	38.94612	135.236	0.6227103	1.837563	0.31	3	97	0	6546	10.26418	1.279762	152.6997	
13:45:03	-6.728574	38.94612	135.198	0.6327692	2.292828	0.09	3	97	0	6544	10.17291	1.12133	152.7423	
13:45:03	-6.728574	38.94612	135.215	0.6275014	1.270654	0.09	3	97	0	6546	10.11575	1.319772	152.7117	
13:45:03	-6.728574	38.94612	135.233	0.6061631	0.1057479	0.03	3	97	0	6546	10.0229	1.504028	152.6849	
13:45:03	-6.728574	38.94612	135.238	0.6014398	-1.001325	0.04	3	97	0	6546	10.05232	1.388989	152.7339	
13:45:04	-6.728574	38.94612	135.27	0.6061423	-0.9029666	0.07	3	97	0	6546	10.13831	1.425069	152.7858	
13:45:04	-6.728574	38.94612	135.303	0.603171	-1.16981	0.25	3	97	0	6546	10.084	1.481173	152.726	
13:45:04	-6.728574	38.94612	135.279	0.5957494	-2.01792	0.19	3	97	0	6546	9.929204	1.5843	152.7047	
13:45:04	-6.728574	38.94612	135.263	0.5862001	-2.741745	0.18	3	97	0	6546	10.07833	1.629057	152.6789	
13:45:04	-6.728574	38.94612	135.239	0.5762887	-2.595525	0.06	3	97	0	6546	9.976451	1.527975	152.7917	
13:45:05	-6.728574	38.94612	135.208	0.5450813	-4.410096	0.19	3	97	0	6547	10.03113	1.401269	152.7439	
13:45:05	-6.728574	38.94612	135.178	0.4792142	-7.71484	0.09	3	97	0	6546	10.12037	1.596006	152.8358	
13:45:05	-6.728574	38.94612	135.17	0.4212496	-9.960647	0.09	3	97	0	6546	10.07892	1.491776	152.681	
13:45:05	-6.728574	38.94612	135.217	0.3662659	-11.94848	0.18	3	97	0	6546	10.02893	1.462484	152.6793	
13:45:05	-6.728574	38.94612	135.206	0.3655339	-10.92178	0.09	3	97	0	6546	9.944995	1.505472	152.7542	
13:45:06	-6.728573	38.94612	135.23	0.3971817	-8.165089	0.04	3	97	0	6546	10.02046	1.420102	152.729	
13:45:06	-6.728573	38.94612	135.227	0.4163626	-6.546943	0.08	3	97	0	6546	10.02324	1.37871	152.65	
13:45:06	-6.728573	38.94612	135.236	0.4287676	-5.048233	0.09	3	97	0	6546	10.02595	1.440904	152.673	
13:45:06	-6.728572	38.94612	135.235	0.4677225	-2.380746	0.01	3	97	0	6546	10.03081	1.470654	152.6997	
13:45:06	-6.728572	38.94612	135.213	0.520386	0.9254324	0.08	3	97	0	6546	10.0997	1.387204	152.7198	
13:45:07	-6.728572	38.94612	135.15	0.5445558	2.149083	0.09	3	97	0	6546	10.0111	1.382396	152.7046	
13:45:07	-6.728572	38.94612	135.104	0.5419865	1.569843	0.11	3	97	0	6546	10.14095	1.510465	152.588	
13:45:07	-6.728572	38.94612	135.086	0.5251658	0.9335733	0.19	3	97	0	6546	10.16119	1.242877	152.6581	
13:45:07	-6.728573	38.94612	135.03	0.4957088	-0.8468072	0.09	3	97	0	6546	10.18987	1.121941	152.694	
13:45:07	-6.728572	38.94612	135.015	0.4692559	-2.180356	0.04	3	97	0	6546	10.08726	1.192204	152.7357	
13:45:08	-6.728572	38.94612	135.019	0.5059261	-0.5719497	0.04	3	97	0	6546	10.04583	1.287046	152.6591	
13:45:08	-6.728572	38.94612	135.032	0.5391304	1.432043	0.13	3	97	0	6546	10.06461	1.338534	152.6699	
13:45:08	-6.728572	38.94612	135.043	0.598648	4.483202	0.14	3	97	0	6546	9.958591	1.276515	152.6124	
13:45:08	-6.728572	38.94612	135.049	0.6518174	6.642369	0.19	3	97	0	6546	9.972229	1.449685	152.5365	
13:45:08	-6.728571	38.94612	135.054	0.7199724	9.413448	0.22	3	97	0	6546	10.00607	1.49841	152.6384	
13:45:09	-6.728571	38.94612	135.027	0.7877393	12.30368	0.14	3	97	0	6546	10.13399	1.558217	152.5909	
13:45:09	-6.728571	38.94612	135.1	0.7765344	10.50978	0.19	3	98	0	6546	10.08407	1.444032	152.6134	
13:45:09	-6.72857	38.94612	135.133	0.7628595	8.519176	0.07	3	98	0	6547	10.00744	1.494661	152.5395	
13:45:09	-6.72857	38.94612	135.097	0.7613961	7.887198	0.19	3	98	0	6546	10.10329	1.158492	152.5906	
13:45:09	-6.72857	38.94612	135.098	0.7587745	6.814724	0.08	3	98	0	6546	9.974922	1.089761	152.5373	
13:45:10	-6.72857	38.94612	135.075	0.6894991	2.612018	0.17	3	98	0	6546	10.00296	1.28138	152.5101	
13:45:10	-6.72857	38.94612	135.125	0.6270844	-0.4577345	0.22	3	98	0	6547	9.924014	1.372426	152.4277	
13:45:10	-6.72857	38.94612	135.131	0.5315947	-5.176338	0.01	3	98	0	6546	9.915907	1.164075	152.3251	
13:45:10	-6.72857	38.94612	135.126	0.4456576	-9.215767	0.09	3	98	0	6546	10.06655	1.348602	152.392	
13:45:11	-6.72857	38.94612	135.13	0.4625806	-7.607311	0.12	3	98	0	6546	10.0808	1.42664	152.452	
13:45:11	-6.72857	38.94612	135.155	0.4790714	-6.244103	0.02	3	98	0	6546	10.0129	1.421122	152.474	
13:45:11	-6.72857	38.94612	135.136	0.5365951	-2.762825	0.13	3	98	0	6546	10.11993	1.325963	152.4611	
13:45:11	-6.72857	38.94612	135.113	0.5955936	0.5193628	0.14	3	98	0	6546	10.11802	1.448002	152.5476	
13:45:11	-6.72857	38.94612	135.097	0.6804504	4.676349	0.18	3	98	0	6546	10.07549	1.491859	152.4987	
13:45:11	-6.728569	38.94612	135.099	0.7492106	7.908577	0.22	3	98	0	6546	10.03807	1.521832	152.5661	
13:45:12	-6.728569	38.94612	135.079	0.7296997	6.138426	0.19	3	98	0	6546	10.02738	1.553871	152.4414	
13:45:12	-6.728569	38.94612	135.081	0.7101284	3.967563	0.26	3	98	0	6546	9.990261	1.475193	152.4543	
13:45:12	-6.728569	38.94612	135.068	0.7207898	4.20596	0.24	3	98	0	6546	10.08597	1.586383	152.3753	
13:45:12	-6.728569	38.94612	135.033	0.7289449	4.153411	0.14	3	98	0	6546	9.928658	1.512381	152.3608	
13:45:13	-6.728569	38.94612	135.01	0.7352039	4.611297	0.18	3	98	0	6546	9.927226	1.439011	152.2926	
13:45:13	-6.728569	38.94612	135.024	0.737328	4.52028	0.13	3	98	0	6546	9.975369	1.394342	152.3542	
13:45:13	-6.728568	38.94612	135.035	0.7451431	3.799511	0.22	3	98	0	6546	10.22846	1.092063	152.2904	
13:45:13	-6.728569	38.94612	134.99	0.7608954	4.152443	0.22	3	98	0	6546	10.17606	0.9059161	152.3019	
13:45:13	-6.728569	38.94612	134.922	0.7941622	6.251428	0.08	3	98	0	6546	10.1995	0.9707561	152.3251	
13:45:13	-6.728569	38.94612	134.84	0.8341135	7.665424	0.12	3	98	0	6546	10.04718	1.218343	152.2553	
13:45:14	-6.72857	38.94612	134.801	0.8438982	6.991579	0.18	3	98	0	6546	9.964952	1.192549	152.2379	
13:45:14	-6.72857	38.94612	134.752	0.8343649	5.627728	0.22	3	98	0	6546	9.917505	1.166681	152.2059	
13:45:14	-6.72857	38.94612	134.751	0.8254321	5.02953	0.22	3	98	0	6546	10.06155	1.402225	152.1805	
13:45:14	-6.72857	38.94612	134.774	0.8177757	4.181888	0.28	3	98	0	6546	9.92976	1.389459	152.1099	
13:45:14	-6.72857	38.94612	134.789	0.7740834	1.596943	0.24	3	98	0	6546	9.981204	1.462335	152.1331	
13:45:15	-6.728569	38.94612	134.829	0.7083706	-1.774952	0.12	3	98	0	6546	9.923424	1.356469	152.075	
13:45:15	-6.728569	38.94612	134.882	0.6486968	-4.652615	0.24	3	98	0	6546	10.113	1.35341	151.9397	
13:45:15	-6.728569	38.94612	134.89	0.6035484	-6.552017	0.19	3	98	0	6546	10.06909	1.438876	151.9703	
13:45:15	-6.728569	38.94612	134.926	0.5831091	-7.081204	0.19	3	98	0	6546	10.01474	1.394249	151.949	
13:45:16	-6.728568	38.94612	134.932	0.5838732	-6.024534	0.17	3	98	0	6546	9.980422	1.383165	151.8598	
13:45:16	-6.728568	38.94612	134.977	0.5584677	-6.72963	0.14	3	98	0	6546	10.01888	1.383203	151.8232	
13:45:16	-6.728568	38.94612	135.051	0.5195549	-7.748158	0.09	3	98	0	6546	9.982124	1.347065	151.7212	
13:45:16	-6.728568	38.94612	135.095	0.5041663	-7.496227	0.14	3	98	0	6546	10.04071	1.363164	151.6213	
13:45:17	-6.728568	38.94612	135.116	0.5034055	-6.66408	0.17	3	98	0	6546	10.03968	1.398973	151.7007	
13:45:17	-6.728567	38.94612	135.127	0.5248094	-4.696641	0.22	3	98	0	6546	10.00734	1.444078	151.651	
13:45:17	-6.728567	38.94612	135.161	0.5748426	-1.655621	0.14	3	98	0	6546	10.04136	1.486063	151.5945	
13:45:17	-6.728567	38.94612	135.197	0.6380064	0.8628825	0.14	3	98	0	6546	10.03769	1.396602	151.5759	
13:45:17	-6.728567	38.94612	135.174	0.7287002	5.194321	0.04	3	98	0	6546	9.949541	1.354369	151.5434	
13:45:18	-6.728567	38.94612	135.17	0.8024855	8.444605	0.12	3	98	0	6548	10.02929	1.257205	151.4258	
13:45:18	-6.728567	38.94612	135.207	0.9042961	12.555	0.03	3	98	0	6546	10.10085	1.36392	151.3972	
13:45:18	-6.728567	38.94612	135.253	0.9938185	15.37268	0.03	3	98	0	6546	10.02089	1.312005	151.2941	
13:45:18	-6.728567	38.94612	135.275	1.128372	20.1445	0.06	3	98	0	6546	10.01346	1.315607	151.3991	
13:45:18	-6.728566	38.94612	135.365	1.234568	23.53203	0.25	3	98	0	6546	9.98842	1.389176	151.3452	
13:45:19	-6.728566	38.94612	135.395	1.352946	28.05412	0.17	3	98	0	6546	9.967671	1.557332	151.2981	
13:45:19	-6.728566	38.94612	135.394	1.456394	30.37496	0.18	3	98	0	6546	9.898524	1.452786	151.315	
13:45:19	-6.728566	38.94612	135.469	1.378187	22.97747	0.08	3	98	0	6546	9.90941	1.405376	151.3206	
13:45:19	-6.728566	38.94612	135.49	1.302123	16.99937	0.04	3	98	0	6546	9.978783	1.244087	151.3236	
13:45:20	-6.728566	38.94612	135.561	1.270575	12.95827	0.07	3	98	0	6546	10.03619	1.31988	151.2341	
13:45:20	-6.728566	38.94612	135.588	1.240944	10.54648	0.14	3	98	0	6546	9.973505	1.291286	151.3158	
13:45:20	-6.728566	38.94612	135.607	1.212122	8.847354	0.09	3	98	0	6546	10.08002	1.425548	151.2812	
13:45:20	-6.728566	38.94612	135.666	1.184405	6.244718	0.07	3	98	0	6546	10.005	1.379607	151.282	
13:45:20	-6.728566	38.94612	135.722	1.195007	5.841474	0.13	3	98	0	6546	9.924912	1.307923	151.2126	
13:45:21	-6.728565	38.94612	135.798	1.202106	5.288751	0.09	3	98	0	6546	9.884607	1.309365	151.2453	
13:45:21	-6.728565	38.94612	135.796	1.227329	6.027561	0.11	3	98	0	6546	9.972519	1.28219	151.2557	
13:45:21	-6.728565	38.94612	135.764	1.24911	6.757898	0.04	3	98	0	6546	10.07049	1.23079	151.3547	
13:45:22	-6.728565	38.94612	135.768	1.293621	8.705948	0.07	3	98	0	6546	9.937282	1.308753	151.2792	
13:45:22	-6.728565	38.94612	135.791	1.332476	9.873236	0.04	3	98	0	6545	9.922115	1.317256	151.3276	
13:45:22	-6.728565	38.94612	135.818	1.381909	11.49984	0.17	3	98	0	6546	9.943881	1.369998	151.2243	
13:45:22	-6.728565	38.94612	135.87	1.420695	12.30622	0.04	3	98	0	6546	9.915842	1.39464	151.2504	
13:45:22	-6.728565	38.94612	135.885	1.357293	8.047601	0.03	3	98	0	6546	9.943739	1.23598	151.2072	
13:45:23	-6.728565	38.94612	135.931	1.298302	4.594872	0.04	3	98	0	6546	10.01251	1.242193	151.1326	
13:45:23	-6.728565	38.94612	135.979	1.237807	0.8324852	0.04	3	98	0	6546	10.02894	1.227089	151.0954	
13:45:23	-6.728565	38.94612	135.998	1.188101	-1.625053	0.14	3	98	0	6546	10.03476	1.15238	151.0984	
13:45:23	-6.728565	38.94612	136.011	1.128178	-4.619826	0.18	3	98	0	6546	10.07702	1.047715	151.1307	
13:45:23	-6.728565	38.94612	136.015	1.060796	-8.398992	0.19	3	98	0	6546	10.13063	1.014664	151.0934	
13:45:24	-6.728565	38.94612	135.956	0.9953128	-11.10037	0.25	3	98	0	6546	10.05356	0.9560337	151.1606	
13:45:24	-6.728565	38.94612	135.967	0.930155	-13.59449	0.09	3	98	0	6546	10.06332	1.005446	151.049	
13:45:24	-6.728565	38.94612	135.94	0.8881962	-14.03182	0.08	3	98	0	6546	10.0713	1.145666	151.127	
13:45:24	-6.728566	38.94612	135.902	0.8772838	-13.51615	0.06	3	98	0	6545	9.978928	1.188216	151.2265	
13:45:25	-6.728566	38.94612	135.872	0.892696	-11.33629	0.14	3	98	0	6546	10.02986	1.2745	151.2772	
13:45:25	-6.728566	38.94612	135.857	0.9317539	-8.027265	0.18	3	99	0	6546	9.9633	1.367876	151.1767	
13:45:25	-6.728566	38.94612	135.83	0.9869696	-4.017288	0.21	3	99	0	6546	9.971792	1.41967	151.2194	
13:45:25	-6.728566	38.94612	135.827	1.04805	-0.304899	0.06	3	99	0	6546	10.01595	1.383559	151.1998	
13:45:25	-6.728566	38.94612	135.792	1.098509	1.984259	0.08	3	99	0	6546	9.99789	1.246073	151.1423	
13:45:26	-6.728566	38.94612	135.814	1.126074	2.814018	0.16	3	99	0	6546	9.947952	1.252774	151.1194	
13:45:26	-6.728566	38.94612	135.756	1.148275	3.981451	0.14	3	99	0	6546	9.970637	1.373317	151.1242	
13:45:26	-6.728567	38.94612	135.666	1.164769	3.790836	0.16	3	99	0	6546	9.964902	1.364448	151.1675	
13:45:26	-6.728567	38.94612	135.631	1.156493	0.2431904	0.17	3	97	0	6546	10.19603	0.8542448	151.2309	
13:45:26	-6.728568	38.94612	135.598	1.110901	-2.183453	0.24	3	97	0	6546	10.17191	0.8153338	151.1753	
13:45:27	-6.728568	38.94612	135.526	1.086074	-3.702958	0.14	3	97	0	6546	10.21958	0.8733172	151.1467	
13:45:27	-6.728569	38.94612	135.427	1.076068	-3.900995	0.04	3	97	0	6546	10.182	1.014166	151.2076	
13:45:27	-6.728569	38.94612	135.363	1.060352	-4.209744	0.18	3	97	0	6546	10.10343	1.130015	151.2721	
13:45:27	-6.72857	38.94612	135.329	1.041075	-4.664239	0.04	3	97	0	6546	10.10896	1.120687	151.3049	
13:45:27	-6.72857	38.94612	135.292	1.041813	-4.129261	0.19	3	97	0	6546	10.14584	0.8901947	151.309	
13:45:28	-6.72857	38.94612	135.25	1.061299	-3.055977	0.22	3	97	0	6546	10.19215	0.7953744	151.1719	
13:45:28	-6.72857	38.94612	135.232	1.0777	-1.461816	0.19	3	97	0	6546	10.23247	0.8398607	151.1197	
13:45:28	-6.72857	38.94612	135.286	1.07971	-1.633112	0.24	3	97	0	6546	10.21888	0.8437465	151.1354	
13:45:28	-6.72857	38.94612	135.272	1.081147	-1.454683	0.11	3	97	0	6546	10.23695	0.8794774	151.1552	
13:45:28	-6.72857	38.94612	135.193	1.031105	-3.681934	0.03	3	97	0	6546	10.19021	1.047922	151.1186	
13:45:28	-6.728571	38.94612	135.168	0.9908792	-5.53315	0.04	3	97	0	6546	10.11804	1.084786	151.1612	
13:45:29	-6.728571	38.94612	135.081	0.9629477	-6.336577	0.11	3	97	0	6546	10.06161	1.128156	151.1532	
13:45:29	-6.728572	38.94612	135.055	0.9395324	-7.005007	0.34	3	97	0	6546	10.02303	1.250376	151.3163	
13:45:29	-6.728572	38.94612	135.068	0.8689311	-9.811169	0.26	3	97	0	6546	9.994886	1.355721	151.3375	
13:45:29	-6.728572	38.94612	135.041	0.8073	-11.75853	0.19	3	97	0	6546	10.03456	1.300077	151.4042	
13:45:30	-6.728572	38.94612	135.028	0.8276904	-9.532139	0.17	3	97	0	6546	10.18659	1.242104	151.3526	
13:45:30	-6.728572	38.94612	135.077	0.8459528	-7.874627	0.16	3	97	0	6546	10.1182	1.109768	151.3091	
13:45:30	-6.728572	38.94612	135.11	0.8686202	-5.41383	0.13	3	97	0	6546	10.05956	0.9580927	151.3285	
13:45:30	-6.728573	38.94612	135.101	0.8908257	-3.982437	0.22	3	97	0	6546	10.14854	1.018794	151.4441	
13:45:30	-6.728573	38.94612	135.145	0.9502864	-0.72896	0.33	3	97	0	6547	10.02911	1.209242	151.3586	
13:45:31	-6.728573	38.94612	135.205	1.004083	2.14913	0.03	3	97	0	6546	10.08265	1.168573	151.2638	
13:45:31	-6.728573	38.94612	135.263	1.022636	3.040965	0.04	3	97	0	6546	10.09275	0.9686735	151.2975	
13:45:31	-6.728573	38.94612	135.253	1.041373	3.740614	0.03	3	97	0	6546	10.08552	0.9680394	151.345	
13:45:31	-6.728573	38.94612	135.216	1.05975	4.329459	0.09	3	97	0	6546	10.05631	0.9891098	151.4082	
13:45:32	-6.728573	38.94612	135.216	1.07639	5.253623	0.09	3	97	0	6546	10.02553	1.126919	151.3519	
13:45:32	-6.728573	38.94612	135.298	1.108911	6.014048	0.14	3	97	0	6546	10.01713	1.193177	151.2988	
13:45:32	-6.728572	38.94612	135.354	1.132985	7.211374	0.47	3	97	0	6546	10.27462	0.5411841	151.3202	
13:45:32	-6.728572	38.94612	135.344	1.136227	6.608767	0.44	3	97	0	6546	10.42808	0.2467451	151.3557	
13:45:32	-6.728572	38.94612	135.314	1.137231	5.665688	0.08	3	97	0	6546	10.36129	0.4347238	151.2992	
13:45:33	-6.728573	38.94612	135.317	1.217469	9.257364	0.25	3	97	0	6547	10.26674	0.7224191	151.3162	
13:45:33	-6.728573	38.94612	135.307	1.30531	12.93681	0.16	3	97	0	6546	10.16391	0.6952894	151.286	
13:45:33	-6.728573	38.94612	135.348	1.361383	14.71585	0.18	3	97	0	6546	10.23978	0.7578396	151.2598	
13:45:33	-6.728573	38.94612	135.276	1.410279	15.86267	0.26	3	97	0	6546	10.19342	0.8464287	151.3693	
13:45:33	-6.728573	38.94612	135.264	1.484797	18.50459	0.29	3	97	0	6546	10.14292	0.9290187	151.3774	
13:45:34	-6.728573	38.94612	135.207	1.549293	20.3204	0.09	3	97	0	6546	10.25476	0.5978506	151.3503	
13:45:34	-6.728573	38.94612	135.16	1.591206	20.61463	0.12	3	97	0	6546	10.31198	0.6385602	151.307	
13:45:34	-6.728573	38.94612	135.146	1.629427	20.47025	0.13	3	97	0	6546	10.28669	0.757933	151.3169	
13:45:34	-6.728573	38.94612	135.181	1.659856	19.81325	0.14	3	97	0	6546	10.18581	0.6919845	151.3072	
13:45:34	-6.728573	38.94612	135.19	1.681662	18.34941	0.14	3	97	0	6546	10.15028	0.6198414	151.311	
13:45:34	-6.728573	38.94612	135.169	1.685584	16.89455	0.06	3	97	0	6546	10.23224	0.7316444	151.2208	
13:45:35	-6.728573	38.94612	135.112	1.671051	14.16681	0.16	3	97	0	6547	10.37729	0.6674846	151.1774	
13:45:35	-6.728573	38.94612	135.118	1.610907	9.322366	0.02	3	98	0	6546	10.36547	0.7426183	151.239	
13:45:35	-6.728573	38.94612	135.152	1.52522	3.983548	0.14	3	98	0	6546	10.34566	0.8979741	151.3193	
13:45:35	-6.728573	38.94612	135.137	1.448984	-0.8697179	0.06	3	98	0	6546	10.30079	0.8534192	151.3159	
13:45:35	-6.728574	38.94612	135.144	1.380461	-3.948156	0.01	3	98	0	6546	10.28727	0.8478651	151.3175	
13:45:36	-6.728574	38.94612	135.103	1.322874	-6.356074	0.03	3	98	0	6546	10.29265	0.8756092	151.3105	
13:45:36	-6.728574	38.94612	135.184	1.257323	-9.079655	0.31	3	98	0	6547	10.1994	0.9404676	151.2512	
13:45:36	-6.728574	38.94612	135.184	1.196987	-11.56779	0.31	3	98	0	6546	10.17285	1.160559	151.3773	
13:45:36	-6.728573	38.94612	135.291	1.143337	-13.55555	0.24	3	98	0	6546	10.16835	1.260314	151.3968	
13:45:36	-6.728573	38.94612	135.291	1.089703	-15.33751	0.24	3	98	0	6546	10.31736	1.21803	151.4804	
13:45:37	-6.728573	38.94612	135.396	1.053466	-15.9571	0.09	3	98	0	6546	10.32842	1.200535	151.4013	
13:45:37	-6.728573	38.94612	135.421	0.9853884	-17.6375	0.19	3	98	0	6546	10.3554	1.107599	151.4193	
13:45:37	-6.728572	38.94612	135.483	0.9039288	-20.20806	0.26	3	98	0	6546	10.44476	0.7816443	151.434	
13:45:37	-6.728572	38.94612	135.471	0.8648488	-19.78316	0.24	3	98	0	6546	10.42935	0.5695771	151.559	
13:45:37	-6.728572	38.94612	135.487	0.8538705	-17.80362	0.02	3	98	0	6546	10.39596	0.5789012	151.4502	
13:45:38	-6.728572	38.94612	135.459	0.830497	-17.32249	0.12	3	98	0	6546	10.34657	0.8259506	151.473	
13:45:38	-6.728573	38.94612	135.411	0.7971693	-17.53492	0.08	3	98	0	6546	10.19812	0.8617764	151.5711	
13:45:38	-6.728573	38.94612	135.39	0.782535	-16.81332	0.14	3	98	0	6546	10.32869	0.9726451	151.6194	
13:45:38	-6.728573	38.94612	135.384	0.785388	-14.69039	0.26	3	98	0	6546	10.34253	0.9093495	151.6276	
13:45:38	-6.728573	38.94612	135.349	0.7939969	-12.90836	0.26	3	98	0	6546	10.43455	0.5125458	151.5542	
13:45:39	-6.728573	38.94612	135.292	0.810197	-11.07849	0.19	3	98	0	6546	10.41898	0.5324234	151.6425	
13:45:39	-6.728573	38.94612	135.157	0.834016	-8.578383	0.28	3	98	0	6546	10.44795	0.5265231	151.8542	
13:45:39	-6.728573	38.94612	135.107	0.8828327	-4.615172	0.09	3	98	0	6546	10.39225	0.7370965	151.8301	
13:45:39	-6.728573	38.94612	135.113	0.923807	-2.223228	0.14	3	98	0	6546	10.38367	0.9004375	151.7798	
13:45:39	-6.728573	38.94612	135.147	0.9791688	0.5872627	0.12	3	98	0	6546	10.35429	0.7877639	151.9325	
13:45:39	-6.728573	38.94612	135.147	1.00817	1.684708	0.12	3	98	0	6546	10.31126	0.6317613	152.1185	
13:45:40	-6.728573	38.94612	135.147	1.02044	1.502566	0.12	3	98	0	6546	10.28237	0.501615	152.1027	
13:45:40	-6.728573	38.94612	135.147	1.051163	2.960474	0.09	3	98	0	6546	10.23585	0.4264139	151.9377	
13:45:40	-6.728573	38.94612	135.147	1.097368	4.721076	0.07	3	98	0	6546	10.18612	0.5713068	151.8091	
13:45:40	-6.728573	38.94612	134.958	1.120377	5.842898	0.09	3	98	0	6546	10.18883	0.7191319	151.9089	
13:45:40	-6.728573	38.94612	134.99	1.122702	5.361931	0.11	3	98	0	6546	10.30683	0.5581095	151.8294	
13:45:41	-6.728573	38.94612	134.891	1.135725	5.544122	0.41	3	98	0	6546	10.35451	0.5241488	151.7874	
13:45:41	-6.728573	38.94612	134.891	1.167578	6.346082	0.41	3	98	0	6546	10.14175	0.9334795	151.8827	
13:45:41	-6.728573	38.94612	134.86	1.175978	5.569013	0.06	3	98	0	6546	9.927663	1.337154	151.8591	
13:45:41	-6.728573	38.94612	134.887	1.166295	4.017008	0.19	3	98	0	6546	9.983597	1.207049	151.8132	
13:45:41	-6.728573	38.94612	134.88	1.176341	3.739081	0.19	3	98	0	6546	9.839552	1.293317	151.7857	
13:45:42	-6.728574	38.94612	134.876	1.198089	4.455497	0.16	3	98	0	6546	9.848422	1.22801	151.8496	
13:45:42	-6.728574	38.94612	134.865	1.268012	7.442702	0.09	3	98	0	6546	9.90163	1.269142	151.75	
13:45:42	-6.728574	38.94612	134.812	1.354523	11.72691	0.18	3	98	0	6546	10.00578	1.166366	151.7999	
13:45:42	-6.728574	38.94612	134.821	1.427705	14.31758	0.19	3	98	0	6546	10.16161	1.002365	151.6539	
13:45:42	-6.728574	38.94612	134.829	1.473391	15.1197	0.08	3	98	0	6546	10.02828	1.285389	151.6643	
13:45:43	-6.728574	38.94612	134.766	1.485205	14.13017	0.07	3	98	0	6546	10.10362	1.165632	151.7138	
13:45:43	-6.728574	38.94612	134.731	1.455093	10.76989	0.14	3	98	0	6546	10.08836	1.164926	151.662	
13:45:43	-6.728574	38.94612	134.702	1.429901	7.700353	0.12	3	98	0	6546	10.05394	1.21317	151.687	
13:45:43	-6.728574	38.94612	134.688	1.416508	6.138723	0.04	3	98	0	6547	10.01486	1.087448	151.6616	
13:45:43	-6.728574	38.94612	134.68	1.403172	4.652915	0.07	3	98	0	6546	10.10545	1.065134	151.7091	
13:45:44	-6.728574	38.94612	134.65	1.360464	2.092165	0.04	3	98	0	6546	10.20441	1.028004	151.6978	
13:45:44	-6.728574	38.94612	134.613	1.322037	0.6608539	0	3	98	0	6546	10.13885	1.141248	151.7424	
13:45:44	-6.728574	38.94612	134.566	1.259362	-2.248483	0.04	3	98	0	6546	10.14825	1.093059	151.8218	
13:45:44	-6.728574	38.94612	134.539	1.196983	-5.140998	0.14	3	98	0	6546	10.10537	1.12233	151.8371	
13:45:45	-6.728574	38.94612	134.546	1.102999	-9.49292	0.17	3	98	0	6546	10.15274	1.235964	151.7619	
13:45:45	-6.728574	38.94612	134.584	1.018364	-13.40885	0.37	3	98	0	6546	10.10439	1.302471	151.7714	
13:45:45	-6.728574	38.94612	134.632	0.9387084	-16.68164	0.35	3	98	0	6546	10.11909	1.481802	151.7699	
13:45:45	-6.728574	38.94612	134.701	0.8697092	-18.40355	0.29	3	98	0	6546	10.09409	1.457947	151.7874	
13:45:45	-6.728574	38.94612	134.794	0.849364	-17.60019	0.35	3	98	0	6546	10.17111	1.412568	151.7549	
13:45:46	-6.728574	38.94612	134.822	0.8362618	-16.4235	0.09	3	98	0	6546	10.12118	1.405125	151.7867	
13:45:46	-6.728573	38.94612	134.858	0.7798653	-18.53417	0.14	3	98	0	6546	10.17635	1.164278	151.8292	
13:45:46	-6.728573	38.94612	134.843	0.7307773	-19.47256	0.29	3	98	0	6546	10.18644	1.105752	151.782	
13:45:46	-6.728574	38.94612	134.747	0.7404357	-17.37827	0.22	3	98	0	6546	10.02074	0.6060697	151.7532	
13:45:46	-6.728574	38.94612	134.715	0.7508052	-15.62704	0.07	3	98	0	6546	10.15486	0.7178301	151.7368	
13:45:46	-6.728574	38.94612	134.677	0.7163977	-16.15567	0.18	3	98	0	6546	10.04501	0.8922815	151.7303	
13:45:47	-6.728574	38.94612	134.643	0.6878352	-16.43698	0.08	3	98	0	6547	9.962951	1.025027	151.7238	
13:45:47	-6.728574	38.94612	134.616	0.6803449	-15.21539	0.08	3	98	0	6546	10.1527	1.034797	151.7703	
13:45:47	-6.728574	38.94612	134.618	0.6769284	-13.39028	0.08	3	98	0	6546	10.07982	0.9320959	151.742	
13:45:47	-6.728574	38.94612	134.585	0.6858147	-11.82715	0.17	3	98	0	6546	10.04198	0.9420262	151.7185	
13:45:47	-6.728574	38.94612	134.567	0.696057	-10.23156	0.11	3	98	0	6546	10.01678	0.9006699	151.6686	
13:45:48	-6.728574	38.94612	134.545	0.7035116	-8.958216	0.18	3	98	0	6546	10.13164	0.943354	151.6573	
13:45:48	-6.728574	38.94612	134.605	0.7121122	-7.421654	0.19	3	98	0	6546	10.25653	0.9297928	151.6534	
13:45:48	-6.728574	38.94612	134.572	0.7488479	-4.942538	0.39	3	98	0	6546	10.15916	0.8141771	151.6686	
13:45:48	-6.728574	38.94612	134.492	0.7867343	-2.78351	0.57	3	98	0	6546	10.11661	0.5159091	151.6334	
13:45:48	-6.728574	38.94612	134.507	0.7928647	-2.672402	0.65	3	98	0	6546	10.01034	0.3755517	151.5456	
13:45:49	-6.728574	38.94612	134.603	0.7541593	-4.189796	0.66	3	98	0	6546	10.07408	0.2987145	151.5127	
13:45:49	-6.728574	38.94612	134.669	0.7334657	-4.821943	0.85	3	98	0	6546	10.15011	0.2770019	151.4731	
13:45:49	-6.728573	38.94612	134.752	0.7232838	-4.572132	0.53	3	98	0	6546	10.24371	0.2291077	151.4203	
13:45:49	-6.728573	38.94612	134.767	0.6915884	-6.039295	0.72	3	98	0	6546	10.20469	0.5058622	151.3448	
13:45:49	-6.728574	38.94612	134.711	0.6481515	-7.816468	0.33	3	98	0	6546	10.13083	0.4175603	151.3102	
13:45:50	-6.728574	38.94612	134.711	0.6035765	-9.505136	0.31	3	98	0	6546	10.15476	0.8135701	151.3061	
13:45:50	-6.728574	38.94611	134.781	0.5615122	-10.66062	0.19	3	99	0	6546	10.28678	1.305373	151.3637	
13:45:50	-6.728574	38.94611	134.823	0.5354422	-8.826451	0.08	3	99	0	6546	12.8431	1.631021	150.7907	
13:45:50	-6.728574	38.94611	134.872	0.544224	15.03617	0.11	3	99	0	6546	15.47318	1.626285	149.5989	
13:45:51	-6.728574	38.94611	134.985	0.6193544	48.70826	0.04	3	99	0	6546	17.00644	4.512749	149.9094	
13:45:51	-6.728574	38.94611	135.095	0.7764538	91.6669	0.03	3	99	0	6546	20.37345	3.753972	155.6071	
13:45:51	-6.728574	38.94611	135.137	0.9997546	110.4569	0.52	3	99	0	6546	22.85274	-2.316534	167.0281	
13:45:51	-6.728573	38.94611	135.578	1.227939	104.7309	0.28	3	99	0	6546	20.39245	-12.86765	-175.1538	
13:45:51	-6.728573	38.94611	135.745	1.414434	98.45108	0.48	3	99	0	6546	7.567515	-21.93249	-158.4298	
13:45:52	-6.728573	38.94611	135.944	1.556065	83.35171	0.14	3	99	0	6546	-0.1182839	-26.35974	-149.7191	
13:45:52	-6.728574	38.94612	135.957	1.648307	32.23028	0.25	3	99	0	6546	-1.133618	-25.38224	-150.519	
13:45:52	-6.728575	38.94612	136.089	1.656792	-10.10671	0.41	3	99	0	6546	-1.62702	-25.02591	-154.0934	
13:45:52	-6.728578	38.94612	135.891	1.629079	-32.87431	0.16	3	99	0	6546	2.383565	-24.09897	-157.7871	
13:45:52	-6.728578	38.94612	135.833	1.605477	-36.01436	0.22	3	99	0	6546	5.601729	-23.42548	-160.0763	
13:45:53	-6.728579	38.94612	135.539	1.589342	-23.73932	0.24	3	99	0	6546	6.508745	-19.29557	-158.7344	
13:45:53	-6.728579	38.94612	135.485	1.597824	-7.594418	0.09	3	99	0	6546	6.607307	-10.35414	-157.0646	
13:45:53	-6.728579	38.94612	135.473	1.6458	-13.92832	0.14	3	99	0	6546	9.059021	0.9408346	-161.4833	
13:45:53	-6.72858	38.94612	135.457	1.719199	-4.232274	0.07	3	99	0	6548	9.632321	8.22223	-161.5219	
13:45:53	-6.728581	38.94612	135.447	1.792577	-3.236415	0.24	3	99	0	6546	7.283418	8.59952	-160.8693	
13:45:53	-6.728581	38.94612	135.555	1.840207	-0.5108845	0.18	3	99	0	6546	8.934381	8.75279	-159.3773	
13:45:54	-6.728581	38.94612	135.629	1.87971	-1.679073	0.18	3	99	0	6546	11.38758	9.241853	-162.9022	
13:45:54	-6.728581	38.94612	135.603	1.971864	2.045594	0.09	3	99	0	6546	7.626645	7.239768	-173.0269	
13:45:54	-6.728581	38.94612	135.646	2.044888	2.649293	0.19	3	99	0	6546	2.976426	5.080102	178.3697	
13:45:54	-6.728581	38.94612	135.688	2.087285	-5.275528	0.39	3	99	0	6546	-1.500402	10.33195	171.638	
13:45:54	-6.728581	38.94612	135.767	2.131563	11.5221	0.44	3	99	0	6546	-10.80261	14.33519	165.2721	
13:45:55	-6.728581	38.94612	135.814	2.199669	13.05364	0.38	3	99	0	6546	-13.93082	16.28316	159.0358	
13:45:55	-6.728581	38.94612	135.857	2.253346	4.298124	0.32	3	99	0	6546	-15.69244	16.85702	153.113	
13:45:55	-6.72858	38.94612	135.968	2.306133	5.898136	0.29	3	99	0	6546	-17.96888	16.55901	149.0881	
13:45:55	-6.72858	38.94612	136.132	2.355619	8.821127	0.09	3	99	0	6546	-19.14975	15.91772	146.2858	
13:45:56	-6.72858	38.94612	136.192	2.357597	6.870676	0.12	3	99	0	6546	-21.77348	16.01774	143.9934	
13:45:56	-6.72858	38.94612	136.117	2.360053	8.068891	0.08	3	99	0	6546	-25.36503	16.92644	143.2057	
13:45:56	-6.72858	38.94612	136.185	2.371599	9.56619	0.06	3	99	0	6546	-26.35375	17.80547	143.626	
13:45:56	-6.72858	38.94612	136.27	2.386865	11.32525	0.07	3	99	0	6546	-27.41428	17.78378	141.91	
13:45:56	-6.728579	38.94612	136.337	2.418369	13.50233	0.11	3	99	0	6546	-26.79681	17.72164	139.4202	
13:45:57	-6.728579	38.94612	136.321	2.453628	19.79556	0.14	3	99	0	6546	-26.46403	16.86588	135.8873	
13:45:57	-6.72858	38.94613	136.261	2.514052	18.67353	0.17	3	99	0	6546	-26.09146	14.55477	133.554	
13:45:57	-6.728581	38.94613	136.118	2.576549	23.61653	0.14	3	99	0	6546	-24.38214	11.97497	139.1315	
13:45:57	-6.728581	38.94613	136.015	2.599724	29.77506	0.34	3	99	0	6546	-20.96081	8.2969	146.0856	
13:45:58	-6.728581	38.94613	135.918	2.612667	19.9845	0.22	3	99	0	6546	-16.78881	6.861252	150.1358	
13:45:58	-6.728582	38.94613	135.892	2.582436	13.48699	0.12	3	99	0	6546	-15.63833	8.46253	152.0733	
13:45:58	-6.728582	38.94613	135.883	2.546632	8.251138	0.25	3	99	0	6546	-14.49194	9.640494	152.8206	
13:45:58	-6.728582	38.94613	135.825	2.5423	9.730436	0.13	3	99	0	6546	-13.14754	7.962461	153.6319	
13:45:58	-6.728583	38.94613	135.805	2.538607	8.309531	0.22	3	99	0	6546	-11.58924	6.205187	154.069	
13:45:59	-6.728583	38.94613	135.808	2.52786	5.613588	0.02	3	99	0	6546	-11.4246	5.905327	153.5858	
13:45:59	-6.728583	38.94613	135.797	2.5065	-0.01899535	0.07	3	99	0	6546	-11.76101	6.235525	151.5153	
13:45:59	-6.728583	38.94613	135.751	2.499058	-0.1527079	0.04	3	99	0	6544	-12.40722	7.07706	153.3154	
13:45:59	-6.728584	38.94613	135.698	2.506687	-8.348238	0.08	3	99	0	6546	-10.88112	10.41114	152.9389	
13:45:59	-6.728584	38.94613	135.639	2.48575	-11.54012	0.08	3	99	0	6546	-12.6255	14.35245	150.0135	
13:45:59	-6.728584	38.94613	135.564	2.460243	-11.66692	0.09	3	99	0	6546	-13.83387	17.61339	147.7553	
13:46:00	-6.728584	38.94613	135.512	2.440629	-13.07336	0.01	3	99	0	6546	-13.95969	18.63318	147.2605	
13:46:00	-6.728584	38.94613	135.466	2.430605	-11.38461	0.13	3	99	0	6546	-13.46186	18.47532	147.0046	
13:46:00	-6.728584	38.94613	135.455	2.43237	-9.20725	0.13	3	99	0	6546	-14.15055	19.84937	145.883	
13:46:00	-6.728585	38.94613	135.414	2.438768	-10.67739	0.17	3	99	0	6546	-15.08354	22.03036	144.1685	
13:46:01	-6.728585	38.94613	135.384	2.412516	-13.19679	0.04	3	99	0	6546	-14.89574	23.29891	143.6293	
13:46:01	-6.728586	38.94613	135.317	2.361846	-11.81723	0.04	3	99	0	6546	-14.11758	22.57188	144.3136	
13:46:01	-6.728586	38.94613	135.262	2.322606	-10.65162	0.17	3	99	0	6546	-13.78876	21.22611	144.1165	
13:46:01	-6.728586	38.94613	135.222	2.293123	-11.28498	0.03	3	99	0	6546	-14.22838	21.98853	142.9288	
13:46:02	-6.728586	38.94613	135.191	2.257141	-15.92185	0.02	3	99	0	6546	-15.28102	23.92157	142.1367	
13:46:02	-6.728586	38.94613	135.176	2.218761	-16.13673	0.11	3	99	0	6548	-15.44656	26.10344	141.2625	
13:46:02	-6.728586	38.94613	135.197	2.196855	-15.48979	0.19	3	99	0	6546	-15.52523	27.91225	140.05	
13:46:02	-6.728586	38.94613	135.203	2.189324	-14.36969	0.08	3	99	0	6546	-15.34905	28.45056	140.1991	
13:46:02	-6.728586	38.94613	135.251	2.184689	-14.32367	0.09	3	99	0	6546	-14.14	28.64094	142.7909	
13:46:03	-6.728586	38.94613	135.281	2.180856	-14.99576	0.11	3	99	0	6546	-12.6153	26.13525	144.1367	
13:46:03	-6.728586	38.94613	135.302	2.193177	1.66106	0.04	3	99	0	6546	-13.5725	21.78281	143.8533	
13:46:03	-6.728586	38.94613	135.32	2.228537	3.719822	0.07	3	99	0	6546	-11.83862	18.84255	147.766	
13:46:03	-6.728586	38.94613	135.34	2.239365	-7.979695	0.14	3	99	0	6546	-9.440565	14.34329	150.8157	
13:46:03	-6.728586	38.94613	135.404	2.235042	-10.93125	0.04	3	99	0	6546	-10.60948	15.69022	150.467	
13:46:04	-6.728586	38.94613	135.409	2.218805	-19.14804	0.16	3	99	0	6546	-11.08707	18.7717	149.8564	
13:46:04	-6.728586	38.94613	135.438	2.200221	-16.55417	0.03	3	99	0	6546	-10.41832	19.29948	149.8723	
13:46:04	-6.728587	38.94613	135.434	2.193384	-12.53724	0.18	3	99	0	6546	-8.773464	19.777	149.5563	
13:46:04	-6.728587	38.94613	135.431	2.229788	-13.65435	0.17	3	99	0	6546	-9.37971	20.42226	147.8635	
13:46:05	-6.728587	38.94613	135.417	2.270912	-6.518992	0.09	3	99	0	6546	-11.14583	21.49122	146.3726	
13:46:05	-6.728587	38.94613	135.431	2.304123	-7.116112	0.04	3	99	0	6546	-11.16649	23.34229	145.0356	
13:46:05	-6.728587	38.94613	135.495	2.331526	-4.116795	0.06	3	99	0	6546	-10.88072	24.33628	144.7571	
13:46:05	-6.728587	38.94613	135.552	2.443853	3.898064	0.11	3	99	0	6546	-11.04261	23.72048	144.7038	
13:46:06	-6.728587	38.94613	135.558	2.556719	8.264631	0.17	3	99	0	6546	-11.84487	23.40552	143.3775	
13:46:06	-6.728587	38.94613	135.542	2.588084	11.27189	0.08	3	99	0	6546	-11.74811	22.98713	142.0411	
13:46:06	-6.728587	38.94613	135.56	2.617792	12.36609	0.14	3	99	0	6546	-10.79437	20.66043	142.3894	
13:46:06	-6.728587	38.94613	135.615	2.636725	10.20878	0.18	3	99	0	6546	-10.77063	20.39268	143.0886	
13:46:07	-6.728587	38.94613	135.67	2.64642	7.652976	0.08	3	99	0	6546	-11.90111	20.85987	142.1882	
13:46:07	-6.728587	38.94613	135.691	2.679734	10.28112	0.18	3	99	0	6546	-11.27912	19.92454	141.9669	
13:46:07	-6.728587	38.94614	135.669	2.711192	9.016907	0.04	3	99	0	6546	-11.92328	19.55859	142.7744	
13:46:07	-6.728587	38.94614	135.631	2.646493	6.714898	0.14	3	99	0	6546	-12.54799	20.60119	142.1282	
13:46:07	-6.728587	38.94614	135.614	2.582993	0.7017799	0.28	3	99	0	6546	-14.22411	22.36384	140.3021	
13:46:07	-6.728587	38.94614	135.618	2.542589	1.676718	0.29	3	99	0	6546	-15.74003	22.54322	138.2195	
13:46:08	-6.728587	38.94614	135.614	2.514812	4.024306	0.19	3	99	0	6546	-16.0413	20.83712	134.9508	
13:46:08	-6.728587	38.94614	135.592	2.525362	6.510993	0.13	3	99	0	6546	-19.69366	20.32798	131.9637	
13:46:08	-6.728587	38.94614	135.561	2.538468	3.027768	0.07	3	99	0	6546	-22.40328	21.70623	128.8555	
13:46:08	-6.728587	38.94614	135.533	2.542558	-3.179636	0.09	3	99	0	6546	-26.3148	24.76413	126.0164	
13:46:09	-6.728587	38.94614	135.496	2.536525	-8.111671	0.09	3	99	0	6546	-31.20096	28.34715	121.8409	
13:46:09	-6.728587	38.94614	135.466	2.506887	-2.928256	0.04	3	99	0	6546	-32.37079	27.46463	120.126	
13:46:09	-6.728587	38.94614	135.443	2.49387	5.018219	0.22	3	99	0	6546	-31.83822	25.49822	118.2665	
13:46:09	-6.728587	38.94614	135.4	2.481639	1.939927	0.07	3	99	0	6546	-33.34248	26.68176	118.4569	
13:46:09	-6.728587	38.94614	135.4	2.46527	0.3092696	0.11	3	99	0	6546	-33.03131	28.75712	117.8401	
13:46:09	-6.728587	38.94614	135.397	2.447657	0.1228574	0.07	3	99	0	6546	-34.92347	29.24195	117.1357	
13:46:10	-6.728587	38.94614	135.397	2.434195	2.045252	0.21	3	99	0	6546	-35.55854	28.41005	117.4184	
13:46:10	-6.728587	38.94614	135.389	2.41042	2.158738	0.22	3	99	0	6546	-38.27525	29.39684	115.2999	
13:46:10	-6.728587	38.94614	135.298	2.36675	-4.619318	0.07	3	99	0	6546	-40.93122	28.02373	111.6828	
13:46:10	-6.728587	38.94614	135.256	2.356427	2.107332	0.06	3	99	0	6546	-44.1116	27.88681	108.9258	
13:46:11	-6.728588	38.94614	135.193	2.362878	-0.1550686	0.55	3	99	0	6546	-43.00328	27.1493	109.9722	
13:46:11	-6.728588	38.94614	135.094	2.360569	-0.8464957	0.96	3	99	0	6546	-40.69904	26.79549	111.8212	
13:46:11	-6.728589	38.94614	135.039	2.350672	-4.434693	0.19	3	99	0	6546	-40.09978	26.00521	111.227	
