Date	Latitude(deg) 	Longitude(deg)	hamsl(m)	hafl(m)	climbrate(cm/s)	GroundSpeed(m/s)	Airspeed(m/s)	Mav_Link(%)	Rssi_Link(%)	Throttle	Roll(deg)	Pitch(deg)	Yaw(deg)
08:31:21	0	0	0	0	0	0	0	100	0	0	0	0	0	
08:31:21	0	0	0	-0.5390483	-0.07620773	0	3	100	0	50	2.965474	-0.9691994	48.93348	
08:31:21	0	0	0	-0.5387484	0.4940961	0	3	100	0	50	2.952246	-0.9579462	48.82259	
08:31:21	0	0	0	-0.5966808	-2.318535	0	3	100	0	50	2.942183	-0.959415	48.78564	
08:31:22	0	0	0	-0.7472568	-9.857006	0	3	100	0	50	2.937223	-0.933238	48.76357	
08:31:22	0	0	0	-0.7617264	-8.976105	0	3	100	0	50	2.933199	-0.9212838	48.72882	
08:31:22	0	0	0	-0.7067244	-4.720403	0	3	100	0	50	2.922972	-0.9200931	48.72374	
08:31:22	0	0	0	-0.5112038	6.629163	0	3	100	0	50	2.919817	-0.9302738	48.68834	
08:31:22	0	0	0	-0.2419669	20.93125	0	3	100	0	50	2.910382	-0.9453188	48.71138	
08:31:23	0	0	0	-0.009762641	31.61043	0	3	100	0	50	2.901467	-0.9646449	48.66792	
08:31:23	0	0	0	0.2386286	42.32496	0	3	100	0	50	2.901882	-0.9697687	48.68657	
08:31:23	0	0	0	0.3804686	46.02767	0	3	100	0	50	2.886479	-0.9629193	48.68623	
08:31:23	0	0	0	0.387386	42.02414	0	3	100	0	50	2.885007	-0.9674485	48.64751	
08:31:23	0	0	0	0.396329	38.89402	0	3	100	0	50	2.876874	-0.9837852	48.65429	
08:31:24	0	0	0	0.4134044	35.74528	0	3	100	0	50	2.881991	-0.988975	48.55082	
08:31:24	0	0	0	0.4204536	33.40181	0	3	100	0	50	2.877603	-1.004787	48.52021	
08:31:24	0	0	0	0.3909747	29.3507	0	3	100	0	50	2.87913	-0.9920014	48.46427	
08:31:24	0	0	0	0.3591383	25.37699	0	3	100	0	50	2.872726	-0.9880266	48.36392	
08:31:25	0	0	0	0.3400654	22.29884	0	3	100	0	50	2.873388	-0.987795	48.35003	
08:31:25	0	0	0	0.3212798	19.77618	0	3	100	0	50	2.896418	-0.977662	48.31543	
08:31:25	0	0	0	0.2785451	16.16905	0	3	100	0	50	2.89964	-0.9781275	48.26674	
08:31:25	0	0	0	0.2374382	13.25547	0	3	100	0	50	2.8971	-0.9917949	48.21565	
08:31:25	0	0	0	0.2223179	11.77067	0	3	100	0	50	2.895667	-0.9960081	48.25055	
08:31:25	0	0	0	0.2068388	10.08221	0	3	100	0	50	2.908323	-0.9855286	48.2107	
08:31:26	0	0	0	0.2511778	11.99521	0	3	100	0	50	2.910657	-0.9855514	48.24855	
08:31:26	0	0	0	0.2861746	12.53559	0	3	100	0	50	2.906493	-0.9893325	48.21445	
08:31:26	0	0	0	0.1777584	5.658555	0	3	100	0	50	2.890194	-0.9910315	48.12828	
08:31:26	0	0	0	0.07743685	0.1048048	0	3	100	0	50	2.879423	-1.003258	48.12422	
08:31:26	0	0	0	0.02210131	-2.000346	0	3	100	0	50	2.887079	-0.9999268	48.11201	
08:31:27	0	0	0	-0.02227766	-3.945074	0	3	100	0	50	2.885716	-0.9845529	48.06263	
08:31:27	0	0	0	-0.04172538	-4.569527	0	3	100	0	50	2.886614	-0.9981937	48.11025	
08:31:27	0	0	0	-0.05818757	-4.862028	0	3	100	0	50	2.874017	-1.010362	48.13254	
08:31:27	0	0	0	-0.02448093	-2.468438	0	3	100	0	50	2.872165	-1.011277	48.12204	
08:31:27	0	0	0	0.006729411	-0.3580324	0	3	100	0	50	2.878786	-1.006092	48.08701	
08:31:28	0	0	0	0.04631588	2.079564	0	3	100	0	50	2.887249	-0.9896384	48.05103	
08:31:28	0	0	0	0.07905293	4.034989	0	3	100	0	50	2.890866	-0.9791192	48.01548	
08:31:28	0	0	0	0.01106967	0.7347457	0	3	100	0	50	2.886662	-1.000297	48.01038	
08:31:28	0	0	0	-0.04987329	-1.842227	0	3	100	0	50	2.883623	-0.9993625	48.01226	
08:31:29	0	0	0	-0.08216961	-2.974579	0	3	100	0	50	2.885752	-0.9779381	48.02094	
08:31:29	0	0	0	-0.107579	-3.56097	0	3	100	0	50	2.883989	-0.9946573	48.00272	
08:31:29	0	0	0	-0.13777	-4.532031	0	3	100	0	50	2.89074	-0.9937791	47.9797	
08:31:29	0	0	0	-0.1629575	-5.2832	0	3	100	0	50	2.890762	-0.9912546	47.93919	
08:31:29	0	0	0	-0.180382	-5.859557	0	3	100	0	50	2.904765	-0.9939176	47.92354	
08:31:29	0	0	0	-0.1846898	-4.920224	0	3	100	0	50	2.918081	-0.9919084	47.85786	
08:31:30	0	0	0	-0.182989	-3.77372	0	3	100	0	50	2.92398	-0.9826362	47.80585	
08:31:30	0	0	0	-0.177716	-2.820138	0	3	100	0	50	2.921305	-0.9815526	47.71953	
08:31:30	0	0	0	-0.1655822	-1.702525	0	3	100	0	50	2.932753	-0.9937331	47.65845	
08:31:30	0	0	0	-0.1476491	-0.3309389	0	3	100	0	50	2.925206	-0.9899353	47.60828	
08:31:31	0	0	0	-0.1130493	1.842854	0	3	100	0	50	2.921828	-0.979742	47.53508	
08:31:31	0	0	0	-0.06093065	4.659086	0	3	100	0	50	2.91911	-0.9822994	47.58186	
08:31:31	0	0	0	-0.02719439	6.177253	0	3	100	0	50	2.910054	-0.9960483	47.54686	
08:31:31	0	0	0	-0.01648769	6.234043	0	3	100	0	50	2.905005	-1.006855	47.5718	
08:31:31	0	0	0	-0.01885498	5.532948	0	3	100	0	50	2.910357	-0.9878535	47.53983	
08:31:31	0	0	0	-0.03965463	3.955623	0	3	100	0	50	2.910882	-1.008459	47.5119	
08:31:32	0	0	0	-0.09458236	0.8572584	0	3	100	0	50	2.905005	-0.9835985	47.43526	
08:31:32	0	0	0	-0.1611933	-2.468077	0	3	100	0	50	2.888384	-0.9570626	47.42482	
08:31:32	0	0	0	-0.2376719	-5.815094	0	3	100	0	50	2.889049	-0.9784396	47.35567	
08:31:32	0	0	0	-0.3159889	-9.168306	0	3	100	0	50	2.885241	-0.9860046	47.423	
08:31:32	0	0	0	-0.3927043	-12.50764	0	3	100	0	50	2.886955	-0.9815067	47.37542	
08:31:33	0	0	0	-0.4651545	-14.61193	0	3	100	0	50	2.883242	-0.9658667	47.31206	
08:31:33	0	0	0	-0.479153	-13.73324	0	3	100	0	50	2.882863	-0.9607939	47.30099	
08:31:33	0	0	0	-0.4365964	-9.873819	0	3	100	0	50	2.871191	-0.9434201	47.3165	
08:31:33	0	0	0	-0.3816107	-5.642647	0	3	100	0	50	2.864594	-0.9464042	47.25003	
08:31:34	0	0	0	-0.3129889	-1.870687	0	3	100	0	50	2.857418	-0.9371328	47.2438	
08:31:34	0	0	0	-0.2562285	1.971629	0	3	100	0	50	2.84988	-0.9592494	47.19771	
08:31:34	0	0	0	-0.2739674	1.331511	0	3	100	0	50	2.844073	-0.9350676	47.20998	
08:31:34	0	0	0	-0.2900958	0.4746481	0	3	100	0	50	2.848135	-0.9321423	47.20403	
08:31:34	0	0	0	-0.3487415	-1.915137	0	3	100	0	50	2.848747	-0.9593817	47.17404	
08:31:34	0	0	0	-0.395692	-4.315915	0	3	100	0	50	2.861662	-0.9645804	47.05655	
08:31:35	0	0	0	-0.4141521	-4.959376	0	3	100	0	50	2.879297	-0.9833804	46.97434	
08:31:35	0	0	0	-0.430172	-5.288349	0	3	100	0	50	2.889363	-0.9881462	46.95887	
08:31:35	0	0	0	-0.45477	-5.779845	0	3	100	0	50	2.890688	-1.000817	46.9446	
08:31:35	0	0	0	-0.4719856	-5.984448	0	3	100	0	50	2.881497	-1.024078	46.9034	
08:31:35	0	0	0	-0.467672	-5.027069	0	3	100	0	50	2.884676	-1.019526	46.95351	
08:31:36	0	0	0	-0.4628114	-3.961059	0	3	100	0	50	2.892351	-1.029836	46.84719	
08:31:36	0	0	0	-0.4834993	-4.22271	0	3	100	0	50	2.886208	-1.053208	46.81481	
08:31:36	0	0	0	-0.5004625	-4.020643	0	3	100	0	50	2.87554	-1.080109	46.8331	
08:31:37	0	0	0	-0.5194487	-4.550108	0	3	100	0	50	2.869268	-1.110637	46.88585	
08:31:37	0	0	0	-0.535607	-4.74418	0	3	100	0	50	2.873196	-1.100478	46.82731	
08:31:37	0	0	0	-0.5092686	-2.53719	0	3	100	0	50	2.891318	-1.086675	46.89206	
08:31:37	0	0	0	-0.481056	-0.2310915	0	3	100	0	50	2.898696	-1.079156	46.84183	
08:31:37	0	0	0	-0.437423	1.800022	0	3	100	0	50	2.898351	-1.072492	46.84577	
08:31:37	0	0	0	-0.3986244	3.274701	0	3	100	0	50	2.88718	-1.077538	46.86496	
08:31:38	0	0	0	-0.3646738	4.447675	0	3	100	0	50	2.887287	-1.049836	46.93195	
08:31:38	0	0	0	-0.3377545	5.736231	0	3	100	0	50	2.880576	-1.059567	46.92814	
08:31:38	0	0	0	-0.3083704	7.195919	0	3	100	0	50	2.887536	-1.053368	46.94528	
08:31:38	0	0	0	-0.2822224	8.115705	0	3	100	0	50	2.901126	-1.054987	47.0019	
08:31:39	0	0	0	-0.2501632	9.107421	0	3	100	0	50	2.892718	-1.054757	46.95587	
08:31:39	0	0	0	-0.2247227	10.21054	0	3	100	0	50	2.897345	-1.059596	46.94878	
08:31:39	0	0	0	-0.2118646	9.313053	0	3	100	0	50	2.908886	-1.055215	46.89433	
08:31:39	0	0	0	-0.218633	8.590636	0	3	100	0	50	2.919878	-1.066078	46.87152	
08:31:39	0	0	0	-0.2337152	6.347484	0	3	100	0	50	2.915196	-1.057546	46.75718	
08:31:39	0	0	0	-0.2623256	4.351566	0	3	100	0	50	2.934541	-1.063771	46.76195	
08:31:40	0	0	0	-0.2731358	3.651645	0	3	100	0	50	2.926334	-1.082572	46.69565	
08:31:40	0	0	0	-0.2752782	2.764282	0	3	100	0	50	2.929415	-1.09274	46.68389	
08:31:40	0	0	0	-0.2955126	1.784037	0	3	100	0	50	2.945628	-1.084513	46.66273	
08:31:40	0	0	0	-0.3246258	0.6860707	0	3	100	0	50	2.935915	-1.078789	46.73095	
08:31:40	0	0	0	-0.3307062	0.4083028	0	3	100	0	50	2.931658	-1.075832	46.7348	
08:31:41	0	0	0	-0.3210449	1.099594	0	3	100	0	50	2.9228	-1.077449	46.67567	
08:31:41	0	0	0	-0.3095395	1.95494	0	3	100	0	50	2.929317	-1.057263	46.57078	
08:31:41	0	0	0	-0.2975012	2.354183	0	3	100	0	50	2.917067	-1.032548	46.57799	
08:31:41	0	0	0	-0.2728606	2.954428	0	3	100	0	50	2.922453	-1.018177	46.5727	
08:31:41	0	0	0	-0.2290795	5.004883	0	3	100	0	50	2.920531	-1.01921	46.54755	
08:31:41	0	0	0	-0.2058235	5.621988	0	3	100	0	50	2.925564	-1.042838	46.55745	
08:31:42	0	0	0	-0.1936785	5.133214	0	3	100	0	50	2.940084	-1.071223	46.43508	
08:31:42	0	0	0	-0.1684895	6.344472	0	3	100	0	50	2.934662	-1.076396	46.42773	
08:31:42	0	0	0	-0.1360631	7.7461	0	3	100	0	50	2.940715	-1.057939	46.39	
08:31:42	0	0	0	-0.1147456	8.240112	0	3	100	0	50	2.958925	-1.057953	46.40744	
08:31:42	0	0	0	-0.09840624	8.629793	0	3	100	0	50	2.958234	-1.046004	46.38926	
08:31:43	0	0	0	-0.09022737	8.202769	0	3	100	0	50	2.954994	-1.045294	46.34397	
08:31:43	0	0	0	-0.08940432	7.233142	0	3	100	0	50	2.965812	-1.030036	46.37252	
08:31:43	0	0	0	-0.08505468	7.07809	0	3	100	0	50	2.984439	-1.022428	46.37917	
08:31:43	0	0	0	-0.07483395	7.297467	0	3	100	0	50	2.983311	-1.028501	46.44925	
08:31:43	0	0	0	-0.06549201	7.116009	0	3	100	0	50	2.983464	-1.012323	46.3979	
08:31:44	0	0	0	-0.06811393	6.529901	0	3	100	0	50	2.985621	-1.021458	46.27229	
08:31:44	0	0	0	-0.07106645	6.31643	0	3	100	0	50	2.997405	-1.021938	46.2632	
08:31:44	0	0	0	-0.04332625	7.229871	0	3	100	0	50	2.990613	-1.014722	46.19618	
08:31:44	0	0	0	-0.02164681	7.710708	0	3	100	0	50	2.983991	-1.004936	46.21633	
08:31:45	0	0	0	-0.01019646	7.314681	0	3	100	0	50	2.971004	-1.000916	46.28372	
08:31:45	0	0	0	-0.001708735	7.460395	0	3	100	0	50	2.963558	-0.9913034	46.23664	
08:31:45	0	0	0	0.0704837	10.8653	0	3	100	0	50	2.96543	-0.998184	46.28689	
08:31:45	0	0	0	0.1238603	12.79866	0	3	100	0	50	2.971101	-0.9956704	46.2442	
08:31:45	0	0	0	0.1902968	15.38913	0	3	100	0	50	2.965939	-0.9924806	46.18575	
08:31:46	0	0	0	0.2485908	16.9592	0	3	100	0	50	2.950498	-0.9933637	46.14101	
08:31:46	0	0	0	0.1940031	12.68204	0	3	100	0	50	2.936957	-0.9825529	46.15453	
08:31:46	0	0	0	0.1363473	8.212344	0	3	100	0	50	2.932536	-0.9743997	46.17495	
08:31:46	0	0	0	0.1186328	6.308313	0	3	100	0	50	2.945119	-0.9582718	46.15392	
08:31:46	0	0	0	0.1029005	4.776905	0	3	100	0	50	2.965203	-0.9485162	46.098	
08:31:47	0	0	0	0.04024811	1.039863	0	3	100	0	50	2.96421	-0.9499555	46.06749	
08:31:47	0	0	0	-0.01649664	-1.780364	0	3	100	0	50	2.966735	-0.9733552	46.03922	
08:31:47	0	0	0	-0.05302681	-3.858619	0	3	100	0	50	2.959126	-0.9817232	46.00646	
08:31:47	0	0	0	-0.07959235	-4.576344	0	3	100	0	50	2.957527	-0.9922585	46.06197	
08:31:47	0	0	0	-0.06033807	-2.975137	0	3	100	0	50	2.952163	-0.9766821	45.99113	
08:31:47	0	0	0	-0.04340518	-1.424869	0	3	100	0	50	2.95848	-0.9692201	46.05864	
08:31:48	0	0	0	0.01778539	1.968907	0	3	100	0	50	2.962207	-0.9783716	45.96914	
08:31:48	0	0	0	0.07304302	4.601072	0	3	100	0	50	2.967717	-0.980631	46.03696	
08:31:48	0	0	0	0.1410365	7.852853	0	3	100	0	50	2.963214	-0.9774582	46.03833	
08:31:48	0	0	0	0.1964656	10.5659	0	3	100	0	50	2.956759	-0.9908346	46.04057	
08:31:49	0	0	0	0.2420218	11.78239	0	3	100	0	50	2.955895	-1.002121	46.02479	
08:31:49	0	0	0	0.2669728	11.93812	0	3	100	0	50	2.956005	-1.024631	45.97232	
08:31:49	0	0	0	0.2615394	10.11208	0	3	100	0	50	2.95522	-1.035833	46.02581	
08:31:49	0	0	0	0.2259113	6.788944	0	3	100	0	50	2.941797	-1.047583	45.99797	
08:31:50	0	0	0	0.1877708	4.150847	0	3	100	0	50	2.939584	-1.024295	45.98888	
08:31:50	0	0	0	0.1477301	2.071279	0	3	100	0	50	2.945142	-1.010092	45.96753	
08:31:50	0	0	0	0.05334496	-2.770897	0	3	100	0	50	2.947383	-1.002297	45.96463	
08:31:50	0	0	0	-0.06955614	-8.794263	0	3	100	0	50	2.949965	-0.9920889	45.86168	
08:31:50	0	0	0	-0.1553088	-12.41449	0	3	100	0	50	2.937891	-1.005727	45.85613	
08:31:51	0	0	0	-0.2294269	-15.12831	0	3	100	0	50	2.950052	-1.001259	45.81171	
08:31:51	0	0	0	-0.2790741	-15.8998	0	3	100	0	50	2.932955	-1.001406	45.81723	
08:31:51	0	0	0	-0.2994848	-15.44985	0	3	100	0	50	2.93417	-1.007077	45.79704	
08:31:51	0	0	0	-0.3140489	-15.19242	0	3	100	0	50	2.935015	-1.018998	45.8724	
08:31:51	0	0	0	-0.3225133	-13.91397	0	3	100	0	50	2.945194	-1.033268	45.89577	
08:31:52	0	0	0	-0.3370535	-13.52962	0	3	100	0	50	2.952793	-1.009467	45.87103	
08:31:52	0	0	0	-0.3527767	-13.18938	0	3	100	0	50	2.947861	-1.013406	45.91407	
08:31:52	0	0	0	-0.3834104	-13.49713	0	3	100	0	50	2.964398	-1.013982	45.95242	
08:31:52	0	0	0	-0.4290811	-14.25846	0	3	100	0	50	2.96695	-1.019842	45.97492	
08:31:52	0	0	0	-0.4402983	-12.82056	0	3	100	0	50	2.96188	-1.035273	46.00773	
08:31:53	0	0	0	-0.4324221	-11.05376	0	3	100	0	50	2.95577	-1.059778	46.02841	
08:31:53	0	0	0	-0.3826628	-7.268132	0	3	100	0	50	2.961419	-1.041238	45.95604	
08:31:53	0	0	0	-0.2957324	-1.617902	0	3	100	0	50	2.968439	-1.041937	45.96228	
08:31:53	0	0	0	-0.235586	2.086732	0	3	100	0	50	2.973122	-1.01154	45.93742	
08:31:54	0	0	0	-0.197659	4.062284	0	3	100	0	50	2.982154	-1.002447	46.00356	
08:31:54	0	0	0	-0.1634355	5.738753	0	3	100	0	50	2.992202	-1.014504	46.0116	
08:31:54	0	0	0	-0.167297	5.027477	0	3	100	0	50	3.00093	-1.015597	45.97675	
08:31:54	0	0	0	-0.171986	3.837533	0	3	100	0	50	3.011665	-1.028808	46.00639	
08:31:54	0	0	0	-0.1872407	3.367679	0	3	100	0	50	3.021281	-1.021024	46.00334	
08:31:55	0	0	0	-0.1993539	2.813711	0	3	100	0	50	3.029256	-1.035007	45.94342	
08:31:55	0	0	0	-0.2302456	1.075889	0	3	100	0	50	3.035196	-1.050323	45.93455	
08:31:55	0	0	0	-0.2584558	-0.3103784	0	3	100	0	50	3.031801	-1.051563	45.96791	
08:31:55	0	0	0	-0.3282472	-4.549931	0	3	100	0	50	3.030902	-1.077893	45.97837	
08:31:55	0	0	0	-0.3909045	-7.371589	0	3	100	0	50	3.02022	-1.078346	45.97936	
08:31:56	0	0	0	-0.4084452	-7.062634	0	3	100	0	50	3.018601	-1.080214	45.9866	
08:31:56	0	0	0	-0.4215526	-7.555441	0	3	100	0	50	3.020737	-1.072576	45.88967	
08:31:56	0	0	0	-0.4608846	-9.262224	0	3	100	0	50	3.025009	-1.0857	45.91882	
08:31:56	0	0	0	-0.4954616	-10.37178	0	3	100	0	50	3.011763	-1.085999	45.98469	
08:31:56	0	0	0	-0.5296666	-10.71149	0	3	100	0	50	3.014736	-1.073154	45.95169	
08:31:57	0	0	0	-0.5557048	-10.92473	0	3	100	0	50	3.004683	-1.058652	45.98328	
08:31:57	0	0	0	-0.5409663	-9.320412	0	3	100	0	50	3.002643	-1.043646	46.00096	
08:31:57	0	0	0	-0.5257843	-7.626694	0	3	100	0	50	3.004396	-1.045096	46.01124	
08:31:57	0	0	0	-0.5470496	-8.443322	0	3	100	0	50	3.008904	-1.030143	46.07501	
08:31:57	0	0	0	-0.5671644	-8.94419	0	3	100	0	50	2.999111	-1.035427	46.09053	
08:31:58	0	0	0	-0.5110886	-5.39655	0	3	100	0	50	2.989337	-1.068316	46.16806	
08:31:58	0	0	0	-0.4601505	-2.585326	0	3	100	0	50	3.001679	-1.049283	46.11426	
08:31:58	0	0	0	-0.4325863	-0.7024287	0	3	100	0	50	3.006121	-1.041141	46.16079	
08:31:58	0	0	0	-0.4074706	0.3957177	0	3	100	0	50	3.01692	-1.033577	46.15834	
08:31:58	0	0	0	-0.3841002	1.962471	0	3	100	0	50	3.020308	-1.029421	46.1334	
08:31:59	0	0	0	-0.3600779	2.819072	0	3	100	0	50	3.017972	-1.054964	46.1333	
08:31:59	0	0	0	-0.3494462	2.710619	0	3	100	0	50	3.026214	-1.044919	46.15351	
08:31:59	0	0	0	-0.3544254	2.410725	0	3	100	0	50	3.02772	-1.032592	46.14715	
08:31:59	0	0	0	-0.363743	1.339784	0	3	100	0	50	3.027087	-1.028157	46.1709	
08:32:00	0	0	0	-0.3804734	0.05089889	0	3	100	0	50	3.017066	-1.026365	46.17141	
08:32:00	0	0	0	-0.396794	-0.9898342	0	3	100	0	50	3.015336	-1.015909	46.15988	
08:32:00	0	0	0	-0.4117188	-2.080553	0	3	100	0	50	3.010307	-1.006594	46.13073	
08:32:00	0	0	0	-0.4176241	-2.133621	0	3	100	0	50	2.999213	-1.014159	46.07678	
08:32:00	0	0	0	-0.4135912	-2.091942	0	3	100	0	50	2.992062	-1.004251	46.14919	
08:32:00	0	0	0	-0.4146708	-1.830512	0	3	100	0	50	2.986598	-1.000721	46.15298	
08:32:01	0	0	0	-0.4193216	-1.590906	0	3	100	0	50	2.973112	-1.006677	46.13309	
08:32:01	0	0	0	-0.4171228	-1.289802	0	3	100	0	50	2.972814	-1.011481	46.08849	
08:32:01	0	0	0	-0.4088598	-1.188183	0	3	100	0	50	2.977467	-1.017949	46.06422	
08:32:01	0	0	0	-0.3979706	-0.5766664	0	3	100	0	50	2.972434	-1.005632	46.09447	
08:32:02	0	0	0	-0.3794912	0.7083627	0	3	100	0	50	2.982881	-0.9971077	46.16564	
08:32:02	0	0	0	-0.3879699	-0.08076669	0	3	100	0	50	2.990323	-1.000111	46.16969	
08:32:02	0	0	0	-0.4115891	-1.689894	0	3	100	0	50	2.995504	-0.9982984	46.17492	
08:32:02	0	0	0	-0.4195099	-2.359376	0	3	100	0	50	2.996253	-0.9919927	46.15397	
08:32:02	0	0	0	-0.4131462	-1.917455	0	3	100	0	50	2.99316	-0.9832401	46.23923	
08:32:02	0	0	0	-0.4006683	-1.134858	0	3	100	0	50	2.993105	-0.9698982	46.25225	
08:32:03	0	0	0	-0.3815798	-0.1629178	0	3	100	0	50	2.993069	-0.9766702	46.24975	
08:32:03	0	0	0	-0.3531225	1.405897	0	3	100	0	50	2.997981	-0.9856446	46.25647	
08:32:03	0	0	0	-0.3123027	3.787184	0	3	100	0	50	3.003184	-0.9726092	46.18546	
08:32:03	0	0	0	-0.2627967	6.17352	0	3	100	0	50	3.011764	-0.9800329	46.23245	
08:32:03	0	0	0	-0.1951009	9.396688	0	3	100	0	50	3.008319	-0.9871203	46.24817	
08:32:03	0	0	0	-0.1407988	11.03356	0	3	100	0	50	3.014863	-0.9945427	46.24004	
08:32:04	0	0	0	-0.1275253	10.24132	0	3	100	0	50	3.006681	-0.9932019	46.15616	
08:32:04	0	0	0	-0.1175814	10.10507	0	3	100	0	50	2.99449	-1.031894	46.19313	
08:32:04	0	0	0	-0.127116	9.027678	0	3	100	0	50	2.999491	-1.02184	46.12705	
08:32:04	0	0	0	-0.1364123	7.526347	0	3	100	0	50	3.009137	-1.014637	46.157	
08:32:04	0	0	0	-0.180801	4.661232	0	3	100	0	50	3.018766	-1.005668	46.13135	
08:32:05	0	0	0	-0.2145115	2.885597	0	3	100	0	50	3.024405	-1.01864	46.07932	
08:32:05	0	0	0	-0.2640509	-0.1016325	0	3	100	0	50	3.02759	-1.035361	46.13931	
08:32:05	0	0	0	-0.3094092	-2.124569	0	3	100	0	50	3.045493	-1.001696	46.12054	
08:32:05	0	0	0	-0.3261418	-2.046015	0	3	100	0	50	3.046492	-0.9874613	46.02031	
08:32:05	0	0	0	-0.3369434	-2.192445	0	3	100	0	50	3.052181	-0.9781278	45.95435	
08:32:06	0	0	0	-0.4129609	-6.145223	0	3	100	0	50	3.045563	-0.984752	46.01506	
08:32:06	0	0	0	-0.4741015	-8.311235	0	3	100	0	50	3.056599	-0.9886798	46.06316	
08:32:06	0	0	0	-0.5256808	-9.892223	0	3	100	0	50	3.06273	-0.9980185	46.0353	
08:32:06	0	0	0	-0.5660892	-10.94762	0	3	100	0	50	3.059637	-1.000379	46.02876	
08:32:06	0	0	0	-0.6107749	-12.12639	0	3	100	0	50	3.073883	-0.9794623	46.00424	
08:32:06	0	0	0	-0.6496965	-13.18074	0	3	100	0	50	3.071487	-0.9929286	45.938	
08:32:07	0	0	0	-0.6614492	-12.92198	0	3	100	0	50	3.07151	-0.9909323	45.9663	
08:32:07	0	0	0	-0.669498	-11.89206	0	3	100	0	50	3.088745	-0.9592483	45.89458	
08:32:07	0	0	0	-0.6322354	-8.975388	0	3	100	0	50	3.090832	-0.9603261	45.9345	
08:32:07	0	0	0	-0.5930694	-6.098909	0	3	100	0	50	3.097332	-0.9424794	45.87642	
08:32:07	0	0	0	-0.639517	-7.630084	0	3	100	0	50	3.097821	-0.9597391	45.85542	
08:32:08	0	0	0	-0.6796539	-8.831337	0	3	100	0	50	3.093136	-0.9591942	45.87968	
08:32:08	0	0	0	-0.6922849	-8.995058	0	3	100	0	50	3.074541	-0.989274	45.86113	
08:32:08	0	0	0	-0.7042862	-8.207207	0	3	100	0	50	3.07123	-0.9999302	45.87352	
08:32:08	0	0	0	-0.7004281	-6.821402	0	3	100	0	50	3.060949	-1.011182	45.81231	
08:32:08	0	0	0	-0.6805887	-5.299795	0	3	100	0	50	3.059171	-1.018066	45.81831	
08:32:09	0	0	0	-0.6405948	-2.564024	0	3	100	0	50	3.064946	-1.023753	45.82681	
08:32:09	0	0	0	-0.566361	1.776161	0	3	100	0	50	3.064431	-1.018008	45.80701	
08:32:09	0	0	0	-0.5252248	4.32529	0	3	100	0	50	3.06607	-1.020686	45.8397	
08:32:09	0	0	0	-0.5009491	5.364572	0	3	100	0	50	3.05751	-1.009473	45.83078	
08:32:09	0	0	0	-0.5177696	4.106184	0	3	100	0	50	3.057247	-0.9967489	45.81728	
08:32:10	0	0	0	-0.5572878	1.809841	0	3	100	0	50	3.0516	-1.001692	45.91109	
08:32:10	0	0	0	-0.5817546	0.5263034	0	3	100	0	50	3.054033	-0.9990062	45.87806	
08:32:10	0	0	0	-0.5993859	-0.5548629	0	3	100	0	50	3.05461	-1.004332	45.95074	
08:32:10	0	0	0	-0.6007331	-0.3726809	0	3	100	0	50	3.056314	-1.009978	45.95754	
08:32:10	0	0	0	-0.5807458	1.117407	0	3	100	0	50	3.059509	-0.9968513	45.85279	
08:32:11	0	0	0	-0.5446048	2.681583	0	3	100	0	50	3.07168	-1.009227	45.86432	
08:32:11	0	0	0	-0.4798098	5.989153	0	3	100	0	50	3.073301	-1.02651	45.91872	
08:32:11	0	0	0	-0.4320856	8.30809	0	3	100	0	50	3.083217	-1.034638	45.87102	
08:32:11	0	0	0	-0.3923587	9.625382	0	3	100	0	50	3.099015	-1.005813	45.80743	
08:32:11	0	0	0	-0.3609892	10.35682	0	3	100	0	50	3.096151	-1.015147	45.85506	
08:32:12	0	0	0	-0.337332	10.73175	0	3	100	0	50	3.105858	-1.022683	45.84608	
08:32:12	0	0	0	-0.3142049	11.01071	0	3	100	0	50	3.110439	-1.020255	45.80702	
08:32:12	0	0	0	-0.2864338	11.33714	0	3	100	0	50	3.105492	-1.024541	45.87497	
08:32:12	0	0	0	-0.2790598	10.79713	0	3	100	0	50	3.109876	-1.022675	45.85335	
08:32:12	0	0	0	-0.2912931	9.258121	0	3	100	0	50	3.119878	-1.008636	45.88035	
08:32:13	0	0	0	-0.29232	8.35549	0	3	100	0	50	3.122241	-1.007603	45.85776	
08:32:13	0	0	0	-0.2816569	8.058602	0	3	100	0	50	3.121241	-1.001129	45.87273	
08:32:13	0	0	0	-0.2747132	7.730436	0	3	100	0	50	3.116702	-1.002408	45.82282	
08:32:13	0	0	0	-0.2906132	6.381374	0	3	100	0	50	3.12234	-0.9857841	45.84539	
08:32:13	0	0	0	-0.3063465	5.34517	0	3	100	0	50	3.114666	-0.9818335	45.77411	
08:32:14	0	0	0	-0.3357565	3.292655	0	3	100	0	50	3.116816	-0.9918389	45.79935	
08:32:14	0	0	0	-0.3606572	1.540066	0	3	100	0	50	3.119598	-0.9922918	45.78138	
08:32:14	0	0	0	-0.3797857	-0.1040156	0	3	100	0	50	3.129776	-0.9897148	45.73701	
08:32:14	0	0	0	-0.3971385	-0.4997361	0	3	100	0	50	3.122608	-0.9794786	45.75286	
08:32:14	0	0	0	-0.3930091	-0.509636	0	3	100	0	50	3.127431	-0.997934	45.71875	
08:32:15	0	0	0	-0.3890398	0.1420466	0	3	100	0	50	3.131087	-1.02104	45.75097	
08:32:15	0	0	0	-0.3863584	0.9875296	0	3	100	0	50	3.127182	-1.014215	45.75325	
08:32:15	0	0	0	-0.3841376	0.1775149	0	3	100	0	50	3.134907	-0.9987468	45.71305	
08:32:15	0	0	0	-0.4172291	-1.466836	0	3	100	0	50	3.13878	-0.9813418	45.6811	
08:32:15	0	0	0	-0.4464868	-2.6087	0	3	100	0	50	3.144139	-0.9870183	45.70969	
08:32:16	0	0	0	-0.4833104	-3.908247	0	3	100	0	50	3.149909	-0.9960296	45.72533	
08:32:16	0	0	0	-0.5126613	-5.0809	0	3	100	0	50	3.152126	-1.001483	45.72917	
08:32:16	0	0	0	-0.5482464	-5.973936	0	3	100	0	50	3.147267	-1.007895	45.771	
08:32:16	0	0	0	-0.5733277	-6.642242	0	3	100	0	50	3.136424	-1.014945	45.82625	
08:32:17	0	0	0	-0.6051553	-7.725476	0	3	100	0	50	3.12711	-1.021272	45.77478	
08:32:17	0	0	0	-0.635225	-8.828783	0	3	100	0	50	2.360033	-1.0069	45.66683	
08:32:17	0	0	0	-0.6196696	-7.156813	0	3	100	0	50	-4.332541	-0.6531816	45.43993	
08:32:17	0	0	0	-0.6035695	-8.095383	0	3	100	0	50	5.315338	-1.057549	45.81809	
08:32:17	0	0	0	-0.6409879	-9.902259	0	3	100	0	50	3.261923	-1.089632	45.95148	
08:32:18	0	0	0	-0.6736701	-10.44562	0	3	100	0	50	-2.705974	-0.7522466	45.50089	
08:32:18	0	0	0	-0.6700833	-10.22501	0	3	100	0	50	-4.563593	-0.8380299	45.64483	
08:32:18	0	0	0	-0.6695803	-11.8559	0	3	100	0	50	-3.207783	-0.7171209	46.03993	
08:32:18	0	0	0	-0.6738983	-13.31212	0	3	100	0	50	4.155748	-1.195781	45.91459	
08:32:18	0	0	0	-0.682977	-14.61606	0	3	100	0	50	2.972744	-1.13092	47.46001	
08:32:19	0	0	0	-0.6723398	-11.72311	0	3	100	0	50	1.609757	-3.195209	46.30174	
08:32:19	0	0	0	-0.6412101	-7.503617	0	3	100	0	50	-0.2800548	-4.284808	44.29114	
08:32:19	0	0	0	-0.6149196	-8.767726	0	3	100	0	50	-2.937874	-2.596957	44.44703	
08:32:19	0	0	0	-0.6019911	-8.882952	0	3	100	0	50	3.019858	-3.825279	45.56012	
08:32:20	0	0	0	-0.5949891	-5.554142	0	3	100	0	50	3.896653	-5.050155	47.92865	
08:32:20	0	0	0	-0.5900302	-5.603636	0	3	100	0	50	1.700001	-5.391693	48.53297	
08:32:20	0	0	0	-0.5689366	-2.494626	0	3	100	0	50	-7.44214	-4.512828	46.93844	
08:32:20	0	0	0	-0.5410545	-3.148446	0	3	100	0	50	-6.848541	-4.465983	46.76093	
08:32:20	0	0	0	-0.516776	-2.854739	0	3	100	0	50	3.397407	-5.44559	46.46633	
08:32:20	0	0	0	-0.4981747	0.4070861	0	3	100	0	50	4.397394	-8.207114	46.39128	
08:32:21	0	0	0	-0.4744588	2.833239	0	3	100	0	50	5.025158	-9.868642	46.37932	
08:32:21	0	0	0	-0.4518306	1.71695	0	3	100	0	50	3.806102	-9.162319	45.21684	
08:32:21	0	0	0	-0.4267962	3.302699	0	3	100	0	50	3.222281	-9.257441	42.11436	
08:32:21	0	0	0	-0.3984929	4.301365	0	3	100	0	50	2.971065	-9.223256	41.31667	
08:32:22	0	0	0	-0.3948875	3.53993	0	3	100	0	50	4.931973	-8.937059	42.27628	
08:32:22	0	0	0	-0.4059536	3.24625	0	3	100	0	50	7.913252	-9.175756	43.77353	
08:32:22	0	0	0	-0.4167898	2.788378	0	3	100	0	50	-0.1857737	-8.485847	44.25514	
08:32:22	0	0	0	-0.431251	2.264189	0	3	100	0	50	-12.81193	-5.655478	43.55518	
08:32:22	0	0	0	-0.4609905	-3.614102	0	3	100	0	50	-8.937221	-4.428182	43.92869	
08:32:22	0	0	0	-0.5065733	-3.02976	0	3	100	0	50	5.824057	-7.732382	42.10538	
08:32:23	0	0	0	-0.5433534	-1.825314	0	3	100	0	50	9.977093	-11.3807	42.77824	
08:32:23	0	0	0	-0.5749458	-4.23612	0	3	100	0	50	20.3964	-13.63226	40.82442	
08:32:23	0	0	0	-0.6043909	-6.809916	0	3	100	0	50	15.0394	-14.23246	37.85858	
08:32:23	0	0	0	-0.5902027	-7.407294	0	3	100	0	50	2.070888	-11.51121	40.1419	
08:32:24	0	0	0	-0.5812004	-8.305457	0	3	100	0	50	-7.405985	-5.356612	37.887	
08:32:24	0	0	0	-0.5537384	-8.716645	0	3	100	0	50	-12.78237	-1.17756	37.49709	
08:32:24	0	0	0	-0.5244927	-2.782067	0	3	100	0	50	-10.834	-3.072154	37.66854	
08:32:24	0	0	0	-0.522665	-2.422138	0	3	100	0	50	-10.27367	-3.907602	38.39976	
08:32:24	0	0	0	-0.5254965	-5.760436	0	3	100	0	50	-10.96181	-2.927364	39.19173	
08:32:25	0	0	0	-0.6203151	-10.44635	0	3	100	0	50	-11.85739	-3.209906	39.64396	
08:32:25	0	0	0	-0.7119753	-15.03732	0	3	100	0	50	-5.987734	-3.523252	40.59902	
08:32:25	0	0	0	-0.7533815	-19.90016	0	3	100	0	50	4.669379	-5.254097	40.44955	
08:32:25	0	0	0	-0.7824426	-12.35096	0	3	100	0	50	9.254584	-6.690319	43.02821	
08:32:25	0	0	0	-0.7286123	-8.439963	0	3	100	0	50	18.89101	-7.017628	42.58678	
08:32:26	0	0	0	-0.6790836	-6.5819	0	3	100	0	50	22.34157	-6.33215	40.37026	
08:32:26	0	0	0	-0.604214	-0.6272559	0	3	100	0	50	20.833	-5.810392	39.5033	
08:32:26	0	0	0	-0.5407749	2.831782	0	3	100	0	50	17.89065	-5.066029	39.50986	
08:32:26	0	0	0	-0.493496	5.489323	0	3	100	0	50	5.950164	-3.719867	40.27086	
08:32:26	0	0	0	-0.4535085	5.493941	0	3	100	0	50	0.2217563	-1.651523	40.72608	
08:32:27	0	0	0	-0.3883595	9.970625	0	3	100	0	50	-9.230422	-0.7585582	39.35258	
08:32:27	0	0	0	-0.3269429	13.59594	0	3	100	0	50	-11.40717	-2.18466	40.28587	
08:32:27	0	0	0	-0.2593154	12.1456	0	3	100	0	50	-11.25658	-1.675636	40.90844	
08:32:27	0	0	0	-0.2103087	12.88861	0	3	100	0	50	-11.59714	-1.75021	41.52544	
08:32:28	0	0	0	-0.2356176	8.417589	0	3	100	0	50	-11.237	-1.575157	42.15734	
08:32:28	0	0	0	-0.2635454	5.191455	0	3	100	0	50	-9.11052	-1.295301	42.92238	
08:32:28	0	0	0	-0.2931234	1.13336	0	3	100	0	50	0.1584239	-2.089579	43.26574	
08:32:28	0	0	0	-0.3203991	-0.3445369	0	3	100	0	50	3.788488	-3.683846	42.1109	
08:32:28	0	0	0	-0.3503799	-1.377513	0	3	100	0	50	3.711631	-3.632734	42.73692	
08:32:29	0	0	0	-0.3863381	-4.822287	0	3	100	0	50	3.514217	-2.568301	42.47741	
08:32:29	0	0	0	-0.4065557	-4.942428	0	3	100	0	50	3.359682	-2.249673	42.33558	
08:32:29	0	0	0	-0.4036159	-3.864574	0	3	100	0	50	3.157345	-1.754035	42.23003	
08:32:29	0	0	0	-0.3985142	-3.441786	0	3	100	0	50	2.765435	-0.4577595	41.86833	
08:32:29	0	0	0	-0.3937915	-3.814933	0	3	100	0	50	3.058358	0.520084	41.61577	
08:32:29	0	0	0	-0.4251134	-0.904633	0	3	100	0	50	3.037699	0.4310538	41.6586	
08:32:29	0	0	0	-0.4729415	-3.028567	0	3	100	0	50	3.075286	0.3883715	41.78496	
08:32:30	0	0	0	-0.5058664	-4.931626	0	3	100	0	50	3.0754	0.3104946	41.92812	
08:32:30	0	0	0	-0.5215135	-5.290526	0	3	100	0	50	3.073301	0.2552054	41.99162	
08:32:30	0	0	0	-0.5368131	-5.475517	0	3	100	0	50	3.06978	0.2111159	42.0514	
08:32:30	0	0	0	-0.5483602	-5.776932	0	3	100	0	50	3.071184	0.1654997	42.09523	
08:32:31	0	0	0	-0.5317792	-4.309311	0	3	100	0	50	3.065144	0.098157	42.19271	
08:32:31	0	0	0	-0.4702736	-0.3195739	0	3	100	0	50	3.0637	0.02512975	42.38052	
08:32:31	0	0	0	-0.4261291	2.378889	0	3	100	0	50	3.141062	-0.03544449	42.47958	
08:32:31	0	0	0	-0.3896924	4.4091	0	3	100	0	50	3.074435	-0.07782927	42.525	
08:32:31	0	0	0	-0.378221	4.805149	0	3	100	0	50	3.933459	-0.1085406	42.72635	
08:32:31	0	0	0	-0.3816774	4.691852	0	3	100	0	50	5.533816	0.6958357	43.68194	
08:32:31	0	0	0	-0.3802613	14.26119	0	3	100	0	50	3.557509	3.565537	45.78162	
08:32:32	0	0	0	-0.376895	4.800731	0	3	100	0	50	9.731704	2.754776	45.58982	
08:32:32	0	0	0	-0.420154	-1.220629	0	3	100	0	50	10.66976	2.674027	45.32221	
08:32:32	0	0	0	-0.4952371	-1.924813	0	3	100	0	50	0.1518885	3.848521	45.77197	
08:32:32	0	0	0	-0.5538318	-10.66141	0	3	100	0	50	13.47399	3.117916	45.33556	
08:32:33	0	0	0	-0.6102594	-16.4398	0	3	100	0	50	12.71389	2.99526	44.80291	
08:32:33	0	0	0	-0.6532571	-13.90897	0	3	100	0	50	7.776525	3.640561	44.81088	
08:32:33	0	0	0	-0.6825274	-14.40783	0	3	100	0	50	7.624213	3.642537	45.04424	
08:32:33	0	0	0	-0.7043022	-15.27709	0	3	100	0	50	17.22562	2.456501	44.37376	
08:32:33	0	0	0	-0.7151636	-12.34304	0	3	100	0	50	16.72491	2.45315	43.81762	
08:32:34	0	0	0	-0.7181016	-10.6163	0	3	100	0	50	10.82414	2.371419	43.74921	
08:32:34	0	0	0	-0.6996346	-9.60485	0	3	100	0	50	3.928694	1.669561	43.94622	
08:32:34	0	0	0	-0.6829943	-6.422915	0	3	100	0	50	-2.206522	1.859781	43.647	
08:32:34	0	0	0	-0.6564246	-3.911033	0	3	100	0	50	6.274082	0.9126682	43.88919	
08:32:35	0	0	0	-0.6384248	-6.392088	0	3	100	0	50	7.956588	-0.02440897	44.1722	
08:32:35	0	0	0	-0.57121	0.5217866	0	3	100	0	50	2.33832	-0.07358032	44.65543	
08:32:35	0	0	0	-0.5126486	3.814358	0	3	100	0	50	2.964642	-0.2162289	44.84273	
08:32:35	0	0	0	-0.4814127	5.470729	0	3	100	0	50	3.277947	-0.2496453	44.96562	
08:32:35	0	0	0	-0.4502453	6.705565	0	3	100	0	50	3.155744	-0.2945275	45.00834	
08:32:35	0	0	0	-0.4155049	7.675985	0	3	100	0	50	3.149921	-0.3592175	45.14392	
08:32:36	0	0	0	-0.3849944	8.61184	0	3	100	0	50	3.174112	-0.4011643	45.15228	
08:32:36	0	0	0	-0.3701538	8.963105	0	3	100	0	50	3.176981	-0.4293063	45.21267	
08:32:36	0	0	0	-0.3573216	9.155977	0	3	100	0	50	3.17428	-0.4582126	45.33303	
08:32:36	0	0	0	-0.396703	6.421219	0	3	100	0	50	3.162519	-0.4987781	45.4197	
08:32:36	0	0	0	-0.4294415	4.515403	0	3	100	0	50	3.166049	-0.5234702	45.46275	
08:32:37	0	0	0	-0.4329098	4.128263	0	3	100	0	50	3.16842	-0.5541925	45.55001	
08:32:37	0	0	0	-0.4368313	3.525333	0	3	100	0	50	3.167454	-0.5730003	45.59222	
08:32:37	0	0	0	-0.4666448	1.68782	0	3	100	0	50	3.156945	-0.602527	45.54887	
08:32:37	0	0	0	-0.4939797	-0.006029056	0	3	100	0	50	3.155692	-0.6499443	45.5982	
08:32:37	0	0	0	-0.4703673	1.358657	0	3	100	0	50	3.156233	-0.6932808	45.6816	
08:32:38	0	0	0	-0.4434231	2.750648	0	3	100	0	50	3.167768	-0.6769187	45.76576	
08:32:38	0	0	0	-0.417953	4.246261	0	3	100	0	50	3.165706	-0.6894279	45.80628	
08:32:38	0	0	0	-0.3845574	6.267483	0	3	100	0	50	3.159858	-0.7294741	45.80399	
08:32:38	0	0	0	-0.3547161	7.754317	0	3	100	0	50	3.153766	-0.7553591	45.85465	
08:32:38	0	0	0	-0.3262915	8.771408	0	3	100	0	50	3.154871	-0.7738233	45.93013	
08:32:39	0	0	0	-0.3004796	9.885658	0	3	100	0	50	3.156195	-0.7879528	45.93322	
08:32:39	0	0	0	-0.2741451	11.16969	0	3	100	0	50	3.160279	-0.799109	45.98619	
08:32:39	0	0	0	-0.2604722	10.65306	0	3	100	0	50	3.166846	-0.8224699	46.02075	
08:32:39	0	0	0	-0.2556457	10.06889	0	3	100	0	50	3.171686	-0.8305527	46.01402	
08:32:39	0	0	0	-0.2499917	9.588058	0	3	100	0	50	3.17489	-0.836843	46.099	
08:32:40	0	0	0	-0.2428706	9.342307	0	3	100	0	50	3.168759	-0.8460354	46.04927	
08:32:40	0	0	0	-0.2688099	7.353139	0	3	100	0	50	3.164091	-0.874368	46.144	
08:32:40	0	0	0	-0.3234856	3.686116	0	3	100	0	50	3.170291	-0.8797576	46.14745	
08:32:40	0	0	0	-0.3630771	1.447901	0	3	100	0	50	3.171869	-0.8956324	46.20551	
08:32:40	0	0	0	-0.3856857	0.6550173	0	3	100	0	50	3.173122	-0.9260144	46.24835	
08:32:41	0	0	0	-0.4118605	-0.7624993	0	3	100	0	50	3.172963	-0.9275775	46.3451	
08:32:41	0	0	0	-0.4437462	-2.797631	0	3	100	0	50	3.170279	-0.9628018	46.3585	
08:32:41	0	0	0	-0.526401	-6.863327	0	3	100	0	50	3.177363	-0.9644293	46.33799	
08:32:41	0	0	0	-0.6353482	-11.98855	0	3	100	0	50	3.173706	-0.9819868	46.3493	
08:32:41	0	0	0	-0.7147706	-14.82207	0	3	100	0	50	3.177084	-0.984695	46.34011	
08:32:42	0	0	0	-0.7810953	-16.84828	0	3	100	0	50	3.176986	-0.9918459	46.32895	
08:32:42	0	0	0	-0.822849	-17.37546	0	3	100	0	50	3.176441	-0.9975919	46.2868	
08:32:42	0	0	0	-0.8358375	-16.42599	0	3	100	0	50	3.174623	-1.014471	46.24687	
08:32:42	0	0	0	-0.8204118	-13.75806	0	3	100	0	50	3.167612	-1.037735	46.2869	
08:32:42	0	0	0	-0.7640932	-9.102135	0	3	100	0	50	3.171642	-1.049643	46.35409	
08:32:43	0	0	0	-0.7152467	-5.436368	0	3	100	0	50	3.1697	-1.055905	46.336	
08:32:43	0	0	0	-0.679976	-3.233096	0	3	100	0	50	3.166296	-1.066813	46.35223	
08:32:43	0	0	0	-0.6472523	-1.191334	0	3	100	0	50	3.175904	-1.086899	46.33072	
08:32:43	0	0	0	-0.6233321	-0.05389131	0	3	100	0	50	3.174873	-1.098777	46.42356	
08:32:44	0	0	0	-0.6035182	1.48555	0	3	100	0	50	3.181362	-1.100335	46.40405	
08:32:44	0	0	0	-0.5535951	4.586001	0	3	100	0	50	3.182239	-1.091282	46.47417	
08:32:44	0	0	0	-0.5077568	6.861797	0	3	100	0	50	3.186064	-1.094273	46.48647	
08:32:44	0	0	0	-0.4580117	8.733229	0	3	100	0	50	3.192212	-1.061681	46.47998	
08:32:45	0	0	0	-0.4214568	10.25118	0	3	100	0	50	3.190083	-1.069083	46.55083	
08:32:45	0	0	0	-0.3774801	11.0581	0	3	100	0	50	3.189353	-1.080163	46.55404	
08:32:45	0	0	0	-0.3399119	12.23657	0	3	100	0	50	3.191449	-1.109416	46.45218	
08:32:45	0	0	0	-0.4221204	6.991143	0	3	100	0	50	3.204222	-1.099482	46.46209	
08:32:45	0	0	0	-0.5038509	2.643668	0	3	100	0	50	3.200965	-1.104198	46.54209	
08:32:45	0	0	0	-0.537971	1.079159	0	3	100	0	50	3.196133	-1.091074	46.50662	
08:32:46	0	0	0	-0.5716844	-0.2214417	0	3	100	0	50	3.2009	-1.096866	46.48904	
08:32:46	0	0	0	-0.5607517	0.4286199	0	3	100	0	50	3.207259	-1.086366	46.44598	
08:32:46	0	0	0	-0.5504409	1.029192	0	3	100	0	50	3.211257	-1.098432	46.41505	
08:32:46	0	0	0	-0.5117873	3.519058	0	3	100	0	50	3.213194	-1.09463	46.45652	
08:32:46	0	0	0	-0.4788	5.491189	0	3	100	0	50	3.207631	-1.104455	46.46975	
08:32:47	0	0	0	-0.4554432	6.529651	0	3	100	0	50	3.213885	-1.107111	46.56188	
08:32:47	0	0	0	-0.4344778	7.380754	0	3	100	0	50	3.227084	-1.113305	46.50725	
08:32:47	0	0	0	-0.4534762	5.698043	0	3	100	0	50	3.230464	-1.130258	46.47671	
08:32:47	0	0	0	-0.4722371	3.918201	0	3	100	0	50	3.231177	-1.136423	46.40359	
08:32:47	0	0	0	-0.4697186	4.035762	0	3	100	0	50	3.227526	-1.163891	46.40934	
08:32:47	0	0	0	-0.467979	3.315939	0	3	100	0	50	3.223542	-1.173235	46.36267	
08:32:48	0	0	0	-0.4930021	1.792368	0	3	100	0	50	3.223869	-1.200088	46.37568	
08:32:48	0	0	0	-0.5361894	-0.7309391	0	3	100	0	50	3.225775	-1.196901	46.31016	
08:32:48	0	0	0	-0.5740175	-2.041399	0	3	100	0	50	3.214891	-1.209627	46.37505	
08:32:48	0	0	0	-0.6011365	-3.335647	0	3	100	0	50	3.206158	-1.240895	46.32606	
08:32:48	0	0	0	-0.6133415	-3.447582	0	3	100	0	50	3.198277	-1.239421	46.35823	
08:32:48	0	0	0	-0.6176059	-3.234182	0	3	100	0	50	3.205353	-1.228205	46.29814	
08:32:49	0	0	0	-0.634908	-3.456173	0	3	100	0	50	3.20719	-1.222324	46.23713	
08:32:49	0	0	0	-0.6584986	-4.166858	0	3	100	0	50	3.191597	-1.218953	46.23761	
08:32:49	0	0	0	-0.6734955	-4.674363	0	3	100	0	50	3.187189	-1.244763	46.22076	
08:32:49	0	0	0	-0.6843549	-4.544052	0	3	100	0	50	3.181571	-1.246423	46.27663	
08:32:50	0	0	0	-0.6934271	-4.314725	0	3	100	0	50	3.175152	-1.241194	46.24179	
08:32:50	0	0	0	-0.7014644	-4.340526	0	3	100	0	50	3.179756	-1.236561	46.29279	
08:32:50	0	0	0	-0.6997613	-3.613136	0	3	100	0	50	3.174805	-1.229197	46.26555	
08:32:50	0	0	0	-0.6846778	-2.029878	0	3	100	0	50	3.181362	-1.2358	46.30802	
08:32:51	0	0	0	-0.6893064	-1.732788	0	3	100	0	50	3.187789	-1.266524	46.30275	
08:32:51	0	0	0	-0.7042087	-2.050929	0	3	100	0	50	3.181646	-1.254518	46.29388	
08:32:51	0	0	0	-0.6933273	-0.8848289	0	3	100	0	50	3.169388	-1.255942	46.31482	
08:32:51	0	0	0	-0.6608542	0.9876812	0	3	100	0	50	3.171624	-1.229553	46.34647	
08:32:51	0	0	0	-0.6238051	2.948029	0	3	100	0	50	3.173187	-1.230852	46.31696	
08:32:52	0	0	0	-0.5731448	5.331098	0	3	100	0	50	3.18017	-1.228026	46.29142	
08:32:52	0	0	0	-0.5701497	5.555579	0	3	100	0	50	3.194379	-1.223002	46.35231	
08:32:52	0	0	0	-0.6095254	2.912467	0	3	100	0	50	3.204253	-1.213799	46.2518	
08:32:52	0	0	0	-0.6290612	1.968472	0	3	100	0	50	3.206621	-1.204237	46.26943	
08:32:52	0	0	0	-0.6307208	1.483926	0	3	100	0	50	3.194696	-1.237923	46.26437	
08:32:52	0	0	0	-0.6331518	0.7941716	0	3	100	0	50	3.196286	-1.230348	46.17046	
08:32:53	0	0	0	-0.6231705	0.4995391	0	3	100	0	50	3.204696	-1.22724	46.10311	
08:32:53	0	0	0	-0.6143918	1.510219	0	3	100	0	50	3.207691	-1.220513	46.09713	
08:32:53	0	0	0	-0.5644169	3.776766	0	3	100	0	50	3.212526	-1.244919	46.04464	
08:32:53	0	0	0	-0.5238243	5.730705	0	3	100	0	50	3.198118	-1.226278	45.97858	
08:32:54	0	0	0	-0.53003	4.512208	0	3	100	0	50	3.201595	-1.190476	45.98967	
08:32:54	0	0	0	-0.5358882	4.016963	0	3	100	0	50	3.195148	-1.198735	46.03082	
08:32:54	0	0	0	-0.5475516	3.133181	0	3	100	0	50	3.173803	-1.1747	45.98269	
08:32:54	0	0	0	-0.5617743	1.737737	0	3	100	0	50	3.161159	-1.172663	45.97551	
08:32:55	0	0	0	-0.5892702	-0.5423323	0	3	100	0	50	3.162233	-1.173362	45.92677	
08:32:55	0	0	0	-0.6148856	-2.037329	0	3	100	0	50	3.148372	-1.176836	45.99545	
08:32:55	0	0	0	-0.659494	-3.990623	0	3	100	0	50	3.147865	-1.178586	45.88725	
08:32:55	0	0	0	-0.6963719	-4.778774	0	3	100	0	50	3.139066	-1.161727	45.90931	
08:32:55	0	0	0	-0.6963719	-4.778774	0	3	100	0	50	3.137308	-1.137368	45.85715	
08:32:55	0	0	0	-0.7420039	-6.182467	0	3	100	0	50	3.142451	-1.133932	45.8077	
08:32:56	0	0	0	-0.7047441	-3.771089	0	3	100	0	50	3.147837	-1.13929	45.83556	
08:32:56	0	0	0	-0.6699706	-1.298103	0	3	100	0	50	3.142035	-1.14912	45.90455	
08:32:56	0	0	0	-0.5905668	3.510892	0	3	100	0	50	3.143238	-1.163871	45.91402	
08:32:56	0	0	0	-0.5248047	6.76286	0	3	100	0	50	3.146445	-1.156942	45.94987	
08:32:56	0	0	0	-0.4311161	11.3068	0	3	100	0	50	3.145798	-1.151623	45.93783	
08:32:57	0	0	0	-0.3483039	14.58523	0	3	100	0	50	3.141412	-1.139783	45.87347	
08:32:57	0	0	0	-0.3462369	13.15237	0	3	100	0	50	3.146169	-1.143718	45.88208	
08:32:57	0	0	0	-0.3470359	11.83557	0	3	100	0	50	3.152972	-1.128633	45.84696	
08:32:57	0	0	0	-0.3596943	9.922937	0	3	100	0	50	3.154197	-1.135334	45.83891	
08:32:57	0	0	0	-0.372308	8.245268	0	3	100	0	50	3.148868	-1.142852	45.8736	
08:32:58	0	0	0	-0.4096451	5.294658	0	3	100	0	50	3.159905	-1.142924	45.90695	
08:32:58	0	0	0	-0.4444585	3.139096	0	3	100	0	50	3.163632	-1.11985	45.84592	
08:32:58	0	0	0	-0.4341479	3.584357	0	3	100	0	50	3.161128	-1.113034	45.88279	
08:32:58	0	0	0	-0.4256504	3.924109	0	3	100	0	50	3.163198	-1.09803	45.95716	
08:32:58	0	0	0	-0.4453315	2.632001	0	3	100	0	50	3.159892	-1.085797	45.88672	
08:32:59	0	0	0	-0.4636703	1.419316	0	3	100	0	50	3.16874	-1.091822	45.92339	
08:32:59	0	0	0	-0.5148638	-1.472389	0	3	100	0	50	3.162207	-1.099622	45.90224	
08:32:59	0	0	0	-0.56133	-4.035641	0	3	100	0	50	3.167717	-1.101998	45.92156	
08:32:59	0	0	0	-0.648307	-8.19849	0	3	100	0	50	3.173335	-1.096392	45.91424	
08:32:59	0	0	0	-0.7181479	-10.82924	0	3	100	0	50	3.175052	-1.12209	45.96979	
08:33:00	0	0	0	-0.869094	-17.45413	0	3	100	0	50	3.171854	-1.142342	45.88108	
08:33:00	-6.733742	38.95351	131.909	-1.004109	-22.81289	0.26	3	100	0	50	3.178629	-1.160555	45.86755	
08:33:00	-6.733742	38.95351	131.909	-1.108729	-25.65969	0.26	3	100	0	50	3.177625	-1.163665	45.88892	
08:33:00	-6.733747	38.9535	130.672	-1.189827	-27.5824	2.91	3	100	0	50	3.180446	-1.160707	45.85669	
08:33:00	-6.733749	38.9535	129.1	-1.255189	-28.33	3.09	3	100	0	50	3.182414	-1.164224	45.88067	
08:33:01	-6.733752	38.9535	127.664	-1.2894	-27.02766	1.58	3	100	0	50	3.214594	-1.081913	44.33353	
08:33:01	-6.733758	38.95351	126.401	-1.298923	-24.87242	0.22	3	100	0	50	3.21827	-1.073797	44.01315	
08:33:01	-6.733765	38.95351	124.914	-1.281089	-21.59014	0.85	3	100	0	50	3.219719	-1.070612	44.11423	
08:33:01	-6.733771	38.95352	123.222	-1.251119	-17.71812	0.62	3	100	0	50	3.211899	-1.087403	44.274	
08:33:02	-6.733778	38.95353	121.648	-1.21572	-14.30303	1.19	3	100	0	50	3.205109	-1.094249	44.32137	
08:33:02	-6.733785	38.95353	119.979	-1.169533	-10.93099	1.81	3	100	0	50	3.191375	-1.110024	44.39951	
08:33:02	-6.73379	38.95354	118.058	-1.118199	-7.021801	1.9	3	100	0	50	3.194888	-1.106859	44.37454	
08:33:02	-6.733797	38.95355	116.304	-1.041861	-1.994814	2.73	3	100	0	50	3.180471	-1.113355	44.40217	
08:33:02	-6.733804	38.95356	113.982	-0.9625178	2.673551	3.46	3	100	0	50	3.184897	-1.120696	44.47452	
08:33:02	-6.733813	38.95357	111.943	-0.9013623	5.730797	4.69	3	100	0	50	3.170813	-1.154358	44.86071	
08:33:03	-6.733821	38.95358	110.537	-0.8735075	6.578037	5.99	3	100	0	50	3.137902	-1.249917	46.47093	
08:33:03	-6.733828	38.95359	108.804	-0.8506553	6.652074	5.55	3	100	0	50	3.092512	-1.381932	48.48913	
08:33:03	-6.733833	38.9536	107.241	-0.8319004	7.215465	3.43	3	100	0	50	3.05172	-1.476817	50.49088	
08:33:03	-6.733834	38.9536	106.708	-0.8147073	7.358632	1.03	3	100	0	50	3.002499	-1.582914	52.48355	
08:33:04	-6.733834	38.95361	106.439	-0.8037991	7.315318	0.45	3	100	0	50	2.993051	-1.575005	52.71733	
08:33:04	-6.733835	38.95361	105.881	-0.7909475	8.118241	1.9	3	100	0	50	3.003132	-1.542842	52.49987	
08:33:04	-6.733835	38.9536	105.492	-0.7771685	8.132994	2.12	3	100	0	50	3.016798	-1.493963	52.22345	
08:33:04	-6.733837	38.95361	104.812	-0.7237687	10.25368	1.49	3	100	0	50	3.021687	-1.46576	51.96594	
08:33:04	-6.733839	38.95361	104.779	-0.6560085	13.39245	0.59	3	100	0	50	3.029111	-1.43499	51.78617	
08:33:04	-6.733842	38.95362	104.505	-0.6212037	14.04905	1.45	3	100	0	50	3.047462	-1.418764	51.5826	
08:33:05	-6.733847	38.95362	103.89	-0.6399391	11.47985	0.93	3	100	0	50	3.063728	-1.407352	51.36837	
08:33:05	-6.733848	38.95363	103.773	-0.6477497	9.493114	0.48	3	100	0	50	3.074616	-1.366833	51.24772	
08:33:05	-6.733849	38.95363	103.754	-0.6370565	10.10632	0.71	3	100	0	50	3.081149	-1.351064	51.02969	
08:33:05	-6.733853	38.95364	103.243	-0.6289539	9.434061	0.52	3	100	0	50	3.086425	-1.351746	50.86666	
08:33:05	-6.733857	38.95364	102.696	-0.601103	10.0367	0.7	3	100	0	50	3.086856	-1.332714	50.72723	
08:33:06	-6.73386	38.95366	102.541	-0.5773966	10.50928	0.59	3	100	0	50	3.082279	-1.332244	50.51334	
08:33:06	-6.733863	38.95366	101.897	-0.5271998	12.33172	0.18	3	100	0	50	3.09109	-1.312372	50.35559	
08:33:06	-6.733865	38.95366	101.69	-0.4876319	13.80844	0.61	3	100	0	50	3.078153	-1.304964	50.20412	
08:33:06	-6.733869	38.95367	101.23	-0.4440873	14.89872	0.78	3	100	0	50	3.074423	-1.293467	50.07945	
08:33:06	-6.733873	38.95368	100.96	-0.4075436	15.28173	0.74	3	100	0	50	3.078282	-1.26309	49.96146	
08:33:07	-6.733879	38.95368	100.168	-0.4727217	10.25562	0.52	3	100	0	50	3.095066	-1.255627	49.86657	
08:33:07	-6.733883	38.95369	99.126	-0.5343992	6.415545	0.9	3	100	0	50	3.103936	-1.242659	49.69888	
08:33:07	-6.733885	38.95369	98.446	-0.5499647	5.404945	1.58	3	100	0	50	3.109822	-1.200255	49.58133	
08:33:07	-6.733886	38.9537	97.901	-0.5622726	4.353249	1.62	3	100	0	50	3.121474	-1.201834	49.54674	
08:33:07	-6.733887	38.9537	97.435	-0.6040485	1.487037	1.05	3	100	0	50	3.126455	-1.174131	49.40149	
08:33:08	-6.733891	38.9537	96.897	-0.6392531	-0.381552	0.91	3	100	0	50	3.134724	-1.158768	49.35412	
08:33:08	-6.733891	38.9537	96.897	-0.6425886	-0.1937055	0.91	3	100	0	50	3.140615	-1.154502	49.3493	
08:33:08	-6.733891	38.9537	96.897	-0.6451367	-0.220895	0.91	3	100	0	50	3.148542	-1.134566	49.23863	
08:33:08	-6.733891	38.9537	96.897	-0.6293173	0.5417819	0.91	3	100	0	50	3.159725	-1.131767	49.17504	
08:33:08	-6.733891	38.9537	96.897	-0.6138976	0.7956715	0.91	3	100	0	50	3.157572	-1.133949	49.1348	
08:33:09	-6.733891	38.9537	96.897	-0.6166805	0.2969362	0.91	3	100	0	50	3.165064	-1.128502	49.06563	
08:33:09	-6.733891	38.9537	96.897	-0.6191186	0.3583407	0.91	3	100	0	50	3.170928	-1.123497	49.02871	
08:33:09	-6.733891	38.9537	96.897	-0.6030905	0.9790768	0.91	3	100	0	50	3.182586	-1.103756	49.02262	
08:33:09	-6.733891	38.9537	96.897	-0.5875227	1.72597	0.91	3	100	0	50	3.190285	-1.074096	48.93299	
08:33:09	-6.733891	38.9537	96.897	-0.6196437	-0.0361063	0.91	3	100	0	50	3.196045	-1.066713	48.98572	
08:33:10	-6.733891	38.9537	96.897	-0.6495084	-1.582071	0.91	3	100	0	50	3.196279	-1.066746	48.90522	
08:33:10	-6.733891	38.9537	96.897	-0.6803786	-3.154635	0.91	3	100	0	50	3.196812	-1.070165	48.87844	
08:33:10	-6.733891	38.9537	96.897	-0.7055467	-4.329987	0.91	3	100	0	50	3.184025	-1.063024	48.83022	
08:33:10	-6.733891	38.9537	96.897	-0.718052	-4.203487	0.91	3	100	0	50	3.186905	-1.053483	48.82513	
08:33:11	-6.733891	38.9537	96.897	-0.7108307	-3.490925	0.91	3	100	0	50	3.178334	-1.052845	48.84976	
08:33:11	-6.733891	38.9537	96.897	-0.6955567	-1.995374	0.91	3	100	0	50	3.178357	-1.051278	48.78318	
08:33:11	-6.733891	38.9537	96.897	-0.6709305	-0.5412403	0.91	3	100	0	50	3.181023	-1.068058	48.79568	
08:33:11	-6.733891	38.9537	96.897	-0.6556361	0.3404767	0.91	3	100	0	50	3.18259	-1.046336	48.73844	
08:33:11	-6.733891	38.9537	96.897	-0.6494626	0.8399569	0.91	3	100	0	50	3.18327	-1.019404	48.71387	
08:33:12	-6.733891	38.9537	96.897	-0.6449038	1.119625	0.91	3	100	0	50	3.184123	-1.002321	48.71385	
08:33:12	-6.733891	38.9537	96.897	-0.6419375	1.0482	0.91	3	100	0	50	3.195999	-0.9878458	48.69706	
08:33:12	-6.733891	38.9537	96.897	-0.6165989	2.791701	0.91	3	100	0	50	3.195846	-0.9747218	48.68443	
08:33:12	-6.733891	38.9537	96.897	-0.5764524	5.137403	0.91	3	100	0	50	3.197132	-0.9596803	48.67688	
08:33:12	-6.733891	38.9537	96.897	-0.5509814	5.729474	0.91	3	100	0	50	3.198169	-0.9424278	48.64248	
08:33:13	-6.733891	38.9537	96.897	-0.5511281	4.616515	0.91	3	100	0	50	3.205934	-0.9392981	48.64696	
08:33:13	-6.733891	38.9537	96.897	-0.5406166	4.737876	0.91	3	100	0	50	3.195975	-0.9364643	48.70891	
08:33:13	-6.733891	38.9537	96.897	-0.5204934	5.063075	0.91	3	100	0	50	3.193258	-0.9384937	48.64679	
08:33:13	-6.733891	38.9537	96.897	-0.5053598	5.724531	0.91	3	100	0	50	3.201033	-0.9278561	48.6258	
08:33:13	-6.733891	38.9537	96.897	-0.4974729	5.242659	0.91	3	100	0	50	3.200788	-0.9040822	48.6338	
08:33:14	-6.733891	38.9537	96.897	-0.514158	3.980419	0.91	3	100	0	50	3.200401	-0.8989842	48.54676	
08:33:14	-6.733891	38.9537	96.897	-0.5442287	1.238525	0.91	3	100	0	50	3.205558	-0.9156206	48.48249	
08:33:14	-6.733891	38.9537	96.897	-0.5557104	-0.006714184	0.91	3	100	0	50	3.202143	-0.903782	48.45226	
08:33:14	-6.733891	38.9537	96.897	-0.5555894	0.0888556	0.91	3	100	0	50	3.205888	-0.8682401	48.44611	
08:33:14	-6.733891	38.9537	96.897	-0.5605517	0.0611876	0.91	3	100	0	50	3.216498	-0.8618732	48.45856	
08:33:15	-6.733891	38.9537	96.897	-0.5725631	-0.4601431	0.91	3	100	0	50	3.219985	-0.828514	48.44446	
08:33:15	-6.733891	38.9537	96.897	-0.5701982	-0.8711786	0.91	3	100	0	50	3.219203	-0.8219713	48.46777	
08:33:15	-6.733891	38.9537	96.897	-0.5470567	0.5606529	0.91	3	100	0	50	3.220385	-0.8205761	48.44172	
08:33:16	-6.733891	38.9537	96.897	-0.5280026	1.475759	0.91	3	100	0	50	3.220324	-0.8162651	48.43947	
08:33:16	-6.733891	38.9537	96.897	-0.493005	3.462048	0.91	3	100	0	50	3.212339	-0.8034859	48.46896	
08:33:16	-6.733891	38.9537	96.897	-0.4618906	4.700315	0.91	3	100	0	50	3.216765	-0.8058836	48.45778	
08:33:16	-6.733891	38.9537	96.897	-0.4816106	3.469209	0.91	3	100	0	50	3.218449	-0.8091827	48.51876	
08:33:17	-6.733891	38.9537	96.897	-0.4990323	2.617375	0.91	3	100	0	50	3.223113	-0.8203934	48.45967	
08:33:17	-6.733893	38.95371	96.981	-0.5035818	1.887422	0.95	3	100	0	50	3.231712	-0.8026878	48.46508	
08:33:17	-6.733962	38.9537	85.581	-0.5098177	1.253109	1.39	3	100	0	50	3.235988	-0.7753149	48.42313	
08:33:17	-6.733953	38.95367	87.769	-0.5571644	-1.288148	1.8	3	100	0	50	3.233675	-0.786123	48.45713	
08:33:17	-6.733954	38.95364	90.328	-0.596984	-3.732045	0.41	3	100	0	50	3.234265	-0.7775282	48.39357	
08:33:17	-6.733959	38.95364	91.317	-0.6016694	-2.990832	0.71	3	100	0	50	3.240302	-0.7949769	48.39384	
08:33:18	-6.733971	38.95366	93.119	-0.6047055	-3.201674	2.74	3	100	0	50	3.254308	-0.7837664	48.31519	
08:33:18	-6.733976	38.95366	94.269	-0.6169809	-3.094597	1.57	3	100	0	50	3.25842	-0.7847686	48.33394	
08:33:18	-6.733976	38.95366	95.285	-0.6270251	-3.425761	2.01	3	100	0	50	3.260472	-0.7708267	48.3494	
08:33:18	-6.733962	38.9536	100.27	-0.5967914	-1.696279	0.35	3	100	0	50	3.254538	-0.7844471	48.31325	
08:33:19	-6.733959	38.95359	102.163	-0.5719364	-0.3810219	1.1	3	100	0	50	3.258513	-0.7793171	48.24726	
08:33:19	-6.733959	38.95359	102.518	-0.5838846	-1.021688	0.56	3	100	0	50	3.25353	-0.7711717	48.25402	
08:33:19	-6.733963	38.95359	104.66	-0.5924179	-1.264067	0.36	3	100	0	50	3.252127	-0.7766505	48.23742	
08:33:19	-6.733967	38.9536	106.807	-0.6318046	-3.545719	0.11	3	100	0	50	3.244671	-0.7623103	48.23535	
08:33:19	-6.73397	38.9536	107.987	-0.668051	-5.296727	0.58	3	100	0	50	3.2509	-0.7421933	48.28768	
08:33:20	-6.733971	38.95361	109.015	-0.6988218	-6.479046	0.39	3	100	0	50	3.265172	-0.7456552	48.18952	
08:33:20	-6.733972	38.95361	109.968	-0.7229536	-7.371195	0.31	3	100	0	50	3.276501	-0.7477692	48.15001	
08:33:20	-6.733974	38.95361	110.406	-0.7777326	-9.150128	0.91	3	100	0	50	3.280287	-0.7539265	48.13411	
08:33:20	-6.733974	38.95361	110.349	-0.8251971	-10.7399	0.08	3	100	0	50	3.289003	-0.7537006	48.10059	
08:33:21	-6.733974	38.95361	111.318	-0.8498204	-10.83727	0.33	3	100	0	50	3.290791	-0.736891	48.09171	
08:33:21	-6.733974	38.95361	111.546	-0.8680943	-10.57568	0.16	3	100	0	50	3.287164	-0.7565724	48.13203	
08:33:21	-6.733973	38.9536	111.015	-0.8765664	-9.792416	0.82	3	100	0	50	3.28726	-0.7691711	48.08278	
08:33:21	-6.733974	38.9536	110.836	-0.8708441	-8.247034	0.44	3	100	0	50	3.280144	-0.785465	48.08138	
08:33:22	-6.733974	38.95361	111.591	-0.8608606	-7.140364	0.68	3	100	0	50	3.271756	-0.7932917	48.08084	
08:33:22	-6.733976	38.95361	112.23	-0.8464231	-5.615414	0.82	3	100	0	50	3.267781	-0.796784	48.03374	
08:33:22	-6.733978	38.95361	113.372	-0.8256063	-3.865834	0.44	3	100	0	50	3.268172	-0.7869608	48.01165	
08:33:22	-6.733981	38.95362	114.818	-0.8026426	-2.368595	1.03	3	100	0	50	3.268423	-0.7725137	48.02782	
08:33:22	-6.733985	38.95362	116.08	-0.7934096	-1.652741	1.45	3	100	0	50	3.278103	-0.7919015	48.0015	
08:33:23	-6.733986	38.95362	117.163	-0.7964144	-1.569707	0.9	3	100	0	50	3.273587	-0.7864626	47.94123	
08:33:23	-6.733987	38.95363	117.781	-0.7922767	-1.066742	0.85	3	100	0	50	3.267471	-0.7950873	47.91407	
08:33:23	-6.733988	38.95364	118.765	-0.7845153	-0.1423022	0.42	3	100	0	50	3.271141	-0.8084024	47.77667	
08:33:23	-6.733989	38.95364	120.052	-0.7933971	-0.5510233	0.93	3	100	0	50	3.281265	-0.7872274	47.75007	
08:33:24	-6.733988	38.95364	120.594	-0.8264826	-2.137289	0.64	3	100	0	50	3.287377	-0.7962468	47.72904	
08:33:24	-6.733986	38.95364	120.591	-0.8522717	-3.663757	0.13	3	100	0	50	3.27589	-0.8023316	47.74952	
08:33:24	-6.733985	38.95364	121.296	-0.8686898	-4.017195	1.3	3	100	0	50	3.28925	-0.8096783	47.76392	
08:33:24	-6.733982	38.95364	121.938	-0.8868184	-4.340858	1.07	3	100	0	50	3.287807	-0.8127035	47.81857	
08:33:24	-6.733979	38.95365	122.128	-0.9022054	-4.865138	1.36	3	100	0	50	3.291693	-0.8112577	47.85838	
08:33:25	-6.733973	38.95367	124.8	-0.8673156	-2.4552	1.07	3	100	0	50	3.278545	-0.7802604	47.86185	
08:33:25	-6.73397	38.95367	125.716	-0.6983316	5.736721	0.42	3	99	0	50	3.263327	-0.7972177	47.83751	
08:33:26	-6.733971	38.95368	126.573	-0.7217059	2.890176	0.29	3	99	0	50	3.270879	-0.7793669	47.75075	
08:33:26	-6.73397	38.95368	126.842	-0.7605947	0.374763	0.45	3	99	0	50	3.271674	-0.777404	47.68709	
08:33:26	-6.733969	38.95368	127.33	-0.792784	-1.012859	0.25	3	99	0	50	3.26376	-0.7729456	47.62582	
08:33:26	-6.733966	38.95368	127.472	-0.8066171	-1.627119	0.66	3	99	0	50	3.267475	-0.7604735	47.65751	
08:33:26	-6.733965	38.95369	128.003	-0.8196607	-2.407078	0.24	3	99	0	50	3.268495	-0.7666896	47.62394	
08:33:27	-6.733964	38.95369	128.537	-0.828312	-2.715772	0.29	3	99	0	50	3.257312	-0.7632924	47.62552	
08:33:27	-6.733963	38.9537	129.081	-0.8348898	-3.029537	0.7	3	99	0	50	3.251355	-0.7681424	47.60643	
08:33:27	-6.733962	38.9537	129.746	-0.8075432	-1.394459	0.35	3	99	0	50	3.245407	-0.760927	47.55359	
08:33:27	-6.73396	38.95371	130.122	-0.782522	-0.2021448	0.11	3	99	0	50	3.241503	-0.7518852	47.60847	
08:33:27	-6.733958	38.95371	130.374	-0.8402731	-2.904422	0.25	3	99	0	50	3.240852	-0.7677301	47.60542	
08:33:27	-6.733955	38.95371	130.141	-0.8925743	-5.575743	0.41	3	99	0	50	3.241434	-0.7555229	47.53761	
08:33:27	-6.733953	38.95372	129.941	-0.92031	-6.058516	0.68	3	99	0	50	3.246758	-0.732323	47.55109	
08:33:28	-6.733951	38.95372	130.04	-0.9419566	-7.098267	0.38	3	99	0	50	3.238085	-0.7270105	47.53128	
08:33:28	-6.733951	38.95372	130.6	-0.9661711	-7.499597	0.36	3	99	0	50	3.242695	-0.7354569	47.43962	
08:33:28	-6.733951	38.95372	131.364	-0.9861362	-7.780447	0.97	3	99	0	50	3.236071	-0.7503101	47.37677	
08:33:28	-6.733951	38.95373	132.032	-0.9767842	-6.937346	0.11	3	99	0	50	3.225466	-0.743695	47.30681	
08:33:28	-6.733949	38.95373	132.103	-0.9679707	-5.764751	0.22	3	99	0	50	3.224302	-0.7393148	47.27299	
08:33:28	-6.733947	38.95373	132.081	-0.9780174	-5.252738	0.32	3	99	0	50	3.22293	-0.7451599	47.22463	
08:33:29	-6.733943	38.95373	131.571	-0.9856295	-5.044589	1.35	3	99	0	50	3.221726	-0.7350913	47.18662	
08:33:29	-6.733942	38.95373	131.906	-0.9713014	-3.504147	0.37	3	99	0	50	3.224117	-0.7363961	47.16063	
08:33:29	-6.73394	38.95374	132.208	-0.9573002	-2.432229	0.5	3	99	0	50	3.226681	-0.7523186	47.10766	
08:33:29	-6.733939	38.95374	132.755	-0.939226	-1.053622	0.25	3	99	0	50	3.230053	-0.7444071	47.06591	
08:33:29	-6.733938	38.95374	133.111	-0.9244516	-0.8737298	0.93	3	99	0	50	3.214901	-0.73441	46.98249	
08:33:30	-6.733938	38.95375	133.387	-0.9121554	-0.5396371	0.19	3	99	0	50	3.21617	-0.7380384	47.00469	
08:33:30	-6.733936	38.95375	133.439	-0.9014601	0.1116356	0.39	3	99	0	50	3.220894	-0.7532302	47.00682	
08:33:30	-6.733935	38.95375	133.844	-0.9045529	0.06918672	0.11	3	99	0	50	3.226211	-0.7388049	46.95023	
08:33:30	-6.73393	38.95375	133.071	-0.9071315	-0.1484501	0.25	3	99	0	50	3.177032	-0.7104237	46.91949	
08:33:30	-6.733926	38.95374	132.823	-0.8935661	0.9490053	0.45	3	99	0	50	2.972996	-0.4994878	46.94756	
08:33:31	-6.733922	38.95374	132.248	-0.8585154	2.904142	0.25	3	99	0	50	2.961929	-0.4820275	46.98308	
08:33:31	-6.733918	38.95374	131.975	-0.8263166	4.446342	0.26	3	99	0	50	3.058891	-0.9740551	47.07538	
08:33:31	-6.733916	38.95373	131.971	-0.8050809	5.517654	0.45	3	99	0	50	3.057032	-0.7212986	47.05696	
08:33:31	-6.733913	38.95373	131.581	-0.7846304	6.643367	0.17	3	99	0	50	3.183969	-0.4673676	47.02339	
08:33:31	-6.733909	38.95372	130.946	-0.7716148	6.638966	0.19	3	99	0	50	3.253009	-0.7596593	46.96091	
08:33:31	-6.733906	38.95372	130.426	-0.7713215	6.037708	0.18	3	99	0	50	3.21394	-0.9614195	46.95225	
08:33:31	-6.733903	38.95372	130.094	-0.781751	4.850113	0.12	3	99	0	50	3.269335	-0.8096488	46.92904	
08:33:32	-6.733901	38.95372	129.64	-0.7624435	5.037021	0.25	3	99	0	50	3.078999	-1.010948	46.9169	
08:33:32	-6.733898	38.95372	129.543	-0.7214479	6.417714	0.48	3	99	0	50	3.00268	-0.9950249	46.86661	
08:33:32	-6.733896	38.95372	129.119	-0.6847262	7.863311	0.17	3	99	0	50	2.907739	-0.6922328	46.87342	
08:33:32	-6.733894	38.95371	128.738	-0.6585314	8.324545	0.13	3	99	0	50	3.142637	-0.9791639	46.83936	
08:33:32	-6.733893	38.95371	127.976	-0.6382192	8.438673	0.29	3	99	0	50	3.064511	-0.8088528	46.81506	
08:33:33	-6.733891	38.95371	127.386	-0.6225843	8.218421	0.22	3	99	0	50	2.932425	-0.9428635	46.82962	
08:33:33	-6.733891	38.9537	126.833	-0.6149113	7.610538	0.09	3	99	0	50	3.077781	-0.9375297	46.80537	
08:33:33	-6.733889	38.9537	126.296	-0.6121423	7.651399	0.19	3	99	0	50	3.157158	-0.8185061	46.84903	
08:33:33	-6.733888	38.9537	125.874	-0.6419447	5.744971	0.28	3	99	0	50	3.083179	-0.8233859	46.80129	
08:33:34	-6.733888	38.9537	125.292	-0.7011353	1.992261	0.24	3	99	0	50	3.076626	-0.5520284	46.79397	
08:33:34	-6.733887	38.9537	124.977	-0.7452753	-0.3027817	0.07	3	99	0	50	3.211703	-0.5613283	46.84663	
08:33:34	-6.733886	38.9537	124.472	-0.7842453	-2.608639	0.25	3	99	0	50	3.260271	-0.7737244	46.84808	
08:33:34	-6.733886	38.95369	124.172	-0.8127834	-3.366485	0.17	3	99	0	50	3.253754	-0.8964839	46.83731	
08:33:34	-6.733885	38.95369	124.093	-0.8282214	-3.614453	0.5	3	99	0	50	3.290762	-0.7593135	46.84093	
08:33:34	-6.733884	38.95369	123.818	-0.8311817	-3.50054	0.19	3	99	0	50	3.200065	-0.8868149	46.79397	
08:33:35	-6.733884	38.95369	123.643	-0.8159866	-1.97076	0.07	3	99	0	50	3.448325	-0.4026971	46.87386	
08:33:35	-6.733884	38.95369	123.481	-0.8038697	-0.8397883	0.22	3	99	0	50	3.539351	-0.5267642	46.83105	
08:33:35	-6.733884	38.95369	123.267	-0.8457947	-2.743989	0.22	3	99	0	50	3.467777	-0.4370197	46.8372	
08:33:35	-6.733884	38.95369	122.925	-0.8803991	-4.631421	0.07	3	99	0	50	3.167866	-0.4274402	46.82475	
08:33:35	-6.733884	38.95369	122.657	-0.9076245	-5.146379	0.39	3	99	0	50	3.285686	-0.3267805	46.82992	
08:33:36	-6.733885	38.95369	122.207	-0.9283037	-5.560321	0.19	3	99	0	50	3.393738	-0.1440413	46.85715	
08:33:36	-6.733885	38.95368	121.961	-0.9245417	-4.913717	0.33	3	99	0	50	3.291322	-0.2613403	46.84512	
08:33:36	-6.733885	38.95368	121.616	-0.9201902	-4.162905	0.35	3	99	0	50	3.230404	-0.4272071	46.84924	
08:33:36	-6.733885	38.95368	121.255	-0.8486528	-0.3822505	0.12	3	99	0	50	3.373923	-0.6035024	46.83794	
08:33:37	-6.733885	38.95368	121.159	-0.7835663	3.27954	0.39	3	99	0	50	3.195415	-0.4757493	46.90054	
08:33:37	-6.733885	38.95368	120.792	-0.6768292	8.266438	0.13	3	99	0	50	3.26082	-0.5744871	46.89495	
08:33:37	-6.733884	38.95368	120.581	-0.5894219	12.23973	0.03	3	99	0	50	3.374815	-0.2617376	46.86643	
08:33:37	-6.733884	38.95368	120.47	-0.5910615	10.95739	0.22	3	99	0	50	3.22792	-0.2495797	46.87346	
08:33:37	-6.733884	38.95368	120.577	-0.5944495	9.921483	0.03	3	99	0	50	3.203829	-0.2587261	46.90863	
08:33:37	-6.733884	38.95368	120.448	-0.605486	8.447616	0.21	3	99	0	50	3.26987	-0.1089179	46.91455	
08:33:38	-6.733885	38.95368	120.477	-0.6155934	7.440762	0.22	3	99	0	50	3.251194	0.01319806	46.91087	
08:33:38	-6.733885	38.95368	120.425	-0.6370772	5.611291	0.19	3	99	0	50	3.334491	-0.1828999	46.9031	
08:33:38	-6.733885	38.95368	120.452	-0.6578084	4.273146	0.17	3	99	0	50	3.294571	-0.4008215	46.92574	
08:33:38	-6.733885	38.95368	120.322	-0.669556	3.61463	0.25	3	99	0	50	3.263355	-0.1266203	46.96259	
08:33:39	-6.733885	38.95368	120.212	-0.6807025	2.74641	0.26	3	99	0	50	3.06428	0.09807536	46.98974	
08:33:39	-6.733885	38.95368	120.037	-0.6601256	3.763523	0.35	3	99	0	50	3.094421	0.1189099	47.05058	
08:33:39	-6.733885	38.95368	120.11	-0.6446146	3.80996	0.26	3	99	0	50	3.200338	-0.06580201	47.12954	
08:33:39	-6.733885	38.95368	120.039	-0.6591804	2.823383	0.14	3	99	0	50	3.223288	-0.3681093	47.16411	
08:33:39	-6.733885	38.95368	119.901	-0.6725368	2.074044	0.24	3	99	0	50	3.341871	-0.1275235	47.15939	
08:33:40	-6.733886	38.95368	119.939	-0.6777569	1.594868	0.31	3	99	0	50	3.182834	0.09423015	47.1731	
08:33:40	-6.733885	38.95368	120.027	-0.6823254	1.38214	0.24	3	99	0	50	3.001716	-0.009666101	47.19128	
08:33:40	-6.733885	38.95369	119.927	-0.6815936	1.18157	0.21	3	99	0	50	3.112068	-0.2194245	47.24631	
08:33:40	-6.733885	38.95369	119.931	-0.6760983	1.114769	0.22	3	99	0	50	3.172863	-0.1912424	47.2761	
08:33:40	-6.733885	38.95369	119.825	-0.6466057	2.972907	0.19	3	99	0	50	3.231944	0.006110563	47.32233	
08:33:41	-6.733885	38.95369	119.45	-0.5940166	5.77269	0.31	3	99	0	50	3.143728	-0.04862613	47.23928	
08:33:41	-6.733884	38.95369	119.323	-0.5540874	7.398901	0.18	3	99	0	50	2.979051	-0.1736729	47.21366	
08:33:41	-6.733884	38.95369	119.292	-0.5340665	8.070757	0.31	3	99	0	50	2.80259	0.0002945519	47.27304	
08:33:41	-6.733884	38.95368	119.232	-0.5680791	5.427699	0.19	3	99	0	50	2.822964	0.07035427	47.3829	
08:33:41	-6.733883	38.95368	119.116	-0.6498193	0.7840222	0.07	3	99	0	50	2.996782	0.07207388	47.4622	
08:33:42	-6.733883	38.95368	118.957	-0.720104	-2.546667	0.12	3	99	0	50	3.018385	-0.05124264	47.49467	
08:33:42	-6.733883	38.95368	118.76	-0.7753061	-5.149367	0.42	3	99	0	50	2.843236	-0.1235526	47.45348	
08:33:42	-6.733883	38.95368	118.748	-0.8177193	-6.797031	0.09	3	99	0	50	2.923101	-0.08334036	47.4823	
08:33:42	-6.733883	38.95368	118.636	-0.8431048	-7.811571	0.14	3	99	0	50	3.205782	-0.219935	47.47345	
08:33:42	-6.733883	38.95368	118.602	-0.8564265	-8.047991	0.59	3	99	0	50	2.995024	0.03629238	47.49924	
08:33:42	-6.733884	38.95368	118.698	-0.8535188	-7.110118	0.29	3	99	0	50	2.755641	0.1731762	47.57887	
08:33:43	-6.733884	38.95368	118.728	-0.8601526	-7.188714	0.12	3	99	0	50	2.989279	-0.007957382	47.63428	
08:33:43	-6.733885	38.95368	118.805	-0.8744675	-6.812076	0.41	3	99	0	50	3.099188	0.1610533	47.60174	
08:33:43	-6.733885	38.95368	118.749	-0.9108451	-7.878069	0.09	3	99	0	50	3.097081	0.03279439	47.63301	
08:33:43	-6.733885	38.95368	118.762	-0.9661983	-10.54209	0.19	3	99	0	50	3.093359	-0.1518769	47.66689	
08:33:44	-6.733885	38.95368	118.76	-0.9919193	-10.67144	0.14	3	99	0	50	3.032847	-0.117622	47.71498	
08:33:44	-6.733885	38.95368	118.85	-0.9909014	-8.955987	0.09	3	99	0	50	3.101087	-0.2368484	47.65522	
08:33:44	-6.733885	38.95368	118.905	-0.983807	-7.610327	0.33	3	99	0	50	2.995391	-0.1945358	47.6393	
