Date	Latitude(deg) 	Longitude(deg)	hamsl(m)	hafl(m)	climbrate(cm/s)	GroundSpeed(m/s)	Airspeed(m/s)	Mav_Link(%)	Rssi_Link(%)	Throttle	Roll(deg)	Pitch(deg)	Yaw(deg)
11:10:31	-6.795891	38.98536	127.456	0	0	0.42	0	100	0	0	2.452908	0.06174304	-66.85874	
11:10:31	-6.795889	38.98536	128.898	0.4713288	-1.948365	0.08	3	100	0	50	2.530979	-0.3754495	-66.8108	
11:10:31	-6.795889	38.98536	128.858	0.4659671	-4.362409	0.28	3	100	0	50	2.252915	-0.2666141	-66.75574	
11:10:31	-6.795889	38.98536	129.011	0.03109663	-29.12131	0.17	3	100	0	50	2.357925	-0.2146296	-66.70045	
11:10:31	-6.795889	38.98536	129.061	-0.3661791	-48.70873	0.29	3	100	0	50	2.228962	-0.2414486	-66.65982	
11:10:32	-6.795889	38.98536	129.008	-0.2184765	-38.41895	0.19	3	100	0	50	2.453534	-0.1657619	-66.6145	
11:10:32	-6.795888	38.98536	129.038	-0.04995986	-27.18379	0.36	3	100	0	50	2.345012	0.09058641	-66.58331	
11:10:32	-6.795888	38.98536	128.96	0.1788777	-13.96212	0.18	3	100	0	50	2.565697	-0.1220083	-66.57361	
11:10:32	-6.795888	38.98536	128.982	0.4102093	-2.276187	0.22	3	100	0	50	2.342205	0.05490217	-66.55016	
11:10:32	-6.795888	38.98536	128.982	0.56349	3.686415	0.29	3	100	0	50	1.979478	-0.1822275	-66.53304	
11:10:33	-6.795888	38.98536	128.949	0.6202738	4.366154	0.26	3	100	0	50	2.036093	-0.3439587	-66.47449	
11:10:33	-6.795889	38.98536	128.855	0.6277322	2.281493	0.11	3	100	0	50	1.921958	-0.2635203	-66.41328	
11:10:33	-6.795888	38.98536	128.823	0.577522	-2.391324	0.22	3	100	0	50	1.975926	-0.1105181	-66.3561	
11:10:33	-6.795889	38.98536	128.735	0.5463884	-5.204988	0.29	3	100	0	50	2.247515	-0.0826709	-66.32432	
11:10:33	-6.795889	38.98536	128.696	0.5325557	-7.027271	0.16	3	100	0	50	2.192919	0.3295746	-66.29967	
11:10:34	-6.795889	38.98536	128.589	0.4737196	-11.81153	0.25	3	100	0	50	2.166199	0.2359757	-66.29895	
11:10:34	-6.795889	38.98536	128.515	0.3771883	-17.57541	0.29	3	100	0	50	1.809045	0.267951	-66.29072	
11:10:34	-6.795889	38.98536	128.508	0.3100972	-21.12488	0.19	3	100	0	50	1.64653	0.1279852	-66.26672	
11:10:34	-6.795889	38.98536	128.53	0.2699339	-22.8215	0.34	3	100	0	50	1.917904	-0.08541674	-66.22161	
11:10:34	-6.795889	38.98536	128.495	0.2267866	-25.33132	0.19	3	100	0	50	1.774126	-0.1661224	-66.17273	
11:10:35	-6.795889	38.98536	128.501	0.177704	-26.89564	0.14	3	100	0	50	2.11694	0.1045128	-66.14624	
11:10:35	-6.795889	38.98536	128.323	0.1470736	-27.23794	0.14	3	100	0	50	2.081345	0.08261164	-66.13523	
11:10:35	-6.795889	38.98536	128.3	0.1373116	-26.52127	0.29	3	100	0	50	2.066979	0.3193497	-66.12914	
11:10:35	-6.795889	38.98536	128.198	0.1431545	-24.92996	0.09	3	100	0	50	1.916596	-0.07115814	-66.12105	
11:10:35	0	0	0	0.1622149	-23.18205	0	3	100	0	50	1.8042	0.1839811	-65.64753	
11:10:36	0	0	0	0.06331499	-101.6494	0	3	100	0	50	1.843319	0.3583477	-66.83459	
11:10:36	47.46363	-122.3077	0.02	-0.127291	-107.9696	0	3	100	0	50	1.830487	0.4743406	-68.85003	
11:10:36	47.46363	-122.3077	0.02	-0.3096542	-113.1319	0	3	100	0	50	1.754488	0.5290938	-70.9558	
11:10:36	47.46363	-122.3077	0.02	-0.4591062	-116.2992	0	3	100	0	50	1.669714	0.5388358	-73.07587	
11:10:36	47.46363	-122.3077	0.02	-0.5881478	-117.7787	0	3	100	0	50	1.584152	0.5619771	-75.24416	
11:10:37	47.46363	-122.3077	0.02	-0.6928301	-117.8609	0	3	100	0	50	1.501482	0.6089974	-77.41936	
11:10:37	47.46363	-122.3077	0.02	-0.770297	-116.8411	0	3	100	0	50	1.420776	0.6435713	-79.58203	
11:10:37	47.46363	-122.3077	0.02	-0.8445214	-114.6131	0	3	100	0	50	1.338982	0.6778505	-81.77749	
11:10:37	47.46363	-122.3077	0.02	-0.8897157	-112.092	0	3	100	0	50	1.26147	0.7041559	-83.99232	
11:10:37	47.46363	-122.3077	0.02	-0.9255623	-108.7503	0	3	100	0	50	1.185948	0.7266583	-86.17198	
11:10:38	47.46363	-122.3077	0.02	-0.9497526	-104.5777	0	3	100	0	50	1.115797	0.7375321	-87.90157	
11:10:38	47.46363	-122.3077	0.02	-0.9598646	-100.4535	0	3	100	0	50	1.051313	0.7378597	-89.17975	
11:10:38	47.46363	-122.3077	0.02	-0.9606639	-96.56767	0	3	100	0	50	0.9911816	0.7308784	-90.125	
11:10:38	47.46363	-122.3077	0.02	-0.9537277	-92.18275	0	3	100	0	50	0.9293048	0.7244437	-91.3166	
11:10:38	47.46363	-122.3077	0.02	-0.9381321	-87.20997	0	3	100	0	50	0.855867	0.7460116	-93.57333	
11:10:39	47.46363	-122.3077	0.02	-0.9180682	-82.86951	0	3	100	0	50	0.7781931	0.7512183	-96.11722	
11:10:39	47.46363	-122.3077	0.02	-0.8936158	-78.62229	0	3	100	0	50	0.7058207	0.7518955	-98.64729	
11:10:39	47.46363	-122.3077	0.02	-0.8685793	-74.93255	0	3	100	0	50	0.6386702	0.7585458	-101.144	
11:10:39	47.46363	-122.3077	0.02	-0.8396812	-71.1702	0	3	100	0	50	0.571474	0.7606353	-103.6168	
11:10:39	47.46363	-122.3077	0.02	-0.8058274	-67.06807	0	3	100	0	50	0.5088069	0.7529113	-106.0633	
11:10:40	47.46363	-122.3077	0.02	-0.7729585	-63.46709	0	3	100	0	50	0.4495242	0.7370438	-108.494	
11:10:40	47.46363	-122.3077	0.02	-0.7408845	-60.45073	0	3	100	0	50	0.3985278	0.7221416	-110.4913	
11:10:40	47.46363	-122.3077	0.02	-0.7126256	-58.02185	0	3	100	0	50	0.3535552	0.7027308	-112.053	
11:10:40	47.46363	-122.3077	0.02	-0.6821399	-55.55713	0	3	100	0	50	0.3128331	0.6801854	-113.2996	
11:10:40	47.46363	-122.3077	0.02	-0.6499638	-53.12523	0	3	100	0	50	0.2755845	0.6557015	-114.3031	
11:10:41	47.46363	-122.3077	0.02	-0.6224979	-51.18133	0	3	100	0	50	0.2405616	0.6296746	-115.1362	
11:10:41	47.46363	-122.3077	0.02	-0.5991132	-49.60587	0	3	100	0	50	0.2074829	0.6027842	-115.8361	
11:10:41	47.46363	-122.3077	0.02	-0.5991132	-49.60587	0	3	100	0	50	0.1717693	0.5754308	-116.9458	
11:10:41	47.46363	-122.3077	0.02	-0.5843744	-48.53653	0	3	100	0	50	0.1309655	0.5507213	-119.0593	
11:10:41	47.46363	-122.3077	0.02	-0.5608615	-46.90337	0	3	100	0	50	0.09513235	0.5264007	-121.2428	
11:10:42	47.46363	-122.3077	0.02	-0.5384318	-45.39408	0	3	100	0	50	0.06580855	0.5077785	-123.3568	
11:10:42	47.46363	-122.3077	0.02	-0.5177009	-43.92837	0	3	100	0	50	0.03884596	0.4856581	-125.4493	
11:10:42	47.46363	-122.3077	0.02	-0.5003475	-42.9001	0	3	100	0	50	0.01360025	0.4720996	-127.4741	
11:10:42	47.46363	-122.3077	0.02	-0.4810102	-41.80657	0	3	100	0	50	-0.009398996	0.4525549	-129.4516	
11:10:42	47.46363	-122.3077	0.02	-0.4647622	-40.92381	0	3	100	0	50	-0.029362	0.4287827	-131.3784	
11:10:43	47.46363	-122.3077	0.02	-0.4500544	-40.15097	0	3	100	0	50	-0.04759397	0.409618	-133.2468	
11:10:43	47.46363	-122.3077	0.02	-0.4380214	-39.53674	0	3	100	0	50	-0.06519123	0.3890508	-135.0534	
11:10:43	47.46363	-122.3077	0.02	-0.4259241	-38.93579	0	3	100	0	50	-0.08040598	0.3837468	-136.8153	
11:10:43	47.46363	-122.3077	0.02	-0.4149479	-38.31928	0	3	100	0	50	-0.09413581	0.3721507	-138.5353	
11:10:43	47.46363	-122.3077	0.02	-0.4038582	-37.71202	0	3	100	0	50	-0.1068054	0.3503223	-140.1782	
11:10:44	47.46363	-122.3077	0.02	-0.3948416	-37.27944	0	3	100	0	50	-0.122086	0.3210417	-142.1588	
11:10:44	47.46363	-122.3077	0.02	-0.3875219	-36.92759	0	3	100	0	50	-0.1363509	0.2933811	-144.1613	
11:10:44	47.46363	-122.3077	0.02	-0.3794299	-36.53314	0	3	100	0	50	-0.1492	0.2690889	-146.0974	
11:10:44	47.46363	-122.3077	0.02	-0.3728499	-36.19882	0	3	100	0	50	-0.1595068	0.2516826	-147.9818	
11:10:44	47.46363	-122.3077	0.02	-0.366755	-35.79458	0	3	100	0	50	-0.1684145	0.2351968	-149.8012	
11:10:45	47.46363	-122.3077	0.02	-0.3616863	-35.4954	0	3	100	0	50	-0.1761078	0.1320927	-151.5458	
11:10:45	47.46363	-122.3077	0.02	-0.3561065	-35.19203	0	3	100	0	50	-0.1806986	0.1158908	-153.2393	
11:10:45	47.46363	-122.3077	0.02	-0.3512124	-34.81324	0	3	100	0	50	-0.1855291	0.1860317	-154.868	
11:10:45	47.46363	-122.3077	0.02	-0.3465601	-34.36153	0	3	100	0	50	-0.1919398	0.2061968	-156.4378	
11:10:45	47.46363	-122.3077	0.02	-0.3426061	-34.20742	0	3	100	0	50	-0.1969514	0.1217898	-157.9423	
11:10:46	47.46363	-122.3077	0.02	-0.3382633	-33.98132	0	3	100	0	50	-0.2001251	0.09467027	-159.4157	
11:10:46	47.46363	-122.3077	0.02	-0.3345345	-33.62245	0	3	100	0	50	-0.203393	0.09781505	-160.8106	
11:10:46	47.46363	-122.3077	0.02	-0.3307738	-33.22709	0	3	100	0	50	-0.2050364	0.0861137	-162.1536	
11:10:46	47.46363	-122.3077	0.02	-0.3270868	-32.9455	0	3	100	0	50	-0.2068933	0.07195367	-163.4527	
11:10:46	47.46363	-122.3077	0.02	-0.3235573	-32.65708	0	3	100	0	50	-0.2071773	0.06770592	-164.6968	
11:10:47	47.46363	-122.3077	0.02	-0.3203723	-32.31209	0	3	100	0	50	-0.2104252	0.08268571	-165.8984	
11:10:47	47.46363	-122.3077	0.02	-0.316917	-32.01288	0	3	100	0	50	-0.2113381	0.05825925	-167.048	
11:10:47	47.46363	-122.3077	0.02	-0.3133448	-31.79341	0	3	100	0	50	-0.2126102	0.0328464	-168.1669	
11:10:47	47.46363	-122.3077	0.02	-0.3102718	-31.59348	0	3	100	0	50	-0.213595	0.04471841	-169.2489	
11:10:47	47.46363	-122.3077	0.02	-0.3076019	-31.29378	0	3	100	0	50	-0.2144153	0.02984099	-170.2713	
11:10:48	47.46363	-122.3077	0.02	-0.304553	-30.91603	0	3	100	0	50	-0.2140688	0.1342672	-171.256	
11:10:48	47.46363	-122.3077	0.02	-0.3010641	-30.4711	0	3	100	0	50	-0.2168666	0.07458187	-172.2039	
11:10:48	47.46363	-122.3077	0.02	-0.2979068	-30.3074	0	3	100	0	50	-0.2154126	-0.01579416	-173.1152	
11:10:48	47.46363	-122.3077	0.02	-0.294919	-30.07186	0	3	100	0	50	-0.2151305	-0.0293617	-173.9926	
11:10:48	47.46363	-122.3077	0.02	-0.29198	-29.71352	0	3	100	0	50	-0.2152417	-0.01751768	-174.8357	
11:10:49	47.46363	-122.3077	0.02	-0.2889247	-29.3476	0	3	100	0	50	-0.2136375	-0.02326019	-175.7439	
11:10:49	47.46363	-122.3077	0.02	-0.2860484	-29.00957	0	3	100	0	50	-0.2107365	-0.03759978	-176.6638	
11:10:49	47.46363	-122.3077	0.02	-0.2824134	-28.59287	0	3	100	0	50	-0.2075885	-0.0466303	-177.5528	
11:10:49	47.46363	-122.3077	0.02	-0.278912	-28.11683	0	3	100	0	50	-0.2055311	-0.04242325	-178.4067	
11:10:49	47.46363	-122.3077	0.02	-0.2749405	-27.50427	0	3	100	0	50	-0.2032875	-0.05880952	-179.2255	
11:10:50	47.46363	-122.3077	0.02	-0.2707803	-27.0212	0	3	100	0	50	-0.201534	-0.0611845	179.9834	
11:10:50	47.46363	-122.3077	0.02	-0.266452	-26.53691	0	3	100	0	50	-0.1977687	-0.08683126	179.2144	
11:10:50	47.46363	-122.3077	0.02	-0.2622437	-26.27506	0	3	100	0	50	-0.1948067	-0.09677971	178.4754	
11:10:50	47.46363	-122.3077	0.02	-0.2583255	-25.9344	0	3	100	0	50	-0.1923919	-0.08634393	177.7678	
11:10:50	47.46363	-122.3077	0.02	-0.2545148	-25.60298	0	3	100	0	50	-0.1901602	-0.08655849	177.0852	
11:10:51	47.46363	-122.3077	0.02	-0.2508742	-25.39661	0	3	100	0	50	-0.1874492	-0.09238768	176.3902	
11:10:51	47.46363	-122.3077	0.02	-0.2478667	-25.19982	0	3	100	0	50	-0.1856935	-0.0959388	175.7593	
11:10:51	47.46363	-122.3077	0.02	-0.2442414	-24.7959	0	3	100	0	50	-0.1836544	-0.13466	175.1597	
11:10:51	47.46363	-122.3077	0.02	-0.240943	-24.48162	0	3	100	0	50	-0.181472	-0.1588849	174.5878	
11:10:51	47.46363	-122.3077	0.02	-0.2380973	-24.29883	0	3	100	0	50	-0.1777713	-0.150006	174.0008	
11:10:52	47.46363	-122.3077	0.02	-0.2345243	-23.75137	0	3	100	0	50	-0.1758848	-0.1265643	173.472	
11:10:52	47.46363	-122.3077	0.02	-0.2310517	-23.42749	0	3	100	0	50	-0.1743572	-0.1415768	172.9626	
11:10:52	47.46363	-122.3077	0.02	-0.2276597	-23.13142	0	3	100	0	50	-0.1724588	-0.1622822	172.4576	
11:10:52	47.46363	-122.3077	0.02	-0.2246285	-22.86194	0	3	100	0	50	-0.1704851	-0.1382007	171.9845	
11:10:52	47.46363	-122.3077	0.02	-0.2216364	-22.70986	0	3	100	0	50	-0.1680504	-0.1413319	171.4877	
11:10:53	47.46363	-122.3077	0.02	-0.2187034	-22.42886	0	3	100	0	50	-0.1663312	-0.1448255	170.9951	
11:10:53	47.46363	-122.3077	0.02	-0.2157514	-22.14521	0	3	100	0	50	-0.1649396	-0.1257165	170.5722	
11:10:53	47.46363	-122.3077	0.02	-0.212578	-21.83916	0	3	100	0	50	-0.1640789	-0.1361235	170.1716	
11:10:53	47.46363	-122.3077	0.02	-0.2100278	-21.68246	0	3	100	0	50	-0.1633572	-0.1396	169.7787	
11:10:53	47.46363	-122.3077	0.02	-0.2070576	-21.37317	0	3	100	0	50	-0.1638976	-0.1389561	169.3999	
11:10:54	47.46363	-122.3077	0.02	-0.2042864	-20.97689	0	3	100	0	50	-0.1623481	-0.1384703	169.0464	
11:10:54	47.46363	-122.3077	0.02	-0.2016015	-20.72186	0	3	100	0	50	-0.1594941	-0.1412204	168.7884	
11:10:54	47.46363	-122.3077	0.02	-0.1986719	-20.44365	0	3	100	0	50	-0.1573425	-0.1360582	168.5467	
11:10:54	47.46363	-122.3077	0.02	-0.1959287	-20.25068	0	3	100	0	50	-0.1556512	-0.1329428	168.3131	
11:10:54	47.46363	-122.3077	0.02	-0.1929126	-19.95521	0	3	100	0	50	-0.1531259	-0.1452575	168.0836	
11:10:55	47.46363	-122.3077	0.02	-0.1904845	-19.75694	0	3	100	0	50	-0.1521854	-0.1336639	167.8653	
11:10:55	47.46363	-122.3077	0.02	-0.1878443	-19.55354	0	3	100	0	50	-0.1516763	-0.1455136	167.6067	
11:10:55	47.46363	-122.3077	0.02	-0.1855275	-19.49002	0	3	100	0	50	-0.1505655	-0.1566981	167.1925	
11:10:55	47.46363	-122.3077	0.02	-0.1832822	-19.34194	0	3	100	0	50	-0.1489306	-0.1566235	166.9846	
11:10:55	47.46363	-122.3077	0.02	-0.1814167	-19.12317	0	3	100	0	50	-0.1486836	-0.1850855	166.7818	
11:10:56	47.46363	-122.3077	0.02	-0.1794087	-18.93143	0	3	100	0	50	-0.1467533	-0.2046283	166.5663	
11:10:56	47.46363	-122.3077	0.02	-0.1770687	-18.63466	0	3	100	0	50	-0.1446372	-0.2114591	166.2464	
11:10:56	47.46363	-122.3077	0.02	-0.1750682	-18.39393	0	3	100	0	50	-0.1432881	-0.2135793	165.9243	
11:10:56	47.46363	-122.3077	0.02	-0.1727635	-18.12484	0	3	100	0	50	-0.1415987	-0.2101442	165.7356	
11:10:56	47.46363	-122.3077	0.02	-0.1701435	-17.83334	0	3	100	0	50	-0.1403763	-0.20728	165.5452	
11:10:57	47.46363	-122.3077	0.02	-0.1675728	-17.41626	0	3	100	0	50	-0.1389682	-0.2055068	165.2713	
11:10:57	47.46363	-122.3077	0.02	-0.1649656	-17.01306	0	3	100	0	50	-0.1372783	-0.2043573	164.8853	
11:10:57	47.46363	-122.3077	0.02	-0.1614944	-16.62951	0	3	100	0	50	-0.1367563	-0.1771586	164.7765	
11:10:57	47.46363	-122.3077	0.02	-0.1584371	-16.34599	0	3	100	0	50	-0.1354438	-0.1279574	164.6791	
11:10:57	47.46363	-122.3077	0.02	-0.1557269	-16.17042	0	3	100	0	50	-0.1352473	-0.1780122	164.5828	
11:10:58	47.46363	-122.3077	0.02	-0.1527201	-15.9752	0	3	100	0	50	-0.1344498	-0.2064356	164.492	
11:10:58	47.46363	-122.3077	0.02	-0.1501439	-15.77474	0	3	100	0	50	-0.1332245	-0.1921718	164.411	
11:10:58	47.46363	-122.3077	0.02	-0.1476529	-15.57747	0	3	100	0	50	-0.1329398	-0.1894587	164.3306	
11:10:58	47.46363	-122.3077	0.02	-0.145515	-15.4052	0	3	100	0	50	-0.1326351	-0.174632	164.2486	
11:10:58	47.46363	-122.3077	0.02	-0.1432502	-15.21828	0	3	100	0	50	-0.1321569	-0.1731411	164.1596	
11:10:59	47.46363	-122.3077	0.02	-0.1407681	-15.01104	0	3	100	0	50	-0.1318484	-0.1640368	164.088	
11:10:59	47.46363	-122.3077	0.02	-0.138842	-14.84721	0	3	100	0	50	-0.1307046	-0.1496833	164.0743	
11:10:59	47.46363	-122.3077	0.02	-0.1368365	-14.74755	0	3	100	0	50	-0.1291339	-0.151301	164.1909	
11:10:59	47.46363	-122.3077	0.02	-0.1350159	-14.64744	0	3	100	0	50	-0.1280939	-0.1618694	164.3043	
11:10:59	47.46363	-122.3077	0.02	-0.1332768	-14.4698	0	3	100	0	50	-0.1268179	-0.1419206	164.414	
11:11:00	47.46363	-122.3077	0.02	-0.1313119	-14.19438	0	3	100	0	50	-0.1259403	-0.1521757	164.5192	
11:11:00	47.46363	-122.3077	0.02	-0.1295556	-14.05782	0	3	100	0	50	-0.1245635	-0.208858	164.6229	
11:11:00	47.46363	-122.3077	0.02	-0.1271491	-13.53396	0	3	100	0	50	-0.1251727	-0.1538682	164.7197	
11:11:00	47.46363	-122.3077	0.02	-0.1247631	-13.25329	0	3	100	0	50	-0.1237192	-0.08037448	164.8197	
11:11:00	47.46363	-122.3077	0.02	-0.1221654	-12.89837	0	3	100	0	50	-0.1212654	0.03307701	164.9126	
11:11:01	47.46363	-122.3077	0.02	-0.1198725	-12.90543	0	3	100	0	50	-0.1210715	-0.05939212	164.9988	
11:11:01	47.46363	-122.3077	0.02	-0.1178139	-12.88106	0	3	100	0	50	-0.120697	-0.1345975	165.0822	
11:11:01	47.46363	-122.3077	0.02	-0.1160192	-12.8453	0	3	100	0	50	-0.1193999	-0.1503816	165.1623	
11:11:01	47.46363	-122.3077	0.02	-0.1146474	-12.71977	0	3	100	0	50	-0.1177896	-0.1465778	165.2228	
11:11:01	47.46363	-122.3077	0.02	-0.1127725	-12.38705	0	3	100	0	50	-0.1169116	-0.1385387	165.3046	
11:11:02	47.46363	-122.3077	0.02	-0.1110921	-12.18175	0	3	100	0	50	-0.1160483	-0.1654473	165.3765	
11:11:02	47.46363	-122.3077	0.02	-0.1090395	-11.91845	0	3	100	0	50	-0.1148158	-0.1233816	165.4501	
11:11:02	47.46363	-122.3077	0.02	-0.1071004	-11.59287	0	3	100	0	50	-0.1144767	-0.03404355	165.5166	
11:11:02	47.46363	-122.3077	0.02	-0.1048652	-11.43498	0	3	100	0	50	-0.1139401	-0.03307449	165.5741	
11:11:02	47.46363	-122.3077	0.02	-0.1027252	-11.39061	0	3	100	0	50	-0.1129677	-0.07115703	165.6407	
11:11:03	47.46363	-122.3077	0.02	-0.1009903	-11.28393	0	3	100	0	50	-0.1124492	-0.1221667	165.6962	
11:11:03	47.46363	-122.3077	0.02	-0.09938429	-11.18111	0	3	100	0	50	-0.1115588	-0.1090663	165.7538	
11:11:03	47.46363	-122.3077	0.02	-0.0978955	-10.99121	0	3	100	0	50	-0.1116972	-0.08149908	165.8087	
11:11:03	47.46363	-122.3077	0.02	-0.09634224	-10.89453	0	3	100	0	50	-0.110508	-0.08537934	165.8575	
11:11:03	47.46363	-122.3077	0.02	-0.0947804	-10.86689	0	3	100	0	50	-0.1081971	-0.09771315	165.9009	
11:11:04	47.46363	-122.3077	0.02	-0.0935591	-10.76849	0	3	100	0	50	-0.1080271	-0.09667025	165.9464	
11:11:04	47.46363	-122.3077	0.02	-0.09249847	-10.67745	0	3	100	0	50	-0.1080522	-0.1031367	165.8902	
11:11:04	47.46363	-122.3077	0.02	-0.09122672	-10.56266	0	3	100	0	50	-0.1077715	-0.1098735	165.6736	
11:11:04	47.46363	-122.3077	0.02	-0.09008396	-10.45632	0	3	100	0	50	-0.1054534	-0.06754289	165.7923	
11:11:04	47.46363	-122.3077	0.019	-0.08908301	-10.36013	0	3	100	0	50	-0.1030957	-0.07506816	165.9461	
11:11:05	47.46363	-122.3077	0.019	-0.08818391	-10.52318	0	3	100	0	50	-0.1010708	-0.1575265	166.1348	
11:11:05	47.46363	-122.3077	0.02	-0.08785731	-10.49769	0	3	100	0	50	-0.0987457	-0.2482484	166.2452	
11:11:05	47.46363	-122.3077	0.02	-0.0873455	-10.38084	0	3	100	0	50	-0.0977063	-0.2249916	166.4745	
11:11:05	47.46363	-122.3077	0.02	-0.08656979	-10.2481	0	3	100	0	50	-0.09746943	-0.1924027	166.6269	
11:11:05	47.46363	-122.3077	0.02	-0.08568583	-10.1112	0	3	100	0	50	-0.09652636	-0.1621995	166.6502	
11:11:06	47.46363	-122.3077	0.02	-0.08481019	-9.986662	0	3	100	0	50	-0.09510437	-0.1389776	166.7961	
11:11:06	47.46363	-122.3077	0.02	-0.08376816	-9.848419	0	3	100	0	50	-0.09341274	-0.1197561	166.8143	
11:11:06	47.46363	-122.3077	0.02	-0.08266003	-9.709772	0	3	100	0	50	-0.0933906	-0.1143448	167.034	
11:11:06	47.46363	-122.3077	0.02	-0.08134782	-9.495024	0	3	100	0	50	-0.09288403	-0.07557005	167.2395	
11:11:06	47.46363	-122.3077	0.02	-0.08008253	-9.312744	0	3	100	0	50	-0.09162845	-0.07356547	167.3914	
11:11:07	47.46363	-122.3077	0.02	-0.07867262	-9.178091	0	3	100	0	50	-0.09227749	-0.09423867	167.5812	
11:11:07	47.46363	-122.3077	0.02	-0.07713838	-9.033161	0	3	100	0	50	-0.09129182	-0.1074065	167.7617	
11:11:07	47.46363	-122.3077	0.02	-0.07575106	-8.903041	0	3	100	0	50	-0.08953004	-0.07347602	167.9451	
11:11:07	47.46363	-122.3077	0.02	-0.07432895	-8.757041	0	3	100	0	50	-0.08910918	-0.0573892	168.1284	
11:11:07	47.46363	-122.3077	0.02	-0.07305385	-8.568584	0	3	100	0	50	-0.08826592	-0.1061347	168.2985	
11:11:08	47.46363	-122.3077	0.02	-0.07153	-8.351753	0	3	100	0	50	-0.08800032	-0.13318	168.4623	
11:11:08	47.46363	-122.3077	0.02	-0.06996395	-8.241895	0	3	100	0	50	-0.08766124	-0.09388649	168.6003	
11:11:08	47.46363	-122.3077	0.02	-0.0682015	-8.022889	0	3	100	0	50	-0.08696098	-0.07096744	168.741	
11:11:08	47.46363	-122.3077	0.02	-0.06664027	-7.923129	0	3	100	0	50	-0.08570093	-0.08081723	168.8894	
11:11:08	47.46363	-122.3077	0.02	-0.0652776	-7.75724	0	3	100	0	50	-0.08543468	-0.07754808	169.033	
11:11:09	47.46363	-122.3077	0.02	-0.06360652	-7.531051	0	3	100	0	50	-0.08489853	-0.08234176	169.1712	
11:11:09	47.46363	-122.3077	0.02	-0.06200311	-7.448565	0	3	100	0	50	-0.083625	-0.08251274	169.2915	
11:11:09	47.46363	-122.3077	0.02	-0.06039392	-7.305321	0	3	100	0	50	-0.0821607	-0.06725327	169.4169	
11:11:09	47.46363	-122.3077	0.02	-0.05881162	-7.111485	0	3	100	0	50	-0.0821522	-0.08286623	169.525	
11:11:09	47.46363	-122.3077	0.02	-0.05730524	-7.042922	0	3	100	0	50	-0.0808835	-0.0942537	169.7842	
11:11:10	47.46363	-122.3077	0.02	-0.05584904	-6.887236	0	3	100	0	50	-0.07993766	-0.09004859	170.0669	
11:11:10	47.46363	-122.3077	0.02	-0.05451763	-6.741364	0	3	100	0	50	-0.07945603	-0.09017199	170.339	
11:11:10	47.46363	-122.3077	0.02	-0.0531648	-6.694021	0	3	100	0	50	-0.07803054	-0.08156276	170.601	
11:11:10	47.46363	-122.3077	0.02	-0.05180241	-6.530278	0	3	100	0	50	-0.07613492	-0.0635512	170.8428	
11:11:10	47.46363	-122.3077	0.02	-0.05044668	-6.416174	0	3	100	0	50	-0.07481115	-0.07133637	171.0842	
11:11:11	47.46363	-122.3077	0.02	-0.04924246	-6.385713	0	3	100	0	50	-0.07467216	-0.05639988	171.3154	
11:11:11	47.46363	-122.3077	0.02	-0.04823381	-6.360608	0	3	100	0	50	-0.07302845	-0.0438313	171.5362	
11:11:11	47.46363	-122.3077	0.02	-0.04735595	-6.33608	0	3	100	0	50	-0.07194414	-0.06292714	171.7544	
11:11:11	47.46363	-122.3077	0.02	-0.04657502	-6.217345	0	3	100	0	50	-0.07076272	-0.1201996	171.9652	
11:11:11	47.46363	-122.3077	0.02	-0.04566406	-6.096408	0	3	100	0	50	-0.06948669	-0.141963	172.1309	
11:11:12	47.46363	-122.3077	0.02	-0.04476523	-6.051952	0	3	100	0	50	-0.07020748	-0.1211173	172.3101	
11:11:12	47.46363	-122.3077	0.02	-0.04376877	-5.953552	0	3	100	0	50	-0.06948189	-0.1034184	172.4973	
11:11:12	47.46363	-122.3077	0.02	-0.04288808	-5.858177	0	3	100	0	50	-0.06854554	-0.08879808	172.6685	
11:11:12	47.46363	-122.3077	0.02	-0.0420553	-5.781035	0	3	100	0	50	-0.0669944	-0.08873951	172.8436	
11:11:12	47.46363	-122.3077	0.02	-0.04129635	-5.746595	0	3	100	0	50	-0.06743684	-0.08374013	173.002	
11:11:13	47.46363	-122.3077	0.02	-0.04046111	-5.632829	0	3	100	0	50	-0.06607559	-0.08602587	173.1628	
11:11:13	47.46363	-122.3077	0.02	-0.03967841	-5.618746	0	3	100	0	50	-0.06430311	-0.08581193	173.3166	
11:11:13	47.46363	-122.3077	0.02	-0.03902564	-5.606279	0	3	100	0	50	-0.06341491	-0.0623396	173.4713	
11:11:13	47.46363	-122.3077	0.02	-0.03853155	-5.652503	0	3	100	0	50	-0.0623542	-0.04981469	173.6185	
11:11:13	47.46363	-122.3077	0.02	-0.03817968	-5.672215	0	3	100	0	50	-0.06113751	-0.03092819	173.7575	
11:11:14	47.46363	-122.3077	0.02	-0.03791663	-5.652891	0	3	100	0	50	-0.06095395	-0.05353866	173.883	
11:11:14	47.46363	-122.3077	0.02	-0.03774743	-5.742325	0	3	100	0	50	-0.06044092	-0.1134929	174.0124	
11:11:14	47.46363	-122.3077	0.02	-0.03765799	-5.710402	0	3	100	0	50	-0.06037059	-0.115605	174.1373	
11:11:14	47.46363	-122.3077	0.02	-0.03752103	-5.672352	0	3	100	0	50	-0.05965615	-0.113738	174.2574	
11:11:14	47.46363	-122.3077	0.02	-0.03733239	-5.627852	0	3	100	0	50	-0.05878542	-0.1097206	174.4478	
11:11:15	47.46363	-122.3077	0.02	-0.0369713	-5.421948	0	3	100	0	50	-0.05797122	-0.1051791	174.6816	
11:11:15	47.46363	-122.3077	0.02	-0.03623961	-5.231196	0	3	100	0	50	-0.05735444	-0.1020916	174.9001	
11:11:15	47.46363	-122.3077	0.02	-0.03554421	-5.165689	0	3	100	0	50	-0.05661825	-0.08988819	175.1115	
11:11:15	47.46363	-122.3077	0.02	-0.03471224	-5.077221	0	3	100	0	50	-0.05520874	-0.05669128	175.3179	
11:11:16	47.46363	-122.3077	0.02	-0.03377132	-4.929112	0	3	100	0	50	-0.05489374	-0.08025402	175.5163	
11:11:16	47.46363	-122.3077	0.02	-0.0326101	-4.607845	0	3	100	0	50	-0.0550985	-0.1273295	175.7089	
11:11:16	47.46363	-122.3077	0.02	-0.031286	-4.452534	0	3	100	0	50	-0.05538927	-0.1265808	175.8898	
11:11:16	47.46363	-122.3077	0.02	-0.02982265	-4.22798	0	3	100	0	50	-0.0528083	-0.1046937	176.0675	
11:11:16	47.46363	-122.3077	0.02	-0.02821832	-4.011835	0	3	100	0	50	-0.05147476	-0.06383678	176.2366	
11:11:17	47.46363	-122.3077	0.02	-0.02669604	-3.867758	0	3	100	0	50	-0.05092314	-0.03986117	176.3999	
11:11:17	47.46363	-122.3077	0.02	-0.02525763	-3.854991	0	3	100	0	50	-0.04998868	-0.05004982	176.5568	
11:11:17	47.46363	-122.3077	0.02	-0.02393417	-3.869994	0	3	100	0	50	-0.0485621	-0.06705931	176.7001	
11:11:17	47.46363	-122.3077	0.02	-0.02298268	-3.891227	0	3	100	0	50	-0.04840937	-0.09107246	176.8446	
11:11:17	47.46363	-122.3077	0.02	-0.02228035	-3.974651	0	3	100	0	50	-0.04788714	-0.06115925	176.9836	
11:11:18	47.46363	-122.3077	0.02	-0.02161648	-3.795289	0	3	100	0	50	-0.04683245	-0.04334265	177.1199	
11:11:18	47.46363	-122.3077	0.02	-0.02098623	-3.884422	0	3	100	0	50	-0.04706489	0.007244056	177.25	
11:11:18	47.46363	-122.3077	0.02	-0.0207074	-3.948646	0	3	100	0	50	-0.04447504	0.03182497	177.3734	
11:11:18	47.46363	-122.3077	0.02	-0.02052458	-3.997097	0	3	100	0	50	-0.04461177	0.01019803	177.4895	
11:11:18	47.46363	-122.3077	0.02	-0.0205608	-4.120253	0	3	100	0	50	-0.0430971	-0.03459423	177.6034	
11:11:19	47.46363	-122.3077	0.02	-0.02069505	-4.135732	0	3	100	0	50	-0.04269866	-0.05571833	177.7149	
11:11:19	47.46363	-122.3077	0.02	-0.020718	-4.063995	0	3	100	0	50	-0.04207489	-0.04382366	177.8207	
11:11:19	47.46363	-122.3077	0.02	-0.02079459	-4.084925	0	3	100	0	50	-0.04124476	-0.02241003	177.9182	
11:11:19	47.46363	-122.3077	0.02	-0.02062843	-3.927565	0	3	100	0	50	-0.04116685	-0.0217052	178.0132	
11:11:19	47.46363	-122.3077	0.02	-0.02037296	-3.923427	0	3	100	0	50	-0.04062889	-0.01378948	178.1093	
11:11:20	47.46363	-122.3077	0.02	-0.02014335	-3.835939	0	3	100	0	50	-0.03969204	0.008231924	178.2321	
11:11:20	47.46363	-122.3077	0.02	-0.01980661	-3.826957	0	3	100	0	50	-0.03779473	0.001983457	178.3999	
11:11:20	47.46363	-122.3077	0.02	-0.01948705	-3.815344	0	3	100	0	50	-0.03741079	0.006197642	178.5598	
11:11:20	47.46363	-122.3077	0.02	-0.01915524	-3.723652	0	3	100	0	50	-0.03642977	-0.01538395	178.7143	
11:11:20	47.46363	-122.3077	0.02	-0.01878606	-3.709219	0	3	100	0	50	-0.03633869	-0.03749286	178.8636	
11:11:21	47.46363	-122.3077	0.02	-0.01848381	-3.694545	0	3	100	0	50	-0.03468656	0.0001736594	178.9903	
11:11:21	47.46363	-122.3077	0.02	-0.01818751	-3.677475	0	3	100	0	50	-0.03358776	0.01244538	179.1092	
11:11:21	47.46363	-122.3077	0.02	-0.01800922	-3.86098	0	3	100	0	50	-0.03208857	0.02228276	179.2417	
11:11:21	47.46363	-122.3077	0.02	-0.01795097	-3.738747	0	3	100	0	50	-0.03118374	0.02095693	179.3697	
11:11:21	47.46363	-122.3077	0.02	-0.01786645	-3.806504	0	3	100	0	50	-0.03131787	-0.00395762	179.4921	
11:11:22	47.46363	-122.3077	0.02	-0.01790754	-3.793537	0	3	100	0	50	-0.03093801	-0.02086977	179.612	
11:11:22	47.46363	-122.3077	0.02	-0.0178766	-3.755087	0	3	100	0	50	-0.02946503	-0.01023961	179.7262	
11:11:22	47.46363	-122.3077	0.02	-0.01770461	-3.592885	0	3	100	0	50	-0.02918854	0.006043678	179.836	
11:11:22	47.46363	-122.3077	0.02	-0.01725346	-3.456946	0	3	100	0	50	-0.02888528	-0.01686342	179.9416	
11:11:22	47.46363	-122.3077	0.02	-0.01666096	-3.409745	0	3	100	0	50	-0.02844518	-0.02630692	-179.9588	
11:11:23	47.46363	-122.3077	0.02	-0.01615035	-3.368907	0	3	100	0	50	-0.02910716	-0.0239349	-179.8615	
11:11:23	47.46363	-122.3077	0.02	-0.01565685	-3.328915	0	3	100	0	50	-0.02833924	-0.02317549	-179.767	
11:11:23	47.46363	-122.3077	0.02	-0.01512461	-3.186975	0	3	100	0	50	-0.02719123	-0.02216546	-179.6776	
11:11:23	47.46363	-122.3077	0.02	-0.01434495	-3.034521	0	3	100	0	50	-0.02638266	-0.0120232	-179.5911	
11:11:23	47.46363	-122.3077	0.02	-0.01364414	-3.00462	0	3	100	0	50	-0.02594247	0.003548585	-179.5076	
11:11:24	47.46363	-122.3077	0.02	-0.01295443	-2.975165	0	3	100	0	50	-0.02498121	-0.006247094	-179.4317	
11:11:24	47.46363	-122.3077	0.02	-0.01227845	-2.946603	0	3	100	0	50	-0.02414143	-0.009235065	-179.3552	
11:11:24	47.46363	-122.3077	0.02	-0.01173613	-2.923629	0	3	100	0	50	-0.02409123	-0.006388569	-179.2797	
11:11:24	47.46363	-122.3077	0.02	-0.01124829	-2.901961	0	3	100	0	50	-0.02414868	0.0108131	-179.2088	
11:11:24	47.46363	-122.3077	0.02	-0.01064843	-2.744319	0	3	100	0	50	-0.02423969	0.006252395	-179.1426	
11:11:25	47.46363	-122.3077	0.02	-0.01004244	-2.727272	0	3	100	0	50	-0.02442148	0.006312889	-179.0763	
11:11:25	47.46363	-122.3077	0.02	-0.0095647	-2.713993	0	3	100	0	50	-0.0234075	0.003207318	-178.9644	
11:11:25	47.46363	-122.3077	0.02	-0.009139941	-2.756634	0	3	100	0	50	-0.02225295	0.006560317	-178.8569	
11:11:25	47.46363	-122.3077	0.02	-0.008714103	-2.664474	0	3	100	0	50	-0.02164614	0.01717683	-178.753	
11:11:25	47.46363	-122.3077	0.02	-0.008320875	-2.653003	0	3	100	0	50	-0.02143054	0.006435918	-178.6529	
11:11:26	47.46363	-122.3077	0.02	-0.008016519	-2.643219	0	3	100	0	50	-0.02055785	0.003034397	-178.5613	
11:11:26	47.46363	-122.3077	0.02	-0.007683115	-2.630936	0	3	100	0	50	-0.02066224	0.00777851	-178.47	
11:11:26	47.46363	-122.3077	0.02	-0.007329779	-2.48373	0	3	100	0	50	-0.01995427	0.01708296	-178.3805	
11:11:26	47.46363	-122.3077	0.02	-0.006798795	-2.474727	0	3	100	0	50	-0.01871417	0.02538393	-178.2944	
11:11:26	47.46363	-122.3077	0.02	-0.006409219	-2.466173	0	3	100	0	50	-0.01882426	0.005890371	-178.2121	
11:11:27	47.46363	-122.3077	0.02	-0.006078721	-2.458315	0	3	100	0	50	-0.01998438	0.0096921	-178.1332	
11:11:27	47.46363	-122.3077	0.02	-0.005728014	-2.333505	0	3	100	0	50	-0.01800586	0.02589719	-178.0566	
11:11:27	47.46363	-122.3077	0.02	-0.005203619	-2.248508	0	3	100	0	50	-0.01731776	-0.003208505	-177.9908	
11:11:27	47.46363	-122.3077	0.02	-0.004659691	-2.245365	0	3	100	0	50	-0.01710998	-0.02028752	-177.9357	
11:11:27	47.46363	-122.3077	0.02	-0.004252104	-2.245088	0	3	100	0	50	-0.01691435	-0.008979863	-177.8667	
11:11:28	47.46363	-122.3077	0.02	-0.003920434	-2.246117	0	3	100	0	50	-0.0162247	-0.001762839	-177.8011	
11:11:28	47.46363	-122.3077	0.02	-0.003754781	-2.306701	0	3	100	0	50	-0.0168331	0.007772232	-177.7376	
11:11:28	47.46363	-122.3077	0.02	-0.003609797	-2.330209	0	3	100	0	50	-0.01747392	0.0246561	-177.6782	
11:11:28	47.46363	-122.3077	0.02	-0.003534188	-2.269842	0	3	100	0	50	-0.01619852	0.01877411	-177.62	
11:11:28	47.46363	-122.3077	0.02	-0.003355975	-2.244593	0	3	100	0	50	-0.01561465	0.0005252239	-177.5634	
11:11:29	47.46363	-122.3077	0.02	-0.003133731	-2.157875	0	3	100	0	50	-0.01557303	0.01235333	-177.5088	
11:11:29	47.46363	-122.3077	0.02	-0.00286945	-2.152838	0	3	100	0	50	-0.01521307	0.009081124	-177.4572	
11:11:29	47.46363	-122.3077	0.02	-0.002617689	-2.147436	0	3	100	0	50	-0.01455424	0.007952975	-177.4091	
11:11:29	47.46363	-122.3077	0.02	-0.002364609	-2.082659	0	3	100	0	50	-0.01358472	0.002816179	-177.3609	
11:11:29	47.46363	-122.3077	0.02	-0.002097349	-2.019882	0	3	100	0	50	-0.01292692	-0.008001796	-177.3156	
11:11:30	47.46363	-122.3077	0.02	-0.001638262	-1.974199	0	3	100	0	50	-0.01370352	-0.007137494	-177.2714	
11:11:30	47.46363	-122.3077	0.02	-0.001284896	-1.970846	0	3	100	0	50	-0.01335491	-0.001886123	-177.2201	
11:11:30	47.46363	-122.3077	0.02	-0.0009263739	-1.908242	0	3	100	0	50	-0.01316118	0.01118629	-177.1532	
11:11:30	47.46363	-122.3077	0.02	-0.0004749132	-1.94637	0	3	100	0	50	-0.01308542	0.08455097	-177.0886	
11:11:30	47.46363	-122.3077	0.02	-0.0006388027	-2.28516	0	3	100	0	50	-0.01229391	0.1270052	-177.0287	
11:11:31	47.46363	-122.3077	0.02	-0.001406427	-2.666974	0	3	100	0	50	-0.01122422	0.1266596	-176.9767	
11:11:31	47.46363	-122.3077	0.02	-0.002509838	-2.849149	0	3	100	0	50	-0.009971329	0.1058716	-176.9199	
11:11:31	47.46363	-122.3077	0.02	-0.003678856	-2.80929	0	3	100	0	50	-0.009254751	0.07231093	-176.8647	
11:11:31	47.46363	-122.3077	0.02	-0.004380565	-2.764535	0	3	100	0	50	-0.009700635	0.06504591	-176.8122	
11:11:31	47.46363	-122.3077	0.02	-0.004969556	-2.697491	0	3	100	0	50	-0.01003536	0.0761722	-176.7612	
11:11:32	47.46363	-122.3077	0.02	-0.005157388	-2.496113	0	3	100	0	50	-0.01028295	0.1330386	-176.7127	
11:11:32	47.46363	-122.3077	0.02	-0.0050681	-2.496892	0	3	100	0	50	-0.00830396	0.1092887	-176.6653	
11:11:32	47.46363	-122.3077	0.02	-0.005076996	-2.48806	0	3	100	0	50	-0.00788037	0.07003615	-176.62	
11:11:32	47.46363	-122.3077	0.02	-0.005122021	-2.526029	0	3	100	0	50	-0.008109427	0.04739721	-176.576	
11:11:32	47.46363	-122.3077	0.02	-0.005162305	-2.514551	0	3	100	0	50	-0.007882883	0.04715754	-176.5343	
11:11:33	47.46363	-122.3077	0.02	-0.005079151	-2.429498	0	3	100	0	50	-0.00800832	0.04433832	-176.4948	
11:11:33	47.46363	-122.3077	0.02	-0.004850336	-2.342029	0	3	100	0	50	-0.008276771	0.05439658	-176.4553	
11:11:33	47.46363	-122.3077	0.02	-0.004544949	-2.263899	0	3	100	0	50	-0.008314948	0.04349577	-176.4182	
11:11:33	47.46363	-122.3077	0.02	-0.004213046	-2.344676	0	3	100	0	50	-0.008241976	0.04193557	-176.3816	
11:11:33	47.46363	-122.3077	0.02	-0.004022879	-2.277362	0	3	100	0	50	-0.007182325	0.03816494	-176.3467	
11:11:34	47.46363	-122.3077	0.02	-0.003707226	-2.189616	0	3	100	0	50	-0.007218953	0.04111959	-176.3133	
11:11:34	47.46363	-122.3077	0.02	-0.003309504	-2.161211	0	3	100	0	50	-0.007255732	0.02002523	-176.2815	
11:11:34	47.46363	-122.3077	0.02	-0.002982045	-2.114509	0	3	100	0	50	-0.007637506	0.02373817	-176.2505	
11:11:34	47.46363	-122.3077	0.02	-0.002604616	-2.037541	0	3	100	0	50	-0.007020715	0.02289862	-176.2205	
11:11:34	47.46363	-122.3077	0.02	-0.002136576	-2.025639	0	3	100	0	50	-0.007168343	0.02317318	-176.1917	
11:11:35	47.46363	-122.3077	0.02	-0.001714213	-1.94475	0	3	100	0	50	-0.007014919	0.02469861	-176.1643	
11:11:35	47.46363	-122.3077	0.02	-0.001220222	-1.86597	0	3	100	0	50	-0.006610173	0.02379526	-176.1379	
11:11:35	47.46363	-122.3077	0.02	-0.0006800807	-1.790931	0	3	100	0	50	-0.006351423	0.02294848	-176.105	
11:11:35	47.46363	-122.3077	0.02	-9.833882E-05	-1.718799	0	3	100	0	50	-0.006721315	0.0275071	-176.0686	
11:11:35	47.46363	-122.3077	0.02	0.0005020777	-1.651022	0	3	100	0	50	-0.006437312	0.02068383	-176.0338	
11:11:36	47.46363	-122.3077	0.02	0.001047783	-1.59401	0	3	100	0	50	-0.005987993	0.02076344	-176.0006	
11:11:36	47.46363	-122.3077	0.02	0.001731771	-1.527583	0	3	100	0	50	-0.005115643	0.02549263	-175.9681	
11:11:36	47.46363	-122.3077	0.02	0.002331759	-1.473057	0	3	100	0	50	-0.004508299	0.01553922	-175.9369	
11:11:36	47.46363	-122.3077	0.02	0.002871946	-1.426542	0	3	100	0	50	-0.00433165	0.01477676	-175.9068	
11:11:36	47.46363	-122.3077	0.02	0.003494649	-1.375819	0	3	100	0	50	-0.00510471	0.01959227	-175.8777	
11:11:37	47.46363	-122.3077	0.02	0.004042484	-1.333365	0	3	100	0	50	-0.004889849	0.008997658	-175.8504	
11:11:37	47.46363	-122.3077	0.02	0.004565236	-1.294685	0	3	100	0	50	-0.005211785	0.009484263	-175.8236	
11:11:37	47.46363	-122.3077	0.02	0.00505905	-1.259794	0	3	100	0	50	-0.005326664	0.03238086	-175.7978	
11:11:37	47.46363	-122.3077	0.02	0.005512256	-1.138564	0	3	100	0	50	-0.004545134	0.01969818	-175.7729	
11:11:37	47.46363	-122.3077	0.02	0.006167063	-1.108738	0	3	100	0	50	-0.005038068	-0.08989361	-175.7497	
11:11:38	47.46363	-122.3077	0.02	0.006705169	-1.048652	0	3	100	0	50	0.01006946	-0.0578617	-175.7268	
11:11:38	47.46363	-122.3077	0.02	0.007339519	-0.971388	0	3	100	0	50	0.001690273	0.04343598	-175.7049	
11:11:38	47.46363	-122.3077	0.02	0.007955819	-0.8789895	0	3	100	0	50	0.001249061	0.07037364	-175.6841	
11:11:38	47.46363	-122.3077	0.02	0.008513336	-0.8723711	0	3	100	0	50	8.584772E-05	0.02309514	-175.6642	
11:11:38	47.46363	-122.3077	0.02	0.009069358	-0.8695409	0	3	100	0	50	0.0002081635	-0.004882875	-175.6455	
11:11:39	47.46363	-122.3077	0.02	0.009311202	-1.006706	0	3	100	0	50	-7.943097E-05	0.01221206	-175.6267	
11:11:39	47.46363	-122.3077	0.02	0.009447322	-0.9290377	0	3	100	0	50	-8.762165E-05	0.03395787	-175.609	
11:11:39	47.46363	-122.3077	0.02	0.009830817	-0.8534476	0	3	100	0	50	-0.0003104578	0.0180061	-175.5917	
11:11:39	47.46363	-122.3077	0.02	0.01002546	-0.9402264	0	3	100	0	50	-0.0003827085	-0.06483492	-175.5755	
11:11:39	47.46363	-122.3077	0.02	0.01008042	-0.9225197	0	3	100	0	50	0.001528163	-0.06079448	-175.5599	
11:11:40	47.46363	-122.3077	0.02	0.01033011	-0.8080547	0	3	100	0	50	7.070208E-05	-0.009243607	-175.5446	
11:11:40	47.46363	-122.3077	0.02	0.01074417	-0.6551672	0	3	100	0	50	0.0008598365	0.0234011	-175.53	
11:11:40	47.46363	-122.3077	0.02	0.01149898	-0.4741223	0	3	100	0	50	0.0002342427	0.02461922	-175.5161	
11:11:40	47.46363	-122.3077	0.02	0.01208062	-0.5900397	0	3	100	0	50	-0.001322339	0.02730929	-175.5009	
11:11:40	47.46363	-122.3077	0.02	0.01252926	-0.5118061	0	3	100	0	50	0.000195229	-0.02404526	-175.4843	
11:11:41	47.46363	-122.3077	0.02	0.01317994	-0.3999868	0	3	100	0	50	-0.0005556314	-0.02751847	-175.4686	
11:11:41	47.46363	-122.3077	0.02	0.01361402	-0.4167499	0	3	100	0	50	-0.001601201	0.03871826	-175.4531	
11:11:41	47.46363	-122.3077	0.02	0.01395701	-0.4495502	0	3	100	0	50	-0.001460728	0.08027235	-175.4381	
11:11:41	47.46363	-122.3077	0.02	0.01411423	-0.4900142	0	3	100	0	50	-0.0006391367	0.01320907	-175.4236	
11:11:41	47.46363	-122.3077	0.02	0.01414135	-0.6070766	0	3	100	0	50	-0.0006284647	-0.1242197	-175.4098	
11:11:42	47.46363	-122.3077	0.02	0.01413627	-0.5260304	0	3	100	0	50	0.01847133	-0.1128071	-175.3958	
11:11:42	47.46363	-122.3077	0.02	0.01437851	-0.4285884	0	3	100	0	50	0.006517152	-0.01919125	-175.382	
11:11:42	47.46363	-122.3077	0.02	0.01469642	-0.3352802	0	3	100	0	50	0.00646696	0.0009643781	-175.369	
11:11:42	47.46363	-122.3077	0.02	0.01501532	-0.3790614	0	3	100	0	50	0.006203189	-0.02210374	-175.3565	
11:11:42	47.46363	-122.3077	0.02	0.01518231	-0.4212515	0	3	100	0	50	0.004769851	-0.03353794	-175.3444	
11:11:43	47.46363	-122.3077	0.02	0.01502713	-0.6872212	0	3	100	0	50	0.004430045	-0.04206529	-175.3328	
11:11:43	47.46363	-122.3077	0.02	0.01445007	-0.9247108	0	3	100	0	50	0.0041764	-0.06157281	-175.3217	
11:11:43	47.46363	-122.3077	0.02	0.01394929	-0.8191751	0	3	100	0	50	0.003543444	-0.02702782	-175.3106	
11:11:43	47.46363	-122.3077	0.02	0.01343547	-0.9090468	0	3	100	0	50	0.002705069	-0.03383375	-175.3001	
11:11:43	47.46363	-122.3077	0.02	0.01291229	-1.010693	0	3	100	0	50	0.003258187	-0.01797115	-175.2901	
11:11:44	47.46363	-122.3077	0.02	0.01234063	-1.025305	0	3	100	0	50	0.003416165	-0.005305336	-175.2805	
11:11:44	47.46363	-122.3077	0.02	0.01180705	-1.130893	0	3	100	0	50	0.003486099	0.001662559	-175.2712	
11:11:44	47.46363	-122.3077	0.02	0.01123934	-0.9725769	0	3	100	0	50	0.003130787	0.03758823	-175.2623	
11:11:44	47.46363	-122.3077	0.02	0.01115537	-0.9904281	0	3	100	0	50	0.003179864	-0.0109899	-175.2539	
11:11:44	47.46363	-122.3077	0.02	0.01083081	-1.16034	0	3	100	0	50	0.002639799	-0.0527239	-175.246	
11:11:45	47.46363	-122.3077	0.02	0.01020077	-1.243538	0	3	100	0	50	0.003085318	-0.07399346	-175.2383	
11:11:45	47.46363	-122.3077	0.02	0.009801592	-1.106661	0	3	100	0	50	0.002562305	-0.006940892	-175.2308	
11:11:45	47.46363	-122.3077	0.02	0.009664527	-1.081075	0	3	100	0	50	0.003388703	0.0326346	-175.2232	
11:11:45	47.46363	-122.3077	0.02	0.009592868	-1.073895	0	3	100	0	50	0.003038998	-0.04664404	-175.2113	
11:11:46	47.46363	-122.3077	0.02	0.009570944	-1.025114	0	3	100	0	50	0.003269976	-0.06338167	-175.203	
11:11:46	47.46363	-122.3077	0.02	0.009607448	-1.012761	0	3	100	0	50	0.002595666	-0.04239312	-175.197	
11:11:46	47.46363	-122.3077	0.02	0.009584001	-1.058379	0	3	100	0	50	0.002403579	-0.05935427	-175.191	
11:11:46	47.46363	-122.3077	0.02	0.009585172	-1.024501	0	3	100	0	50	0.002036394	-0.07591385	-175.1854	
11:11:46	47.46363	-122.3077	0.02	0.009649765	-0.98975	0	3	100	0	50	0.0008705575	-0.07161602	-175.1797	
11:11:47	47.46363	-122.3077	0.02	0.009766222	-0.9548469	0	3	100	0	50	0.0007960123	-0.01207487	-175.1743	
11:11:47	47.46363	-122.3077	0.02	0.01000185	-0.8273253	0	3	100	0	50	0.0007695656	-0.01217348	-175.1693	
11:11:47	47.46363	-122.3077	0.02	0.01016147	-1.007236	0	3	100	0	50	0.0006094358	-0.05666203	-175.1645	
11:11:47	47.46363	-122.3077	0.02	0.009959725	-1.171168	0	3	100	0	50	0.001294213	-0.07003187	-175.1601	
11:11:47	47.46363	-122.3077	0.02	0.009570505	-1.210921	0	3	100	0	50	0.0009203342	-0.03999745	-175.1555	
11:11:48	47.46363	-122.3077	0.02	0.009302312	-1.166714	0	3	100	0	50	0.0002048236	0.009091311	-175.1514	
11:11:48	47.46363	-122.3077	0.02	0.00901672	-1.294912	0	3	100	0	50	0.0003089202	0.02368784	-175.145	
11:11:48	47.46363	-122.3077	0.02	0.007902909	-1.562804	0	3	100	0	50	-0.0001498246	0.02623028	-175.1412	
11:11:48	47.46363	-122.3077	0.02	0.007213955	-1.59236	0	3	100	0	50	-0.0006206644	0.004180982	-175.1381	
11:11:49	47.46363	-122.3077	0.02	0.006661132	-1.601518	0	3	100	0	50	-0.001015784	-0.01342889	-175.1352	
11:11:49	47.46363	-122.3077	0.02	0.006106824	-1.634256	0	3	100	0	50	-0.0004949032	-0.03390023	-175.1322	
11:11:49	47.46363	-122.3077	0.02	0.005562133	-1.62919	0	3	100	0	50	-0.001210678	-0.024875	-175.1293	
11:11:49	47.46363	-122.3077	0.02	0.005266344	-1.613029	0	3	100	0	50	-0.0009622786	-0.004602196	-175.1262	
11:11:49	47.46363	-122.3077	0.02	0.005054644	-1.55812	0	3	100	0	50	-0.001517783	0.01418461	-175.1234	
11:11:50	47.46363	-122.3077	0.02	0.004925569	-1.506471	0	3	100	0	50	-0.001663574	0.1158984	-175.1203	
11:11:50	47.46363	-122.3077	0.02	0.004670673	-1.723831	0	3	100	0	50	0.001016462	0.03596774	-175.1174	
11:11:50	47.46363	-122.3077	0.02	0.00434448	-1.755563	0	3	100	0	50	-0.0008725002	-0.07279939	-175.1147	
11:11:50	47.46363	-122.3077	0.02	0.00402562	-1.755742	0	3	100	0	50	-0.0004109117	-0.1053017	-175.1121	
11:11:50	47.46363	-122.3077	0.02	0.003569876	-1.764459	0	3	100	0	50	-9.01273E-05	-0.02390041	-175.1091	
11:11:51	47.46363	-122.3077	0.02	0.003473421	-1.629964	0	3	100	0	50	-0.0006006037	0.04809793	-175.1062	
11:11:51	47.46363	-122.3077	0.02	0.00353213	-1.60819	0	3	100	0	50	-0.001410282	0.04408737	-175.1051	
11:11:51	47.46363	-122.3077	0.02	0.003858631	-1.435821	0	3	100	0	50	-0.001608343	-0.0156402	-175.1054	
11:11:51	47.46363	-122.3077	0.02	0.004147612	-1.502807	0	3	100	0	50	-0.001134193	-0.0870754	-175.1058	
11:11:51	47.46363	-122.3077	0.02	0.004241446	-1.56422	0	3	100	0	50	-0.002197898	-0.09514193	-175.1059	
11:11:52	47.46363	-122.3077	0.02	0.004390215	-1.448219	0	3	100	0	50	-0.002207045	-0.03768764	-175.1059	
11:11:52	47.46363	-122.3077	0.02	0.00463563	-1.370194	0	3	100	0	50	-0.001291492	0.1428416	-175.1048	
11:11:52	47.46363	-122.3077	0.019	0.005512706	-0.8265932	0	3	100	0	50	-0.001955735	0.08452716	-175.1051	
11:11:52	47.46363	-122.3077	0.019	0.006459682	-0.9619152	0	3	100	0	50	-0.001699336	-0.02579873	-175.1051	
11:11:52	47.46363	-122.3077	0.02	0.007011943	-0.9919506	0	3	100	0	50	-0.003172056	-0.07507823	-175.1053	
11:11:53	47.46363	-122.3077	0.02	0.007562174	-0.9288879	0	3	100	0	50	-0.003492291	-0.06898112	-175.1052	
11:11:53	47.46363	-122.3077	0.02	0.008313003	-0.8111101	0	3	100	0	50	-0.003849549	-0.0463206	-175.1051	
11:11:53	47.46363	-122.3077	0.02	0.00907428	-0.7092561	0	3	100	0	50	-0.002266273	-0.03085072	-175.1049	
11:11:53	47.46363	-122.3077	0.02	0.009877949	-0.4881745	0	3	100	0	50	-0.002786298	-0.03565659	-175.1048	
11:11:53	47.46363	-122.3077	0.02	0.01117876	-0.2985132	0	3	100	0	50	-0.003191325	-0.04754294	-175.1048	
11:11:54	47.46363	-122.3077	0.02	0.0123282	-0.2265578	0	3	100	0	50	-0.002919378	-0.04942527	-175.1048	
11:11:54	47.46363	-122.3077	0.02	0.01331563	-0.2812061	0	3	100	0	50	-0.003424437	-0.05219235	-175.1046	
11:11:54	47.46363	-122.3077	0.02	0.0139339	-0.3535455	0	3	100	0	50	-0.003993411	-0.05229983	-175.1042	
11:11:54	47.46363	-122.3077	0.02	0.0144953	-0.3022496	0	3	100	0	50	-0.003535374	-0.05533016	-175.1042	
11:11:54	47.46363	-122.3077	0.02	0.0151263	-0.2019164	0	3	100	0	50	-0.003319833	-0.05977396	-175.1042	
11:11:55	47.46363	-122.3077	0.02	0.01557596	-0.2078748	0	3	100	0	50	-0.003395755	-0.03018745	-175.1041	
11:11:55	47.46363	-122.3077	0.02	0.01608702	-0.1352747	0	3	100	0	50	-0.004520956	-0.05199247	-175.1041	
11:11:55	47.46363	-122.3077	0.02	0.01662699	-0.1501132	0	3	100	0	50	-0.00337716	-0.04864137	-175.1037	
11:11:55	47.46363	-122.3077	0.02	0.01692204	-0.1715555	0	3	100	0	50	-0.002762865	-0.02034839	-175.1036	
11:11:55	47.46363	-122.3077	0.02	0.01718974	-0.1731567	0	3	100	0	50	-0.004113246	-0.05187183	-175.1034	
11:11:56	47.46363	-122.3077	0.02	0.01729889	-0.2185463	0	3	100	0	50	-0.003365091	-0.05934399	-175.1034	
11:11:56	47.46363	-122.3077	0.02	0.01742105	-0.2011149	0	3	100	0	50	-0.003855348	-0.05390319	-175.1043	
11:11:56	47.46363	-122.3077	0.02	0.01754023	-0.186257	0	3	100	0	50	-0.00224696	-0.050021	-175.1066	
11:11:56	47.46363	-122.3077	0.02	0.01764604	-0.2305218	0	3	100	0	50	-0.002008202	-0.04036343	-175.1091	
11:11:56	47.46363	-122.3077	0.02	0.01760023	-0.2572741	0	3	100	0	50	-0.002104191	-0.02844974	-175.1117	
11:11:57	47.46363	-122.3077	0.02	0.01758234	-0.2437963	0	3	100	0	50	-0.00193187	-0.005901788	-175.1141	
11:11:57	47.46363	-122.3077	0.02	0.0175954	-0.2273241	0	3	100	0	50	-0.00221192	-0.0161125	-175.1166	
11:11:57	47.46363	-122.3077	0.02	0.01763413	-0.212257	0	3	100	0	50	-0.00212804	-0.0521192	-175.1189	
11:11:57	47.46363	-122.3077	0.02	0.01769236	-0.1976531	0	3	100	0	50	-0.002552097	-0.06813163	-175.1209	
11:11:57	47.46363	-122.3077	0.02	0.01788777	-0.10472	0	3	100	0	50	-0.001748597	-0.05444845	-175.123	
11:11:58	47.46363	-122.3077	0.02	0.01807503	-0.0941045	0	3	100	0	50	-0.002340158	-0.03698485	-175.1251	
11:11:58	47.46363	-122.3077	0.02	0.01826793	-0.08403542	0	3	100	0	50	-0.002579993	-0.02989496	-175.1272	
11:11:58	47.46363	-122.3077	0.02	0.01831992	-0.1932205	0	3	100	0	50	-0.002285707	-0.02755999	-175.1292	
11:11:58	47.46363	-122.3077	0.02	0.01828186	-0.184402	0	3	100	0	50	-0.001622631	-0.04048781	-175.1311	
11:11:58	47.46363	-122.3077	0.02	0.01812946	-0.295191	0	3	100	0	50	-0.002110053	-0.02534325	-175.133	
11:11:59	47.46363	-122.3077	0.02	0.01794158	-0.2830213	0	3	100	0	50	-0.001631395	-0.02223609	-175.1349	
11:11:59	47.46363	-122.3077	0.02	0.01782326	-0.27029	0	3	100	0	50	-0.001253076	-0.03240015	-175.1368	
11:11:59	47.46363	-122.3077	0.02	0.0176648	-0.3723339	0	3	100	0	50	-0.0009493829	-0.02972002	-175.1386	
11:11:59	47.46363	-122.3077	0.02	0.01739012	-0.3733029	0	3	100	0	50	-0.00126693	-0.05810613	-175.1401	
11:11:59	47.46363	-122.3077	0.02	0.01711708	-0.4274857	0	3	100	0	50	-0.0025895	-0.0356807	-175.1422	
11:12:00	47.46363	-122.3077	0.02	0.01677692	-0.5053836	0	3	100	0	50	-0.001212626	0.04177394	-175.1441	
11:12:00	47.46363	-122.3077	0.02	0.01644268	-0.4727273	0	3	100	0	50	-0.001140242	0.04878603	-175.1462	
11:12:00	47.46363	-122.3077	0.02	0.01619348	-0.5338849	0	3	100	0	50	-0.001503341	0.0153423	-175.1487	
11:12:00	47.46363	-122.3077	0.02	0.01594552	-0.4970694	0	3	100	0	50	-0.001186454	0.05063103	-175.1506	
11:12:00	47.46363	-122.3077	0.02	0.01586311	-0.4203108	0	3	100	0	50	-0.001891718	0.1343958	-175.1524	
11:12:01	47.46363	-122.3077	0.02	0.01581843	-0.4557914	0	3	100	0	50	-0.002230333	0.082036	-175.1547	
11:12:01	47.46363	-122.3077	0.02	0.0156703	-0.5333333	0	3	100	0	50	-0.00136618	0.05016883	-175.157	
11:12:01	47.46363	-122.3077	0.02	0.0156135	-0.4345986	0	3	100	0	50	-0.0009616298	0.0439091	-175.1613	
11:12:01	47.46363	-122.3077	0.02	0.01548077	-0.5219951	0	3	100	0	50	-0.001988222	0.04265886	-175.1653	
11:12:01	47.46363	-122.3077	0.02	0.01527601	-0.6309274	0	3	100	0	50	-0.001121989	0.03933118	-175.1692	
11:12:02	47.46363	-122.3077	0.02	0.01496704	-0.6434044	0	3	100	0	50	-0.0009907697	0.04013644	-175.1729	
11:12:02	47.46363	-122.3077	0.02	0.0147443	-0.6055051	0	3	100	0	50	-0.0002894682	0.02190713	-175.1765	
11:12:02	47.46363	-122.3077	0.02	0.01450595	-0.7291701	0	3	100	0	50	-0.0008958564	0.01654177	-175.1799	
11:12:02	47.46363	-122.3077	0.02	0.01423137	-0.6675605	0	3	100	0	50	0.2268651	-0.003563474	-175.5293	
11:12:02	47.46363	-122.3077	0.019	0.01907222	4.04885	0.26	3	100	0	50	0.6681072	-0.142502	-177.0135	
11:12:03	47.46363	-122.3077	0.019	0.03106612	8.198133	1.06	3	100	0	50	0.8249446	-0.1779547	-179.3376	
11:12:03	47.46363	-122.3077	0.02	0.04803079	12.2225	2.03	3	100	0	50	0.9524619	-0.0004416545	177.766	
11:12:03	47.46362	-122.3077	0.02	0.06941584	16.21264	2.8	3	100	0	50	1.209579	0.2376265	174.4999	
11:12:03	47.46362	-122.3077	0.02	0.09415868	20.27142	3.36	3	100	0	50	1.446645	0.2517005	170.9401	
11:12:03	47.46361	-122.3077	0.021	0.1220351	24.89613	3.94	3.41228	100	0	50	1.673995	0.4113834	167.3335	
11:12:04	47.4636	-122.3077	0.021	0.1501867	28.60499	4.55	3.936672	100	0	50	1.830913	0.7203328	163.7627	
11:12:04	47.4636	-122.3077	0.021	0.187712	34.29021	5.17	4.504417	100	0	50	1.911869	1.085665	160.2557	
11:12:04	47.46358	-122.3077	0.021	0.2251456	39.36568	5.97	5.094048	100	0	50	1.934272	1.260679	156.9685	
11:12:04	47.46358	-122.3077	0.021	0.2657694	44.16177	5.97	5.844172	100	0	50	1.835729	1.118333	153.9923	
11:12:04	47.46357	-122.3077	0.022	0.3014783	47.31984	6.44	5.844172	100	0	50	1.790854	1.115125	151.3115	
11:12:05	47.46356	-122.3077	0.022	0.3386444	48.92466	6.94	6.274591	100	0	50	1.715581	1.250185	148.9557	
11:12:05	47.46355	-122.3077	0.023	0.3723824	51.47501	7.44	6.720636	100	0	50	1.544274	1.45997	146.8597	
11:12:05	47.46354	-122.3077	0.023	0.4061967	54.67102	7.92	7.18122	100	0	50	1.426907	1.705791	145.0482	
11:12:05	47.46352	-122.3077	0.023	0.4379484	56.47582	8.46	7.621251	100	0	50	1.383892	1.857069	143.504	
11:12:05	47.46351	-122.3077	0.024	0.4709525	58.75793	8.93	8.12545	100	0	50	1.277736	1.921228	142.2003	
11:12:06	47.4635	-122.3076	0.024	0.4962009	60.9072	9.44	8.586431	100	0	50	1.128722	2.099352	141.0412	
11:12:06	47.46348	-122.3076	0.024	0.5269614	63.6081	9.98	9.053418	100	0	50	0.8791372	2.141165	140.0561	
11:12:06	47.46347	-122.3076	0.025	0.5529134	64.94084	10.46	9.552725	100	0	50	0.7697009	2.041272	139.1578	
11:12:06	47.46345	-122.3076	0.026	0.5748136	66.36504	10.93	10.00046	100	0	50	0.785906	2.196852	138.3262	
11:12:06	47.46345	-122.3076	0.026	0.5993083	68.60464	10.93	10.44922	100	0	50	0.6225795	2.438426	137.5705	
11:12:07	47.46343	-122.3076	0.026	0.6191092	70.03243	11.32	10.44922	100	0	50	0.4257985	2.615153	136.928	
11:12:07	47.46341	-122.3075	0.026	0.6411717	69.85777	11.82	10.82271	100	0	50	0.3770045	2.50338	136.4328	
11:12:07	47.4634	-122.3075	0.027	0.6554773	69.17301	12.19	11.29575	100	0	50	0.3599098	2.494784	136.0004	
11:12:07	47.46338	-122.3075	0.027	0.6680149	70.38478	12.53	11.65743	100	0	50	0.2132317	2.702161	135.6943	
11:12:07	47.46336	-122.3075	0.027	0.6813741	71.32032	12.92	11.98003	100	0	50	0.05763079	2.928235	135.4792	
11:12:08	47.46335	-122.3074	0.028	0.6902908	70.5461	13.28	12.3608	100	0	50	0.4029692	3.114138	135.2376	
11:12:08	47.46333	-122.3074	0.032	0.6794757	48.58117	13.61	12.70884	100	0	50	0.5081735	3.601835	135.0307	
11:12:08	47.46331	-122.3074	0.033	0.6514508	50.29906	13.95	13.03811	100	0	50	0.3395008	4.298062	135.0513	
11:12:08	47.46329	-122.3073	0.037	0.6299182	50.46335	14.22	13.36833	100	0	50	0.4072626	5.331093	135.076	
11:12:08	47.46328	-122.3073	0.042	0.6166528	54.60228	14.46	13.63591	100	0	50	1.116969	6.61832	135.0536	
11:12:09	47.46326	-122.3073	0.064	0.6291263	76.76404	14.68	13.88304	100	0	50	1.767804	8.014281	135.0314	
11:12:09	47.46324	-122.3073	0.123	0.6939532	108.858	14.8	14.10281	100	0	50	2.601774	9.288651	135.1224	
11:12:09	47.46324	-122.3073	0.123	0.8150395	142.7032	14.8	14.22415	100	0	50	3.471132	10.54622	135.4977	
11:12:09	47.46321	-122.3072	0.356	0.9778215	172.9064	14.9	14.22415	100	0	50	4.524562	11.78599	136.0988	
11:12:09	47.46319	-122.3072	0.591	1.185139	199.8731	14.88	14.32746	100	0	50	5.601337	13.03073	136.8721	
11:12:10	47.46318	-122.3072	0.897	1.492203	229.9859	14.83	14.32603	100	0	50	6.692933	14.2768	137.8546	
11:12:10	47.46316	-122.3071	1.295	1.821748	255.1851	14.72	14.28584	100	0	50	7.821174	15.51812	138.9452	
11:12:10	47.46313	-122.3071	1.748	2.154926	275.9983	14.57	14.19548	100	0	50	9.205452	16.72923	140.2193	
11:12:10	47.46311	-122.3071	2.388	2.613993	298.3824	14.34	14.06425	100	0	50	10.67486	17.76486	141.5691	
11:12:10	47.46309	-122.307	2.96	2.994308	312.0772	14.11	13.86227	100	0	50	12.04189	18.52879	142.9985	
11:12:11	47.46308	-122.307	3.486	3.46899	318.5068	13.92	13.66841	100	0	50	13.54339	19.45215	144.7226	
11:12:11	47.46305	-122.307	4.129	4.014584	325.2126	13.69	13.50856	100	0	50	14.94815	20.36235	146.7365	
11:12:11	47.46305	-122.307	4.129	4.530361	331.3156	13.69	13.14673	100	0	50	16.43905	21.21612	148.9906	
11:12:11	47.46302	-122.307	5.064	5.026221	336.4388	13.34	13.14673	100	0	50	18.19115	21.91374	151.6191	
11:12:12	47.463	-122.3069	5.824	5.669197	341.9052	13.04	12.86321	100	0	50	20.1067	22.44517	154.425	
11:12:12	47.46298	-122.3069	6.569	6.308715	341.9581	12.77	12.62765	100	0	50	22.02954	22.78569	157.4052	
11:12:12	47.46296	-122.3069	7.212	6.920422	336.2715	12.54	12.42401	100	0	50	23.94359	22.95231	160.5981	
11:12:12	47.46294	-122.3069	7.871	7.50932	322.6429	12.32	12.25713	100	0	50	25.95496	22.84821	164.056	
11:12:12	47.46292	-122.3069	8.516	8.021961	309.4089	12.13	12.13925	100	0	50	28.05341	22.42801	167.9174	
11:12:13	47.46289	-122.3069	9.39	8.617113	288.2842	11.93	12.03721	100	0	50	30.3254	21.80301	172.1133	
11:12:13	47.46286	-122.3069	10.062	9.106844	265.1332	11.81	11.96959	100	0	50	32.80016	20.80685	176.7024	
11:12:13	47.46284	-122.3069	10.511	9.685584	243.9171	11.76	11.97543	100	0	50	35.18001	19.4162	-178.5181	
11:12:13	47.46282	-122.3069	11.101	10.15807	219.7781	11.78	12.02541	100	0	50	37.15271	17.72603	-173.6562	
11:12:13	47.4628	-122.3069	11.507	10.63396	183.3433	11.87	12.18797	100	0	50	39.40359	15.57021	-168.3222	
11:12:14	47.4628	-122.3069	11.507	11.02674	146.2181	11.87	12.40628	100	0	50	41.50774	13.10436	-162.8721	
11:12:14	47.46277	-122.3069	11.805	11.30472	108.9214	12.02	12.40628	100	0	50	43.38758	10.27794	-157.102	
11:12:14	47.46275	-122.3069	12.006	11.55146	57.93315	12.24	12.60176	100	0	50	44.99638	7.271511	-151.2391	
11:12:14	47.46273	-122.3069	12.086	11.67153	12.12556	12.52	12.94823	100	0	50	46.32999	4.1231	-145.2777	
11:12:14	47.4627	-122.3069	12.017	11.70727	-48.13351	12.98	13.21221	100	0	50	47.54279	0.8155607	-139.1442	
11:12:15	47.46268	-122.3069	11.761	11.62375	-107.1005	13.44	13.80508	100	0	50	48.68933	-2.474267	-132.9536	
11:12:15	47.46266	-122.307	11.399	11.42129	-169.138	13.9	14.25499	100	0	50	49.5421	-5.465593	-126.7118	
11:12:15	47.46264	-122.307	10.955	11.08442	-234.0792	14.35	14.78712	100	0	50	49.60152	-8.161349	-120.4291	
11:12:15	47.46262	-122.307	10.235	10.6962	-289.9745	14.93	15.12455	100	0	50	49.44158	-10.35216	-113.9696	
11:12:15	47.46262	-122.307	10.235	10.13466	-350.4988	14.93	15.75667	100	0	50	49.15497	-12.23518	-107.5691	
11:12:16	47.4626	-122.3071	9.002	9.459861	-406.1197	15.75	15.75667	100	0	50	49.21412	-13.85043	-101.2404	
11:12:16	47.4626	-122.3071	8.115	8.570755	-461.3803	16.27	16.41619	100	0	50	48.98593	-15.19701	-95.02721	
11:12:16	47.46259	-122.3072	6.89	7.598905	-511.0422	16.92	16.94635	100	0	50	48.67923	-16.26412	-88.82082	
11:12:16	47.46258	-122.3072	5.658	6.549634	-552.9092	17.53	17.50909	100	0	50	48.29574	-16.93816	-82.46609	
11:12:16	47.46258	-122.3072	5.658	5.41885	-585.3332	17.53	18.08714	100	0	50	46.9917	-16.79365	-75.9833	
11:12:17	47.46258	-122.3073	3.663	4.367085	-600.8898	18.43	17.99822	100	0	50	43.36519	-17.11214	-69.05638	
11:12:17	47.46258	-122.3073	2.21	3.011356	-555.2233	19.06	18.82442	100	0	50	27.59092	-17.60109	-58.92752	
11:12:17	47.46259	-122.3074	0.047	1.901809	-380.6929	19.89	19.1347	100	0	50	12.35513	-15.51021	-49.55408	
11:12:17	47.46259	-122.3074	0.047	1.071613	-197.7935	19.89	19.86883	100	0	50	-1.515155	-11.73491	-41.57553	
11:12:17	47.46259	-122.3074	0.047	0.6900789	-13.31763	19.89	19.62729	100	0	50	-15.41109	-5.078133	-35.15645	
11:12:18	47.46259	-122.3074	0.047	0.696023	136.3511	19.89	19.62729	100	0	50	-27.64715	2.410076	-30.64442	
11:12:18	47.46259	-122.3074	0.047	0.9318616	233.1306	19.89	18.89441	100	0	50	-38.48869	10.02557	-27.74277	
11:12:18	47.46259	-122.3074	0.047	1.2349	258.0439	19.89	18.89441	100	0	50	-48.61083	17.62552	-26.03765	
11:12:18	47.46259	-122.3074	0.047	1.438071	215.7349	19.89	18.89441	100	0	50	-58.41801	25.11066	-25.36309	
11:12:18	47.46259	-122.3074	0.047	1.476332	95.93483	19.89	18.19818	100	0	50	-68.35152	32.49913	-25.70368	
11:12:19	47.46259	-122.3074	0.047	1.168789	-120.671	19.89	18.19818	100	0	50	-78.94184	39.84279	-27.26586	
11:12:19	47.46259	-122.3074	0.047	0.4944342	-385.4447	19.89	17.53676	100	0	50	-90.82189	47.07757	-30.48727	
11:12:19	47.46259	-122.3074	0.047	-0.5920013	-702.3837	19.89	17.53676	100	0	50	-105.2968	53.99902	-36.40821	
11:12:19	47.46259	-122.3074	0.047	-1.938227	-1023.252	19.89	16.90842	100	0	50	-123.9351	59.82347	-46.43407	
11:12:19	47.46259	-122.3074	0.047	-4.008437	-1437.329	19.89	16.90842	100	0	50	-148.0455	63.40531	-61.70113	
11:12:20	47.46259	-122.3074	0.047	-6.291638	-1824.08	19.89	16.3115	100	0	50	-175.5952	63.48564	-79.76247	
11:12:20	47.46259	-122.3074	0.047	-8.890206	-2198.76	19.89	16.3115	100	0	50	158.9972	59.90832	-94.98367	
11:12:20	47.46259	-122.3074	0.047	-11.33448	-2496.338	19.89	16.3115	100	0	50	138.4852	53.75661	-104.4316	
11:12:20	47.46259	-122.3074	0.047	-14.10262	-2770.491	19.89	15.74443	100	0	50	121.7262	46.12439	-108.8199	
11:12:20	47.46259	-122.3074	0.047	-17.05371	-2979.915	19.89	15.74443	100	0	50	108.3227	38.88025	-109.7424	
11:12:21	47.46259	-122.3074	0.047	-19.47461	-3045.039	19.89	15.20572	100	0	50	105.4433	39.04742	-111.932	
11:12:21	47.46363	-122.3077	0.01	-21.4933	-3035.362	0	15.20572	100	0	50	103.957	38.57963	-112.7708	
11:12:21	47.46363	-122.3077	0.02	-22.95791	-3010.083	0	5.231235	100	0	50	103.7921	37.91932	-111.3741	
11:12:21	47.46363	-122.3077	0.02	-24.35842	-2957.815	0	5.231235	100	0	50	100.9966	37.99208	-112.9537	
11:12:21	47.46363	-122.3077	0.02	-25.26229	-2887.823	0	5.231235	100	0	50	98.23811	38.02964	-114.4843	
11:12:22	47.46363	-122.3077	0.02	-25.84577	-2799.355	0	5.231235	100	0	50	95.56422	38.03961	-115.8808	
11:12:22	47.46363	-122.3077	0.02	-26.12491	-2705.34	0	5.231235	100	0	50	92.94154	38.04848	-117.1976	
11:12:22	47.46363	-122.3077	0.02	-26.1839	-2589.71	0	5.231235	100	0	50	90.34913	38.07257	-118.5692	
11:12:22	47.46363	-122.3077	0.02	-25.9818	-2451.885	0	5.231235	100	0	50	87.68055	38.10398	-120.058	
11:12:22	47.46363	-122.3077	0.02	-25.57029	-2314.866	0	5.231235	100	0	50	84.95746	38.1321	-121.6223	
11:12:23	47.46363	-122.3077	0.02	-24.99154	-2176.806	0	5.231235	100	0	50	82.21798	38.14374	-123.2356	
11:12:23	47.46363	-122.3077	0.02	-24.32646	-2047.348	0	5.231235	100	0	50	79.4514	38.15955	-124.8912	
11:12:23	47.46363	-122.3077	0.02	-23.47961	-1904.833	0	5.231235	100	0	50	76.65231	38.16686	-126.6116	
11:12:23	47.46363	-122.3077	0.02	-22.52332	-1761.47	0	5.231235	100	0	50	73.84146	38.15849	-128.3847	
11:12:23	47.46363	-122.3077	0.02	-21.37841	-1605.696	0	5.231235	100	0	50	71.01411	38.13924	-130.1962	
11:12:24	47.46363	-122.3077	0.02	-20.35961	-1477.736	0	5.231235	100	0	50	68.2035	38.11075	-132.0171	
11:12:24	47.46363	-122.3077	0.02	-19.17887	-1338.892	0	5.231235	100	0	50	65.42758	38.04886	-133.8308	
11:12:24	47.46363	-122.3077	0.02	-17.86204	-1193.228	0	5.231235	100	0	50	62.65377	37.99063	-135.6934	
11:12:24	47.46363	-122.3077	0.02	-16.76587	-1077.978	0	5.231235	100	0	50	59.66267	37.86845	-137.7165	
11:12:24	47.46363	-122.3077	0.02	-15.41556	-942.0355	0	5.231235	100	0	50	56.52617	37.67147	-139.8598	
11:12:25	47.46363	-122.3077	0.02	-14.1998	-823.7089	0	5.231235	100	0	50	53.37778	37.43467	-142.0824	
11:12:25	47.46363	-122.3077	0.02	-12.97898	-708.3961	0	5.231235	100	0	50	50.29866	37.14439	-144.3021	
11:12:25	47.46363	-122.3077	0.02	-11.79096	-599.2045	0	5.231235	100	0	50	47.28577	36.79929	-146.5076	
11:12:25	47.46363	-122.3077	0.02	-10.6229	-494.6438	0	4.969673	100	0	50	44.29852	36.44281	-148.7675	
11:12:25	47.46363	-122.3077	0.02	-9.475885	-394.614	0	4.969673	100	0	50	41.43438	36.11693	-150.9503	
11:12:26	47.46363	-122.3077	0.019	-8.35843	-299.6965	0	4.969673	100	0	50	38.59109	35.70623	-153.2042	
11:12:26	47.46363	-122.3077	0.019	-7.278648	-210.6564	0	4.969673	100	0	50	35.75303	35.15305	-155.5623	
11:12:26	47.46363	-122.3077	0.02	-6.235442	-126.5928	0	4.969673	100	0	50	33.02898	34.51534	-157.8761	
11:12:26	47.46363	-122.3077	0.02	-5.24485	-48.45966	0	4.969673	100	0	50	30.38992	33.92581	-160.1905	
11:12:26	47.46363	-122.3077	0.02	-4.281616	25.64535	0	4.721189	100	0	50	27.86845	33.3266	-162.4617	
11:12:27	47.46363	-122.3077	0.02	-3.379739	93.2145	0	4.721189	100	0	50	25.43886	32.70897	-164.7311	
11:12:27	47.46363	-122.3077	0.02	-2.605556	149.7031	0	4.721189	100	0	50	23.08717	32.00194	-167.0048	
11:12:27	47.46363	-122.3077	0.02	-1.709888	213.2868	0	4.721189	100	0	50	20.8342	31.23693	-169.2607	
11:12:27	47.46363	-122.3077	0.02	-1.028306	260.4815	0	4.721189	100	0	50	18.6754	30.42428	-171.4886	
11:12:27	47.46363	-122.3077	0.02	-0.3077837	309.0857	0	4.721189	100	0	50	16.58724	29.59564	-173.754	
11:12:28	47.46363	-122.3077	0.02	0.4367306	357.7001	0	4.721189	100	0	50	14.62228	28.77578	-175.9692	
11:12:28	47.46363	-122.3077	0.02	1.05773	396.9113	0	4.485129	100	0	50	12.73163	27.91681	-178.194	
11:12:28	47.46363	-122.3077	0.02	1.582839	428.8302	0	4.485129	100	0	50	10.98957	27.02362	179.667	
11:12:28	47.46363	-122.3077	0.019	2.108906	459.695	0	4.485129	100	0	50	9.390463	26.04851	177.6671	
11:12:28	47.46363	-122.3077	0.02	2.653759	490.5735	0	4.485129	100	0	50	7.871508	25.06017	175.6447	
11:12:29	47.46363	-122.3077	0.02	3.051785	512.4289	0	4.485129	100	0	50	6.495093	24.08064	173.7598	
11:12:29	47.46363	-122.3077	0.02	3.457869	533.6345	0	4.260873	100	0	50	5.250549	23.11482	172.0127	
