Date	Latitude(deg) 	Longitude(deg)	hamsl(m)	hafl(m)	climbrate(cm/s)	GroundSpeed(m/s)	Airspeed(m/s)	Mav_Link(%)	Rssi_Link(%)	Throttle	Roll(deg)	Pitch(deg)	Yaw(deg)
11:06:39	-6.795903	38.98534	122.192	0	0	0.11	0	100	0	0	1.201696	0.07743166	-65.33241	
11:06:40	-6.795903	38.98535	122.251	0.9583257	-0.3034852	0.14	3	100	0	50	1.075053	0.03019704	-65.30161	
11:06:40	-6.795889	38.98536	124.744	0.9833891	-1.172596	0.09	3	100	0	50	1.150726	0.14349	-65.27293	
11:06:40	-6.795889	38.98536	124.818	0.8354672	-11.36891	0.19	3	100	0	50	1.13303	0.2278203	-65.255	
11:06:40	-6.795889	38.98536	125.011	0.4613032	-31.04566	0.12	3	100	0	50	1.127678	0.130934	-65.23687	
11:06:40	-6.795889	38.98536	125.198	0.1769538	-44.68169	0.31	3	100	0	50	0.8892371	0.1865681	-65.22377	
11:06:41	-6.795888	38.98536	125.428	0.03113082	-50.23509	0.14	3	100	0	50	0.8409763	-0.03550817	-65.18481	
11:06:41	-6.795887	38.98536	125.526	0.08920418	-43.69618	0.26	3	100	0	50	1.033549	0.1485059	-65.14983	
11:06:41	-6.795887	38.98536	125.542	0.3301832	-28.70527	0.29	3	100	0	50	1.068249	0.4740426	-65.13221	
11:06:41	-6.795887	38.98536	125.726	0.5872177	-13.83145	0.16	3	100	0	50	1.158858	0.3557718	-65.14944	
11:06:41	-6.795887	38.98536	125.836	0.815004	-2.564847	0.11	3	100	0	50	1.169464	0.09616051	-65.14548	
11:06:42	-6.795887	38.98536	125.629	1.009044	6.291954	0.52	3	100	0	50	1.135602	0.3168565	-65.1358	
11:06:42	-6.795888	38.98536	125.348	1.1493	11.77119	0.17	3	100	0	50	1.123748	0.480308	-65.1562	
11:06:42	-6.795887	38.98536	125.545	1.255172	14.71173	0.36	3	100	0	50	1.273697	0.1479661	-65.15047	
11:06:42	-6.795887	38.98536	125.751	1.329747	15.29646	0.28	3	100	0	50	1.345494	-0.07109941	-65.14484	
11:06:42	-6.795886	38.98536	125.803	1.398968	15.32893	0.29	3	100	0	50	1.217729	-0.2415636	-65.10113	
11:06:43	-6.795887	38.98536	125.752	1.450994	14.76773	0.18	3	100	0	50	1.188362	-0.1446749	-65.06802	
11:06:43	-6.795886	38.98536	125.877	1.518983	15.64485	0.04	3	100	0	50	1.077827	-0.3209113	-65.01842	
11:06:43	-6.795886	38.98536	125.758	1.592282	16.51986	0.17	3	100	0	50	1.086187	-0.2539095	-64.95625	
11:06:43	-6.795886	38.98536	125.836	1.646163	16.587	0.04	3	100	0	50	1.095922	-0.2577876	-64.90646	
11:06:43	-6.795885	38.98536	126.12	1.681663	15.81445	0.29	3	100	0	50	1.147985	-0.2540544	-64.861	
11:06:44	-6.795883	38.98536	126.337	1.68055	12.48493	0.65	3	100	0	50	1.393057	-0.4380436	-64.81691	
11:06:44	-6.795882	38.98536	126.387	1.644048	7.779636	0.35	3	100	0	50	1.533214	-0.4357664	-64.77428	
11:06:44	-6.795882	38.98536	126.474	1.594416	2.919318	0.18	3	100	0	50	1.311116	-0.1372728	-64.74698	
11:06:44	-6.795883	38.98536	126.445	1.535074	-1.909357	0.14	3	100	0	50	1.158718	-0.07996452	-64.73574	
11:06:44	-6.795883	38.98536	126.436	1.472697	-6.323241	0.44	3	100	0	50	1.342706	-0.3939351	-64.70223	
11:06:45	-6.795882	38.98536	126.471	1.472692	-6.573204	0.14	3	100	0	50	1.381186	-0.4179363	-64.66256	
11:06:45	-6.795883	38.98536	126.328	1.471552	-7.306791	0.36	3	100	0	50	1.138411	-0.3734239	-64.62284	
11:06:45	-6.795882	38.98536	126.501	1.466907	-8.276863	0.42	3	100	0	50	1.201724	-0.5240233	-64.56573	
11:06:45	-6.795881	38.98536	126.799	1.461934	-9.344808	0.71	3	100	0	50	1.52094	-0.1814495	-64.52832	
11:06:45	-6.795881	38.98536	126.802	1.477787	-9.377786	0.13	3	100	0	50	1.465119	-0.007623871	-64.53371	
11:06:46	-6.79588	38.98536	127.021	1.490448	-9.613941	0.26	3	100	0	50	1.352596	-0.422273	-64.50583	
11:06:46	-6.79588	38.98536	126.824	1.400248	-15.06914	0.24	3	100	0	50	1.478516	-0.3941584	-64.47691	
11:06:46	-6.79588	38.98536	126.98	1.317326	-19.82651	0.08	3	100	0	50	1.385206	-0.2984858	-64.44508	
11:06:46	-6.79588	38.98536	126.86	1.309248	-19.78647	0.09	3	100	0	50	1.258896	-0.1133804	-64.42488	
11:06:46	-6.795881	38.98536	126.5	1.302899	-19.06933	0.33	3	100	0	50	1.197742	-0.2962577	-64.40736	
11:06:47	-6.795882	38.98536	126.264	1.26545	-20.41809	0.79	3	100	0	50	1.291264	-0.2843134	-64.3618	
11:06:47	-6.795883	38.98536	125.974	1.23225	-21.45612	0.31	3	100	0	50	1.159678	-0.4751998	-64.35484	
11:06:47	-6.795882	38.98536	125.874	1.224997	-20.55333	0.31	3	100	0	50	1.052474	-1.292886	-64.28037	
11:06:47	-6.795882	38.98536	125.685	1.220655	-20.14007	0.14	3	100	0	50	1.179695	-1.236893	-64.17801	
11:06:47	-6.795882	38.98536	125.664	1.201072	-19.99411	0.04	3	100	0	50	1.223783	-1.026863	-64.09581	
11:06:48	-6.795882	38.98536	125.869	1.18523	-19.95892	0.18	3	100	0	50	1.256396	-0.7787968	-64.02148	
11:06:48	-6.795882	38.98536	125.775	1.188035	-18.94658	0.16	3	100	0	50	1.178091	-0.8105181	-63.98256	
11:06:48	-6.795882	38.98536	125.654	1.191842	-18.39545	0.19	3	100	0	50	1.076114	-0.871904	-63.90989	
11:06:48	-6.795882	38.98536	125.595	1.230626	-15.72223	0.19	3	100	0	50	1.128315	-0.6956016	-63.85546	
11:06:48	-6.795882	38.98536	125.774	1.27112	-13.29447	0.42	3	100	0	50	1.42556	-0.6161277	-63.81307	
11:06:49	-6.795881	38.98536	125.802	1.228273	-15.67995	0.11	3	100	0	50	1.505641	-0.7196687	-63.77309	
11:06:49	-6.795881	38.98536	125.81	1.189915	-17.48602	0.22	3	100	0	50	1.196227	-0.8289876	-63.7272	
11:06:49	-6.795881	38.98536	125.747	1.171541	-17.90762	0.39	3	100	0	50	1.059799	-1.047565	-63.65863	
11:06:49	-6.795882	38.98536	125.585	1.157518	-18.28689	0.33	3	100	0	50	1.030252	-0.9838735	-63.5759	
11:06:49	-6.795882	38.98536	125.556	1.143777	-18.62906	0.63	3	100	0	50	0.9955753	-0.4629045	-63.51805	
11:06:50	-6.795883	38.98536	125.267	1.132939	-18.43676	0.39	3	100	0	50	1.000483	-0.8334842	-63.49799	
11:06:50	-6.795883	38.98536	125.265	1.119955	-18.14554	0.21	3	100	0	50	1.054317	-1.232117	-63.40604	
11:06:50	-6.795882	38.98536	125.386	1.102273	-18.25646	0.19	3	100	0	50	1.328358	-1.037526	-63.35155	
11:06:50	-6.795882	38.98536	125.148	1.097337	-17.61392	0.68	3	100	0	50	1.447719	-1.428529	-63.29558	
11:06:50	-6.795883	38.98536	124.705	1.104923	-16.87225	0.35	3	100	0	50	1.456164	-1.59031	-63.20652	
11:06:51	-6.795883	38.98536	124.541	1.127762	-15.79152	0.08	3	100	0	50	1.441953	-1.201906	-63.13713	
11:06:51	-6.795883	38.98536	124.547	1.164048	-13.60641	0.12	3	100	0	50	1.302707	-0.9495944	-63.10051	
11:06:51	-6.795882	38.98536	124.576	1.222869	-10.2734	0.41	3	100	0	50	1.384116	-1.18765	-63.06635	
11:06:51	-6.795882	38.98536	124.475	1.291657	-6.900769	0.56	3	100	0	50	1.40726	-1.580575	-63.0015	
11:06:51	-6.795883	38.98535	124.126	1.324807	-5.638935	0.5	3	100	0	50	1.035541	-1.354261	-62.91701	
11:06:52	-6.795884	38.98535	123.91	1.326337	-6.252959	0.24	3	100	0	50	0.9305046	-1.031773	-62.85054	
11:06:52	-6.795883	38.98535	123.828	1.336393	-6.497005	0.72	3	100	0	50	1.472773	-1.322088	-62.81853	
11:06:52	-6.795882	38.98535	123.594	1.358242	-5.89003	0.72	3	100	0	50	1.880289	-1.633543	-62.77441	
11:06:52	-6.795882	38.98535	123.572	1.376224	-4.872245	0.37	3	100	0	50	1.612592	-1.155884	-62.72881	
11:06:52	-6.795881	38.98535	124.076	1.387635	-4.538241	1.04	3	100	0	50	1.537143	-0.3496889	-62.71487	
11:06:53	-6.795882	38.98536	123.957	1.3771	-5.192987	0.42	3	100	0	50	1.680939	-0.2836212	-62.7556	
11:06:53	-6.795883	38.98536	123.66	1.34814	-6.659112	0.29	3	100	0	50	1.394346	-0.716603	-62.77787	
11:06:53	-6.795884	38.98536	123.664	1.328241	-7.667892	0.45	3	100	0	50	1.204053	-0.6940056	-62.75712	
11:06:53	-6.795886	38.98536	123.395	1.313205	-8.695238	0.24	3	100	0	50	1.221051	-0.8617949	-62.75097	
11:06:53	-6.795885	38.98536	123.673	1.301513	-9.11934	0.07	3	100	0	50	1.363155	-1.013783	-62.71227	
11:06:54	-6.795885	38.98536	123.595	1.294683	-9.043686	0.19	3	100	0	50	1.610154	-0.9317747	-62.70441	
11:06:54	-6.795884	38.98536	123.608	1.29514	-8.722596	0.44	3	100	0	50	1.886511	-1.039171	-62.69151	
11:06:54	-6.795883	38.98535	123.534	1.305747	-8.027975	0.34	3	100	0	50	1.939817	-1.133211	-62.68011	
11:06:54	-6.795883	38.98535	123.526	1.31421	-8.260453	0.26	3	100	0	50	1.816469	-0.8724243	-62.66508	
11:06:54	-6.795883	38.98536	123.831	1.365546	-5.923617	1.04	3	100	0	50	1.902508	-0.2107234	-62.68151	
11:06:55	-6.795884	38.98536	123.794	1.411482	-3.577067	0.19	3	100	0	50	1.779058	-0.3763995	-62.74416	
11:06:55	-6.795884	38.98536	123.853	1.435091	-2.664821	0.53	3	100	0	50	1.58723	-1.227947	-62.76109	
11:06:55	-6.795884	38.98536	123.841	1.453399	-2.441572	0.48	3	100	0	50	1.333933	-1.457879	-62.69764	
11:06:55	-6.795887	38.98535	123.47	1.521829	0.2018908	0.42	3	100	0	50	1.114567	-1.082904	-62.62126	
11:06:55	-6.795887	38.98535	123.581	1.570982	1.913213	0.42	3	100	0	50	1.455317	-1.341138	-62.58982	
11:06:56	-6.795887	38.98535	123.599	1.512169	-2.218893	0.7	3	100	0	50	1.667564	-1.900149	-62.52964	
11:06:56	-6.795886	38.98535	123.495	1.457663	-5.523507	0.16	3	100	0	50	1.776182	-1.595365	-62.44316	
11:06:56	-6.795887	38.98535	123.302	1.405288	-8.868221	0.36	3	100	0	50	1.827008	-1.01768	-62.41125	
11:06:56	-6.795887	38.98535	123.243	1.361326	-11.49806	0.14	3	100	0	50	1.72624	-0.9368595	-62.41357	
11:06:56	-6.795887	38.98535	123.115	1.353616	-12.00536	0.22	3	100	0	50	1.547523	-1.126658	-62.39167	
11:06:57	-6.795888	38.98535	122.903	1.346702	-12.49301	0.14	3	100	0	50	1.478395	-1.06858	-62.37078	
11:06:57	-6.795889	38.98535	122.802	1.365002	-11.39452	0.21	3	100	0	50	1.439837	-0.9442569	-62.35333	
11:06:57	-6.795888	38.98535	122.964	1.380405	-10.20155	0.35	3	100	0	50	1.658519	-0.6565349	-62.35161	
11:06:57	-6.795887	38.98535	123.216	1.376696	-10.56446	0.35	3	100	0	50	1.889112	-0.4543675	-62.38829	
11:06:57	-6.795885	38.98535	123.83	1.372625	-10.93434	0.18	3	100	0	50	1.868817	-0.5114397	-62.43914	
11:06:58	-6.795885	38.98535	123.681	1.296965	-14.65614	0.04	3	100	0	50	1.768479	-0.6049742	-62.4724	
11:06:58	-6.795886	38.98535	123.442	1.228658	-17.91169	0.41	3	100	0	50	1.603336	-0.8771621	-62.49192	
11:06:58	-6.795886	38.98535	123.45	1.192789	-18.42899	0.13	3	100	0	50	1.551305	-0.6870226	-62.48638	
11:06:58	-6.795886	38.98535	123.43	1.166841	-18.1176	0.24	3	100	0	50	1.51052	-0.4271611	-62.51167	
11:06:58	-6.795886	38.98535	123.559	1.146403	-18.18638	0.33	3	100	0	50	1.384828	-0.4394169	-62.54639	
11:06:59	-6.795885	38.98535	123.827	1.130741	-17.60493	0.5	3	100	0	50	1.638387	-0.714481	-62.58242	
11:06:59	-6.795883	38.98535	124.154	1.10316	-17.99465	0.13	3	100	0	50	1.766503	-0.654181	-62.59008	
11:06:59	-6.795883	38.98535	124.23	1.082354	-18.19687	0.35	3	100	0	50	1.884251	-0.2199809	-62.6181	
11:06:59	-6.795883	38.98535	124.122	1.062716	-18.19136	0.58	3	100	0	50	1.884899	-0.6093252	-62.68804	
11:06:59	-6.795884	38.98534	123.878	1.046216	-17.80074	0.16	3	100	0	50	1.661623	-0.6517807	-62.6933	
11:07:00	-6.795883	38.98534	123.938	1.029973	-18.08623	0.29	3	100	0	50	1.788102	-0.3874375	-62.72352	
11:07:00	-6.795882	38.98534	124.081	1.010474	-17.99432	0.21	3	100	0	50	1.90123	-0.1880687	-62.77432	
11:07:00	-6.795882	38.98534	124.102	1.005919	-17.61976	0.21	3	100	0	50	1.581217	-0.07673584	-62.83297	
11:07:00	-6.795882	38.98534	124.226	1.009639	-16.46497	0.19	3	100	0	50	1.620283	-0.2250472	-62.88123	
11:07:00	-6.795882	38.98534	124.287	1.012365	-14.99631	0.18	3	100	0	50	1.602936	-0.1780307	-62.92377	
11:07:01	-6.795881	38.98534	124.665	1.014238	-14.0049	0.22	3	100	0	50	1.720178	-0.284481	-62.98624	
11:07:01	-6.795882	38.98534	124.592	1.041097	-11.71906	0.22	3	100	0	50	1.889736	-0.302861	-63.01952	
11:07:01	-6.795882	38.98534	124.175	1.076991	-9.421176	0.75	3	100	0	50	1.953939	-1.039478	-63.04744	
11:07:01	-6.795883	38.98534	123.686	1.08418	-8.761653	0.29	3	100	0	50	1.805786	-1.33837	-62.99665	
11:07:01	-6.795885	38.98534	123.539	1.061841	-9.775724	0.47	3	100	0	50	1.518467	-0.8151488	-62.94791	
11:07:02	-6.795887	38.98534	123.735	1.052339	-9.680183	0.91	3	100	0	50	1.230858	-0.3062291	-62.92364	
11:07:02	-6.795887	38.98534	123.906	1.059242	-9.148236	0.32	3	100	0	50	1.516479	-0.9268627	-62.94229	
11:07:02	-6.795887	38.98534	123.935	1.06327	-8.247417	0.29	3	100	0	50	1.737903	-1.445099	-62.9005	
11:07:02	-6.795888	38.98534	123.849	1.065933	-7.821981	0.22	3	100	0	50	1.912801	-1.242363	-62.85884	
11:07:02	-6.79589	38.98534	123.355	1.058581	-8.324451	0.48	3	100	0	50	1.814506	-0.9216807	-62.84061	
11:07:03	-6.79589	38.98534	123.27	1.04494	-8.793777	0.68	3	100	0	50	2.153025	-1.904621	-62.82268	
11:07:03	-6.795889	38.98534	123.372	1.048195	-8.459961	0.19	3	100	0	50	2.176677	-1.876597	-62.73578	
11:07:03	-6.795889	38.98534	123.459	1.064009	-7.27943	0.79	3	100	0	50	2.521979	-1.156014	-62.69847	
11:07:03	-6.795889	38.98534	123.546	1.075647	-6.947265	0.48	3	100	0	50	2.500177	-1.086523	-62.71642	
11:07:03	-6.795888	38.98534	123.583	1.082191	-6.554456	0.26	3	100	0	50	2.178925	-1.601211	-62.70461	
11:07:04	-6.795888	38.98534	123.646	1.086649	-6.088837	0.38	3	100	0	50	2.087831	-1.878691	-62.64728	
11:07:04	-6.795887	38.98534	123.944	1.0881	-6.648522	0.36	3	100	0	50	2.058818	-1.367415	-62.59674	
11:07:04	-6.795887	38.98534	123.936	1.088366	-6.977815	0.14	3	100	0	50	2.303664	-1.409663	-62.59311	
11:07:04	-6.795887	38.98534	123.85	1.097603	-6.275447	0.26	3	100	0	50	2.518929	-1.602477	-62.58325	
11:07:05	-6.795887	38.98534	124.114	1.10631	-5.74898	0.61	3	100	0	50	2.399556	-1.102541	-62.55918	
11:07:05	-6.795886	38.98534	124.484	1.182736	-1.517739	0.29	3	100	0	50	2.142924	-1.097817	-62.57186	
11:07:05	-6.795886	38.98534	124.561	1.245693	1.65975	0.24	3	100	0	50	2.231838	-1.169099	-62.57918	
11:07:05	-6.795887	38.98534	124.454	1.333802	5.965349	0.12	3	100	0	50	2.204437	-1.244588	-62.59051	
11:07:05	-6.795885	38.98534	124.901	1.418961	9.309295	0.32	3	100	0	50	2.383989	-1.242017	-62.58232	
11:07:06	-6.795885	38.98534	124.826	1.329643	3.678826	0.32	3	100	0	50	2.143499	-1.528984	-62.56785	
11:07:06	-6.795884	38.98534	125.06	1.237974	-1.334274	0.22	3	100	0	50	1.929018	-1.287637	-62.53477	
11:07:06	-6.795882	38.98534	125.285	1.102123	-8.096288	0.65	3	100	0	50	2.070921	-1.343699	-62.52749	
11:07:06	-6.795882	38.98534	125.285	0.9914852	-13.54381	0.65	3	100	0	50	2.713228	-1.46796	-62.53386	
11:07:06	-6.795882	38.98534	125.482	1.004845	-12.22411	0.26	3	100	0	50	2.66548	-1.211059	-62.53444	
11:07:07	-6.795881	38.98534	125.937	1.017585	-11.02535	0.19	3	100	0	50	2.482385	-1.091804	-62.55632	
11:07:07	-6.79588	38.98534	126.179	1.022774	-9.916412	0.12	3	100	0	50	2.497636	-1.17986	-62.58198	
11:07:07	-6.795881	38.98534	126.197	1.027949	-9.077824	0.06	3	100	0	50	2.485105	-1.226844	-62.59441	
11:07:07	-6.79588	38.98534	126.376	1.048663	-7.023798	0.06	3	100	0	50	2.413583	-1.245327	-62.59396	
11:07:07	-6.79588	38.98534	126.541	1.067073	-5.588414	0.21	3	100	0	50	2.291619	-1.223151	-62.59459	
11:07:08	-6.79588	38.98534	126.349	1.100249	-3.420105	0.24	3	100	0	50	2.333663	-1.306951	-62.59444	
11:07:08	-6.795879	38.98534	126.468	1.12971	-2.448015	0.33	3	100	0	50	2.513264	-1.162744	-62.60398	
11:07:08	-6.795878	38.98534	126.806	1.163988	-0.6315508	0.31	3	100	0	50	2.575729	-0.853047	-62.61803	
11:07:08	-6.795878	38.98534	126.914	1.194326	0.473327	0.57	3	100	0	50	2.452456	-0.6551825	-62.66487	
11:07:08	-6.795877	38.98534	126.998	1.208617	0.5013102	0.26	3	100	0	50	2.175919	-0.3466708	-62.70951	
11:07:09	-6.795877	38.98534	126.927	1.220169	0.7161486	0.24	3	100	0	50	2.452297	-1.154318	-62.75908	
11:07:09	-6.795876	38.98534	127.229	1.194771	-1.114096	0.44	3	100	0	50	2.559177	-1.29789	-62.76135	
11:07:09	-6.795875	38.98534	127.516	1.1713	-2.695209	0.22	3	100	0	50	2.674318	-0.9477715	-62.76705	
11:07:09	-6.795874	38.98534	127.947	1.158416	-3.671831	0.42	3	100	0	50	2.51598	-0.919381	-62.79866	
11:07:09	-6.795874	38.98534	127.92	1.15497	-4.277111	0.39	3	100	0	50	2.398178	-0.6616963	-62.82425	
11:07:10	-6.795874	38.98534	127.92	1.166963	-3.485519	0.39	3	100	0	50	2.630741	-1.205634	-62.8726	
11:07:10	-6.795872	38.98534	128.147	1.185581	-2.418182	0.42	3	100	0	50	2.627958	-1.213417	-62.8713	
11:07:10	-6.79587	38.98534	128.364	1.196976	-2.692113	0.93	3	100	0	50	2.756825	-1.277054	-62.885	
11:07:10	-6.795871	38.98534	127.996	1.199547	-2.752638	0.45	3	100	0	50	2.95405	-1.965319	-62.89279	
11:07:10	-6.79587	38.98534	128.131	1.184062	-3.820616	0.52	3	100	0	50	2.828697	-1.666053	-62.85028	
11:07:11	-6.79587	38.98534	127.872	1.15876	-5.155229	0.58	3	100	0	50	2.716103	-1.707931	-62.82809	
11:07:11	-6.79587	38.98534	128.015	1.147455	-5.630367	0.38	3	100	0	50	2.539258	-1.851404	-62.79791	
11:07:11	-6.795869	38.98534	128.002	1.144651	-5.612275	0.28	3	100	0	50	2.30873	-1.597618	-62.74521	
11:07:11	-6.795869	38.98534	127.855	1.131807	-6.262048	0.52	3	100	0	50	2.32089	-1.274917	-62.72985	
11:07:11	-6.79587	38.98534	127.464	1.110338	-7.075193	0.12	3	100	0	50	2.372558	-1.506191	-62.72468	
11:07:12	-6.79587	38.98534	127.51	1.087516	-8.13556	0.13	3	100	0	50	2.085246	-1.303852	-62.70093	
11:07:12	-6.79587	38.98534	127.327	1.06349	-8.900133	0.25	3	100	0	50	2.096707	-0.989692	-62.69259	
11:07:12	-6.79587	38.98534	127.429	1.033415	-9.710661	0.45	3	100	0	50	2.248387	-1.078687	-62.71026	
11:07:12	-6.79587	38.98534	127.409	1.000832	-11.10995	0.26	3	100	0	50	2.103804	-1.444713	-62.71457	
11:07:12	-6.79587	38.98534	127.453	0.9629468	-12.39757	0.14	3	100	0	50	2.174292	-1.135806	-62.69188	
11:07:13	-6.79587	38.98534	127.623	0.9124237	-13.81174	0.11	3	100	0	50	2.148668	-0.8020259	-62.69843	
11:07:13	-6.795869	38.98534	127.826	0.8962607	-13.31537	0.31	3	100	0	50	2.014993	-0.6312293	-62.73305	
11:07:13	-6.79587	38.98534	127.68	0.8978468	-12.08826	0.26	3	100	0	50	2.153528	-0.4060518	-62.76979	
11:07:13	-6.79587	38.98534	127.828	0.8920486	-11.31833	0.48	3	100	0	50	1.676128	-0.3996364	-62.81268	
11:07:13	-6.79587	38.98534	127.515	0.873972	-10.92667	0.22	3	100	0	50	1.722294	-0.1819433	-62.85729	
11:07:14	-6.79587	38.98534	127.77	0.882681	-9.535747	0.29	3	100	0	50	1.624636	-0.477007	-62.91582	
11:07:14	-6.79587	38.98534	127.568	0.9191039	-6.414787	0.29	3	100	0	50	1.702964	-0.4109854	-62.94008	
11:07:14	-6.795872	38.98534	127.414	0.9538817	-4.022742	0.62	3	100	0	50	1.449979	-0.8689081	-62.96002	
11:07:14	-6.79587	38.98534	127.831	1.002223	-1.436144	0.47	3	100	0	50	1.604575	-0.060376	-62.96906	
11:07:14	-6.795871	38.98534	127.655	1.050421	0.748729	0.5	3	100	0	50	1.783358	-0.1082146	-63.03198	
11:07:15	-6.79587	38.98534	127.896	1.089179	2.585047	0.38	3	100	0	50	1.925772	-0.1329784	-63.10513	
11:07:15	-6.79587	38.98534	128.003	1.128238	4.692385	0.22	3	100	0	50	2.000861	-0.3837823	-63.16365	
11:07:15	-6.795868	38.98534	128.382	1.194086	7.473825	0.33	3	100	0	50	1.827572	-0.6338696	-63.19797	
11:07:15	-6.795866	38.98534	128.672	1.252286	9.262981	0.5	3	100	0	50	1.946112	-0.5280824	-63.22426	
11:07:15	-6.795866	38.98534	128.754	1.260164	8.834585	0.26	3	100	0	50	1.985585	-0.7688098	-63.24242	
11:07:16	-6.795865	38.98534	129.002	1.265408	8.157661	0.41	3	100	0	50	1.848794	-0.3025653	-63.25516	
11:07:16	-6.795865	38.98534	129.03	1.248178	6.647206	0.17	3	100	0	50	1.898218	-0.04817102	-63.30609	
11:07:16	-6.795865	38.98534	129.222	1.229448	4.550457	0.58	3	100	0	50	1.739048	-0.2048528	-63.37566	
11:07:16	-6.795866	38.98534	129.205	1.222561	3.55666	0.53	3	100	0	50	1.753181	0.2285363	-63.42393	
11:07:16	-6.795866	38.98534	129.196	1.214318	2.734301	0.19	3	100	0	50	1.546234	0.2808286	-63.50167	
11:07:17	-6.795866	38.98534	129.052	1.208599	1.873755	0.07	3	100	0	50	1.634238	-0.1626687	-63.55548	
11:07:17	-6.795867	38.98534	129.081	1.203063	1.295289	0.14	3	100	0	50	1.556648	-0.3444921	-63.58189	
11:07:17	-6.795867	38.98534	129.002	1.177321	-0.4991015	0.32	3	100	0	50	1.420635	-0.2469083	-63.60233	
11:07:17	-6.795866	38.98534	129.184	1.153638	-1.621026	0.48	3	100	0	50	1.350115	-0.8686784	-63.60961	
11:07:17	-6.795866	38.98534	129.027	1.160479	-1.287603	0.26	3	100	0	50	1.889245	-0.374174	-63.61538	
11:07:18	-6.795867	38.98534	128.762	1.166942	-0.6473206	0.34	3	100	0	50	1.703908	-0.5400463	-63.63602	
11:07:18	-6.795867	38.98534	129.024	1.185906	-0.1901009	0.45	3	100	0	50	1.631279	-0.7110707	-63.62679	
11:07:18	-6.795867	38.98534	129.089	1.20634	1.276232	0.17	3	100	0	50	1.766111	0.2020799	-63.62954	
11:07:18	-6.795868	38.98534	128.852	1.196031	0.4706306	0.37	3	100	0	50	1.61743	-0.02508861	-63.68917	
11:07:18	-6.795869	38.98534	128.589	1.18595	-0.2743348	0.25	3	100	0	50	1.503959	-0.6398156	-63.71064	
11:07:19	-6.795869	38.98534	128.754	1.173071	-1.422441	0.04	3	100	0	50	1.687688	-0.2527567	-63.70856	
11:07:19	-6.795867	38.98534	129.267	1.162432	-1.51611	0.58	3	100	0	50	1.382281	-0.0830264	-63.72496	
11:07:19	-6.795869	38.98534	128.915	1.156541	-1.709753	0.26	3	100	0	50	1.936984	0.213148	-63.76544	
11:07:19	-6.795869	38.98534	129.057	1.157265	-1.867391	0.16	3	100	0	50	1.303102	0.2413339	-63.84078	
11:07:19	-6.795868	38.98534	129.444	1.159633	-1.867386	0.26	3	100	0	50	1.37916	-0.3108582	-63.87759	
11:07:20	-6.795868	38.98534	129.251	1.163805	-1.567289	0.42	3	100	0	50	1.333744	-0.4139798	-63.87928	
11:07:20	-6.795867	38.98534	129.338	1.166894	-1.58482	0.48	3	100	0	50	1.86218	-0.1225104	-63.90221	
11:07:20	-6.795865	38.98534	129.998	1.169518	-1.016717	0.58	3	100	0	50	1.871917	-0.3037152	-63.94294	
11:07:20	-6.795864	38.98534	130.185	1.141352	-2.168027	0.35	3	100	0	50	1.962859	-0.2095314	-63.98161	
11:07:20	-6.795865	38.98534	129.825	1.096558	-3.881274	0.24	3	100	0	50	1.655852	-0.167368	-64.00294	
11:07:21	-6.795865	38.98534	130.02	1.046316	-6.063613	0.36	3	100	0	50	1.557789	0.1692466	-64.04488	
11:07:21	-6.795866	38.98534	129.777	0.9955679	-7.58647	0.22	3	100	0	50	1.772362	0.07367682	-64.10544	
11:07:21	-6.795866	38.98534	130.09	0.9422695	-9.387178	0.17	3	100	0	50	1.507116	0.1624225	-64.15109	
11:07:21	-6.795866	38.98534	129.918	0.8737987	-11.64568	0.57	3	100	0	50	1.555635	-0.294881	-64.18863	
11:07:21	-6.795867	38.98534	129.969	0.8237812	-12.96883	0.04	3	100	0	50	1.714515	-0.5572699	-64.19743	
11:07:22	-6.795867	38.98534	130.052	0.7938255	-13.51794	0.39	3	100	0	50	1.518539	0.0165275	-64.20403	
11:07:22	-6.795869	38.98534	129.929	0.7668725	-12.92106	0.16	3	100	0	50	1.872594	0.08757117	-64.24275	
11:07:22	-6.795869	38.98534	129.932	0.7481071	-12.54988	0.29	3	100	0	50	1.393567	-0.1019754	-64.26787	
11:07:22	-6.795868	38.98534	129.978	0.7321773	-11.91833	0.44	3	100	0	50	1.902831	-0.1450157	-64.28308	
11:07:22	-6.795868	38.98534	130.064	0.7190712	-11.51721	0.19	3	100	0	50	2.07725	0.3279969	-64.33189	
11:07:23	-6.795866	38.98534	130.527	0.7020306	-12.01705	0.24	3	100	0	50	1.854803	0.2658549	-64.38705	
11:07:23	-6.795867	38.98534	130.32	0.6792383	-12.02573	0.09	3	100	0	50	1.848111	0.2954426	-64.45313	
11:07:23	-6.795868	38.98534	130.407	0.6331701	-13.08529	0.28	3	100	0	50	1.609293	0.1690652	-64.49059	
11:07:23	-6.795867	38.98534	130.41	0.575094	-15.18307	0.81	3	100	0	50	1.787939	0.4314551	-64.52624	
11:07:23	-6.795867	38.98534	130.453	0.5379168	-16.10629	0.16	3	100	0	50	1.759311	-0.5522068	-64.54394	
11:07:24	-6.795868	38.98534	130.355	0.5343019	-14.77603	0.45	3	100	0	50	1.550181	0.04639525	-64.54363	
11:07:24	-6.795868	38.98534	130.597	0.5336769	-13.80565	0.21	3	100	0	50	1.810614	-0.3333613	-64.57056	
11:07:24	-6.795867	38.98534	130.708	0.4918357	-15.07234	0.42	3	100	0	50	1.612344	0.06981254	-64.57636	
11:07:24	-6.795867	38.98534	130.926	0.4485374	-15.20496	0.09	3	100	0	50	2.459175	0.4145804	-64.626	
11:07:24	-6.795867	38.98534	130.933	0.4417439	-14.21702	0.18	3	100	0	50	2.20568	0.2746024	-64.70431	
11:07:25	-6.795866	38.98534	131.016	0.4383381	-13.08167	0.26	3	100	0	50	2.315527	0.4120797	-64.764	
11:07:25	-6.795867	38.98534	130.8	0.4711632	-10.32652	0.37	3	100	0	50	2.218428	0.6287368	-64.84767	
11:07:25	-6.795867	38.98534	131.018	0.5025442	-7.93199	0.45	3	100	0	50	2.01379	0.192498	-64.91805	
11:07:25	-6.795866	38.98534	131.319	0.5867928	-3.119397	0.59	3	100	0	50	2.346124	0.1783155	-64.96252	
11:07:25	-6.795866	38.98534	131.234	0.662354	0.8581161	0.47	3	100	0	50	2.831698	0.3780186	-65.02234	
11:07:26	-6.795865	38.98534	131.553	0.7581317	5.141109	0.18	3	100	0	50	2.3923	0.3077345	-65.09363	
11:07:26	-6.795864	38.98534	131.782	0.8351446	7.99273	0.14	3	100	0	50	2.445984	0.6741698	-65.16263	
11:07:26	-6.795866	38.98534	131.651	0.8739395	9.419718	0.34	3	100	0	50	2.425598	0.8532493	-65.24836	
11:07:26	-6.795866	38.98534	131.628	0.90809	10.50689	0.29	3	100	0	50	2.067585	0.854168	-65.35199	
11:07:26	-6.795866	38.98534	131.878	0.9424573	11.12521	0.16	3	100	0	50	2.329384	0.405414	-65.41499	
11:07:27	-6.795866	38.98534	132.212	0.9689032	11.80795	0.18	3	100	0	50	2.276663	0.5971809	-65.47035	
11:07:27	-6.795866	38.98534	132.141	0.9701617	10.87703	0.39	3	100	0	50	2.443527	0.5518008	-65.54357	
11:07:27	-6.795865	38.98534	132.243	0.9697163	9.951818	0.19	3	100	0	50	2.979392	0.6941263	-65.61699	
11:07:27	-6.795864	38.98534	132.511	0.9636478	8.42005	0.25	3	100	0	50	2.50991	0.6394651	-65.69369	
11:07:27	-6.795864	38.98534	132.721	0.9555926	6.677594	0.35	3	100	0	50	2.672743	0.4561247	-65.74567	
11:07:28	-6.795863	38.98534	132.877	1.003045	8.254519	0.04	3	100	0	50	2.782306	0.4388428	-65.78979	
11:07:28	-6.795864	38.98534	132.837	1.040403	9.272636	0.52	3	100	0	50	2.4524	0.7544105	-65.85104	
11:07:28	-6.795864	38.98534	132.757	1.077129	10.34499	0.24	3	100	0	50	2.256037	0.5991516	-65.90211	
11:07:28	-6.795864	38.98534	132.891	1.1085	10.66514	0.13	3	100	0	50	2.728949	1.270947	-65.9771	
11:07:28	-6.795864	38.98534	133.072	1.19647	14.3644	0.14	3	100	0	50	2.539893	1.082966	-66.08272	
11:07:29	-6.795865	38.98534	132.953	1.267007	17.29934	0.14	3	100	0	50	2.52321	1.136158	-66.16323	
11:07:29	-6.795866	38.98534	132.718	1.312158	17.83969	0.29	3	100	0	50	2.60805	1.143431	-66.25132	
11:07:29	-6.795864	38.98534	133.065	1.31466	15.94337	0.52	3	100	0	50	2.861505	0.8006251	-66.33303	
11:07:29	-6.795864	38.98534	133.006	1.30367	13.61144	0.29	3	100	0	50	3.134948	1.047043	-66.40421	
11:07:29	-6.795863	38.98534	133.319	1.272855	9.94426	0.35	3	100	0	50	2.853729	0.873703	-66.50583	
11:07:30	-6.795863	38.98534	133.365	1.247162	7.189373	0.08	3	100	0	50	2.60536	0.6877453	-66.5639	
11:07:30	-6.795862	38.98534	133.658	1.226103	5.922419	0.35	3	100	0	50	2.472786	0.8524028	-66.61986	
11:07:30	-6.795862	38.98534	133.693	1.188402	3.010928	0.19	3	100	0	50	2.501492	0.7187339	-66.67652	
11:07:30	-6.795862	38.98534	133.811	1.146112	0.03166664	0.09	3	100	0	50	2.357109	1.140408	-66.74899	
11:07:30	-6.795863	38.98534	133.793	1.120832	-1.109089	0.14	3	100	0	50	2.414811	0.7600249	-66.81873	
11:07:31	-6.795864	38.98534	133.554	1.107934	-2.130855	0.26	3	100	0	50	2.282939	0.8124286	-66.85506	
11:07:31	-6.795865	38.98534	133.673	1.079643	-3.727493	0.29	3	100	0	50	2.171042	1.06721	-66.88678	
11:07:31	-6.795865	38.98534	133.737	1.042659	-5.313773	0.26	3	100	0	50	2.318405	1.212873	-66.93816	
11:07:31	-6.795866	38.98534	133.639	1.024818	-5.872985	0.66	3	100	0	50	2.366442	1.265952	-67.00939	
11:07:31	-6.795866	38.98534	133.805	1.023739	-5.345928	0.16	3	100	0	50	2.195171	1.317039	-67.10057	
11:07:32	-6.795866	38.98534	133.79	1.019786	-5.556516	0.42	3	100	0	50	2.297625	0.667768	-67.14024	
11:07:32	-6.795866	38.98534	134.018	1.013503	-5.905235	0.56	3	100	0	50	2.024408	0.8695629	-67.17533	
11:07:32	-6.795866	38.98534	134.144	1.000564	-6.043808	0.33	3	100	0	50	1.919555	0.4875409	-67.19434	
11:07:32	-6.795866	38.98534	134.201	0.9845554	-6.487568	0.42	3	100	0	50	2.106609	0.6361333	-67.19414	
11:07:32	-6.795866	38.98534	134.463	0.98868	-5.761257	0.32	3	100	0	50	2.14779	0.485532	-67.18367	
11:07:33	-6.795866	38.98534	134.824	1.007615	-4.522839	0.09	3	100	0	50	2.181577	0.8979637	-67.1986	
11:07:33	-6.795865	38.98534	135.009	1.027223	-3.176676	0.08	3	100	0	50	2.465746	0.8466817	-67.22985	
11:07:33	-6.795864	38.98534	135.381	1.048627	-1.62666	0.39	3	100	0	50	2.343736	0.8444171	-67.27236	
11:07:33	-6.795865	38.98534	135.355	1.064368	-1.479302	0.25	3	100	0	50	2.262246	1.083165	-67.31818	
11:07:33	-6.795866	38.98534	135.482	1.073939	-0.6755885	0.42	3	100	0	50	2.207711	0.9977882	-67.35992	
11:07:34	-6.795864	38.98534	135.946	1.081471	-0.3542452	0.34	3	100	0	50	2.270139	1.115225	-67.40845	
11:07:34	-6.795864	38.98534	136.114	1.080797	-0.8155615	0.21	3	100	0	50	2.472404	0.8853589	-67.45233	
11:07:34	-6.795865	38.98534	135.857	1.079599	-0.9728352	0.19	3	100	0	50	2.096841	0.5463685	-67.46836	
11:07:34	-6.795866	38.98534	135.645	1.108696	0.5836613	0.37	3	100	0	50	2.300609	0.3997275	-67.45419	
11:07:34	-6.795866	38.98534	135.421	1.132466	1.568008	0.26	3	100	0	50	2.818448	0.4803395	-67.44135	
11:07:35	-6.795865	38.98534	135.736	1.141401	2.272766	0.19	3	100	0	50	2.579403	0.7415956	-67.46948	
11:07:35	-6.795865	38.98534	136.15	1.149498	2.59679	0.34	3	100	0	50	2.457874	0.7424275	-67.48777	
11:07:35	-6.795864	38.98534	136.382	1.164331	3.229869	0.14	3	100	0	50	2.821447	0.9965053	-67.51602	
11:07:35	-6.795862	38.98534	136.515	1.176938	3.424126	0.63	3	100	0	50	2.984901	0.5229508	-67.55212	
11:07:35	-6.795861	38.98534	136.541	1.210521	4.633648	0.66	3	100	0	50	3.287347	0.3663724	-67.56995	
11:07:36	-6.79586	38.98534	136.747	1.242193	5.373632	0.06	3	100	0	50	3.186817	0.3575426	-67.56923	
11:07:36	-6.795861	38.98534	136.596	1.297189	7.997059	0.44	3	100	0	50	2.800757	0.296054	-67.5761	
11:07:36	-6.795862	38.98534	136.551	1.341672	10.00962	0.35	3	100	0	50	2.807719	0.03196816	-67.55975	
11:07:36	-6.795861	38.98534	136.67	1.406716	12.46295	0.37	3	100	0	50	3.016688	0.1592747	-67.54675	
11:07:36	-6.795862	38.98534	136.69	1.452541	13.60338	0.45	3	100	0	50	2.766186	0.1040957	-67.53259	
11:07:37	-6.795861	38.98534	136.995	1.511726	15.26809	0.45	3	100	0	50	2.749285	0.128694	-67.49933	
11:07:37	-6.795858	38.98534	137.585	1.56251	16.39004	0.22	3	100	0	50	3.346736	0.1808224	-67.49155	
11:07:37	-6.79586	38.98534	137.252	1.523792	12.45422	0.37	3	100	0	50	3.06532	0.2881703	-67.48743	
11:07:37	-6.795859	38.98534	137.552	1.485038	9.249727	0.19	3	100	0	50	2.93221	0.5263699	-67.47475	
11:07:37	-6.795859	38.98534	137.798	1.427769	5.281398	0.35	3	100	0	50	3.193371	1.18121	-67.5137	
11:07:38	-6.795859	38.98534	138.048	1.379862	2.408503	0.07	3	100	0	50	3.157137	1.105063	-67.58568	
11:07:38	-6.795858	38.98534	138.454	1.354952	0.8456823	0.08	3	100	0	50	3.591486	0.9159308	-67.64494	
11:07:38	-6.795857	38.98534	138.678	1.331496	-0.9311141	0.24	3	100	0	50	3.596688	0.8647969	-67.70211	
11:07:38	-6.795857	38.98534	138.592	1.273162	-4.281514	0.52	3	100	0	50	3.708806	0.7332605	-67.75325	
11:07:38	-6.795857	38.98534	138.498	1.220382	-6.834851	0.32	3	100	0	50	3.653385	0.6401092	-67.78676	
11:07:39	-6.795858	38.98534	138.395	1.199064	-7.619741	0.42	3	100	0	50	3.63272	1.290617	-67.85253	
11:07:39	-6.795857	38.98534	138.988	1.208189	-7.023426	0.17	3	100	0	50	3.417099	1.358297	-67.93668	
11:07:39	-6.795857	38.98534	139.159	1.250193	-4.045839	0.19	3	100	0	50	3.40025	1.00213	-68.00796	
11:07:39	-6.795857	38.98534	139.29	1.321007	-0.2997777	0.42	3	100	0	50	3.055559	1.057464	-68.05224	
11:07:39	-6.795857	38.98533	139.623	1.36335	1.548105	0.19	3	100	0	50	2.915601	0.8261256	-68.08958	
11:07:40	-6.795857	38.98533	139.925	1.366865	0.6829942	0.09	3	100	0	50	3.351122	0.7009894	-68.09732	
11:07:40	-6.795855	38.98533	140.316	1.33027	-1.339826	0.25	3	100	0	50	3.343839	1.014419	-68.12273	
11:07:40	-6.795855	38.98533	140.411	1.266581	-4.671069	0.37	3	100	0	50	3.170442	1.163535	-68.16613	
11:07:40	-6.795855	38.98533	140.465	1.199026	-7.349853	0.11	3	100	0	50	3.237501	1.238777	-68.21967	
11:07:40	-6.795855	38.98533	140.466	1.147705	-9.31505	0.09	3	100	0	50	3.266556	0.8787478	-68.26448	
11:07:41	-6.795854	38.98533	140.629	1.106429	-11.00195	0.31	3	100	0	50	3.099303	1.036632	-68.28617	
11:07:41	-6.795853	38.98533	140.838	1.067508	-11.87656	0.39	3	100	0	50	2.923119	1.280876	-68.32924	
11:07:41	-6.795854	38.98533	140.589	1.054336	-11.51093	0.24	3	100	0	50	2.836861	1.116871	-68.37094	
11:07:41	-6.795854	38.98533	140.381	1.063701	-10.53376	0.19	3	100	0	50	2.844316	0.8895333	-68.37447	
11:07:41	-6.795854	38.98533	140.456	1.071674	-8.966978	0.45	3	100	0	50	2.76486	1.071263	-68.38152	
11:07:42	-6.795854	38.98533	140.541	1.078516	-8.279676	0.14	3	100	0	50	2.872249	1.057116	-68.39609	
11:07:42	-6.795853	38.98533	140.495	1.056398	-9.124723	0.08	3	100	0	50	3.107051	0.7749428	-68.401	
11:07:42	-6.795854	38.98533	140.282	1.018589	-10.57374	0.34	3	100	0	50	2.842386	0.7023887	-68.40078	
