Date	Latitude(deg) 	Longitude(deg)	hamsl(m)	hafl(m)	climbrate(cm/s)	GroundSpeed(m/s)	Airspeed(m/s)	Mav_Link(%)	Rssi_Link(%)	Throttle	Roll(deg)	Pitch(deg)	Yaw(deg)
14:08:14	-6.707029	38.84196	48036.27	0	0	137.47	0	100	0	0	-7.781043	-26.1351	23.17565	
14:08:14	-6.707029	38.84196	48036.27	0.5722858	-1.575264	137.47	3	100	0	4	-7.762896	-26.12909	23.28315	
14:08:14	-6.707029	38.84196	48036.27	0.4384636	-11.23899	137.47	3	100	0	4	-7.749551	-26.12683	23.39948	
14:08:15	-6.707029	38.84196	48036.27	0.1314348	-28.63686	137.47	3	100	0	5	-7.736398	-26.11772	23.5218	
14:08:15	-6.707029	38.84196	48036.27	-0.2063134	-46.44412	137.47	3	100	0	4	-7.711446	-26.12766	23.63907	
14:08:15	-6.707029	38.84196	48036.27	-0.6266588	-66.33768	137.47	3	100	0	4	-7.70355	-26.14414	23.7643	
14:08:15	-6.707029	38.84196	48036.27	-0.7739798	-70.1293	137.47	3	100	0	4	-7.683833	-26.13583	23.88068	
14:08:15	-6.707029	38.84196	48036.27	-0.7230777	-63.00001	137.47	3	100	0	4	-7.674055	-26.14792	24.00064	
14:08:16	-6.707029	38.84196	48036.27	-0.574203	-51.28085	137.47	3	100	0	4	-7.65899	-26.13437	24.11925	
14:08:16	-6.707029	38.84196	48036.27	-0.3922766	-39.54539	137.47	3	100	0	4	-7.648948	-26.14491	24.2468	
14:08:16	-6.707029	38.84196	48036.27	-0.2271593	-29.50484	137.47	3	100	0	4	-7.643775	-26.1488	24.36689	
14:08:16	-6.707029	38.84196	48036.27	-0.09930055	-22.17484	137.47	3	100	0	4	-7.617951	-26.1382	24.47457	
14:08:16	-6.707029	38.84196	48036.27	-0.008658686	-17.79768	137.47	3	100	0	4	-7.609264	-26.13973	24.59242	
14:08:17	-6.707029	38.84196	48036.27	0.03219623	-16.13116	137.47	3	100	0	4	-7.588764	-26.12823	24.721	
14:08:17	-6.707029	38.84196	48036.27	0.07384877	-14.38862	137.47	3	100	0	4	-7.563545	-26.12788	24.83239	
14:08:17	-6.707029	38.84196	48036.27	0.1091991	-13.12958	137.47	3	100	0	4	-7.561446	-26.11863	24.95497	
14:08:17	-6.707029	38.84196	48036.27	0.1395567	-12.71936	137.47	3	100	0	4	-7.562277	-26.12576	25.07712	
14:08:17	-6.707029	38.84196	48036.27	0.1649722	-12.18245	137.47	3	100	0	4	-7.559149	-26.15852	25.20067	
14:08:18	-6.707029	38.84196	48036.27	0.186291	-12.22549	137.47	3	100	0	4	-7.542118	-26.16295	25.31491	
14:08:18	0	0	0	0.234889	-10.74094	0	3	100	0	4	-7.53929	-26.19313	25.431	
14:08:18	47.46363	-122.3077	0.02	0.2743384	-11.63478	0	3	100	0	4	-7.604605	-26.17542	25.72402	
14:08:18	47.46363	-122.3077	0.02	0.2686644	-31.33533	0	3	100	0	4	-7.6378	-25.76051	26.00982	
14:08:18	47.46363	-122.3077	0.02	0.1869941	-52.04752	0	3	100	0	4	-7.474448	-24.79246	26.22025	
14:08:19	47.46363	-122.3077	0.02	0.05367906	-71.20922	0	3	100	0	4	-7.216569	-23.63224	26.41934	
14:08:19	47.46363	-122.3077	0.02	-0.1163516	-90.56037	0	3	100	0	4	-6.972757	-22.6271	26.66798	
14:08:19	47.46363	-122.3077	0.02	-0.2719181	-104.9316	0	3	100	0	4	-6.73254	-21.65059	26.9473	
14:08:19	47.46363	-122.3077	0.02	-0.4255878	-116.4664	0	3	100	0	4	-6.503102	-20.68015	27.23809	
14:08:19	47.46363	-122.3077	0.02	-0.5547032	-124.2281	0	3	100	0	4	-6.321544	-19.72277	27.57612	
14:08:20	47.46363	-122.3077	0.02	-0.694466	-130.384	0	3	100	0	4	-6.131422	-18.81682	27.95052	
14:08:20	47.46363	-122.3077	0.02	-0.7974378	-133.361	0	3	100	0	4	-5.9474	-17.9836	28.3589	
14:08:20	47.46363	-122.3077	0.02	-0.8933603	-134.4488	0	3	100	0	4	-5.771898	-17.20161	28.78922	
14:08:20	47.46363	-122.3077	0.02	-0.9789526	-133.4311	0	3	100	0	4	-5.606884	-16.45548	29.25199	
14:08:20	47.46363	-122.3077	0.02	-1.038932	-130.7136	0	3	100	0	5	-5.454525	-15.73266	29.75476	
14:08:21	47.46363	-122.3077	0.02	-1.080838	-126.6025	0	3	100	0	4	-5.307308	-15.03751	30.28535	
14:08:21	47.46363	-122.3077	0.02	-1.106495	-121.292	0	3	100	0	5	-5.1673	-14.36833	30.86118	
14:08:21	47.46363	-122.3077	0.02	-1.116608	-114.98	0	3	100	0	4	-5.035408	-13.73709	31.46205	
14:08:21	47.46363	-122.3077	0.02	-1.112517	-107.9794	0	3	100	0	4	-4.885156	-13.13712	31.98812	
14:08:21	47.46363	-122.3077	0.02	-1.09541	-100.27	0	3	100	0	5	-4.755673	-12.55662	32.61387	
14:08:22	47.46363	-122.3077	0.02	-1.070473	-93.0901	0	3	100	0	4	-4.627026	-11.99204	33.26269	
14:08:22	47.46363	-122.3077	0.02	-1.033604	-84.9282	0	3	100	0	4	-4.46326	-11.44022	33.76857	
14:08:22	47.46363	-122.3077	0.02	-0.9829357	-75.74287	0	3	100	0	4	-4.272664	-10.89855	34.16022	
14:08:22	47.46363	-122.3077	0.02	-0.9353135	-68.25576	0	3	100	0	5	-4.063083	-10.36431	34.4684	
14:08:22	47.46363	-122.3077	0.02	-0.8711998	-59.23429	0	3	100	0	4	-3.840036	-9.835445	34.71574	
14:08:23	47.46363	-122.3077	0.02	-0.8084881	-51.20969	0	3	100	0	4	-3.607411	-9.310506	34.91892	
14:08:23	47.46363	-122.3077	0.02	-0.7954996	-49.62948	0	3	100	0	4	-3.367937	-8.788431	35.09015	
14:08:23	47.46363	-122.3077	0.02	-0.7954996	-49.62948	0	3	100	0	4	-3.12353	-8.268469	35.23845	
14:08:23	47.46363	-122.3077	0.02	-0.7954996	-49.62948	0	3	100	0	4	-2.875524	-7.750094	35.37045	
14:08:23	47.46363	-122.3077	0.02	-0.7954996	-49.62948	0	3	100	0	4	-2.624857	-7.232937	35.49106	
14:08:24	47.46363	-122.3077	0.02	-0.7881507	-48.58509	0	3	100	0	4	-2.401114	-6.612035	36.36502	
14:08:24	47.46363	-122.3077	0.02	-0.7206641	-39.30268	0	3	100	0	4	-2.213258	-6.186567	37.47583	
14:08:24	47.46363	-122.3077	0.02	-0.6486793	-31.27145	0	3	100	0	4	-2.079833	-5.878278	38.64032	
14:08:24	47.46363	-122.3077	0.02	-0.5821112	-23.90374	0	3	100	0	4	-1.988765	-5.471734	39.86797	
14:08:24	47.46363	-122.3077	0.02	-0.5082643	-16.40874	0	3	100	0	4	-1.892149	-5.024594	41.11487	
14:08:25	47.46363	-122.3077	0.02	-0.4343403	-9.46193	0	3	100	0	4	-1.795442	-4.60261	42.42054	
14:08:25	47.46363	-122.3077	0.02	-0.3549906	-2.545097	0	3	100	0	4	-1.699253	-4.234935	43.8028	
14:08:25	47.46363	-122.3077	0.02	-0.2850437	3.172183	0	3	100	0	4	-1.601659	-3.909022	45.21669	
14:08:25	47.46363	-122.3077	0.02	-0.2175466	8.279165	0	3	100	0	4	-1.50626	-3.608208	46.65693	
14:08:25	47.46363	-122.3077	0.02	-0.1544141	12.68012	0	3	100	0	4	-1.384734	-3.316243	47.80143	
14:08:26	47.46363	-122.3077	0.02	-0.09986309	16.219	0	3	100	0	4	-1.279786	-2.999169	49.34488	
14:08:26	47.46363	-122.3077	0.02	-0.03874543	19.88098	0	3	100	0	4	-1.177446	-2.715586	50.97446	
14:08:26	47.46363	-122.3077	0.02	0.005929166	22.33998	0	3	100	0	4	-1.078113	-2.466955	52.66547	
14:08:26	47.46363	-122.3077	0.02	0.05706043	24.97239	0	3	100	0	4	-0.979293	-2.225318	54.46106	
14:08:26	47.46363	-122.3077	0.02	0.09446689	26.71881	0	3	100	0	4	-0.8789193	-1.976425	56.2676	
14:08:27	47.46363	-122.3077	0.02	0.1350088	28.50411	0	3	100	0	4	-0.7709072	-1.731503	57.97084	
14:08:27	47.46363	-122.3077	0.02	0.1677745	29.74987	0	3	100	0	4	-0.659796	-1.502958	59.66936	
14:08:27	47.46363	-122.3077	0.02	0.1964393	30.602	0	3	100	0	4	-0.555666	-1.286322	61.64499	
14:08:27	47.46363	-122.3077	0.02	0.2209403	31.15705	0	3	100	0	4	-0.4492092	-1.081789	63.6919	
14:08:27	47.46363	-122.3077	0.02	0.2416808	31.32972	0	3	100	0	4	-0.3407604	-0.8884548	65.72232	
14:08:28	47.46363	-122.3077	0.02	0.258584	31.25513	0	3	100	0	4	-0.227189	-0.701677	67.72012	
14:08:28	47.46363	-122.3077	0.02	0.272027	31.01549	0	3	100	0	5	-0.1110608	-0.5332189	69.80424	
14:08:28	47.46363	-122.3077	0.02	0.2824561	30.71208	0	3	100	0	4	0.005191586	-0.3841559	72.01284	
14:08:28	47.46363	-122.3077	0.02	0.2897337	30.34297	0	3	100	0	4	0.1178005	-0.2514763	74.24267	
14:08:28	47.46363	-122.3077	0.02	0.2959098	29.68769	0	3	100	0	4	0.2304068	-0.1272628	76.53197	
14:08:29	47.46363	-122.3077	0.02	0.2991792	29.04179	0	3	100	0	4	0.344581	-0.02331523	78.82616	
14:08:29	47.46363	-122.3077	0.02	0.300443	28.31567	0	3	100	0	4	0.4686674	0.1071277	81.52084	
14:08:29	47.46363	-122.3077	0.02	0.3000998	27.46619	0	3	100	0	4	0.5982879	0.2424543	84.29727	
14:08:29	47.46363	-122.3077	0.02	0.2983747	26.67399	0	3	100	0	4	0.7257107	0.3635033	87.06454	
14:08:29	47.46363	-122.3077	0.02	0.2957289	25.87159	0	3	100	0	5	0.8524933	0.4726358	89.87997	
14:08:30	47.46363	-122.3077	0.02	0.2918643	25.11382	0	3	100	0	4	0.9784661	0.5752124	92.52877	
14:08:30	47.46363	-122.3077	0.02	0.2871964	24.19365	0	3	100	0	4	1.105256	0.6714875	95.04094	
14:08:30	47.46363	-122.3077	0.02	0.2810709	23.2481	0	3	100	0	4	1.234501	0.7483701	97.84733	
14:08:30	47.46363	-122.3077	0.02	0.2751383	22.55653	0	3	100	0	4	1.360714	0.8141796	100.6036	
14:08:30	47.46363	-122.3077	0.02	0.2689379	21.78606	0	3	100	0	4	1.481065	0.8686287	103.3922	
14:08:31	47.46363	-122.3077	0.02	0.2625737	21.09783	0	3	100	0	4	1.596988	0.9204565	106.0956	
14:08:31	47.46363	-122.3077	0.02	0.2559122	20.26827	0	3	100	0	3	1.710351	0.9550346	108.7757	
14:08:31	47.46363	-122.3077	0.02	0.2490571	19.55158	0	3	100	0	4	1.820567	0.9914488	111.4595	
14:08:31	47.46363	-122.3077	0.02	0.2429988	19.03892	0	3	100	0	4	1.927047	1.026408	114.0987	
14:08:31	47.46363	-122.3077	0.02	0.2357858	18.38408	0	3	100	0	4	2.029149	1.056705	116.7099	
14:08:32	47.46363	-122.3077	0.02	0.229349	17.81096	0	3	100	0	4	2.126791	1.082156	119.2746	
14:08:32	47.46363	-122.3077	0.02	0.2235144	17.19349	0	3	100	0	5	2.219717	1.104553	121.7313	
14:08:32	47.46363	-122.3077	0.02	0.216644	16.66396	0	3	100	0	4	2.307656	1.136324	123.8924	
14:08:32	47.46363	-122.3077	0.02	0.2111887	16.27343	0	3	100	0	4	2.396367	1.156965	126.2777	
14:08:32	47.46363	-122.3077	0.02	0.2050359	15.83592	0	3	100	0	4	2.479233	1.173867	128.6019	
14:08:33	47.46363	-122.3077	0.02	0.2002315	15.47406	0	3	100	0	4	2.558177	1.189968	130.8651	
14:08:33	47.46363	-122.3077	0.02	0.1950963	15.01224	0	3	100	0	4	2.631469	1.198513	133.0677	
14:08:33	47.46363	-122.3077	0.02	0.1894638	14.42647	0	3	100	0	4	2.701521	1.208744	135.2357	
14:08:33	47.46363	-122.3077	0.02	0.1848148	13.96397	0	3	100	0	4	2.770586	1.221944	137.3135	
14:08:33	47.46363	-122.3077	0.02	0.1792673	13.54459	0	3	100	0	4	2.833816	1.236304	139.3388	
14:08:34	47.46363	-122.3077	0.02	0.1745179	13.15439	0	3	100	0	4	2.891599	1.251611	141.299	
14:08:34	47.46363	-122.3077	0.02	0.1700373	12.90264	0	3	100	0	4	2.942458	1.245569	143.5147	
14:08:34	47.46363	-122.3077	0.02	0.166146	12.51142	0	3	100	0	5	2.985487	1.23983	145.6445	
14:08:34	47.46363	-122.3077	0.02	0.1618101	12.11744	0	3	100	0	5	3.027688	1.231616	147.8704	
14:08:34	47.46363	-122.3077	0.02	0.1573189	11.80377	0	3	100	0	4	3.064193	1.226881	149.9849	
14:08:35	47.46363	-122.3077	0.02	0.1536067	11.63313	0	3	100	0	4	3.097935	1.221154	152.0818	
14:08:35	47.46363	-122.3077	0.02	0.1504578	11.39577	0	3	100	0	4	3.128258	1.21881	154.1026	
14:08:35	47.46363	-122.3077	0.02	0.1469721	11.18473	0	3	100	0	4	3.155607	1.218103	156.0467	
14:08:35	47.46363	-122.3077	0.02	0.1442208	10.98885	0	3	100	0	4	3.17941	1.223257	157.877	
14:08:35	47.46363	-122.3077	0.02	0.1414712	10.86917	0	3	100	0	4	3.200561	1.235787	159.5904	
14:08:36	47.46363	-122.3077	0.02	0.1387676	10.74897	0	3	100	0	4	3.22159	1.24864	161.336	
14:08:36	47.46363	-122.3077	0.02	0.136573	10.64396	0	3	100	0	4	3.239676	1.262122	163.001	
14:08:36	47.46363	-122.3077	0.02	0.134615	10.54555	0	3	100	0	4	3.256567	1.274753	164.6123	
14:08:36	47.46363	-122.3077	0.02	0.1327303	10.31066	0	3	100	0	4	3.271896	1.290329	166.1682	
14:08:36	47.46363	-122.3077	0.02	0.130884	10.04907	0	3	100	0	4	3.285664	1.309083	167.6444	
14:08:37	47.46363	-122.3077	0.02	0.1284758	9.737017	0	3	100	0	5	3.297957	1.332397	169.073	
14:08:37	47.46363	-122.3077	0.02	0.1265532	9.662357	0	3	100	0	5	3.309025	1.356195	170.4494	
14:08:37	47.46363	-122.3077	0.02	0.1243036	9.397985	0	3	100	0	4	3.319588	1.379703	171.7859	
14:08:37	47.46363	-122.3077	0.02	0.1223042	9.324574	0	3	100	0	5	3.328066	1.404931	173.0834	
14:08:37	47.46363	-122.3077	0.02	0.1205593	9.254924	0	3	100	0	4	3.336668	1.431263	174.3125	
14:08:38	47.46363	-122.3077	0.02	0.1191588	9.193591	0	3	100	0	5	3.343504	1.459885	175.498	
14:08:38	47.46363	-122.3077	0.02	0.1173972	8.903436	0	3	100	0	4	3.34896	1.489788	176.6368	
14:08:38	47.46363	-122.3077	0.02	0.1158356	8.729766	0	3	100	0	4	3.3545	1.520204	177.7278	
14:08:38	47.46363	-122.3077	0.02	0.1140163	8.586704	0	3	100	0	4	3.35943	1.550715	178.783	
14:08:38	47.46363	-122.3077	0.02	0.1123493	8.469106	0	3	100	0	4	3.362681	1.584301	179.803	
14:08:39	47.46363	-122.3077	0.02	0.1108113	8.295651	0	3	100	0	5	3.359459	1.617968	-179.2204	
14:08:39	47.46363	-122.3077	0.02	0.1092834	8.070352	0	3	100	0	4	3.348118	1.650941	-178.2964	
14:08:39	47.46363	-122.3077	0.02	0.1069838	7.393749	0	3	100	0	4	3.313256	1.672167	-177.3036	
14:08:39	47.46363	-122.3077	0.02	0.1047254	7.471618	0	3	100	0	4	3.286577	1.692581	-176.3406	
14:08:39	47.46363	-122.3077	0.02	0.1028605	7.574438	0	3	100	0	4	3.2553	1.713331	-175.3904	
14:08:40	47.46363	-122.3077	0.02	0.1016733	7.573843	0	3	100	0	4	3.22384	1.73026	-174.377	
14:08:40	47.46363	-122.3077	0.02	0.100488	7.582837	0	3	100	0	4	3.194288	1.744704	-173.3098	
14:08:40	47.46363	-122.3077	0.02	0.09964363	7.597657	0	3	100	0	5	3.166203	1.757475	-172.2027	
14:08:40	47.46363	-122.3077	0.02	0.09898293	7.614781	0	3	100	0	4	3.139255	1.769162	-171.0663	
14:08:40	47.46363	-122.3077	0.02	0.09847741	7.632657	0	3	100	0	4	3.1132	1.780192	-169.9083	
14:08:41	47.46363	-122.3077	0.02	0.09823604	7.643479	0	3	100	0	4	3.08786	1.790877	-168.7343	
14:08:41	47.46363	-122.3077	0.02	0.09823604	7.643479	0	3	100	0	4	3.063106	1.801441	-167.5485	
14:08:41	47.46363	-122.3077	0.02	0.09823604	7.643479	0	3	100	0	4	3.038845	1.81205	-166.3541	
14:08:41	47.46363	-122.3077	0.02	0.09823604	7.643479	0	3	100	0	4	3.015011	1.822822	-165.1533	
14:08:41	47.46363	-122.3077	0.02	0.09823604	7.643479	0	3	100	0	4	2.991439	1.833898	-163.9417	
14:08:42	47.46363	-122.3077	0.02	0.09823604	7.643479	0	3	100	0	4	2.968215	1.845286	-162.7266	
14:08:42	47.46363	-122.3077	0.02	0.09823604	7.643479	0	3	100	0	4	2.945434	1.85697	-161.515	
14:08:42	47.46363	-122.3077	0.02	0.09823604	7.643479	0	3	100	0	5	2.922855	1.869096	-160.2955	
14:08:42	47.46363	-122.3077	0.02	0.09823604	7.643479	0	3	100	0	4	2.900585	1.881627	-159.0745	
14:08:42	47.46363	-122.3077	0.02	0.09823604	7.643479	0	3	100	0	4	2.878728	1.894512	-157.8586	
14:08:43	47.46363	-122.3077	0.02	0.09823604	7.643479	0	3	100	0	4	2.857175	1.90782	-156.6419	
14:08:43	47.46363	-122.3077	0.02	0.09823604	7.643479	0	3	100	0	4	2.83673	1.921582	-155.4186	
14:08:43	47.46363	-122.3077	0.02	0.09811627	7.599786	0	3	100	0	4	2.77996	2.032004	-155.1932	
14:08:43	47.46363	-122.3077	0.02	0.09758493	7.449527	0	3	100	0	4	2.731676	2.132851	-154.7443	
14:08:43	47.46363	-122.3077	0.02	0.09694198	7.306937	0	3	100	0	4	2.692069	2.223962	-154.0954	
14:08:44	47.46363	-122.3077	0.02	0.09606709	7.183774	0	3	100	0	4	2.651427	2.305896	-153.8312	
14:08:44	47.46363	-122.3077	0.02	0.09524505	7.214797	0	3	100	0	4	2.623643	2.35728	-153.6931	
14:08:44	47.46363	-122.3077	0.02	0.09474839	7.233889	0	3	100	0	4	2.582855	2.380285	-153.5954	
14:08:44	47.46363	-122.3077	0.02	0.09428685	7.253603	0	3	100	0	4	2.530015	2.411399	-153.5081	
14:08:44	47.46363	-122.3077	0.02	0.09388102	7.150808	0	3	100	0	4	2.479962	2.443933	-153.4281	
14:08:45	47.46363	-122.3077	0.02	0.09342411	7.169612	0	3	100	0	4	2.434056	2.47333	-153.2961	
14:08:45	47.46363	-122.3077	0.02	0.09314777	7.18279	0	3	100	0	4	2.389766	2.500209	-153.1496	
14:08:45	47.46363	-122.3077	0.02	0.09289731	7.195821	0	3	100	0	4	2.346022	2.524882	-153.0254	
14:08:45	47.46363	-122.3077	0.02	0.09272912	7.200583	0	3	100	0	4	2.305946	2.54639	-152.8828	
14:08:45	47.46363	-122.3077	0.02	0.09260563	7.180175	0	3	100	0	4	2.263749	2.566355	-152.8	
14:08:46	47.46363	-122.3077	0.02	0.09231051	7.097659	0	3	100	0	4	2.224592	2.586161	-152.7107	
14:08:46	47.46363	-122.3077	0.02	0.09205565	7.088612	0	3	100	0	5	2.188266	2.612596	-152.6098	
14:08:46	47.46363	-122.3077	0.02	0.09182662	7.074083	0	3	100	0	4	2.153991	2.636518	-152.52	
14:08:46	47.46363	-122.3077	0.02	0.09153813	6.936746	0	3	100	0	4	2.123886	2.656577	-152.3603	
14:08:46	47.46363	-122.3077	0.02	0.09107248	6.856542	0	3	100	0	4	2.089738	2.680161	-152.2978	
14:08:47	47.46363	-122.3077	0.02	0.09055662	6.807902	0	3	100	0	4	2.058178	2.700341	-152.2296	
14:08:47	47.46363	-122.3077	0.02	0.09002551	6.772126	0	3	100	0	5	2.029096	2.720284	-152.1459	
14:08:47	47.46363	-122.3077	0.02	0.08945757	6.561265	0	3	100	0	4	1.998511	2.738549	-152.0818	
14:08:47	47.46363	-122.3077	0.02	0.08863831	6.518962	0	3	100	0	5	1.977255	2.74864	-151.84	
14:08:47	47.46363	-122.3077	0.02	0.08796706	6.481375	0	3	100	0	4	1.950376	2.767221	-151.7645	
14:08:48	47.46363	-122.3077	0.02	0.08740188	6.446327	0	3	100	0	4	1.925375	2.782563	-151.6814	
14:08:48	47.46363	-122.3077	0.02	0.08661021	6.223664	0	3	100	0	4	1.90217	2.799462	-151.594	
14:08:48	47.46363	-122.3077	0.02	0.08570682	6.148269	0	3	100	0	4	1.879839	2.814325	-151.5141	
14:08:48	47.46363	-122.3077	0.02	0.08496373	6.074185	0	3	100	0	4	1.858625	2.826126	-151.4547	
14:08:48	47.46363	-122.3077	0.02	0.08407883	6.035862	0	3	100	0	4	1.836605	2.839875	-151.3661	
14:08:49	47.46363	-122.3077	0.02	0.08335789	6.000881	0	3	100	0	4	1.826819	2.846515	-151.0277	
14:08:49	47.46363	-122.3077	0.02	0.08276745	5.969855	0	3	100	0	4	1.813885	2.855522	-150.7728	
14:08:49	47.46363	-122.3077	0.02	0.08213466	5.855937	0	3	100	0	4	1.778235	2.866208	-150.8492	
14:08:49	47.46363	-122.3077	0.02	0.08137351	5.817464	0	3	100	0	4	1.72537	2.865183	-151.0741	
14:08:49	47.46363	-122.3077	0.02	0.08075562	5.787052	0	3	100	0	4	1.674358	2.862562	-151.2879	
14:08:50	47.46363	-122.3077	0.02	0.08024877	5.763575	0	3	100	0	4	1.625278	2.858152	-151.4529	
14:08:50	47.46363	-122.3077	0.02	0.07953779	5.58245	0	3	100	0	4	1.578488	2.856802	-151.6615	
14:08:50	47.46363	-122.3077	0.02	0.07883697	5.566057	0	3	100	0	4	1.534807	2.854656	-151.8543	
14:08:50	47.46363	-122.3077	0.02	0.07824319	5.554893	0	3	100	0	4	1.497804	2.849136	-151.9691	
14:08:50	47.46363	-122.3077	0.02	0.07768425	5.4463	0	3	100	0	4	1.458741	2.845468	-152.1576	
14:08:51	47.46363	-122.3077	0.02	0.07690899	5.248322	0	3	100	0	5	1.420287	2.841544	-152.3426	
14:08:51	47.46363	-122.3077	0.02	0.07598156	5.130909	0	3	100	0	4	1.384044	2.83768	-152.5291	
14:08:51	47.46363	-122.3077	0.02	0.07493012	4.942287	0	3	100	0	4	1.351836	2.833986	-152.6868	
14:08:51	47.46363	-122.3077	0.02	0.07386527	4.921656	0	3	100	0	4	1.3195	2.830593	-152.8589	
14:08:51	47.46363	-122.3077	0.02	0.07294914	4.825991	0	3	100	0	4	1.28916	2.827238	-153.0209	
14:08:52	47.46363	-122.3077	0.02	0.07202058	4.675155	0	3	100	0	4	1.260817	2.823413	-153.163	
14:08:52	47.46363	-122.3077	0.02	0.07101893	4.675343	0	3	100	0	4	1.234305	2.82065	-153.2948	
14:08:52	47.46363	-122.3077	0.02	0.07011268	4.646097	0	3	100	0	4	1.210999	2.816115	-153.3836	
14:08:52	47.46363	-122.3077	0.02	0.06948775	4.694547	0	3	100	0	4	1.189766	2.811169	-153.4462	
14:08:52	47.46363	-122.3077	0.02	0.06893453	4.628222	0	3	100	0	4	1.165772	2.808836	-153.5865	
14:08:53	47.46363	-122.3077	0.02	0.0685287	4.676227	0	3	100	0	4	1.144304	2.804643	-153.7004	
14:08:53	47.46363	-122.3077	0.02	0.06814728	4.676232	0	3	100	0	4	1.12428	2.800008	-153.7969	
14:08:53	47.46363	-122.3077	0.02	0.06795376	4.723484	0	3	100	0	4	1.104612	2.7956	-153.9108	
14:08:53	47.46363	-122.3077	0.02	0.0678695	4.773444	0	3	100	0	4	1.086575	2.792351	-154.0108	
14:08:53	47.46363	-122.3077	0.02	0.0678951	4.823403	0	3	100	0	5	1.069917	2.789207	-154.0966	
14:08:54	47.46363	-122.3077	0.02	0.06787435	4.72443	0	3	100	0	4	1.05446	2.788237	-154.1794	
14:08:54	47.46363	-122.3077	0.02	0.06779238	4.759126	0	3	100	0	4	1.040471	2.790212	-154.2498	
14:08:54	47.46363	-122.3077	0.02	0.0677846	4.78882	0	3	100	0	4	1.027573	2.785946	-154.3048	
14:08:54	47.46363	-122.3077	0.02	0.06779519	4.733928	0	3	100	0	4	0.9962792	2.76778	-154.5883	
14:08:55	47.46363	-122.3077	0.02	0.06773122	4.755775	0	3	100	0	5	0.9568564	2.742374	-154.948	
14:08:55	47.46363	-122.3077	0.02	0.06772012	4.777988	0	3	100	0	5	0.9227728	2.715908	-155.2416	
14:08:55	47.46363	-122.3077	0.02	0.06775197	4.799747	0	3	100	0	4	0.8933657	2.688579	-155.4507	
14:08:55	47.46363	-122.3077	0.02	0.06781659	4.820111	0	3	100	0	4	0.8613919	2.663481	-155.7517	
14:08:55	47.46363	-122.3077	0.02	0.06789692	4.836864	0	3	100	0	4	0.8316904	2.641321	-156.0448	
14:08:55	47.46363	-122.3077	0.02	0.06801025	4.853955	0	3	100	0	4	0.8050646	2.620737	-156.3139	
14:08:56	47.46363	-122.3077	0.02	0.06811939	4.866572	0	3	100	0	4	0.7792105	2.601521	-156.5853	
14:08:56	47.46363	-122.3077	0.02	0.06823226	4.876671	0	3	100	0	4	0.7573931	2.579325	-156.7953	
14:08:56	47.46363	-122.3077	0.02	0.06833722	4.883334	0	3	100	0	4	0.7368343	2.558493	-156.9869	
14:08:56	47.46363	-122.3077	0.02	0.06842317	4.886047	0	3	100	0	4	0.7153046	2.538791	-157.2292	
14:08:57	47.46363	-122.3077	0.02	0.06841589	4.77045	0	3	100	0	4	0.6958705	2.520355	-157.4495	
14:08:57	47.46363	-122.3077	0.02	0.06827015	4.767516	0	3	100	0	4	0.6781864	2.502675	-157.6712	
14:08:57	47.46363	-122.3077	0.02	0.06815457	4.763265	0	3	100	0	4	0.6614024	2.486305	-157.8854	
14:08:57	47.46363	-122.3077	0.02	0.0680304	4.678019	0	3	100	0	4	0.6468512	2.476184	-158.0854	
14:08:57	47.46363	-122.3077	0.02	0.06773145	4.633718	0	3	100	0	4	0.639812	2.478196	-158.1657	
14:08:58	47.46363	-122.3077	0.02	0.06743894	4.623129	0	3	100	0	4	0.6274514	2.46243	-158.286	
14:08:58	47.46363	-122.3077	0.02	0.06720766	4.612193	0	3	100	0	4	0.6140412	2.445485	-158.4609	
14:08:58	47.46363	-122.3077	0.02	0.06699658	4.600088	0	3	100	0	4	0.6011586	2.427918	-158.6358	
14:08:58	47.46363	-122.3077	0.02	0.06666487	4.411784	0	3	100	0	4	0.5933062	2.409825	-158.7009	
14:08:58	47.46363	-122.3077	0.02	0.06600604	4.264163	0	3	100	0	4	0.5835984	2.394408	-158.8372	
14:08:59	47.46363	-122.3077	0.02	0.06532508	4.258326	0	3	100	0	4	0.5737275	2.379747	-158.9921	
14:08:59	47.46363	-122.3077	0.02	0.06485801	4.256869	0	3	100	0	4	0.5647459	2.36722	-159.1378	
14:08:59	47.46363	-122.3077	0.02	0.06434249	4.178818	0	3	100	0	4	0.5564152	2.3545	-159.2746	
14:08:59	47.46363	-122.3077	0.02	0.06391503	4.15917	0	3	100	0	4	0.5484087	2.342377	-159.3955	
14:08:59	47.46363	-122.3077	0.02	0.06325626	4.025827	0	3	100	0	4	0.5361295	2.32513	-159.5936	
14:09:00	47.46363	-122.3077	0.02	0.06270679	3.974195	0	3	100	0	4	0.5143276	2.292672	-159.9313	
14:09:00	47.46363	-122.3077	0.02	0.06213181	3.989316	0	3	100	0	5	0.4939058	2.261723	-160.2526	
14:09:00	47.46363	-122.3077	0.02	0.06176848	4.006015	0	3	100	0	4	0.4751257	2.228596	-160.5505	
14:09:00	47.46363	-122.3077	0.02	0.06147346	4.027327	0	3	100	0	4	0.4574885	2.195126	-160.8188	
14:09:00	47.46363	-122.3077	0.02	0.06109207	3.895635	0	3	100	0	4	0.4399709	2.165712	-161.0996	
14:09:01	47.46363	-122.3077	0.02	0.06069518	3.92738	0	3	100	0	4	0.4264411	2.133464	-161.3655	
14:09:01	47.46363	-122.3077	0.02	0.06046144	3.959046	0	3	100	0	4	0.4126945	2.106715	-161.6252	
14:09:01	47.46363	-122.3077	0.02	0.06024606	3.909313	0	3	100	0	4	0.4006049	2.081569	-161.8696	
14:09:01	47.46363	-122.3077	0.02	0.0600655	3.941725	0	3	100	0	4	0.3898924	2.053169	-162.0986	
14:09:01	47.46363	-122.3077	0.02	0.05996522	3.939526	0	3	100	0	4	0.3800203	2.027393	-162.3171	
14:09:02	47.46363	-122.3077	0.02	0.05977564	3.872172	0	3	100	0	4	0.3745997	2.002978	-162.4108	
14:09:02	47.46363	-122.3077	0.02	0.05960285	3.909305	0	3	100	0	4	0.365499	1.981514	-162.6234	
14:09:02	47.46363	-122.3077	0.02	0.05954264	3.939825	0	3	100	0	4	0.3572688	1.959383	-162.8296	
14:09:02	47.46363	-122.3077	0.02	0.05955007	3.974231	0	3	100	0	4	0.3521986	1.937569	-162.9906	
14:09:02	47.46363	-122.3077	0.02	0.05960285	3.998837	0	3	100	0	4	0.346475	1.918531	-163.1459	
14:09:03	47.46363	-122.3077	0.02	0.05971052	4.026772	0	3	100	0	4	0.3406429	1.89942	-163.3161	
14:09:03	47.46363	-122.3077	0.02	0.0598243	4.047078	0	3	100	0	4	0.3347799	1.883904	-163.4915	
14:09:03	47.46363	-122.3077	0.02	0.05986845	3.986445	0	3	100	0	5	0.3301165	1.866506	-163.6431	
14:09:03	47.46363	-122.3077	0.02	0.0598786	3.998466	0	3	100	0	4	0.3254826	1.854075	-163.7962	
14:09:03	47.46363	-122.3077	0.02	0.05991156	4.008868	0	3	100	0	4	0.3217259	1.837805	-163.9314	
14:09:04	47.46363	-122.3077	0.02	0.0599124	3.992937	0	3	100	0	5	0.318206	1.822911	-164.0729	
14:09:04	47.46363	-122.3077	0.02	0.05991838	3.995443	0	3	100	0	4	0.3143592	1.810195	-164.2129	
14:09:04	47.46363	-122.3077	0.02	0.05992448	3.994108	0	3	100	0	4	0.3100741	1.796466	-164.3538	
14:09:04	47.46363	-122.3077	0.02	0.05992388	3.989706	0	3	100	0	4	0.3088767	1.788208	-164.45	
14:09:04	47.46363	-122.3077	0.02	0.05991127	3.981007	0	3	100	0	4	0.3067062	1.774046	-164.53	
14:09:05	47.46363	-122.3077	0.02	0.05987775	3.968017	0	3	100	0	5	0.297158	1.750889	-164.7907	
14:09:05	47.46363	-122.3077	0.02	0.05983401	3.955511	0	3	100	0	4	0.2870952	1.719971	-165.0563	
14:09:05	47.46363	-122.3077	0.02	0.05976816	3.940027	0	3	100	0	4	0.2784251	1.694106	-165.3027	
14:09:05	47.46363	-122.3077	0.02	0.05968272	3.923311	0	3	100	0	4	0.2700759	1.668995	-165.5362	
14:09:05	47.46363	-122.3077	0.02	0.05958428	3.905921	0	3	100	0	4	0.2636179	1.64204	-165.7663	
14:09:06	47.46363	-122.3077	0.02	0.05946887	3.886675	0	3	100	0	5	0.2559475	1.616362	-165.989	
14:09:06	47.46363	-122.3077	0.02	0.05933797	3.866089	0	3	100	0	5	0.2504163	1.594006	-166.1988	
14:09:06	47.46363	-122.3077	0.02	0.05919459	3.845156	0	3	100	0	5	0.2449778	1.56948	-166.3884	
14:09:06	47.46363	-122.3077	0.02	0.05902131	3.82079	0	3	100	0	4	0.2407455	1.548472	-166.553	
14:09:06	47.46363	-122.3077	0.02	0.05884974	3.7978	0	3	100	0	4	0.2363609	1.529066	-166.7402	
14:09:07	47.46363	-122.3077	0.02	0.05866602	3.773549	0	3	100	0	4	0.2318594	1.508838	-166.9227	
14:09:07	47.46363	-122.3077	0.02	0.05848578	3.728542	0	3	100	0	4	0.2277369	1.491449	-167.0909	
14:09:07	47.46363	-122.3077	0.02	0.0581095	3.641621	0	3	100	0	4	0.2241275	1.472276	-167.2608	
14:09:07	47.46363	-122.3077	0.02	0.05780929	3.619823	0	3	100	0	4	0.2206979	1.450391	-167.4285	
14:09:08	47.46363	-122.3077	0.02	0.05744124	3.593399	0	3	100	0	4	0.2191472	1.423726	-167.6169	
14:09:08	47.46363	-122.3077	0.02	0.05691431	3.55656	0	3	100	0	4	0.2171135	1.403477	-167.814	
14:09:08	47.46363	-122.3077	0.02	0.0566282	3.536436	0	3	100	0	3	0.2150771	1.389211	-167.9454	
14:09:08	47.46363	-122.3077	0.02	0.0563547	3.515347	0	3	100	0	5	0.2140493	1.37521	-168.0652	
14:09:08	47.46363	-122.3077	0.02	0.05611074	3.494956	0	3	100	0	4	0.2121349	1.361007	-168.1943	
14:09:09	47.46363	-122.3077	0.02	0.05587424	3.473278	0	3	100	0	4	0.2109135	1.345465	-168.3119	
14:09:09	47.46363	-122.3077	0.02	0.05566277	3.452673	0	3	100	0	4	0.2098407	1.330717	-168.4274	
14:09:09	47.46363	-122.3077	0.02	0.05543001	3.429337	0	3	100	0	4	0.2091877	1.321861	-168.5369	
14:09:09	47.46363	-122.3077	0.02	0.05519734	3.405167	0	3	100	0	4	0.2086743	1.312057	-168.6396	
14:09:09	47.46363	-122.3077	0.02	0.05493893	3.377336	0	3	100	0	4	0.2085904	1.298169	-168.7431	
14:09:10	47.46363	-122.3077	0.02	0.05471937	3.353059	0	3	100	0	4	0.20497	1.27611	-168.9346	
14:09:10	47.46363	-122.3077	0.02	0.0544545	3.323673	0	3	100	0	4	0.2001955	1.251916	-169.1152	
14:09:10	47.46363	-122.3077	0.02	0.05422919	3.299055	0	3	100	0	4	0.1958866	1.228029	-169.2939	
14:09:10	47.46363	-122.3077	0.02	0.05394724	3.269443	0	3	100	0	4	0.1918957	1.204461	-169.469	
14:09:10	47.46363	-122.3077	0.02	0.05369293	3.243072	0	3	100	0	5	0.1889123	1.183747	-169.6367	
14:09:11	47.46363	-122.3077	0.02	0.0534362	3.21609	0	3	100	0	4	0.1863424	1.165059	-169.8005	
14:09:11	47.46363	-122.3077	0.02	0.05313994	3.107369	0	3	100	0	5	0.1838402	1.146847	-169.9559	
14:09:11	47.46363	-122.3077	0.02	0.0527041	3.001438	0	3	100	0	4	0.1823482	1.128589	-170.1093	
14:09:11	47.46363	-122.3077	0.02	0.05213088	2.861051	0	3	100	0	5	0.180156	1.11312	-170.2519	
14:09:11	47.46363	-122.3077	0.02	0.05125366	2.721263	0	3	100	0	4	0.1778446	1.097846	-170.3866	
14:09:12	47.46363	-122.3077	0.02	0.05042508	2.670381	0	3	100	0	4	0.1763848	1.085453	-170.5124	
14:09:12	47.46363	-122.3077	0.02	0.04964204	2.487137	0	3	100	0	4	0.1757762	1.072076	-170.6274	
14:09:12	47.46363	-122.3077	0.02	0.04875684	2.487121	0	3	100	0	4	0.1752458	1.060009	-170.7482	
14:09:12	47.46363	-122.3077	0.02	0.04804161	2.473404	0	3	100	0	4	0.1741169	1.04368	-170.8584	
14:09:12	47.46363	-122.3077	0.02	0.04730591	2.387989	0	3	100	0	4	0.1730136	1.028458	-170.9709	
14:09:13	47.46363	-122.3077	0.02	0.04668825	2.405115	0	3	100	0	5	0.1718237	1.015342	-171.0744	
14:09:13	47.46363	-122.3077	0.02	0.04621172	2.386786	0	3	100	0	4	0.1714028	0.9995762	-171.1744	
14:09:13	47.46363	-122.3077	0.02	0.04566438	2.355245	0	3	100	0	4	0.1708427	0.9875624	-171.2747	
14:09:13	47.46363	-122.3077	0.02	0.0452969	2.381893	0	3	100	0	4	0.1703951	0.9767085	-171.3665	
14:09:13	47.46363	-122.3077	0.02	0.04507108	2.406102	0	3	100	0	4	0.1710588	0.9661836	-171.4595	
14:09:14	47.46363	-122.3077	0.02	0.04490948	2.432939	0	3	100	0	4	0.1645929	0.9551426	-171.538	
14:09:14	47.46363	-122.3077	0.02	0.04482248	2.4605	0	3	100	0	4	0.1668407	0.9419459	-171.6185	
14:09:14	47.46363	-122.3077	0.02	0.04460606	2.481776	0	3	100	0	4	0.1673528	0.9355675	-171.7015	
14:09:14	47.46363	-122.3077	0.02	0.04498642	2.65703	0	3	100	0	4	0.164428	0.9207681	-171.7768	
14:09:14	47.46363	-122.3077	0.02	0.04517282	2.84197	0	3	100	0	4	0.1645755	0.9117016	-171.8481	
14:09:15	47.46363	-122.3077	0.02	0.04615111	3.163567	0	3	100	0	4	0.2626563	0.8773693	-172.0104	
14:09:15	47.46363	-122.3077	0.02	0.04747882	3.530943	0	3	100	0	4	0.4305402	0.7984374	-172.3548	
14:09:15	47.46363	-122.3077	0.02	0.04876786	3.54423	0.05	3	100	0	99	0.423806	0.7643644	-172.8206	
14:09:15	47.46363	-122.3077	0.02	0.04956761	3.416174	0.05	3	100	0	100	0.4099167	0.7482946	-173.3111	
14:09:15	47.46363	-122.3077	0.02	0.05131878	4.360682	0.14	3	100	0	100	0.3784851	0.8558343	-173.8746	
14:09:16	47.46363	-122.3077	0.02	0.05452698	4.996933	0.14	3	100	0	100	0.3596199	1.127114	-174.5527	
14:09:16	47.46363	-122.3077	0.02	0.05679569	4.41987	0.25	3	100	0	100	0.333182	1.530563	-175.423	
14:09:16	47.46363	-122.3077	0.02	0.05913685	5.919311	0.59	3	100	0	100	0.3255446	2.113787	-176.4824	
14:09:16	47.46363	-122.3077	0.02	0.06394082	6.86559	1.21	3	100	0	100	0.353543	2.781401	-177.7419	
14:09:16	47.46363	-122.3077	0.02	0.06960128	7.941253	1.21	3	100	0	100	0.4931638	3.479914	-179.2487	
14:09:17	47.46362	-122.3077	0.02	0.07615939	9.97666	3.08	3	100	0	100	0.5911252	3.433616	179.3372	
14:09:17	47.4636	-122.3077	0.023	0.08753055	13.66582	6.27	3.084688	100	0	100	0.6147205	2.933655	178.2059	
14:09:17	47.46359	-122.3077	0.023	0.1062285	17.58724	7.81	6.279697	100	0	100	0.5645523	2.728333	177.3174	
14:09:17	47.46359	-122.3077	0.023	0.1249333	18.95994	7.81	7.814346	100	0	100	0.4124081	3.355245	176.1942	
14:09:17	47.46359	-122.3077	0.023	0.1405496	20.12787	7.81	7.814346	100	0	100	0.2997721	4.05625	174.9928	
14:09:18	47.46359	-122.3077	0.023	0.1599559	22.83339	7.81	7.814346	100	0	100	0.17448	4.754637	173.8169	
14:09:18	47.46353	-122.3077	0.032	0.1780368	26.15299	11.87	7.814346	100	0	100	-0.079343	5.350605	172.8805	
14:09:18	47.4635	-122.3077	0.042	0.2075449	33.95244	12.91	11.87189	100	0	100	-0.3650362	5.210279	172.6382	
14:09:18	47.46349	-122.3077	0.052	0.2495449	41.80175	13.68	12.91029	100	0	100	-0.04649652	5.121296	173.0065	
14:09:18	47.46346	-122.3077	0.073	0.2927897	48.16075	14.46	13.68952	100	0	100	0.906311	7.325392	173.2679	
14:09:19	47.46346	-122.3077	0.073	0.3774424	94.98431	14.46	14.46078	100	0	100	1.907203	10.32449	173.3516	
14:09:19	47.46346	-122.3077	0.073	0.57626	174.2035	14.46	14.46078	100	0	100	2.773085	13.13367	173.4865	
14:09:19	47.4634	-122.3077	0.202	0.8992542	261.4043	16.25	14.46078	100	0	100	3.479674	14.27192	174.0077	
14:09:19	47.4634	-122.3077	0.202	1.267843	301.3146	16.25	16.25263	100	0	100	4.134008	14.40088	174.7055	
14:09:19	47.46333	-122.3077	1.104	1.701666	336.078	17.31	16.25263	100	0	100	4.768948	13.89624	175.3701	
14:09:20	47.46329	-122.3077	1.905	2.232345	336.4205	17.92	17.31707	100	0	100	5.22209	12.84556	175.8694	
14:09:20	47.46329	-122.3077	1.905	2.70128	320.4473	17.92	17.92519	100	0	100	5.382114	11.65457	176.2593	
14:09:20	47.46325	-122.3077	2.606	3.120291	293.9619	18.51	17.92519	100	0	100	5.333484	11.12488	176.7513	
14:09:20	47.46317	-122.3077	3.984	3.561528	275.2077	19.83	18.51549	100	0	100	5.136858	11.03423	177.3277	
14:09:20	47.46313	-122.3076	4.508	4.082197	279.2727	20.31	19.83688	100	0	100	4.894424	10.87288	177.9176	
14:09:21	47.46309	-122.3076	5.078	4.584845	292.9696	20.78	20.31985	100	0	100	4.516265	11.174	178.4457	
14:09:21	47.46309	-122.3076	5.078	5.209758	311.783	20.78	20.78075	100	0	100	4.127105	11.52849	178.9072	
14:09:21	47.46309	-122.3076	5.078	5.790517	329.8561	20.78	20.78075	100	0	100	3.770869	11.84869	179.357	
14:09:21	47.46301	-122.3076	6.319	6.307619	343.4145	21.57	20.78075	100	0	100	3.377328	11.99863	179.7754	
14:09:21	47.46298	-122.3076	6.898	6.986906	355.6909	21.87	21.57866	100	0	100	2.808755	11.98683	-179.8732	
14:09:22	47.46291	-122.3076	8.025	7.599285	359.7581	22.43	21.8781	100	0	100	2.103971	11.83303	-179.5688	
14:09:22	47.46287	-122.3076	8.711	8.132636	357.7611	22.75	22.4332	100	0	100	1.513009	11.46549	-179.2766	
14:09:22	47.46287	-122.3076	8.711	8.771108	356.2396	22.75	22.7566	100	0	100	0.7215148	11.34216	-179.0901	
14:09:22	47.46285	-122.3076	9.105	9.469022	352.1615	22.94	22.7566	100	0	100	-0.203205	11.58888	-178.9518	
14:09:22	47.46278	-122.3076	10.315	9.993668	347.8181	23.49	22.94358	100	0	100	-0.9331194	11.70255	-178.8282	
14:09:23	47.46278	-122.3076	10.315	10.57795	344.1939	23.49	23.49686	100	0	100	-1.380663	11.24534	-178.7697	
14:09:23	47.46268	-122.3076	12.028	11.1605	337.8093	24.17	23.49686	100	0	100	-1.781988	10.84171	-178.7231	
14:09:23	47.46263	-122.3076	12.795	11.81841	339.3075	24.46	24.17291	100	0	100	-2.204867	10.57327	-178.7187	
14:09:23	47.46263	-122.3076	12.795	12.61439	341.8829	24.46	24.46212	100	0	100	-2.780622	10.44075	-178.7607	
14:09:23	47.46259	-122.3076	13.426	13.27583	340.4365	24.68	24.46212	100	0	100	-3.27601	10.36573	-178.8044	
14:09:24	47.4625	-122.3076	14.984	13.94439	338.7603	25.2	24.68201	100	0	100	-3.676876	10.38323	-178.8797	
14:09:24	47.46243	-122.3076	15.968	14.62883	340.8907	25.5	25.20302	100	0	100	-3.889809	10.17008	-178.9826	
14:09:24	47.46243	-122.3076	15.968	15.3848	339.9553	25.5	25.50451	100	0	100	-4.045024	9.939779	-179.1172	
14:09:24	47.46239	-122.3076	16.576	16.07583	338.7878	25.67	25.50451	100	0	100	-4.106588	9.735982	-179.2564	
14:09:25	47.46235	-122.3076	17.209	16.72533	335.4502	25.85	25.67578	100	0	100	-3.990746	9.570674	-179.3731	
14:09:25	47.4623	-122.3076	18.015	17.44132	326.0475	26.08	25.85746	100	0	100	-3.952138	9.520813	-179.4801	
14:09:25	47.46226	-122.3076	18.598	18.05569	320.7387	26.26	26.08995	100	0	100	-4.003794	9.485557	-179.6419	
14:09:25	47.46226	-122.3076	18.598	18.70206	320.1741	26.26	26.26181	100	0	100	-4.060429	9.470945	-179.8579	
14:09:25	47.46217	-122.3076	19.844	19.2655	316.8947	26.59	26.26181	100	0	100	-4.160963	9.31865	179.9355	
14:09:25	47.46213	-122.3076	20.434	19.95926	320.65	26.73	26.59575	100	0	100	-4.224691	9.147631	179.7767	
14:09:26	47.46206	-122.3076	21.329	20.53503	320.4812	26.94	26.73785	100	0	100	-4.227534	9.125955	179.5997	
14:09:26	47.46199	-122.3076	22.37	21.18085	315.4468	27.15	26.94187	100	0	100	-4.250825	9.10228	179.396	
14:09:26	47.46196	-122.3076	22.81	21.92004	321.3161	27.24	27.15663	100	0	100	-4.254848	8.960173	179.1876	
14:09:26	47.46196	-122.3076	22.81	22.63718	324.6108	27.24	27.24861	100	0	100	-4.26886	8.82149	179.012	
14:09:26	47.46188	-122.3076	23.832	23.20051	319.2454	27.43	27.24861	100	0	100	-4.28316	8.636295	178.8416	
14:09:27	47.46188	-122.3076	23.832	23.92868	311.9429	27.43	27.43382	100	0	100	-4.313483	8.439343	178.6762	
14:09:27	47.46183	-122.3076	24.54	24.47523	300.4425	27.56	27.43382	100	0	100	-4.225958	8.434305	178.4934	
14:09:27	47.46175	-122.3076	25.586	25.06903	300.3576	27.77	27.56764	100	0	100	-4.205459	8.463013	178.3119	
14:09:27	47.46168	-122.3075	26.51	25.71954	304.0485	27.92	27.77331	100	0	100	-4.222051	8.441042	178.1315	
14:09:27	47.46162	-122.3075	27.341	26.43153	311.4335	28.04	27.92936	100	0	100	-4.746068	8.392254	177.919	
14:09:28	47.46159	-122.3075	27.763	27.16308	318.2656	28.09	28.04444	100	0	100	-5.706966	8.286869	177.6253	
14:09:28	47.46159	-122.3075	27.763	27.78676	314.3138	28.09	28.09705	100	0	100	-6.435213	8.22567	177.2962	
14:09:28	47.46145	-122.3075	29.783	28.44658	312.614	28.35	28.09705	100	0	100	-6.947546	8.235774	176.9039	
14:09:28	47.4614	-122.3075	30.36	29.17909	317.5061	28.41	28.35102	100	0	100	-7.445713	8.272055	176.4481	
14:09:28	47.46135	-122.3075	31.065	29.88005	324.45	28.48	28.41155	100	0	100	-7.776163	8.463611	176.0035	
14:09:29	47.46135	-122.3075	31.065	30.52674	327.5916	28.48	28.48617	100	0	100	-7.576039	8.434788	175.6132	
14:09:29	47.4613	-122.3075	31.74	31.22152	329.1053	28.54	28.48617	100	0	100	-7.131985	8.347155	175.2328	
14:09:29	47.46123	-122.3075	32.824	31.82435	326.8095	28.63	28.54375	100	0	100	-6.755955	8.20614	174.8716	
14:09:29	47.46118	-122.3075	33.466	32.64556	326.0563	28.69	28.63967	100	0	100	-6.430787	8.017318	174.5401	
14:09:29	47.46118	-122.3075	33.466	33.33564	321.6748	28.69	28.69563	100	0	100	-5.937121	7.869841	174.2598	
14:09:30	47.46118	-122.3075	33.466	33.93344	316.9282	28.69	28.69563	100	0	100	-5.36949	7.744066	173.9985	
14:09:30	47.46106	-122.3075	35.084	34.58038	307.3965	28.86	28.69563	100	0	100	-4.936654	7.659176	173.7076	
14:09:30	47.461	-122.3075	35.755	35.198	309.1786	28.92	28.86421	100	0	100	-4.639451	7.617915	173.4463	
14:09:30	47.46094	-122.3074	36.546	35.8712	311.4055	29	28.9274	100	0	100	-4.281856	7.643704	173.2187	
14:09:30	47.46088	-122.3074	37.251	36.54953	312.5226	29.05	29.00345	100	0	100	-4.025689	7.61522	172.9939	
14:09:31	47.46088	-122.3074	37.251	37.2436	317.1506	29.05	29.05619	100	0	100	-3.648463	7.54692	172.7781	
14:09:31	47.46083	-122.3074	37.943	37.83595	317.6569	29.1	29.05619	100	0	100	-3.254647	7.472198	172.5894	
14:09:31	47.46083	-122.3074	37.943	38.43927	313.9019	29.1	29.10789	100	0	100	-3.01874	7.468446	172.4353	
14:09:31	47.4607	-122.3074	39.613	39.17896	315.452	29.21	29.10789	100	0	100	-2.913954	7.489639	172.2901	
14:09:31	47.46065	-122.3074	40.257	39.7591	317.6411	29.26	29.21909	100	0	100	-2.923093	7.487791	172.1237	
14:09:32	47.46065	-122.3074	40.257	40.39685	320.3645	29.26	29.26574	100	0	43	-2.750944	7.465414	171.9611	
14:09:32	47.46056	-122.3074	41.316	41.01085	316.1642	29.31	29.26574	100	0	60	1.374254	6.47965	172.6616	
14:09:32	47.46056	-122.3074	41.316	41.54148	256.5034	29.31	29.31677	100	0	64	11.40866	3.796118	174.4059	
14:09:32	47.46049	-122.3074	42.173	41.86218	166.8258	29.06	29.31677	100	0	69	21.51497	1.414813	175.1712	
14:09:32	47.46042	-122.3073	42.686	42.10493	46.26336	28.18	29.06651	100	0	75	30.63436	0.07248145	176.4889	
14:09:33	47.46032	-122.3073	42.599	42.20357	-51.28337	27.55	28.18392	100	0	82	37.5368	-1.149671	179.6361	
14:09:33	47.46032	-122.3073	42.599	42.16555	-94.31603	27.55	27.55107	100	0	90	41.8004	-1.801425	-175.9991	
14:09:33	47.46028	-122.3073	42.355	42.06397	-107.7958	27.6	27.55107	100	0	95	44.1773	-1.155825	-170.6137	
14:09:33	47.46022	-122.3073	41.828	41.94177	-69.23019	27.9	27.60489	100	0	102	45.45657	0.3511921	-164.6642	
14:09:33	47.46016	-122.3073	41.329	41.88476	-2.751833	28.31	26.94009	100	0	107	46.44535	2.145303	-157.8423	
14:09:34	47.46016	-122.3073	41.329	41.91235	90.35962	28.31	27.38553	100	0	112	47.63944	3.75833	-150.7141	
14:09:34	47.46016	-122.3073	41.329	42.09299	202.1477	28.31	27.38553	100	0	116	48.8452	5.412786	-143.3686	
14:09:34	47.46003	-122.3074	40.817	42.42044	298.2245	29.16	27.38553	100	0	117	50.16405	7.169967	-136.0612	
14:09:34	47.45999	-122.3074	40.875	42.72063	375.9782	29.32	28.13079	100	0	119	51.29206	8.86162	-128.746	
14:09:34	47.45999	-122.3074	40.875	43.18754	458.4235	29.32	28.34354	100	0	120	51.12869	10.42253	-121.839	
14:09:35	47.45993	-122.3075	41.35	43.6615	511.264	29.44	28.34354	100	0	119	51.32196	11.50005	-115.2413	
14:09:35	47.45988	-122.3076	42.209	44.22402	551.8441	29.44	28.00906	100	0	119	51.70217	12.21111	-109.0845	
14:09:35	47.45985	-122.3076	42.854	44.86716	575.8269	29.39	28.17143	100	0	119	51.81844	12.82794	-103.2587	
14:09:35	47.45983	-122.3077	43.856	45.45169	588.0643	29.3	28.48063	100	0	119	51.62972	13.40195	-97.52444	
14:09:36	47.45983	-122.3077	43.856	46.30248	603.6754	29.3	28.52496	100	0	119	51.27243	13.94424	-91.92343	
14:09:36	47.45983	-122.3077	43.856	46.97165	612.1943	29.3	28.52496	100	0	118	50.89347	14.52826	-86.41876	
14:09:36	47.45979	-122.3079	46.262	47.7305	621.6567	29.04	28.52496	100	0	118	50.58689	15.08861	-81.03355	
14:09:36	47.45978	-122.308	48.247	48.60697	625.2526	28.8	28.45732	100	0	117	50.35762	15.64621	-75.8017	
14:09:36	47.45978	-122.308	48.247	49.41888	622.4099	28.8	28.39507	100	0	117	50.32399	15.80847	-70.97845	
14:09:36	47.45978	-122.3081	49.813	50.24747	615.1456	28.6	28.39507	100	0	116	50.21455	15.80799	-66.34238	
14:09:37	47.4598	-122.3082	52.803	51.28803	605.5244	28.28	28.33931	100	0	116	49.97641	15.72882	-61.92439	
14:09:37	47.4598	-122.3082	52.803	52.6195	602.6792	28.28	28.36353	100	0	116	50.12714	15.62948	-57.42657	
14:09:37	47.45981	-122.3083	54.15	53.65705	596.9911	28.17	28.36353	100	0	116	49.80295	15.58756	-53.05301	
14:09:37	47.45984	-122.3084	56.307	54.94999	591.6794	27.97	28.34614	100	0	116	49.31265	15.62829	-48.74141	
14:09:37	47.45987	-122.3085	57.798	55.83881	580.0737	27.84	28.54386	100	0	115	48.94524	15.64533	-44.42221	
14:09:38	47.45989	-122.3085	59.164	57.27607	585.6059	27.72	28.50301	100	0	115	47.95654	15.69441	-40.16433	
14:09:38	47.45992	-122.3086	60.904	58.56387	596.939	27.56	28.46139	100	0	114	46.41187	15.77037	-36.03378	
14:09:38	47.45992	-122.3086	60.904	59.99616	604.0869	27.56	28.37367	100	0	113	44.45664	15.87463	-32.08371	
14:09:38	47.45996	-122.3087	62.488	61.26946	614.7678	27.41	28.37367	100	0	111	42.43628	16.0436	-28.37023	
14:09:38	47.46001	-122.3087	64.905	62.64206	626.8024	27.18	28.30059	100	0	109	40.3297	16.15074	-24.93419	
14:09:39	47.46008	-122.3088	67.549	64.23617	650.8976	26.94	28.16458	100	0	109	37.9398	16.22187	-21.62298	
14:09:39	47.46011	-122.3088	69.085	66.00331	677.9714	26.81	28.07506	100	0	107	34.64149	16.19386	-18.57981	
14:09:39	47.46011	-122.3088	69.085	67.59486	694.7097	26.81	27.98423	100	0	105	29.76704	16.31376	-16.10279	
14:09:39	47.46011	-122.3088	69.085	69.37781	723.5618	26.81	27.98423	100	0	103	24.68898	16.5114	-13.96772	
14:09:39	47.4602	-122.3089	72.83	71.03636	747.4928	26.48	27.98423	100	0	102	20.17804	16.76454	-12.14723	
14:09:40	47.46027	-122.3089	75.547	72.69875	766.0203	26.21	27.71924	100	0	100	17.40707	16.70955	-10.8551	
14:09:40	47.46032	-122.309	77.534	74.57424	780.3652	26.01	27.64363	100	0	98	14.15574	16.29769	-9.928911	
14:09:40	47.46037	-122.309	79.719	76.7051	788.2578	25.84	27.46103	100	0	95	10.31632	15.66978	-9.237911	
14:09:40	47.46037	-122.309	79.719	78.52184	782.9624	25.84	27.30141	100	0	92	6.490849	14.78416	-8.756231	
14:09:40	47.46041	-122.309	81.281	80.26524	753.6866	25.77	27.30141	100	0	89	3.289134	13.79957	-8.456398	
14:09:41	47.46051	-122.309	85.412	82.31033	720.3997	25.67	27.2357	100	0	87	0.6663247	12.73593	-8.358295	
14:09:41	47.46056	-122.3091	86.91	84.12663	688.2697	25.65	27.14761	100	0	85	-1.660912	11.67163	-8.215156	
14:09:41	47.46056	-122.3091	86.91	85.51043	648.0687	25.65	27.12901	100	0	83	-3.211375	10.47037	-8.482589	
14:09:41	47.46063	-122.3091	89.249	86.90365	596.3764	25.64	27.12901	100	0	82	-4.315512	9.311523	-8.798362	
14:09:41	47.46067	-122.3091	90.506	88.49596	548.376	25.64	27.11236	100	0	80	-4.700316	8.312232	-9.161894	
14:09:42	47.46072	-122.3091	91.815	89.8373	512.1826	25.63	27.11186	100	0	78	-4.761124	7.490387	-9.626691	
14:09:42	47.46077	-122.3091	92.972	91.06059	481.7964	25.64	27.10873	100	0	77	-4.631763	6.784832	-10.11513	
14:09:42	47.46081	-122.3091	93.823	92.06279	457.9803	25.64	27.11053	100	0	76	-4.43084	6.115655	-10.56727	
14:09:42	47.46087	-122.3092	94.918	93.25001	432.8313	25.64	27.11023	100	0	75	-4.106606	5.529086	-10.97134	
14:09:42	47.46087	-122.3092	94.918	94.30124	414.0268	25.64	27.11026	100	0	75	-3.808975	4.972907	-11.34748	
14:09:43	47.46091	-122.3092	95.727	95.09035	390.0802	25.66	27.11026	100	0	73	-3.516842	4.47901	-11.73019	
14:09:43	47.46099	-122.3092	96.942	95.98643	364.7861	25.67	27.12525	100	0	73	-3.317944	4.113206	-12.1062	
14:09:43	47.46103	-122.3092	97.615	96.85812	354.0534	25.69	26.39086	100	0	73	-3.128055	3.829345	-12.44867	
14:09:43	47.46108	-122.3093	98.256	97.56828	344.4145	25.71	26.41166	100	0	73	-2.853027	3.58358	-12.77756	
14:09:44	47.46112	-122.3093	98.821	98.26258	332.0122	25.73	26.42303	100	0	73	-2.57022	3.385156	-13.12122	
14:09:44	47.46112	-122.3093	98.821	99.00609	320.8896	25.73	26.43964	100	0	72	-2.278557	3.222847	-13.44684	
14:09:44	47.46123	-122.3093	100.151	99.55222	306.4982	25.8	26.43964	100	0	72	-2.007205	3.094981	-13.74407	
14:09:44	47.46126	-122.3093	100.431	100.0994	299.7742	25.81	26.50254	100	0	73	-1.816087	3.052659	-14.00571	
14:09:44	47.46131	-122.3093	100.938	100.7097	292.6773	25.85	26.51959	100	0	73	-1.555928	3.113147	-14.24492	
14:09:45	47.46131	-122.3093	100.938	101.1892	287.939	25.85	26.55378	100	0	73	-1.330725	3.27615	-14.4832	
14:09:45	47.46138	-122.3094	101.665	101.6795	288.21	25.9	26.55378	100	0	73	-1.114619	3.503742	-14.68835	
14:09:45	47.46141	-122.3094	102.08	102.1129	286.612	25.93	26.60024	100	0	74	-0.9832259	3.652899	-14.86334	
14:09:45	47.46148	-122.3094	102.891	102.5782	286.6724	25.97	26.62712	100	0	74	-0.8195695	3.874589	-15.02029	
14:09:45	47.46148	-122.3094	102.891	103.0855	291.1655	25.97	26.66621	100	0	69	-0.6956216	3.802786	-15.15851	
14:09:46	47.46154	-122.3095	103.505	103.5663	287.2306	26	26.66621	100	0	64	-0.6228733	3.380863	-15.2719	
14:09:46	47.46161	-122.3095	104.36	104.0716	272.0773	26.03	26.70028	100	0	59	-0.4555317	2.512637	-15.33352	
14:09:46	47.46165	-122.3095	104.949	104.5227	232.5635	26.03	26.73183	100	0	55	-0.2433775	1.150984	-15.33668	
14:09:46	47.4617	-122.3095	105.387	104.8904	166.0112	26.01	26.72931	100	0	52	0.02272249	-0.4440962	-15.32124	
14:09:46	47.46177	-122.3096	105.961	105.1057	100.8477	25.91	26.7146	100	0	49	0.2742656	-2.321429	-15.30923	
14:09:47	47.46177	-122.3096	105.961	105.2816	20.14859	25.91	26.60993	100	0	46	-0.09812894	-4.157375	-15.33235	
14:09:47	47.46178	-122.3096	106.067	105.3857	-64.1062	25.87	26.60993	100	0	43	-0.9803141	-5.808151	-15.32421	
14:09:47	47.46183	-122.3096	106.173	105.3369	-127.345	25.78	26.57339	100	0	41	-2.667976	-7.233826	-15.32209	
14:09:47	47.4619	-122.3096	105.986	105.1939	-187.1657	25.63	26.481	100	0	40	-4.513745	-8.455714	-15.36252	
14:09:47	47.4619	-122.3096	105.986	104.9322	-240.3897	25.63	25.4506	100	0	39	-6.28688	-9.30015	-15.5501	
14:09:48	47.46203	-122.3097	104.729	104.6338	-267.9445	25.5	25.4506	100	0	38	-7.882695	-9.994721	-15.80922	
14:09:48	47.46203	-122.3097	104.729	104.2426	-295.5732	25.5	25.31331	100	0	37	-9.577581	-10.50741	-16.35112	
14:09:48	47.4621	-122.3097	103.789	103.7703	-314.0689	25.51	25.31331	100	0	36	-11.28613	-10.93296	-16.98082	
14:09:48	47.4621	-122.3097	103.789	103.2782	-328.3614	25.51	25.31242	100	0	36	-13.76775	-11.14886	-17.81151	
14:09:48	47.46214	-122.3097	103.031	102.8081	-335.1772	25.55	25.31242	100	0	37	-16.2502	-11.32624	-18.7879	
14:09:49	47.46225	-122.3098	101.262	102.1937	-344.1948	25.64	25.33908	100	0	37	-18.24486	-11.38489	-20.03055	
14:09:49	47.4623	-122.3098	100.267	101.6054	-348.6344	25.72	25.39279	100	0	38	-20.18775	-11.39889	-21.44379	
14:09:49	47.4623	-122.3098	100.267	100.8183	-354.3584	25.72	25.44616	100	0	40	-21.79857	-11.37106	-23.06943	
14:09:49	47.46234	-122.3098	99.478	100.1848	-357.1021	25.79	25.44616	100	0	41	-22.96186	-11.20212	-24.87276	
14:09:49	47.46234	-122.3098	99.478	99.34525	-358.5025	25.79	25.49387	100	0	43	-23.54992	-10.82112	-26.85802	
14:09:50	47.46239	-122.3099	98.576	98.68112	-346.1101	25.9	25.49387	100	0	44	-23.92329	-10.24467	-28.98085	
14:09:50	47.46239	-122.3099	98.576	98.04621	-325.018	25.9	25.57264	100	0	46	-24.55844	-9.652693	-31.12761	
14:09:50	47.46249	-122.31	96.445	97.61143	-297.8149	26.23	25.57264	100	0	47	-25.26671	-9.093444	-33.29125	
14:09:50	47.46254	-122.31	95.679	96.91357	-274.0653	26.39	25.45275	100	0	48	-25.96997	-8.578493	-35.48416	
14:09:50	47.46254	-122.31	95.679	96.39481	-253.4973	26.39	25.57688	100	0	49	-25.94388	-7.971211	-37.80072	
14:09:51	47.4626	-122.3101	94.599	95.87288	-228.1063	26.63	25.57688	100	0	50	-25.95186	-7.352588	-40.12	
14:09:51	47.46264	-122.3101	94.008	95.17654	-205.7923	26.78	25.75565	100	0	52	-25.89126	-6.726764	-42.43348	
14:09:51	47.46267	-122.3101	93.478	94.67279	-184.4593	26.88	25.87021	100	0	53	-25.41718	-6.066833	-44.70511	
14:09:51	47.46273	-122.3102	92.801	94.1708	-159.558	27.04	25.94607	100	0	54	-24.77407	-5.353318	-46.97523	
14:09:51	47.46273	-122.3102	92.801	93.71844	-127.5397	27.04	26.06015	100	0	55	-24.08387	-4.664434	-49.15967	
14:09:52	47.46276	-122.3102	92.39	93.31556	-101.3771	27.15	26.06015	100	0	56	-23.3367	-4.028644	-51.24407	
14:09:52	47.4628	-122.3103	92.082	92.94326	-75.77769	27.22	26.13502	100	0	57	-22.41916	-3.460863	-53.20529	
14:09:52	47.46288	-122.3104	91.565	92.64025	-52.19289	27.36	26.18592	100	0	58	-21.24331	-2.951919	-55.10016	
14:09:52	47.46288	-122.3104	91.565	92.39481	-30.56023	27.36	26.26545	100	0	58	-20.6073	-2.493042	-56.88624	
14:09:52	47.46291	-122.3105	91.487	92.22066	-9.973487	27.37	26.26545	100	0	59	-18.69372	-1.934017	-58.56246	
14:09:53	47.46294	-122.3106	91.455	92.08555	12.82102	27.38	26.3401	100	0	59	-16.61932	-1.360036	-60.09386	
14:09:53	47.46297	-122.3106	91.495	92.02088	42.4698	27.37	26.32757	100	0	59	-14.61563	-0.8516591	-61.44095	
14:09:53	47.46301	-122.3107	91.646	92.02315	62.97904	27.32	26.2998	100	0	59	-12.7939	-0.5121098	-62.48696	
14:09:53	47.46303	-122.3108	91.799	92.06054	75.44843	27.27	26.23338	100	0	59	-11.19346	-0.3074369	-63.35534	
14:09:53	47.46303	-122.3108	91.799	92.14871	85.45583	27.27	26.1789	100	0	59	-9.45581	-0.2071508	-64.1013	
14:09:54	47.46306	-122.3109	92.05	92.24635	87.09255	27.19	26.1789	100	0	59	-8.007586	-0.2085277	-64.67554	
14:09:54	47.4631	-122.311	92.411	92.35777	84.78944	27.07	26.09529	100	0	59	-6.759926	-0.2107707	-65.14481	
14:09:54	47.46312	-122.311	92.618	92.49771	81.20744	27.01	25.96794	100	0	58	-5.528739	-0.2706788	-65.49644	
14:09:54	47.46312	-122.311	92.618	92.65573	77.34805	27.01	25.89935	100	0	58	-4.246448	-0.3618507	-65.79588	
14:09:54	47.46316	-122.3111	93.014	92.78702	71.97588	26.9	25.89935	100	0	58	-2.976508	-0.447923	-66.09626	
14:09:55	47.46318	-122.3112	93.29	92.8931	67.60305	26.83	25.79081	100	0	58	-2.373934	-0.4164542	-66.22933	
14:09:55	47.46318	-122.3112	93.29	93.06542	68.47758	26.83	25.71308	100	0	58	-1.983523	-0.4887182	-66.30173	
14:09:55	47.46321	-122.3113	93.57	93.25096	66.57645	26.75	25.71308	100	0	58	3.047273	-0.5778712	-66.23937	
14:09:55	47.46321	-122.3113	93.57	93.43391	64.53864	26.75	25.65666	100	0	58	11.41235	-0.7440413	-65.96056	
14:09:55	47.46326	-122.3114	94.101	93.56355	59.44866	26.63	25.65666	100	0	58	19.85101	-1.019143	-65.32578	
14:09:56	47.46329	-122.3115	94.308	93.78498	49.67111	26.58	25.53129	100	0	59	28.05042	-1.495173	-64.07055	
14:09:56	47.46329	-122.3115	94.308	93.93816	25.75855	26.58	25.48943	100	0	61	34.19751	-2.017607	-62.11444	
14:09:56	47.46333	-122.3117	94.654	94.05109	0.9260509	26.53	25.48943	100	0	64	39.13045	-2.515771	-59.65308	
14:09:56	47.46336	-122.3117	94.76	94.13734	-27.8064	26.56	25.45641	100	0	67	42.67049	-2.910038	-56.58564	
14:09:56	47.46338	-122.3118	94.808	94.17476	-49.23469	26.6	25.49599	100	0	70	44.11533	-2.933893	-52.83227	
14:09:57	47.46338	-122.3118	94.808	94.18697	-56.56592	26.6	25.56199	100	0	71	44.39727	-2.597453	-48.52291	
14:09:57	47.46343	-122.3119	94.831	94.20294	-47.33509	26.77	25.56199	100	0	72	44.52791	-2.13693	-44.11155	
14:09:57	47.46346	-122.3119	94.837	94.24902	-27.97739	26.9	25.46867	100	0	72	44.72222	-1.532682	-39.57306	
14:09:57	47.46346	-122.3119	94.837	94.32927	-3.073744	26.9	25.64288	100	0	72	45.02835	-1.064085	-35.07204	
14:09:57	47.4635	-122.312	94.888	94.43159	17.46786	27.07	25.64288	100	0	73	45.3345	-0.6695998	-30.60107	
14:09:58	47.46358	-122.312	95.144	94.58691	38.26688	27.36	25.60752	100	0	73	46.01067	-0.5037496	-26.14589	
14:09:58	47.46365	-122.3121	95.417	94.78903	55.09579	27.52	26.05591	100	0	73	46.96916	-0.4801859	-21.70115	
14:09:58	47.46365	-122.3121	95.417	95.00839	64.83072	27.52	26.62001	100	0	74	46.74351	-0.3496888	-17.27241	
14:09:58	47.46375	-122.3122	95.854	95.19824	70.55491	27.69	26.62001	100	0	74	45.1673	0.07888838	-12.86555	
14:09:58	47.4638	-122.3122	96.087	95.46114	84.48059	27.78	26.9627	100	0	72	45.69329	0.2191163	-8.528088	
14:09:59	47.4638	-122.3122	96.087	95.71468	95.87083	27.78	27.20805	100	0	71	45.9725	0.2106088	-4.297259	
14:09:59	47.46386	-122.3122	96.38	95.93941	96.57935	27.87	27.20805	100	0	71	45.99536	0.1008411	-0.279211	
14:09:59	47.46391	-122.3122	96.612	96.19373	88.36572	27.92	27.39821	100	0	71	45.98014	-0.03912163	3.721915	
14:09:59	47.46398	-122.3122	96.841	96.40971	79.31405	28	27.53286	100	0	71	45.8181	-0.161713	7.726915	
14:09:59	47.46404	-122.3122	97.036	96.60039	73.01144	28.06	27.60586	100	0	70	46.00614	-0.3291523	11.70224	
14:10:00	47.46404	-122.3122	97.036	96.78212	64.62369	28.06	27.74955	100	0	70	45.93349	-0.463148	15.68147	
14:10:00	47.4641	-122.3122	97.16	96.95245	56.39351	28.14	27.74955	100	0	70	45.79037	-0.6120003	19.65078	
14:10:00	47.46416	-122.3121	97.135	97.08175	47.05806	28.23	27.93188	100	0	70	45.68555	-0.7619836	23.57935	
14:10:00	47.46421	-122.3121	97.16	97.16316	37.23588	28.29	28.14321	100	0	69	45.83643	-0.9310302	27.46929	
14:10:00	47.46427	-122.3121	97.115	97.2188	23.99031	28.38	28.27123	100	0	70	45.56254	-1.009583	31.37838	
14:10:01	47.46432	-122.312	97.011	97.23782	12.4674	28.46	28.45422	100	0	70	45.7966	-1.158368	35.26731	
14:10:01	47.46432	-122.312	97.011	97.2252	1.939175	28.46	28.67062	100	0	70	45.77498	-1.254228	39.24171	
14:10:01	47.46437	-122.312	96.791	97.18049	-7.7177	28.54	28.67062	100	0	70	45.60011	-1.284441	43.18532	
14:10:01	47.46441	-122.3119	96.576	97.09306	-16.61115	28.62	28.81827	100	0	70	45.35431	-1.244526	47.1471	
14:10:01	47.46446	-122.3118	96.294	96.96597	-24.33085	28.72	28.96254	100	0	71	45.30988	-1.193224	51.08968	
14:10:02	47.46449	-122.3118	96.007	96.82188	-30.91497	28.79	29.02494	100	0	71	45.37975	-1.18199	55.00789	
14:10:02	47.46453	-122.3117	95.563	96.64371	-38.71468	28.93	29.14418	100	0	72	44.14581	-1.012604	58.90921	
14:10:02	47.46453	-122.3117	95.563	96.46634	-41.95641	28.93	29.3633	100	0	71	43.1907	-0.8126014	62.72531	
14:10:02	47.46457	-122.3116	95.092	96.22125	-43.04758	29.04	29.44908	100	0	71	40.41402	-0.3036705	66.51518	
14:10:02	47.46457	-122.3116	95.092	95.94331	-36.63474	29.04	29.62529	100	0	69	38.76593	0.08307965	69.97271	
14:10:03	47.46459	-122.3116	94.785	95.73887	-28.34117	29.13	29.62529	100	0	69	37.29193	0.3267585	73.0991	
14:10:03	47.46462	-122.3114	94.28	95.46391	-28.41545	29.25	29.74754	100	0	69	35.84162	0.5665979	76.04298	
14:10:03	47.46464	-122.3114	93.953	95.19366	-27.47058	29.29	29.62487	100	0	69	34.52253	0.8258061	78.95766	
14:10:03	47.46464	-122.3114	93.953	94.94008	-23.00899	29.29	29.69243	100	0	69	30.81113	1.111347	81.52002	
14:10:03	47.46465	-122.3113	93.503	94.66477	-20.70294	29.33	29.69243	100	0	68	27.38495	1.435004	83.82729	
14:10:04	47.46467	-122.3111	92.915	94.44049	-14.18342	29.36	29.7652	100	0	67	23.99808	1.790396	85.89744	
14:10:04	47.46467	-122.3111	92.784	94.15212	-8.277818	29.36	29.82774	100	0	67	20.59493	2.099771	87.57717	
14:10:04	47.46467	-122.3111	92.784	93.88721	-6.755458	29.36	30.10691	100	0	67	15.90746	2.317819	88.82142	
14:10:04	47.46468	-122.3109	92.292	93.65342	-10.18265	29.3	30.10691	100	0	67	12.67704	2.415752	89.76926	
14:10:04	47.46468	-122.3108	91.966	93.3737	-17.90144	29.23	30.06434	100	0	67	10.14329	2.472312	90.56429	
14:10:05	47.46468	-122.3107	91.744	93.0632	-30.12866	29.16	30.00293	100	0	68	5.463387	2.493773	91.02495	
14:10:05	47.46467	-122.3106	91.475	92.77165	-41.09322	29.07	29.93277	100	0	68	0.2808164	2.545	91.33942	
14:10:05	47.46467	-122.3106	91.475	92.51138	-49.16343	29.07	29.85029	100	0	69	-5.098848	2.668257	91.29339	
14:10:05	47.46466	-122.3105	91.199	92.20517	-55.83245	28.97	29.85029	100	0	70	-9.921051	2.820797	90.88875	
14:10:05	47.46466	-122.3104	90.921	91.89587	-58.776	28.9	29.75078	100	0	71	-14.32293	2.953538	89.98467	
14:10:06	47.46466	-122.3103	90.76	91.62208	-60.18708	28.86	29.68285	100	0	73	-18.27928	3.09552	88.73093	
14:10:06	47.46466	-122.3102	90.669	91.39188	-59.59387	28.84	29.64174	100	0	74	-21.57844	3.221184	87.24363	
14:10:06	47.46466	-122.3102	90.669	91.13801	-57.18101	28.84	29.6128	100	0	76	-23.96574	3.406892	85.46938	
14:10:06	47.46466	-122.3102	90.6	90.95235	-51.21336	28.83	29.6128	100	0	77	-25.55412	3.65162	83.51686	
14:10:06	47.46466	-122.31	90.513	90.80212	-39.39782	28.8	29.59533	100	0	78	-27.18903	3.967891	81.34615	
14:10:07	47.46466	-122.31	90.547	90.70102	-23.32951	28.8	29.56436	100	0	79	-28.60829	4.326062	79.06721	
14:10:07	47.46467	-122.3099	90.586	90.64407	0.06058142	28.81	29.55357	100	0	80	-29.17781	4.734333	76.70966	
14:10:07	47.46468	-122.3098	90.756	90.65172	22.78561	28.8	29.54993	100	0	81	-29.69604	5.131245	74.27488	
14:10:07	47.46468	-122.3098	90.756	90.71864	50.97188	28.8	29.52627	100	0	81	-29.68213	5.554163	71.81444	
14:10:07	47.46468	-122.3098	90.756	90.84436	78.07248	28.8	29.52627	100	0	81	-29.47292	5.984838	69.38402	
14:10:08	47.46471	-122.3096	91.255	90.99831	104.4591	28.75	29.52627	100	0	81	-29.28195	6.424886	66.95491	
14:10:08	47.46471	-122.3095	91.532	91.17683	126.8567	28.71	28.66658	100	0	81	-28.52468	6.710402	64.73748	
14:10:08	47.46471	-122.3095	91.532	91.48684	148.7721	28.71	28.61986	100	0	81	-25.4079	6.837228	62.70784	
14:10:08	47.46473	-122.3095	92.041	91.83393	165.134	28.63	28.61986	100	0	79	-16.88796	7.008451	60.94669	
14:10:08	47.46476	-122.3093	92.872	92.23604	190.7334	28.5	28.52983	100	0	77	-8.554191	7.188654	59.67713	
14:10:09	47.46478	-122.3093	93.169	92.74134	219.3335	28.44	28.19148	100	0	76	-0.1421658	7.128239	59.07837	
14:10:09	47.46484	-122.3091	94.94	93.20571	229.2708	28.05	28.13152	100	0	75	9.036581	6.710233	59.25631	
14:10:09	47.46485	-122.3091	95.279	93.80254	223.4314	27.97	27.73704	100	0	74	17.898	6.225576	59.96965	
14:10:09	47.46485	-122.3091	95.279	94.41706	204.622	27.97	27.66019	100	0	75	26.8718	5.502718	60.96933	
14:10:09	47.46488	-122.309	96.094	94.86408	173.8047	27.8	27.66019	100	0	76	34.17638	4.622159	62.48854	
14:10:10	47.4649	-122.3089	96.777	95.34997	123.0687	27.71	27.48899	100	0	79	39.17606	3.855202	64.69241	
14:10:10	47.46492	-122.3088	97.145	95.6716	76.62051	27.69	27.40624	100	0	81	42.2238	3.213502	67.55827	
14:10:10	47.46492	-122.3088	97.145	96.02416	45.13399	27.69	27.39528	100	0	83	43.30132	2.891215	71.01558	
14:10:10	47.46494	-122.3087	97.472	96.29814	28.86843	27.74	27.39528	100	0	83	43.31571	2.928384	74.88274	
14:10:10	47.46495	-122.3087	97.636	96.57758	34.58523	27.82	27.4511	100	0	83	42.66339	3.24401	79.00629	
14:10:11	47.46495	-122.3086	97.736	96.82866	49.81467	27.93	27.53951	100	0	82	42.05545	3.5778	83.04478	
14:10:11	47.46497	-122.3085	97.784	97.10497	68.36237	28.12	27.10052	100	0	81	41.63285	3.815988	86.90799	
14:10:11	47.46497	-122.3084	97.846	97.39526	81.95591	28.26	27.33541	100	0	80	41.31929	3.860794	90.62572	
14:10:11	47.46496	-122.3083	97.84	97.63097	87.08138	28.35	27.51283	100	0	79	39.88361	3.937285	94.23235	
14:10:11	47.46496	-122.3083	97.906	97.81714	88.49586	28.43	27.6776	100	0	77	37.28886	4.102664	97.58428	
14:10:12	47.46494	-122.3081	97.813	98.00327	91.00178	28.56	27.79345	100	0	75	34.76091	4.277769	100.6942	
14:10:12	47.46494	-122.3081	97.813	98.15267	94.14793	28.56	27.98149	100	0	74	32.52275	4.22883	103.4203	
14:10:12	47.46492	-122.3081	97.715	98.25771	87.07716	28.61	27.98149	100	0	73	29.34385	4.086256	105.7697	
14:10:12	47.4649	-122.308	97.664	98.30428	73.25204	28.61	28.06479	100	0	71	24.58209	3.994749	107.7369	
14:10:12	47.46489	-122.3079	97.628	98.30546	55.73792	28.61	28.28433	100	0	70	19.97228	3.896122	109.3938	
14:10:13	47.46485	-122.3078	97.372	98.26917	39.66153	28.57	28.30138	100	0	69	15.18833	3.716431	110.6313	
14:10:13	47.46485	-122.3078	97.372	98.19317	21.74322	28.57	28.28955	100	0	68	10.33838	3.545581	111.5013	
14:10:13	47.46482	-122.3077	97.258	98.04617	-1.659263	28.52	28.28955	100	0	68	5.664897	3.430824	112.3151	
14:10:13	47.46481	-122.3076	97.053	97.91299	-17.92148	28.47	28.25965	100	0	68	0.9946447	3.152689	112.6903	
14:10:13	47.46481	-122.3076	97.053	97.72793	-40.41217	28.47	28.21312	100	0	69	-2.072318	2.805762	112.6718	
14:10:14	47.46476	-122.3075	96.77	97.47469	-65.96603	28.4	28.21312	100	0	69	-4.83633	2.525101	112.4604	
14:10:14	47.46473	-122.3075	96.467	97.17437	-88.87611	28.35	28.149	100	0	70	-7.49133	2.423427	112.0494	
14:10:14	47.46471	-122.3074	96.281	96.85939	-101.953	28.33	28.10077	100	0	71	-9.97357	2.487529	111.4595	
