Date	Latitude(deg) 	Longitude(deg)	hamsl(m)	hafl(m)	climbrate(cm/s)	GroundSpeed(m/s)	Airspeed(m/s)	Mav_Link(%)	Rssi_Link(%)	Throttle	Roll(deg)	Pitch(deg)	Yaw(deg)
12:37:18	-6.795946	38.98535	115.596	0	0	0.91	0	100	0	0	0	0	0	
12:37:18	-6.795948	38.98535	115.904	1.186355	-0.2641277	1.28	3	100	0	75	-2.618054	-24.55207	11.35711	
12:37:18	-6.796076	38.98551	123.296	1.191395	-2.365603	1.28	3	100	0	99	-2.105385	-23.86742	11.16987	
12:37:18	-6.796082	38.98552	123.432	1.191908	-4.036618	1.28	3	100	0	100	-2.059193	-24.00978	11.18359	
12:37:19	-6.796087	38.98552	123.849	0.6793726	-32.83079	3.34	3	100	0	100	-1.937816	-24.00753	11.4289	
12:37:19	-6.796093	38.98553	124.167	0.1633506	-59.75276	3.92	3	100	0	100	-1.552593	-23.25355	12.57642	
12:37:19	-6.796098	38.98553	124.635	-0.07084479	-68.30719	3.19	3.088209	100	0	100	-1.822128	-22.6016	14.00826	
12:37:19	-6.796102	38.98553	124.679	0.02414454	-59.9968	3.19	3	100	0	100	-2.463977	-23.53528	15.71098	
12:37:19	-6.796106	38.98554	124.713	0.1808959	-47.73664	3.25	3	100	0	100	-3.166615	-23.55764	17.48152	
12:37:20	-6.796111	38.98555	124.586	0.4249261	-33.21347	2.66	3	100	0	100	-3.984964	-23.33364	18.98872	
12:37:20	-6.796115	38.98555	125.167	0.5887796	-23.68188	2.66	3	100	0	100	-4.801737	-23.8192	19.21271	
12:37:20	-6.796115	38.98555	125.167	0.7121111	-17.87339	2.66	3	100	0	100	-4.650381	-24.00666	19.05921	
12:37:20	0	0	0	0.7705861	-15.68472	0	3	100	0	100	-4.298415	-23.92782	18.44474	
12:37:20	0	0	0	0.6397974	-65.51942	0	3	100	0	100	-6.302386	-21.6826	20.33685	
12:37:21	0	0	0	0.528425	-3.939265	0	3	100	0	100	-6.846794	-18.79637	21.54096	
12:37:21	47.45818	-122.3065	97.148	10.19627	592.0021	31.1	3	100	0	100	-6.656754	-15.16694	23.96513	
12:37:21	47.45818	-122.3065	97.148	28.27289	1559.14	31.1	30.13911	100	0	100	-6.022799	-10.98246	27.64188	
12:37:21	47.45818	-122.3065	97.148	43.1777	2282.194	31.1	30.13911	100	0	74	-6.444996	-7.026286	31.79423	
12:37:21	47.45818	-122.3065	97.148	57.92073	2921.04	31.1	30.13911	100	0	58	-6.597601	-3.18845	35.87932	
12:37:22	47.45818	-122.3065	97.148	72.5455	3466.467	31.1	30.13911	100	0	51	-6.494605	0.533168	40.11753	
12:37:22	47.45818	-122.3065	97.148	83.81682	3811.751	31.1	30.13911	100	0	44	-6.127941	4.091969	44.4721	
12:37:22	47.45818	-122.3065	97.148	92.78641	4026.225	31.1	30.13911	100	0	39	-5.516561	7.456659	48.79102	
12:37:22	47.45818	-122.3065	97.148	101.2219	4163.066	31.1	30.13911	100	0	32	-4.678865	10.60334	53.18111	
12:37:22	47.45818	-122.3065	97.148	108.8482	4211.294	31.1	30.13911	100	0	25	-3.633463	13.51418	57.66945	
12:37:23	47.45818	-122.3065	97.148	113.9172	4183.853	31.1	30.13911	100	0	17	-2.393232	16.21886	62.27431	
12:37:23	47.45818	-122.3065	97.148	118.5552	4091.569	31.1	30.13911	100	0	9	-0.9740244	18.69779	66.99393	
12:37:23	47.45818	-122.3065	97.148	122.041	3949.064	31.1	30.13911	100	0	4	0.5781104	20.92714	71.7494	
12:37:23	47.45818	-122.3065	97.148	124.7711	3746.695	31.1	30.13911	100	0	4	2.171502	23.04259	76.1881	
12:37:23	47.45818	-122.3065	97.148	126.261	3552.222	31.1	30.13911	100	0	4	3.786837	25.04114	80.32083	
12:37:24	47.45818	-122.3065	97.148	127.2212	3315.965	31.1	30.13911	100	0	4	5.466264	26.96141	84.30949	
12:37:24	47.45818	-122.3065	97.148	127.5533	3035.71	31.1	30.13911	100	0	4	7.270211	28.75713	88.35534	
12:37:24	47.45818	-122.3065	97.148	127.3427	2799.766	31.1	30.13911	100	0	4	9.623531	30.17672	93.69519	
12:37:24	47.45818	-122.3065	97.148	126.6017	2508.386	31.1	30.13911	100	0	4	10.3941	31.73792	95.97337	
12:37:24	47.45818	-122.3065	97.148	125.5306	2240.526	31.1	30.13911	100	0	4	11.18434	33.09661	98.29591	
12:37:25	47.45818	-122.3065	97.148	124.1905	1983.1	31.1	30.13911	100	0	4	12.02707	34.36334	100.6978	
12:37:25	47.45818	-122.3065	97.148	122.7582	1753.058	31.1	30.13911	100	0	4	12.92572	35.55259	103.1561	
12:37:25	47.45818	-122.3065	97.148	120.841	1487.241	31.1	30.13911	100	0	4	13.91003	36.65617	105.754	
12:37:25	47.45818	-122.3065	97.148	118.9769	1258.602	31.1	30.13911	100	0	6	14.9531	37.65186	108.4235	
12:37:25	47.45818	-122.3065	97.148	117.2551	1066.277	31.1	30.13911	100	0	11	16.09263	38.54887	111.224	
12:37:26	47.45818	-122.3065	97.148	115.1277	848.0974	31.1	30.13911	100	0	16	17.24239	39.38398	114.0313	
12:37:26	47.45818	-122.3065	97.148	113.1945	665.2366	31.1	30.13911	100	0	21	18.45475	40.13661	116.9413	
12:37:26	47.45818	-122.3065	97.148	111.3001	497.9919	31.1	30.13911	100	0	25	19.69899	40.80256	119.9051	
12:37:26	47.45818	-122.3065	97.148	109.4574	345.6778	31.1	30.13911	100	0	30	21.00055	41.37434	122.9728	
12:37:26	47.45818	-122.3065	97.148	107.6767	207.4288	31.1	30.13911	100	0	34	22.3581	41.85341	126.1284	
12:37:27	47.45818	-122.3065	97.148	105.9951	84.6011	31.1	30.13911	100	0	39	23.69208	42.28136	129.2788	
12:37:27	47.45818	-122.3065	97.148	104.4132	-24.46221	31.1	30.13911	100	0	41	25.05493	42.61931	132.4884	
12:37:27	47.45818	-122.3065	97.148	102.9493	-119.8235	31.1	30.13911	100	0	45	26.43615	42.87409	135.7636	
12:37:27	47.45818	-122.3065	97.148	101.569	-204.6776	31.1	30.13911	100	0	4	27.80849	43.0519	139.0652	
12:37:27	47.45818	-122.3065	97.148	100.3039	-278.0109	31.1	30.13911	100	0	4	29.19127	43.14872	142.4215	
12:37:28	47.45818	-122.3065	97.148	99.24565	-335.9113	31.1	30.13911	100	0	4	30.5432	43.17397	145.7732	
12:37:28	47.45818	-122.3065	97.148	98.08463	-395.4457	31.1	30.13911	100	0	4	32.22616	36.91459	144.5355	
12:37:28	47.45818	-122.3065	97.148	97.06107	-594.6868	31.1	30.13911	100	0	4	32.52597	18.8808	135.6065	
12:37:28	47.45815	-122.3065	97.091	95.47285	-1324.892	30.76	30.13911	100	0	4	35.81674	1.604057	124.9576	
12:37:28	47.45811	-122.3064	96.102	92.11886	-2310.237	28.73	29.8022	100	0	4	42.07953	-7.935387	116.2569	
12:37:29	47.45808	-122.3063	92.582	88.32604	-2908.488	24.55	27.689	100	0	4	48.3033	-12.456	111.0784	
12:37:29	47.45807	-122.3063	89.444	83.04774	-3305.541	22.97	23.17568	100	0	4	51.85007	-16.14817	110.9899	
12:37:29	47.45807	-122.3062	85.127	78.15668	-3462.33	21.92	21.74403	100	0	4	54.43377	-18.55275	114.5411	
12:37:29	47.45807	-122.3061	80.955	73.93766	-3481.11	21.13	20.80349	100	0	4	55.88401	-18.97849	118.9494	
12:37:29	47.45807	-122.3061	76.478	68.90028	-3425.523	20.31	19.99806	100	0	4	54.43576	-17.18272	124.514	
12:37:30	47.45807	-122.306	71.867	65.27369	-3307.938	19.78	19.09676	100	0	4	51.50948	-14.40968	131.4745	
12:37:30	47.45806	-122.306	67.095	61.07655	-3085.712	19.71	17.74126	100	0	4	48.36628	-10.31072	140.0295	
12:37:30	47.45803	-122.3059	60.06	57.43954	-2788.719	21.1	17.69005	100	0	4	45.27568	-4.922988	148.2326	
12:37:30	47.45803	-122.3059	60.06	54.39484	-2438.76	21.1	19.45256	100	0	4	42.73951	1.176016	155.0406	
12:37:30	47.458	-122.3058	55.644	51.23532	-2095.777	23.05	19.45256	100	0	4	40.63139	5.549482	159.4494	
12:37:31	47.45797	-122.3058	52.056	48.60233	-1829.575	25.03	21.70434	100	0	4	38.12061	7.17521	161.213	
12:37:31	47.45792	-122.3058	47.733	46.39181	-1699.358	26.99	24.34048	100	0	4	35.03278	7.473723	161.7919	
12:37:31	47.45787	-122.3058	44.441	44.09622	-1647.646	27.84	26.44118	100	0	4	31.54962	7.24157	161.7783	
12:37:31	47.45779	-122.3058	39.665	41.70925	-1647.682	28.38	27.35706	100	0	4	26.9094	6.895789	161.172	
12:37:31	47.45774	-122.3057	36.907	38.62561	-1665.624	28.53	27.94779	100	0	4	21.92671	6.680274	160.246	
12:37:32	47.4577	-122.3057	34.021	35.73268	-1675.253	28.67	28.12017	100	0	4	15.83526	6.344192	159.2681	
12:37:32	47.4577	-122.3057	34.021	33.04845	-1674.295	28.67	28.28278	100	0	22	9.810744	5.703793	158.2943	
12:37:32	47.4577	-122.3057	34.021	30.51865	-1639.891	28.67	28.28278	100	0	62	3.795462	4.898187	157.865	
12:37:32	47.4577	-122.3057	34.021	28.72052	-1576.907	28.67	28.28278	100	0	81	-2.118494	4.056345	157.8984	
12:37:32	47.45752	-122.3057	23.891	27.51509	-1501.914	29.16	28.28278	100	0	99	-7.618445	4.065819	157.2096	
12:37:33	47.45744	-122.3056	19.74	24.74143	-1403.425	30.04	28.77164	100	0	99	-10.57751	5.822228	154.4291	
12:37:33	47.45739	-122.3056	17.225	21.85696	-1281.905	30.99	29.60623	100	0	99	-7.614789	8.183721	151.178	
12:37:33	47.45733	-122.3056	14.876	19.1543	-1069.636	32.29	30.51261	100	0	99	-1.506624	11.4651	148.1151	
12:37:33	47.45727	-122.3056	12.892	16.82665	-783.9626	33.65	31.74914	100	0	99	2.916763	14.65282	146.545	
12:37:33	47.45721	-122.3056	11.611	15.25906	-529.2089	34.6	33.06886	100	0	99	5.165015	16.67805	146.123	
12:37:34	47.45715	-122.3055	10.9	14.02075	-333.4988	35.05	33.99465	100	0	99	5.848406	17.75331	145.2607	
12:37:34	47.45715	-122.3055	10.9	13.07346	-217.0704	35.05	34.44168	100	0	99	6.109897	18.46834	144.6321	
12:37:34	47.45706	-122.3055	10.592	12.44231	-146.6856	35.17	34.44168	100	0	99	6.36269	19.11703	144.4537	
12:37:34	47.457	-122.3054	10.762	11.8388	-86.55574	35.06	34.56146	100	0	99	6.456172	19.41125	144.3293	
12:37:34	47.45694	-122.3054	11.169	11.51409	-56.30432	34.84	34.45033	100	0	99	6.254371	18.99951	144.0179	
12:37:35	47.45688	-122.3054	11.723	11.32712	-66.14683	34.59	34.23178	100	0	99	5.883696	17.38409	143.6534	
12:37:35	47.45681	-122.3053	12.358	11.17292	-128.4084	34.36	33.98862	100	0	99	5.550917	14.83663	143.475	
12:37:35	47.45675	-122.3053	12.902	10.98463	-240.7283	34.2	33.76191	100	0	99	5.234361	11.88417	143.1222	
12:37:35	47.4567	-122.3053	13.176	10.64794	-384.962	34.1	33.6082	100	0	99	5.088023	8.91919	142.751	
12:37:35	47.45664	-122.3053	13.212	10.29274	-502.5584	34.02	33.51515	100	0	99	4.829246	7.539268	142.808	
12:37:36	47.45655	-122.3052	12.771	9.823892	-552.859	34.01	33.43808	100	0	99	4.743956	7.682607	142.9879	
12:37:36	47.45655	-122.3052	12.771	9.411278	-504.1028	34.01	33.42904	100	0	99	4.562817	8.276772	143.175	
12:37:36	47.45649	-122.3052	12.364	9.177045	-423.101	34.08	33.42904	100	0	99	4.371405	8.592977	143.4602	
12:37:36	47.45643	-122.3051	12.001	9.054011	-357.6581	34.18	33.51184	100	0	99	4.124119	8.437973	143.6884	
12:37:36	47.45637	-122.3051	11.764	8.990455	-300.4753	34.23	33.61052	100	0	99	3.992409	7.781602	143.9624	
12:37:37	47.4563	-122.3051	11.578	8.980903	-285.3595	34.23	33.66563	100	0	99	3.893458	6.198508	144.2062	
12:37:37	47.45623	-122.305	11.418	8.920886	-318.2563	34.19	33.66766	100	0	99	3.585652	3.773749	144.3043	
12:37:37	47.45614	-122.305	10.972	8.757906	-396.1324	34.15	33.63727	100	0	99	3.236559	3.751435	144.779	
12:37:37	47.45609	-122.305	10.403	8.437164	-349.6489	34.16	33.59365	100	0	99	3.209149	10.21756	145.6298	
12:37:37	47.45603	-122.305	10.013	8.558198	0.6452501	34.28	33.61065	100	0	99	3.086815	16.54286	146.4258	
12:37:38	47.45597	-122.3049	10.328	9.286527	407.331	33.84	33.7349	100	0	99	3.119386	20.09391	147.1395	
12:37:38	47.45591	-122.3049	11.425	10.55803	667.6732	32.98	33.29187	100	0	99	4.531642	21.40375	147.5901	
12:37:38	47.45586	-122.3049	12.896	11.8787	729.3685	32.26	32.43413	100	0	99	12.51664	20.95069	148.2359	
12:37:38	47.4558	-122.3048	14.627	13.03134	695.5343	31.77	31.71952	100	0	99	23.83358	19.14742	148.7914	
12:37:38	47.45574	-122.3048	16.231	14.28868	581.8188	31.53	31.24116	100	0	99	33.25485	17.30267	149.3082	
12:37:39	47.45568	-122.3048	17.652	15.36687	480.044	31.41	31.01133	100	0	99	39.50501	16.16972	150.7063	
12:37:39	47.45568	-122.3048	17.652	16.34953	414.2857	31.41	30.9094	100	0	99	42.20237	15.86414	153.8793	
12:37:39	47.45563	-122.3048	18.814	17.3461	414.4519	31.32	30.9094	100	0	99	43.33082	16.3915	158.3419	
12:37:39	47.45557	-122.3048	20.008	18.29904	455.9884	31.16	30.85216	100	0	99	44.12813	17.4881	163.1636	
12:37:40	47.45548	-122.3047	21.815	19.55485	528.5729	30.69	30.75059	100	0	99	45.76377	18.45936	168.4347	
12:37:40	47.45543	-122.3047	23.159	21.05671	590.0245	30.29	29.89126	100	0	99	47.34599	19.08239	173.5598	
12:37:40	47.45538	-122.3047	24.621	22.53021	632.1545	29.88	29.5952	100	0	99	48.69161	19.59051	178.6231	
12:37:40	47.45533	-122.3048	26.162	23.83403	655.5873	29.47	29.29384	100	0	99	49.45517	20.20703	-176.3021	
12:37:40	47.45528	-122.3048	27.764	25.23902	676.1804	29.07	28.91266	100	0	99	49.74906	20.71826	-171.0122	
12:37:41	47.45523	-122.3048	29.754	26.86448	708.5197	28.56	28.63009	100	0	99	47.16253	20.60361	-166.4664	
12:37:41	47.45515	-122.3048	32.626	28.59366	715.507	27.8	28.26805	100	0	99	36.92238	17.36706	-166.318	
12:37:41	47.45511	-122.3049	34.659	30.36391	598.9712	27.74	27.54894	100	0	98	25.98452	12.60263	-167.0871	
12:37:41	47.45506	-122.3049	36.383	31.86795	382.5994	28.11	27.54703	100	0	99	14.45976	7.180615	-167.2911	
12:37:41	47.45502	-122.3049	37.402	32.91222	160.6822	28.46	27.908	100	0	99	7.546945	3.295299	-166.3495	
12:37:42	47.45498	-122.305	38.118	33.61971	2.881286	28.8	28.2451	100	0	99	4.206598	1.170104	-165.8232	
12:37:42	47.45491	-122.305	38.5	34.17453	-110.1999	29.23	28.58296	100	0	99	2.294186	0.2922592	-165.7505	
12:37:42	47.45486	-122.305	38.483	34.66474	-149.6187	29.57	29.01642	100	0	99	1.148357	0.03657093	-165.6991	
12:37:42	47.45486	-122.305	38.483	35.11415	-138.5541	29.57	29.35039	100	0	99	0.434581	-0.08188718	-165.664	
12:37:42	47.45481	-122.3051	38.372	35.46324	-114.6007	29.9	29.35039	100	0	99	0.01506022	-0.1760393	-165.5989	
12:37:43	47.45476	-122.3051	38.227	35.8151	-87.02785	30.23	29.67657	100	0	99	-0.08870253	-0.308415	-165.6802	
12:37:43	47.45471	-122.3052	38.094	36.16623	-55.43075	30.49	30.00147	100	0	99	-0.1262235	-0.4388473	-165.8589	
12:37:43	47.45466	-122.3052	37.924	36.45832	-27.63445	30.81	30.2473	100	0	99	-0.1608415	-0.4486707	-165.9462	
12:37:43	47.45458	-122.3052	37.686	36.73728	2.584014	31.21	30.55952	100	0	99	-0.1997862	-0.5147715	-165.9311	
12:37:43	47.45452	-122.3053	37.566	36.96534	31.36443	31.45	30.95197	100	0	99	-0.3127424	-0.6757422	-165.8932	
12:37:44	47.45448	-122.3053	37.465	37.1531	53.40859	31.65	31.18178	100	0	99	-0.4842591	-0.6355886	-165.9747	
12:37:44	47.45443	-122.3053	37.393	37.36583	77.11031	31.82	31.37249	100	0	99	-0.2347136	-0.4347098	-165.9369	
12:37:44	47.45438	-122.3054	37.415	37.55078	102.9327	31.95	31.53248	100	0	99	0.1432249	-0.3212377	-165.9142	
12:37:44	47.4543	-122.3054	37.329	37.7331	122.9102	32.17	31.66168	100	0	99	0.1458667	-0.2537242	-165.9149	
12:37:44	47.45425	-122.3055	37.396	37.91559	136.4703	32.29	31.86749	100	0	99	-0.08242527	-0.266609	-165.7244	
12:37:45	47.45422	-122.3055	37.465	38.07289	149.2408	32.35	31.97984	100	0	99	-0.06639396	-0.2074421	-165.5376	
12:37:45	47.45416	-122.3055	37.579	38.23746	159.9219	32.44	32.04285	100	0	99	0.06022662	-0.1959699	-165.4182	
12:37:45	47.45416	-122.3055	37.579	38.38159	163.3699	32.44	32.12879	100	0	99	0.01099821	-0.256418	-165.1958	
12:37:45	47.45408	-122.3056	37.679	38.53742	164.1651	32.55	32.12879	100	0	99	-0.0515666	-0.2600757	-165.0279	
12:37:45	47.45402	-122.3056	37.914	38.68561	166.2691	32.6	32.22403	100	0	99	-0.3219204	-0.1641086	-164.8589	
12:37:46	47.45396	-122.3056	37.985	38.84238	173.9772	32.65	32.27881	100	0	99	-0.7545551	-0.07511905	-164.6451	
12:37:46	47.45391	-122.3057	38.113	38.99428	179.6301	32.7	32.31999	100	0	99	-0.4668925	0.006966855	-164.3504	
12:37:46	47.45391	-122.3057	38.113	39.15054	182.9305	32.7	32.36601	100	0	99	-0.08586971	0.09722126	-164.1744	
12:37:46	47.45391	-122.3057	38.113	39.31885	189.2808	32.7	32.36601	100	0	99	0.2264571	0.1268198	-163.9985	
12:37:46	47.45377	-122.3058	38.622	39.43587	191.2397	32.75	32.36601	100	0	99	0.3497608	0.1173712	-163.6862	
12:37:47	47.45369	-122.3058	38.925	39.62074	190.1066	32.76	32.40894	100	0	99	0.3535486	0.08282866	-163.3712	
12:37:47	47.45361	-122.3059	39.383	39.80994	187.0243	32.76	32.4191	100	0	100	0.2626844	0.05161986	-163.1065	
12:37:47	47.45361	-122.3059	39.383	40.03883	184.792	32.76	32.4191	100	0	99	0.1052468	0.01242052	-162.8821	
12:37:47	47.45355	-122.3059	39.581	40.23797	183.1886	32.76	32.4191	100	0	99	-0.08830692	-0.0335911	-162.6337	
12:37:47	47.45355	-122.3059	39.581	40.44954	178.28	32.76	32.41486	100	0	100	-0.2219388	-0.09188838	-162.314	
12:37:48	47.45345	-122.3059	40.099	40.61071	170.8759	32.76	32.41486	100	0	99	-0.3559153	-0.1493874	-161.9841	
12:37:48	47.45345	-122.3059	40.099	40.74339	164.6356	32.76	32.41545	100	0	99	-0.32724	-0.1584221	-161.7034	
12:37:48	47.45333	-122.306	40.697	40.94168	163.0366	32.74	32.41545	100	0	99	-0.1492378	-0.107837	-161.349	
12:37:48	47.45325	-122.3061	41.177	41.15848	167.0951	32.73	32.39792	100	0	99	-0.003062843	-0.007251249	-161.1593	
12:37:48	47.4532	-122.3061	41.485	41.45806	176.8122	32.72	32.38464	100	0	99	-0.1137213	0.07158428	-160.9875	
12:37:49	47.45315	-122.3061	41.852	41.76626	185.116	32.7	32.37497	100	0	99	-0.1490124	0.1530357	-160.4135	
12:37:49	47.45309	-122.3062	42.187	42.15307	195.5531	32.68	32.3611	100	0	99	0.02018244	0.1984962	-159.9749	
12:37:49	47.45303	-122.3062	42.624	42.5233	202.3317	32.65	32.34356	100	0	99	0.1168017	0.2216563	-159.8169	
12:37:49	47.45298	-122.3062	43.06	42.90512	208.4054	32.61	32.30677	100	0	99	0.0693009	0.2161227	-159.4315	
12:37:49	47.4529	-122.3063	43.7	43.30409	211.4658	32.57	32.27428	100	0	99	0.1415711	0.2244468	-158.9573	
12:37:50	47.45284	-122.3063	44.089	43.71617	216.0574	32.53	32.23282	100	0	99	0.2490352	0.2741237	-158.5785	
12:37:50	47.45279	-122.3063	44.482	44.11076	221.5966	32.5	32.19619	100	0	99	0.1185953	0.3313408	-158.3088	
12:37:50	47.45273	-122.3064	44.897	44.57103	228.3273	32.47	32.17252	100	0	99	-0.06084513	0.295089	-157.9701	
12:37:50	47.45267	-122.3064	45.357	45.02108	230.7942	32.44	32.14466	100	0	99	0.05356517	0.3201479	-157.5009	
12:37:50	47.45262	-122.3064	45.795	45.45858	235.7263	32.41	32.11257	100	0	99	0.1755947	0.3412814	-157.1171	
12:37:51	47.45262	-122.3064	45.795	45.91061	239.5192	32.41	32.09391	100	0	99	0.2027056	0.3561582	-156.8949	
12:37:51	47.45256	-122.3065	46.223	46.2898	241.9319	32.38	32.09391	100	0	99	0.3109159	0.4006923	-156.4119	
12:37:51	47.45251	-122.3065	46.646	46.71241	244.6132	32.34	32.06171	100	0	99	0.2343076	0.4612118	-156.0013	
12:37:51	47.45244	-122.3066	47.25	47.20406	249.2576	32.3	32.02967	100	0	99	0.05678215	0.4866029	-155.761	
12:37:51	47.45239	-122.3066	47.7	47.64436	250.7381	32.27	31.99323	100	0	99	-0.05827409	0.3994707	-155.3259	
12:37:52	47.45231	-122.3066	48.397	48.03517	247.4138	32.22	31.96597	100	0	99	-0.004252557	0.3307559	-154.941	
12:37:52	47.45223	-122.3067	49.114	48.48123	244.851	32.17	31.91656	100	0	99	-0.08274445	0.3718497	-154.6756	
12:37:52	47.45218	-122.3067	49.583	48.98587	247.3303	32.14	31.87635	100	0	99	-0.05602555	0.4400428	-154.3414	
12:37:52	47.45213	-122.3068	50.037	49.43024	252.3526	32.12	31.85422	100	0	98	0.1197755	0.5032229	-153.8846	
12:37:52	47.45213	-122.3068	50.037	49.97644	258.7734	32.12	31.83661	100	0	99	0.3033276	0.5048738	-153.5744	
12:37:53	47.45208	-122.3068	50.491	50.41763	260.4784	32.09	31.83661	100	0	99	0.4355724	0.402585	-153.2507	
12:37:53	47.45201	-122.3068	51.025	50.91584	254.3219	32.06	31.80582	100	0	99	0.3647272	0.39263	-152.8438	
12:37:53	47.45196	-122.3069	51.51	51.41113	254.113	32.03	31.78001	100	0	99	0.2831957	0.464407	-152.5269	
12:37:53	47.45191	-122.3069	51.982	51.86804	256.1415	32	31.75421	100	0	99	0.1395851	0.5477718	-152.2824	
12:37:53	47.45183	-122.307	52.791	52.32516	259.0757	31.97	31.73787	100	0	99	6.384377	0.8780074	-151.7915	
12:37:54	47.45178	-122.307	53.281	52.8806	273.0795	31.95	31.71345	100	0	99	18.26861	2.88104	-150.1397	
12:37:54	47.45172	-122.307	53.908	53.53252	376.7501	31.85	31.69311	100	0	99	29.50556	5.074513	-147.6405	
12:37:54	47.45167	-122.3071	54.635	54.38459	489.1177	31.63	31.6242	100	0	99	38.08111	6.682607	-144.0752	
12:37:54	47.4516	-122.3071	56.161	55.31778	567.4316	31.23	31.47598	100	0	99	44.08801	7.228548	-139.698	
12:37:54	47.45155	-122.3072	57.376	56.32064	604.5914	30.98	30.50125	100	0	99	46.97901	7.448947	-135.0279	
12:37:55	47.45151	-122.3072	58.675	57.43946	621.2795	30.75	30.4058	100	0	99	47.71019	7.945581	-130.515	
12:37:55	47.45151	-122.3072	58.675	58.56241	637.9498	30.75	30.33736	100	0	99	47.57935	8.458179	-125.9147	
12:37:55	47.45147	-122.3073	59.997	59.47095	649.7045	30.54	30.33736	100	0	99	47.33664	8.543436	-120.984	
12:37:55	47.45143	-122.3074	61.175	60.81283	668.5338	30.31	30.30846	100	0	99	47.08043	8.719831	-116.6065	
12:37:55	47.45139	-122.3075	63.232	61.90226	672.451	29.98	30.24964	100	0	99	47.01954	8.78222	-112.4398	
12:37:56	47.45136	-122.3075	64.583	63.09499	671.5729	29.8	30.17593	100	0	99	47.09687	8.677614	-108.1629	
12:37:56	47.45134	-122.3076	65.905	64.62709	676.5229	29.65	30.22483	100	0	100	46.91021	8.667854	-103.8412	
12:37:56	47.45132	-122.3077	67.106	66.03413	683.8423	29.53	30.22452	100	0	99	46.63525	8.947742	-99.42449	
12:37:56	47.4513	-122.3077	68.523	67.40182	696.4616	29.38	30.23534	100	0	99	46.46738	9.160898	-94.86947	
12:37:56	47.45129	-122.3079	70.585	68.76587	709.9072	29.16	30.11058	100	0	99	46.44035	9.264462	-90.40263	
12:37:57	47.45128	-122.3079	71.907	70.0366	713.7003	29.03	30.11282	100	0	99	46.99187	9.285726	-85.93153	
12:37:57	47.45128	-122.3079	71.907	71.32332	718.0378	29.03	30.11946	100	0	99	46.89431	9.330249	-81.53667	
12:37:57	47.45128	-122.308	73.191	72.67255	718.9544	28.93	30.11946	100	0	99	46.60919	9.371114	-77.06577	
12:37:57	47.45129	-122.3081	75.044	74.2251	723.7005	28.81	30.2065	100	0	99	46.57107	9.418257	-72.64745	
12:37:57	47.4513	-122.3082	76.287	75.61063	726.0601	28.73	30.25322	100	0	99	46.71428	9.38712	-68.27452	
12:37:58	47.45132	-122.3083	78.007	76.79367	720.1273	28.66	30.27373	100	0	99	46.8266	9.29007	-63.78745	
12:37:58	47.45134	-122.3084	79.173	78.24709	721.8503	28.63	30.20667	100	0	99	47.14491	9.213934	-59.27438	
12:37:58	47.45136	-122.3084	80.4	79.74342	716.5967	28.61	30.2589	100	0	99	46.79605	9.322867	-54.89054	
12:37:58	47.45138	-122.3085	81.474	80.90916	712.1616	28.61	30.31991	100	0	99	46.67679	9.272286	-50.21199	
12:37:58	47.45142	-122.3086	82.662	82.28966	707.7566	28.61	30.38687	100	0	99	46.61343	9.058426	-45.54807	
12:37:59	47.45142	-122.3086	82.662	83.53857	700.7217	28.61	30.43518	100	0	99	46.74207	9.093008	-41.18502	
12:37:59	47.45145	-122.3086	83.764	84.65269	686.6882	28.61	30.43518	100	0	99	46.4605	9.228143	-36.76368	
12:37:59	47.4515	-122.3087	85.263	85.66995	677.5745	28.63	30.48056	100	0	99	46.30795	9.255037	-32.13227	
12:37:59	47.45154	-122.3087	86.184	86.71929	670.0797	28.66	30.32111	100	0	99	46.65353	9.152141	-27.42707	
12:37:59	47.45158	-122.3088	87.228	87.88285	656.772	28.7	30.36875	100	0	99	46.83778	9.193618	-22.92687	
12:38:00	47.45164	-122.3089	88.499	88.77695	643.103	28.77	30.41058	100	0	99	45.88605	9.226821	-18.51395	
12:38:00	47.45169	-122.3089	89.448	89.83594	637.4034	28.85	30.4073	100	0	99	38.54412	8.365044	-15.07051	
12:38:00	47.45176	-122.3089	90.501	90.84016	615.0908	28.95	30.45988	100	0	99	28.24141	6.357898	-13.07519	
12:38:00	47.45181	-122.3089	91.253	91.80796	517.4808	29.08	30.52588	100	0	99	17.80725	4.098492	-11.88368	
12:38:00	47.45186	-122.3089	91.884	92.40766	414.0111	29.27	30.63977	100	0	99	9.000278	1.996322	-10.64883	
12:38:01	47.45186	-122.3089	91.884	92.90839	291.1862	29.27	31.14007	100	0	99	3.546085	0.5010524	-9.552883	
12:38:01	47.4519	-122.309	92.253	93.16479	202.5707	29.45	31.14007	100	0	99	1.144386	-0.2259095	-8.879094	
12:38:01	47.45199	-122.309	92.537	93.30257	148.776	29.8	31.30955	100	0	99	0.2202405	-0.5196975	-8.583516	
12:38:01	47.45204	-122.309	92.56	93.37126	115.6504	30.04	31.65007	100	0	99	-0.1600293	-0.5962542	-8.322462	
12:38:02	47.4521	-122.309	92.53	93.41891	100.8745	30.28	31.88856	100	0	99	-0.2630117	-0.5334636	-7.99554	
12:38:02	47.45215	-122.309	92.506	93.43774	94.71941	30.5	32.11573	100	0	99	-0.1608508	-0.4544897	-7.671231	
12:38:02	47.45221	-122.309	92.472	93.4394	91.63284	30.72	32.33672	100	0	99	-0.08613686	-0.4324147	-7.390964	
12:38:02	47.45228	-122.3091	92.344	93.43031	87.48443	30.97	32.54745	100	0	99	-0.01354372	-0.3738901	-7.08918	
12:38:02	47.45234	-122.3091	92.383	93.40973	84.50134	31.15	32.79444	100	0	99	0.1983179	-0.3241374	-6.707253	
12:38:03	47.45239	-122.3091	92.385	93.36892	82.89923	31.3	32.96597	100	0	99	0.3308555	-0.2591588	-6.349892	
12:38:03	47.45245	-122.3091	92.402	93.34045	80.38644	31.42	33.10956	100	0	99	0.400865	-0.2556953	-6.129807	
12:38:03	47.45245	-122.3091	92.402	93.30415	73.67935	31.42	33.23178	100	0	99	0.3035448	-0.2416382	-5.848535	
12:38:03	47.45251	-122.3091	92.502	93.26734	67.1965	31.54	33.23178	100	0	47	0.1991069	-0.2116892	-5.428038	
12:38:03	47.45257	-122.3091	92.507	93.24501	61.79953	31.66	33.3459	100	0	64	-6.042304	0.1893529	-5.118349	
12:38:04	47.45263	-122.3091	92.607	93.22382	66.06674	31.74	33.45473	100	0	66	-15.50897	1.236002	-5.435648	
12:38:04	47.45268	-122.3091	92.632	93.26485	101.9925	31.73	33.53667	100	0	71	-24.35235	2.35267	-6.414519	
12:38:04	47.45277	-122.3092	92.869	93.3764	143.8925	31.18	33.52073	100	0	77	-30.90988	3.323211	-8.226039	
12:38:04	47.45282	-122.3092	93.106	93.57971	179.5903	30.79	32.97522	100	0	82	-35.8749	4.60264	-10.75407	
12:38:04	47.45282	-122.3092	93.106	93.81203	208.255	30.79	32.60672	100	0	88	-39.19725	5.635245	-13.81171	
12:38:05	47.45288	-122.3092	93.58	94.12914	242.1392	30.46	32.60672	100	0	92	-40.96205	6.466644	-17.17184	
12:38:05	47.45293	-122.3092	94.11	94.52895	271.5712	30.15	32.29808	100	0	95	-41.4039	7.39723	-20.85717	
12:38:05	47.45298	-122.3092	94.722	94.9922	306.3554	29.88	32.02303	100	0	96	-41.03191	8.362545	-24.57199	
12:38:05	47.45306	-122.3093	95.855	95.62469	352.3637	29.56	31.78256	100	0	93	-40.37402	9.142867	-28.20786	
12:38:05	47.45311	-122.3093	96.746	96.40056	395.5337	29.38	30.48942	100	0	90	-39.44035	9.631645	-31.51017	
12:38:06	47.4532	-122.3093	98.831	97.21785	423.4661	28.96	30.31749	100	0	88	-36.98059	9.920955	-34.37563	
12:38:06	47.45324	-122.3094	99.964	97.9805	435.7692	28.73	29.92256	100	0	84	-34.07113	9.803121	-36.78705	
12:38:06	47.4533	-122.3095	101.966	98.94025	433.4096	28.31	30.03023	100	0	79	-30.16902	9.24603	-38.61725	
12:38:06	47.4533	-122.3095	101.966	99.86723	410.413	28.31	29.61808	100	0	75	-25.33708	8.575351	-40.06821	
12:38:06	47.45335	-122.3095	103.212	100.9135	390.7209	28.04	29.61808	100	0	72	-20.62514	7.906817	-41.38002	
12:38:07	47.45335	-122.3095	103.212	101.7677	367.2927	28.04	29.34559	100	0	68	-15.39365	6.43524	-41.98771	
12:38:07	47.45338	-122.3096	104.481	102.8938	316.015	27.78	29.34559	100	0	64	-11.38827	4.612224	-42.36434	
12:38:07	47.45341	-122.3096	105.58	103.6978	256.7675	27.53	29.08318	100	0	60	-8.756037	2.658276	-42.56529	
12:38:07	47.45351	-122.3097	107.872	104.5698	177.3728	26.95	28.83041	100	0	57	-6.710417	0.7728394	-42.69764	
12:38:07	47.45354	-122.3098	108.575	105.2877	121.8113	26.75	28.25661	100	0	55	-4.988692	-0.8022864	-42.86638	
12:38:08	47.45358	-122.3099	108.958	106.0476	64.26445	26.57	27.92848	100	0	52	-3.509502	-2.224992	-43.01477	
12:38:08	47.45358	-122.3099	108.958	106.5531	27.64862	26.57	27.75163	100	0	50	-2.639528	-3.485986	-43.05946	
12:38:08	47.45362	-122.3099	109.236	107.0024	-6.147238	26.41	27.75163	100	0	48	-2.116819	-4.676429	-43.06861	
12:38:08	47.45362	-122.3099	109.236	107.3501	-35.02545	26.41	27.58909	100	0	46	-1.78655	-5.595845	-43.07496	
12:38:08	47.45367	-122.31	109.433	107.6248	-58.27888	26.18	27.58909	100	0	45	-1.594959	-6.353411	-43.04489	
12:38:09	47.4537	-122.31	109.444	107.8515	-78.18514	26.05	27.36356	100	0	43	-1.537846	-7.007473	-43.01116	
12:38:09	47.45374	-122.3101	109.386	107.9836	-92.90645	25.9	27.23018	100	0	42	-1.5335	-7.513581	-42.95562	
12:38:09	47.45377	-122.3101	109.248	108.0534	-103.3078	25.79	27.0831	100	0	41	-1.57054	-7.908937	-42.87504	
12:38:09	47.45381	-122.3102	109.034	108.068	-112.4906	25.68	26.96453	100	0	40	-1.647495	-8.289513	-42.85185	
12:38:09	47.45386	-122.3102	108.677	108.0213	-121.8299	25.55	26.85345	100	0	39	-1.702836	-8.637912	-42.82592	
12:38:10	47.45389	-122.3103	108.363	107.9121	-132.5197	25.47	26.72935	100	0	39	-1.893124	-8.98391	-42.78824	
12:38:10	47.45393	-122.3103	108.021	107.7056	-147.7503	25.41	26.6472	100	0	39	-2.195498	-9.295189	-42.74756	
12:38:10	47.45396	-122.3104	107.599	107.478	-160.4371	25.34	26.57897	100	0	38	-2.48138	-9.532633	-42.74577	
12:38:10	47.454	-122.3104	107.187	107.1965	-171.4707	25.29	26.51095	100	0	39	-2.734716	-9.669133	-42.77244	
12:38:10	47.454	-122.3104	107.187	106.8797	-179.8606	25.29	26.45667	100	0	39	-3.007928	-9.760468	-42.79886	
12:38:11	47.45403	-122.3104	106.767	106.5801	-184.012	25.25	26.45667	100	0	39	-3.26502	-9.749975	-42.84741	
12:38:11	47.45411	-122.3106	105.57	106.181	-188.7312	25.2	26.41605	100	0	39	-3.426403	-9.69967	-42.91648	
12:38:11	47.45411	-122.3106	105.57	105.7275	-194.1356	25.2	26.37002	100	0	40	-3.620065	-9.591053	-43.02188	
12:38:11	47.4542	-122.3107	104.337	105.3524	-195.0553	25.2	26.37002	100	0	41	-3.835018	-9.411533	-43.13343	
12:38:11	47.45424	-122.3107	103.825	104.8607	-194.4306	25.21	26.36393	100	0	41	-4.010915	-9.145134	-43.2705	
12:38:12	47.45427	-122.3108	103.36	104.4149	-193.1055	25.23	26.37741	100	0	42	-4.214139	-8.868366	-43.40453	
12:38:12	47.45427	-122.3108	103.36	103.8961	-188.839	25.23	26.39764	100	0	43	-4.368364	-8.52231	-43.57419	
12:38:12	47.45431	-122.3108	102.841	103.5013	-182.3387	25.25	26.39764	100	0	44	-4.51288	-8.140764	-43.74028	
12:38:12	47.45431	-122.3108	102.841	103.017	-172.6521	25.25	26.41727	100	0	44	-4.578359	-7.724831	-43.9387	
12:38:12	47.45438	-122.3109	101.987	102.5962	-162.6072	25.29	26.41727	100	0	46	-4.619555	-7.30179	-44.20793	
12:38:13	47.45441	-122.311	101.635	102.1936	-152.005	25.31	26.46288	100	0	46	-4.613369	-6.878181	-44.51074	
12:38:13	47.45444	-122.311	101.298	101.8664	-141.3141	25.33	26.48214	100	0	47	-3.676469	-6.4599	-44.77459	
12:38:13	47.45448	-122.311	101.015	101.4768	-129.103	25.33	26.50099	100	0	48	4.260904	-6.096969	-44.72152	
12:38:13	47.45448	-122.311	101.015	101.2056	-116.3621	25.33	26.50586	100	0	48	12.40346	-5.774902	-44.43478	
12:38:13	47.45452	-122.3111	100.61	100.9694	-104.2724	25.34	26.50586	100	0	49	20.53614	-5.514728	-44.04366	
12:38:14	47.45452	-122.3111	100.61	100.7822	-98.09774	25.34	26.5127	100	0	51	28.21579	-5.658324	-42.36239	
12:38:14	47.45461	-122.3112	100.093	100.539	-111.7135	25.35	26.5127	100	0	54	34.88387	-6.171078	-40.13713	
12:38:14	47.45467	-122.3113	99.763	100.2751	-137.8964	25.37	26.49945	100	0	56	40.52131	-7.010099	-37.38396	
12:38:14	47.45467	-122.3113	99.763	99.89531	-180.3591	25.37	26.49614	100	0	61	41.1613	-7.327853	-34.0132	
12:38:14	47.45472	-122.3113	99.349	99.5036	-213.1333	25.43	26.49614	100	0	63	40.77897	-7.347646	-30.29784	
12:38:15	47.45472	-122.3113	99.349	99.13113	-221.2186	25.43	26.51337	100	0	64	38.82266	-6.776149	-26.01773	
12:38:15	47.45472	-122.3113	99.349	98.77419	-204.9586	25.43	26.51337	100	0	63	36.94836	-6.057302	-21.84888	
12:38:15	47.45472	-122.3113	99.349	98.50549	-176.2277	25.43	26.51337	100	0	63	35.12762	-5.189393	-17.70687	
12:38:15	47.45472	-122.3113	99.349	98.36729	-141.7234	25.43	26.51337	100	0	63	33.37865	-4.185469	-13.61201	
12:38:15	47.45494	-122.3115	98.075	98.32505	-104.8954	26.02	26.51337	100	0	62	31.70107	-3.048701	-9.543406	
12:38:16	47.45494	-122.3115	98.075	98.33996	-50.85426	26.02	26.73491	100	0	61	30.62845	-1.519587	-5.981611	
12:38:16	47.45502	-122.3115	98.419	98.25279	4.114533	25.89	26.73491	100	0	60	29.36543	-0.5187145	-2.744277	
12:38:16	47.4551	-122.3115	99.199	98.32304	48.62412	25.57	26.33119	100	0	60	26.50831	0.1213865	0.2895827	
12:38:16	47.45515	-122.3115	99.813	98.57915	79.22774	25.34	25.94441	100	0	58	21.54357	0.3778563	2.85032	
12:38:16	47.4552	-122.3115	100.449	98.88595	99.07236	25.13	25.68386	100	0	56	15.46209	0.5713402	4.783755	
12:38:17	47.45524	-122.3115	101.159	99.32401	115.256	24.88	25.70663	100	0	54	9.972672	0.5608172	6.342694	
12:38:17	47.45531	-122.3115	102.223	99.72144	121.8391	24.53	25.44074	100	0	52	5.416248	0.3874515	7.41801	
12:38:17	47.45531	-122.3115	102.223	100.2179	120.5657	24.53	25.0706	100	0	51	1.923636	0.02515589	8.081141	
12:38:17	47.45531	-122.3115	102.223	100.7637	109.5299	24.53	25.0706	100	0	49	-1.216359	-0.8795507	8.465719	
12:38:17	47.45539	-122.3114	103.452	101.3369	86.2298	24.12	25.0706	100	0	47	-3.739523	-1.859359	8.636493	
12:38:18	47.45539	-122.3114	103.452	101.8141	60.34567	24.12	24.65943	100	0	46	-5.287864	-2.689015	8.623461	
12:38:18	47.45546	-122.3114	104.253	102.2028	29.85989	23.85	24.65943	100	0	45	-6.58647	-3.557808	8.418447	
12:38:18	47.45552	-122.3114	104.876	102.6153	7.26333	23.62	24.38926	100	0	44	-7.221444	-4.463072	8.118056	
12:38:18	47.45559	-122.3114	105.282	102.9685	-12.31701	23.45	24.1673	100	0	43	-7.673911	-5.310534	7.780617	
12:38:18	47.45563	-122.3114	105.436	103.2979	-34.16727	23.34	24.00097	100	0	42	-7.540022	-6.010058	7.294539	
12:38:19	47.45567	-122.3114	105.493	103.6206	-49.3589	23.26	23.90379	100	0	40	-7.234455	-6.632231	6.77339	
12:38:19	47.45567	-122.3114	105.493	103.8558	-60.45064	23.26	23.82715	100	0	39	-6.80152	-7.166083	6.280338	
12:38:19	47.45572	-122.3114	105.469	104.023	-68.70385	23.19	23.82715	100	0	39	-6.293432	-7.655993	5.805961	
12:38:19	47.45576	-122.3114	105.379	104.1627	-79.27071	23.13	23.76283	100	0	38	-5.723281	-8.087237	5.364461	
12:38:19	47.4558	-122.3114	105.221	104.2286	-88.52439	23.09	23.71086	100	0	37	-5.174574	-8.464731	4.935902	
12:38:20	47.4558	-122.3114	105.221	104.2398	-96.2561	23.09	23.67163	100	0	37	-4.612013	-8.809721	4.526322	
12:38:20	47.4558	-122.3114	105.221	104.2355	-104.3407	23.09	23.67163	100	0	37	-4.051502	-9.147963	4.129343	
12:38:20	47.4558	-122.3114	105.221	104.2148	-113.0047	23.09	23.67163	100	0	36	-3.484172	-9.484982	3.735296	
12:38:20	47.45585	-122.3114	105.037	104.1844	-120.5704	23.06	23.67163	100	0	36	-2.853736	-9.782983	3.432694	
12:38:20	47.45603	-122.3114	103.678	104.1229	-127.0301	23.03	23.64539	100	0	36	-2.820064	-9.906061	3.26922	
12:38:21	47.45603	-122.3114	103.678	103.8082	-143.2195	23.03	23.63698	100	0	36	-3.107692	-9.985377	3.175515	
12:38:21	47.45608	-122.3114	103.274	103.5069	-157.077	23.07	23.63698	100	0	37	-2.826187	-9.91993	2.969392	
12:38:21	47.45616	-122.3114	102.407	103.208	-159.7938	23.15	23.6778	100	0	38	-1.991975	-9.683551	2.673771	
12:38:21	47.45622	-122.3114	101.761	102.863	-158.5486	23.22	23.76032	100	0	38	-1.24923	-9.39559	2.469899	
12:38:21	47.45626	-122.3114	101.314	102.4021	-156.7883	23.28	23.83224	100	0	39	-0.5420595	-9.045948	2.36265	
12:38:22	47.45626	-122.3114	101.314	101.9867	-152.3288	23.28	23.89312	100	0	41	0.08004118	-8.617908	2.32117	
12:38:22	47.45631	-122.3114	100.87	101.602	-147.8718	23.34	23.89312	100	0	42	0.5294734	-8.186907	2.336712	
12:38:22	47.45637	-122.3114	100.178	101.1499	-141.471	23.44	23.95334	100	0	43	0.8803895	-7.752697	2.400716	
12:38:22	47.45641	-122.3114	99.785	100.7105	-136.4013	23.5	24.05263	100	0	44	1.129622	-7.280661	2.489561	
12:38:22	47.45647	-122.3114	99.233	100.3072	-128.8551	23.59	24.11177	100	0	45	1.307927	-6.771394	2.608553	
12:38:23	47.45652	-122.3114	98.853	99.96716	-120.7628	23.67	24.20009	100	0	46	1.341398	-6.249638	2.758862	
12:38:23	47.45656	-122.3114	98.545	99.59651	-109.7452	23.73	24.27889	100	0	47	1.30596	-5.760839	2.905805	
12:38:23	47.4566	-122.3114	98.27	99.23161	-97.38602	23.79	24.33796	100	0	48	1.270432	-5.243099	3.044604	
12:38:23	47.45664	-122.3114	98.048	98.96012	-86.69862	23.84	24.39723	100	0	49	1.154503	-4.755605	3.190915	
12:38:23	47.45671	-122.3114	97.778	98.65288	-74.77128	23.91	24.4469	100	0	50	0.921629	-4.265626	3.349739	
12:38:24	47.45671	-122.3114	97.778	98.43249	-64.30754	23.91	24.51679	100	0	51	0.7296363	-3.805967	3.487815	
12:38:24	47.45675	-122.3114	97.652	98.20502	-53.06572	23.95	24.51679	100	0	51	0.5569677	-3.385868	3.604723	
12:38:24	47.45679	-122.3114	97.514	98.01043	-42.37243	24	24.55696	100	0	52	0.4029026	-2.985471	3.698582	
12:38:24	47.45684	-122.3114	97.427	97.84982	-32.70788	24.04	24.59741	100	0	52	0.2377854	-2.642285	3.788803	
12:38:24	47.4569	-122.3113	97.348	97.71246	-22.90594	24.08	24.63792	100	0	53	0.05279111	-2.316387	3.877743	
12:38:25	47.45694	-122.3113	97.327	97.62641	-14.88252	24.1	24.67882	100	0	53	-0.1243323	-2.015124	3.964039	
12:38:25	47.45694	-122.3113	97.327	97.54916	-5.008804	24.1	24.69937	100	0	54	-0.300611	-1.76626	4.037614	
12:38:25	47.45699	-122.3113	97.327	97.50542	1.385285	24.12	24.69937	100	0	54	-0.4222771	-1.552022	4.087482	
12:38:25	47.45704	-122.3113	97.351	97.48055	7.277182	24.14	24.71998	100	0	54	-0.5365073	-1.358922	4.110117	
12:38:25	47.45708	-122.3113	97.393	97.47696	11.26697	24.16	24.73065	100	0	54	-0.6503301	-1.211431	4.112768	
12:38:26	47.45713	-122.3113	97.447	97.48556	14.32367	24.17	24.7512	100	0	54	-0.7859916	-1.097994	4.115549	
12:38:26	47.45717	-122.3113	97.509	97.50708	16.43326	24.18	24.76159	100	0	54	-0.9230617	-1.019357	4.113404	
12:38:26	47.45723	-122.3113	97.609	97.54259	17.69321	24.2	24.77199	100	0	54	-0.9670597	-0.9506715	4.095131	
12:38:26	47.45723	-122.3113	97.609	97.58851	18.98732	24.2	24.79262	100	0	54	-1.005666	-0.9524665	4.071979	
12:38:26	47.45732	-122.3113	97.744	97.63746	17.98227	24.22	24.79262	100	0	54	-1.103541	-1.008203	4.073359	
12:38:27	47.45737	-122.3113	97.803	97.68589	14.95789	24.23	24.81305	100	0	54	-1.129222	-1.090354	4.089226	
12:38:27	47.45737	-122.3113	97.803	97.72137	10.13087	24.23	24.82328	100	0	54	-1.108429	-1.141359	4.063444	
12:38:27	47.45742	-122.3113	97.849	97.7484	6.359538	24.25	24.82328	100	0	55	-1.10699	-1.167518	4.031132	
12:38:27	47.45748	-122.3113	97.89	97.77654	3.350763	24.28	24.8435	100	0	55	-1.098467	-1.197193	4.031288	
12:38:27	47.45752	-122.3113	97.904	97.80172	1.513964	24.31	24.87373	100	0	55	-1.101096	-1.212051	4.046964	
12:38:28	47.45757	-122.3113	97.913	97.82294	0.9209724	24.34	24.90396	100	0	55	-1.112843	-1.229276	4.035703	
12:38:28	47.45764	-122.3113	97.913	97.84046	-0.05628043	24.38	24.93395	100	0	55	-1.129294	-1.2744	4.020201	
12:38:28	47.45764	-122.3113	97.913	97.85118	-1.974793	24.38	24.97443	100	0	55	-1.112006	-1.306262	4.027329	
12:38:28	47.45768	-122.3113	97.91	97.85674	-3.947738	24.41	24.97443	100	0	55	-1.199129	-1.305518	4.041245	
12:38:28	47.45768	-122.3113	97.91	97.85703	-4.683674	24.41	25.00467	100	0	55	-1.295021	-1.294966	4.071385	
12:38:29	47.45768	-122.3113	97.91	97.85555	-5.33972	24.41	25.00467	100	0	55	-1.390391	-1.284021	4.120275	
12:38:29	47.45768	-122.3113	97.91	97.85335	-5.903706	24.41	25.00467	100	0	55	-1.486542	-1.272583	4.183586	
12:38:29	47.45768	-122.3113	97.91	97.85082	-6.386739	24.41	25.00467	100	0	55	-1.582911	-1.260758	4.257333	
12:38:29	47.45776	-122.3113	97.88	97.84725	-6.934023	24.48	25.00467	100	0	56	-1.640308	-1.23656	4.302532	
12:38:29	47.45798	-122.3113	97.692	97.84177	-6.786174	24.68	25.07516	100	0	56	-1.583823	-1.224734	4.280519	
12:38:30	47.45798	-122.3113	97.692	97.82663	-6.655128	24.68	25.26588	100	0	56	-1.511164	-1.320164	4.259119	
12:38:30	47.45806	-122.3113	97.612	97.77883	-7.71693	24.73	25.26588	100	0	56	-1.490081	-1.262042	4.223273	
12:38:30	47.45815	-122.3113	97.505	97.73271	-8.453159	24.81	25.31613	100	0	56	-1.473246	-1.213029	4.207427	
12:38:30	47.45815	-122.3113	97.505	97.68286	-8.232074	24.81	25.39693	100	0	57	-1.442789	-1.157556	4.205884	
12:38:31	47.45815	-122.3113	97.505	97.64045	-7.313704	24.81	25.39693	100	0	57	-1.407801	-1.088591	4.21013	
12:38:31	47.45821	-122.3113	97.434	97.6006	-5.200825	24.87	25.39693	100	0	57	-1.4488	-0.9645125	4.179144	
12:38:31	47.45825	-122.3112	97.392	97.56025	-2.325259	24.91	25.4572	100	0	57	-1.530873	-0.8059482	4.140921	
12:38:31	47.45829	-122.3112	97.355	97.52292	1.460656	24.95	25.49776	100	0	58	-1.604343	-0.696263	4.108753	
12:38:31	47.45836	-122.3112	97.327	97.49737	3.726246	25.02	25.53804	100	0	58	-1.631	-0.6490169	4.066364	
12:38:32	47.45845	-122.3112	97.341	97.47189	4.84816	25.09	25.60861	100	0	58	-1.625983	-0.6160233	4.018688	
12:38:32	47.4585	-122.3112	97.348	97.45614	5.91054	25.12	25.67888	100	0	58	-1.626685	-0.5694551	3.968915	
12:38:32	47.4585	-122.3112	97.348	97.44694	7.150861	25.12	25.70918	100	0	58	-1.683444	-0.4847316	3.933831	
12:38:32	47.45854	-122.3112	97.357	97.44348	9.042392	25.16	25.70918	100	0	58	-1.770125	-0.3495498	3.90386	
12:38:32	47.4586	-122.3112	97.372	97.44706	12.01918	25.21	25.74915	100	0	59	-1.845144	-0.2884271	3.868172	
12:38:33	47.45866	-122.3112	97.392	97.45765	14.09707	25.24	25.79913	100	0	59	-1.837485	-0.2599917	3.816592	
12:38:33	47.4587	-122.3112	97.418	97.47046	15.28621	25.28	25.82911	100	0	59	-1.916911	-0.2182444	3.768453	
12:38:33	47.4587	-122.3112	97.418	97.49017	16.35225	25.28	25.8691	100	0	59	-2.001158	-0.2017265	3.730316	
12:38:33	47.45881	-122.3112	97.497	97.5084	16.58093	25.35	25.8691	100	0	59	-2.084596	-0.2056684	3.68951	
12:38:33	47.45885	-122.3112	97.53	97.53593	17.15816	25.38	25.93876	100	0	59	-2.146598	-0.2127011	3.638908	
12:38:34	47.45889	-122.3112	97.56	97.56844	17.34535	25.4	25.96844	100	0	59	-2.130021	-0.1655617	3.591619	
12:38:34	47.45896	-122.3112	97.609	97.59818	18.37669	25.44	25.98813	100	0	59	-2.108132	-0.133214	3.542637	
12:38:34	47.45901	-122.3112	97.641	97.6343	19.35668	25.47	26.02753	100	0	59	-2.094183	-0.1451901	3.47106	
12:38:34	47.45906	-122.3112	97.67	97.66516	19.21281	25.5	26.05724	100	0	59	-2.113324	-0.1424542	3.417494	
12:38:34	47.45911	-122.3112	97.694	97.69624	19.1313	25.53	26.08694	100	0	59	-2.18237	-0.1826134	3.407885	
12:38:35	47.45914	-122.3112	97.714	97.7305	17.93233	25.55	26.11638	100	0	59	-2.160448	-0.1735125	3.376546	
12:38:35	47.45919	-122.3112	97.732	97.75778	17.81337	25.58	26.1361	100	0	59	-2.122519	-0.1580473	3.298987	
12:38:35	47.45926	-122.3112	97.757	97.78107	17.8698	25.6	26.16583	100	0	59	-2.129178	-0.1585283	3.232462	
12:38:35	47.4593	-122.3112	97.777	97.80368	17.60578	25.63	26.1953	100	0	59	-2.217345	-0.1792961	3.216887	
12:38:35	47.4593	-122.3112	97.777	97.82807	16.65612	25.63	26.22504	100	0	59	-2.212528	-0.197719	3.180452	
12:38:36	47.45935	-122.3112	97.798	97.84797	15.45366	25.66	26.22504	100	0	60	-2.180069	-0.200551	3.128246	
12:38:36	47.45939	-122.3112	97.814	97.86437	14.94133	25.68	26.25453	100	0	60	-2.159385	-0.1881341	3.067523	
12:38:36	47.45947	-122.3112	97.841	97.88364	14.86914	25.72	26.27429	100	0	60	-2.129458	-0.1661885	3.029454	
12:38:36	47.45951	-122.3112	97.855	97.9017	15.11572	25.75	26.31357	100	0	60	-2.181968	-0.1509118	2.982597	
12:38:36	47.45951	-122.3112	97.855	97.91974	15.48408	25.75	26.34334	100	0	60	-2.240227	-0.1392738	2.914305	
12:38:37	47.45955	-122.3112	97.867	97.93647	15.87634	25.77	26.34334	100	0	60	-2.301803	-0.1391265	2.840753	
12:38:37	47.45955	-122.3112	97.867	97.95537	15.72485	25.77	26.36312	100	0	60	-2.305228	-0.1547889	2.783654	
12:38:37	47.45966	-122.3111	97.887	97.96829	13.86393	25.83	26.36312	100	0	60	-2.304977	-0.1567554	2.755147	
12:38:37	47.45971	-122.3111	97.893	97.97841	13.10796	25.85	26.42225	100	0	60	-2.306337	-0.1595191	2.692262	
12:38:37	47.45975	-122.3111	97.895	97.98599	12.33274	25.88	26.44185	100	0	60	-2.403928	-0.1365655	2.59484	
12:38:38	47.4598	-122.3111	97.898	97.99202	12.40479	25.91	26.47127	100	0	60	-2.469099	-0.1086864	2.523431	
12:38:38	47.45985	-122.3111	97.9	97.99806	13.00454	25.92	26.50091	100	0	60	-2.531606	-0.09379159	2.465168	
12:38:38	47.45992	-122.3111	97.912	98.00337	12.86824	25.96	26.52039	100	0	60	-2.596236	-0.03893449	2.398152	
12:38:38	47.45992	-122.3111	97.912	98.01035	13.8312	25.96	26.55975	100	0	60	-2.675197	-0.05124468	2.315834	
12:38:38	47.45996	-122.3111	97.922	98.01987	13.81663	25.98	26.55975	100	0	61	-2.660698	-0.03522896	2.236577	
12:38:39	47.46005	-122.3111	98.063	98.0304	14.31415	26.02	26.57932	100	0	61	-2.70988	-0.02918306	2.152236	
12:38:39	47.46012	-122.3111	98.208	98.06281	15.45533	26.06	26.61833	100	0	61	-2.803738	-0.06186729	2.050017	
12:38:39	47.46018	-122.3111	98.306	98.11143	16.34107	26.08	26.65783	100	0	61	-2.819637	-0.04983348	1.958802	
12:38:39	47.46022	-122.3111	98.398	98.17712	19.11228	26.1	26.6775	100	0	61	-2.853292	-0.02443725	1.883099	
12:38:39	47.46027	-122.3111	98.484	98.2485	21.88971	26.12	26.70723	100	0	61	-2.76774	-0.05017935	1.800261	
12:38:40	47.46032	-122.3111	98.576	98.31502	23.14771	26.13	26.72702	100	0	60	-2.687463	-0.08218509	1.695333	
12:38:40	47.46037	-122.3111	98.667	98.39641	23.9918	26.15	26.73688	100	0	60	-2.784181	-0.09412427	1.585249	
12:38:40	47.46043	-122.3111	98.794	98.46803	25.11806	26.18	26.75679	100	0	60	-2.84866	-0.0779977	1.501744	
12:38:40	47.46043	-122.3111	98.794	98.56312	28.3702	26.18	26.78676	100	0	60	-2.914593	-0.02393891	1.419838	
12:38:40	47.46043	-122.3111	98.794	98.66311	33.5873	26.18	26.78676	100	0	60	-2.979284	0.05323649	1.343335	
12:38:41	47.46053	-122.3111	98.971	98.75412	38.40974	26.21	26.78676	100	0	60	-3.010496	0.0739157	1.26196	
12:38:41	47.46058	-122.3111	99.072	98.85193	39.57609	26.22	26.81695	100	0	60	-2.991764	-0.07393429	1.159535	
12:38:41	47.46062	-122.3111	99.169	98.94125	35.73215	26.23	26.82719	100	0	59	-3.040237	-0.2528104	1.068239	
12:38:41	47.46069	-122.3111	99.278	99.0401	29.48073	26.24	26.83744	100	0	59	-3.068995	-0.4111913	0.9825214	
12:38:41	47.46069	-122.3111	99.278	99.11625	25.32196	26.24	26.84803	100	0	59	-3.030467	-0.5547193	0.8800939	
12:38:42	47.46074	-122.3111	99.328	99.19764	20.99091	26.25	26.84803	100	0	59	-3.042678	-0.6797857	0.7816737	
12:38:42	47.46078	-122.3111	99.364	99.25739	17.48927	26.27	26.85845	100	0	59	-3.012835	-0.8057541	0.7024372	
12:38:42	47.46083	-122.3111	99.384	99.29892	14.20066	26.28	26.87893	100	0	59	-2.947339	-0.8954247	0.6124473	
12:38:42	47.4609	-122.3111	99.395	99.33847	11.76734	26.31	26.88946	100	0	59	-2.859742	-0.9732634	0.5110397	
12:38:42	47.46095	-122.3111	99.393	99.37034	9.479133	26.33	26.92054	100	0	59	-2.79584	-1.019763	0.4105232	
12:38:43	47.461	-122.3111	99.385	99.39148	9.189692	26.35	26.94124	100	0	59	-2.716933	-1.030656	0.3263001	
12:38:43	47.46104	-122.3111	99.374	99.40675	9.780757	26.35	26.96199	100	0	59	-2.629333	-1.032931	0.2535449	
12:38:43	47.46109	-122.3111	99.363	99.42025	10.53776	26.39	26.9726	100	0	59	-2.526447	-1.025858	0.1835556	
12:38:43	47.46109	-122.3111	99.363	99.43214	11.20838	26.39	27.00323	100	0	59	-2.432575	-1.046749	0.1137586	
12:38:43	47.46114	-122.3111	99.352	99.43855	11.434	26.41	27.00323	100	0	59	-2.348286	-1.059334	0.0345351	
12:38:44	47.46122	-122.3111	99.337	99.4428	11.4184	26.43	27.02413	100	0	59	-2.341901	-1.064183	-0.02367633	
12:38:44	47.46127	-122.3111	99.322	99.44328	11.24849	26.45	27.04509	100	0	59	-2.365442	-1.049092	-0.06071497	
12:38:44	47.46132	-122.3111	99.303	99.4416	11.9352	26.47	27.06585	100	0	59	-2.34263	-1.05456	-0.1117603	
12:38:44	47.46137	-122.3111	99.283	99.43828	11.74718	26.48	27.08636	100	0	59	-2.330211	-1.077374	-0.1729241	
12:38:44	47.46148	-122.3111	99.24	99.42966	10.43904	26.52	27.09718	100	0	59	-2.164705	-1.083824	-0.2301087	
12:38:45	47.46148	-122.3111	99.24	99.41665	8.92142	26.52	27.13859	100	0	59	-2.1851	-1.055014	-0.2739323	
12:38:45	47.46153	-122.3111	99.224	99.40134	9.8754	26.53	27.13859	100	0	59	-2.204764	-1.021171	-0.3041635	
12:38:45	47.46157	-122.3111	99.214	99.38713	10.8129	26.55	27.14918	100	0	59	-2.173212	-0.9885554	-0.3388944	
12:38:45	47.46163	-122.3111	99.208	99.37644	11.8291	26.56	27.16979	100	0	59	-2.180862	-0.975715	-0.3833574	
12:38:45	47.46167	-122.3111	99.207	99.36927	12.41865	26.57	27.18073	100	0	59	-2.197952	-0.939904	-0.4320172	
12:38:46	47.46172	-122.3111	99.275	99.36273	12.88883	26.58	27.19104	100	0	59	-2.30371	-0.9099645	-0.4700772	
12:38:46	47.46178	-122.3111	99.366	99.366	13.94804	26.59	27.20169	100	0	59	-2.351534	-0.8668995	-0.5137587	
12:38:46	47.46183	-122.3111	99.427	99.38346	16.36883	26.6	27.2127	100	0	59	-2.350186	-0.8441951	-0.5745767	
12:38:46	47.46183	-122.3111	99.427	99.4218	19.3506	26.6	27.22374	100	0	59	-2.276865	-0.8229348	-0.6475955	
12:38:46	47.46188	-122.3111	99.495	99.46473	21.95229	26.61	27.22374	100	0	59	-2.196279	-0.8230634	-0.7132981	
12:38:47	47.46194	-122.3111	99.583	99.5177	24.28563	26.62	27.23444	100	0	59	-2.201781	-0.8283464	-0.7490293	
12:38:47	47.462	-122.3111	99.66	99.57646	25.87473	26.62	27.24591	100	0	59	-2.215674	-0.8331574	-0.7879841	
12:38:47	47.46205	-122.3111	99.733	99.63389	27.33305	26.63	27.24666	100	0	59	-2.219326	-0.8433862	-0.8408656	
12:38:47	47.4621	-122.3111	99.807	99.71128	28.89337	26.63	27.25743	100	0	58	-2.205179	-0.8903802	-0.8918864	
12:38:47	47.4621	-122.3111	99.807	99.77637	29.2143	26.63	27.25821	100	0	58	-2.111885	-0.9121366	-0.9224764	
12:38:48	47.46219	-122.3111	99.966	99.84409	29.78122	26.62	27.25821	100	0	58	-2.009871	-0.930628	-0.9495159	
12:38:48	47.46227	-122.3111	100.079	99.91708	30.86962	26.62	27.25025	100	0	58	-1.911937	-0.9740229	-0.9911468	
12:38:48	47.46232	-122.3111	100.161	99.99602	31.40245	26.61	27.25151	100	0	58	-1.92042	-1.071139	-1.026835	
12:38:48	47.46237	-122.3111	100.231	100.0842	29.58666	26.61	27.24195	100	0	58	-1.836973	-1.172643	-1.052237	
12:38:48	47.46242	-122.3111	100.29	100.1543	26.97904	26.6	27.24238	100	0	57	-1.695045	-1.277278	-1.06715	
12:38:49	47.46242	-122.3111	100.29	100.2197	24.34317	26.6	27.23283	100	0	57	-1.49758	-1.36859	-1.057821	
12:38:49	47.46247	-122.3111	100.337	100.2743	21.31862	26.6	27.23283	100	0	57	-1.352573	-1.447962	-1.043978	
12:38:49	47.46254	-122.3111	100.382	100.3242	19.45631	26.59	27.23326	100	0	57	-1.250154	-1.511022	-1.041181	
12:38:49	47.46259	-122.3111	100.407	100.3663	17.93346	26.59	27.22328	100	0	57	-1.212157	-1.569423	-1.033475	
12:38:49	47.46264	-122.3111	100.424	100.4013	16.24377	26.59	27.22284	100	0	57	-1.219617	-1.601081	-1.000855	
12:38:50	47.46268	-122.3111	100.437	100.4334	15.47158	26.59	27.2224	100	0	57	-1.244564	-1.656644	-0.9576887	
12:38:50	47.46275	-122.3111	100.453	100.4607	14.5123	26.59	27.22197	100	0	57	-1.334629	-1.699809	-0.9213192	
12:38:50	47.4628	-122.3111	100.46	100.4814	12.4036	26.59	27.22112	100	0	57	-1.412689	-1.677972	-0.9035742	
12:38:50	47.46284	-122.3111	100.461	100.4993	13.08013	26.59	27.2207	100	0	56	-1.503502	-1.721575	-0.8966493	
12:38:50	47.46284	-122.3111	100.461	100.5163	12.44057	26.59	27.2207	100	0	56	-1.557892	-1.786626	-0.8748339	
12:38:51	47.46292	-122.3111	100.466	100.5269	9.255234	26.59	27.2207	100	0	56	-1.399014	-1.821708	-0.8536264	
12:38:51	47.46297	-122.3111	100.458	100.5313	7.985847	26.59	27.22028	100	0	56	-1.315665	-1.846265	-0.8586048	
12:38:51	47.46302	-122.3111	100.443	100.5324	7.223781	26.59	27.22028	100	0	56	-1.317192	-1.872178	-0.8653274	
12:38:51	47.46307	-122.3111	100.423	100.5302	6.418369	26.6	27.22028	100	0	56	-1.323446	-1.876123	-0.8481562	
12:38:51	47.46313	-122.3111	100.393	100.5242	6.614968	26.6	27.22985	100	0	56	-1.314221	-1.869615	-0.821211	
12:38:52	47.46318	-122.3111	100.372	100.5149	7.461226	26.61	27.22944	100	0	56	-1.301044	-1.85748	-0.8037239	
12:38:52	47.46323	-122.3111	100.354	100.5049	7.734334	26.61	27.23903	100	0	56	-1.304396	-1.817382	-0.7964417	
12:38:52	47.46328	-122.3111	100.342	100.4953	9.130729	26.61	27.23863	100	0	56	-1.395142	-1.823421	-0.7832998	
12:38:52	47.46333	-122.3111	100.337	100.4856	9.272287	26.61	27.23823	100	0	56	-1.486021	-1.846534	-0.7665241	
12:38:52	47.46338	-122.3111	100.368	100.4746	7.768343	26.61	27.23783	100	0	56	-1.571114	-1.869214	-0.7581187	
12:38:53	47.46338	-122.3111	100.368	100.4639	6.204782	26.61	27.23783	100	0	56	-1.663363	-1.866623	-0.7631921	
12:38:53	47.46346	-122.3111	100.398	100.4567	5.618788	26.61	27.23783	100	0	56	-1.75742	-1.837954	-0.7731801	
12:38:53	47.4635	-122.3111	100.417	100.4519	5.753102	26.61	27.23744	100	0	56	-1.614768	-1.831121	-0.8093081	
12:38:53	47.46355	-122.3111	100.435	100.4561	7.034347	26.61	27.23783	100	0	56	-1.583063	-1.802315	-0.8205059	
12:38:53	47.46355	-122.3111	100.435	100.4658	9.121069	26.61	27.23783	100	0	56	-1.597855	-1.816255	-0.8098084	
12:38:54	47.46366	-122.3112	100.475	100.4795	9.452985	26.61	27.23783	100	0	56	-1.663325	-1.839888	-0.7919711	
12:38:54	47.46371	-122.3112	100.493	100.4932	9.222262	26.61	27.23783	100	0	56	-1.621586	-1.865223	-0.7999424	
12:38:54	47.46376	-122.3112	100.509	100.5083	8.811491	26.61	27.23783	100	0	56	-1.443347	-1.892898	-0.8152996	
12:38:54	47.4638	-122.3112	100.527	100.5231	8.649316	26.61	27.23783	100	0	56	-1.418601	-1.921005	-0.8072994	
12:38:54	47.46385	-122.3112	100.523	100.5377	8.368027	26.61	27.23783	100	0	56	-1.309813	-1.939908	-0.8117134	
12:38:55	47.46393	-122.3112	100.567	100.5507	8.331521	26.6	27.23744	100	0	56	-1.221152	-1.922299	-0.814546	
12:38:55	47.46393	-122.3112	100.567	100.5618	9.125893	26.6	27.22706	100	0	56	-1.216684	-1.937283	-0.7855492	
12:38:55	47.46398	-122.3112	100.597	100.5774	9.202072	26.6	27.22706	100	0	56	-1.276933	-1.961972	-0.746093	
12:38:55	47.46403	-122.3112	100.618	100.5979	9.045109	26.6	27.22668	100	0	56	-1.359919	-1.990814	-0.7177604	
12:38:55	47.46408	-122.3112	100.627	100.6172	8.795801	26.6	27.2263	100	0	56	-1.442541	-2.020778	-0.7078733	
12:38:56	47.46412	-122.3112	100.64	100.6351	8.497631	26.59	27.22592	100	0	55	-1.528006	-2.047135	-0.706371	
12:38:56	47.46417	-122.3112	100.634	100.6515	8.14555	26.59	27.21556	100	0	55	-1.62036	-2.074872	-0.7047598	
12:38:56	47.46422	-122.3112	100.627	100.6618	7.188189	26.59	27.21556	100	0	55	-1.629253	-2.167235	-0.7072705	
12:38:56	47.46429	-122.3112	100.621	100.6671	4.379959	26.59	27.21519	100	0	55	-1.707521	-2.21277	-0.7116976	
12:38:56	47.46429	-122.3112	100.621	100.6656	2.691565	26.59	27.21556	100	0	55	-1.793943	-2.163671	-0.7280596	
12:38:57	47.46434	-122.3112	100.605	100.6627	5.0465	26.59	27.21556	100	0	55	-1.871106	-2.045681	-0.7575111	
12:38:57	47.46438	-122.3112	100.594	100.6663	10.66282	26.58	27.21556	100	0	55	-1.798734	-2.028428	-0.7825664	
12:38:57	47.46443	-122.3112	100.615	100.676	12.17297	26.58	27.20556	100	0	55	-1.669319	-2.077675	-0.7955313	
12:38:57	47.4645	-122.3112	100.656	100.6881	10.47845	26.58	27.20593	100	0	55	-1.549623	-2.155169	-0.8067581	
12:38:57	47.46454	-122.3112	100.604	100.698	7.860401	26.57	27.20669	100	0	55	-1.452147	-2.23827	-0.8353211	
12:38:58	47.4646	-122.3112	100.623	100.6922	4.637184	26.57	27.19708	100	0	55	-1.455413	-2.276301	-0.8434312	
12:38:58	47.46464	-122.3112	100.574	100.6848	2.631473	26.56	27.19708	100	0	55	-1.525149	-2.287394	-0.8263124	
12:38:58	47.46469	-122.3112	100.575	100.6706	2.186766	26.56	27.18709	100	0	55	-1.602155	-2.307715	-0.8110771	
12:38:58	47.46469	-122.3112	100.575	100.6557	0.9367739	26.56	27.18709	100	0	55	-1.59321	-2.304578	-0.8237697	
12:38:58	47.46474	-122.3112	100.592	100.645	1.158625	26.56	27.18709	100	0	55	-1.610263	-2.381931	-0.8421167	
12:38:59	47.46486	-122.3112	100.57	100.6432	0.2934971	26.56	27.18709	100	0	55	-1.641405	-2.523519	-0.8507866	
12:38:59	47.4649	-122.3112	100.575	100.6374	-5.01294	26.56	27.18709	100	0	55	-1.670344	-2.513681	-0.8575286	
12:38:59	47.46495	-122.3112	100.541	100.6166	-4.948599	26.57	27.18709	100	0	55	-1.679842	-2.437844	-0.8678439	
12:38:59	47.46503	-122.3112	100.498	100.5987	-0.9428259	26.57	27.19708	100	0	55	-1.737276	-2.366742	-0.8855966	
12:39:00	47.46503	-122.3112	100.498	100.5903	3.21038	26.57	27.19747	100	0	55	-1.757379	-2.321297	-0.9155026	
12:39:00	47.46508	-122.3112	100.45	100.5836	5.056058	26.58	27.19747	100	0	55	-1.7708	-2.295873	-0.9418892	
12:39:00	47.46513	-122.3112	100.487	100.5715	6.197227	26.57	27.20746	100	0	55	-1.666772	-2.274359	-0.9707921	
12:39:00	47.46518	-122.3112	100.445	100.568	7.032426	26.57	27.19786	100	0	55	-1.653961	-2.26182	-0.9883819	
12:39:00	47.46523	-122.3112	100.422	100.5604	7.181353	26.57	27.19826	100	0	55	-1.670766	-2.285238	-0.9973955	
12:39:01	47.4653	-122.3112	100.419	100.547	5.694882	26.56	27.19826	100	0	55	-1.707047	-2.292032	-1.004441	
12:39:01	47.46534	-122.3112	100.404	100.5329	4.469873	26.56	27.18867	100	0	55	-1.695739	-2.281013	-1.019317	
12:39:01	47.46539	-122.3112	100.358	100.5199	4.003078	26.56	27.18867	100	0	55	-1.554784	-2.24912	-1.030302	
12:39:01	47.46544	-122.3112	100.353	100.5023	4.781981	26.55	27.18907	100	0	55	2.983352	-2.226733	-0.9634398	
12:39:01	47.46548	-122.3112	100.364	100.4863	7.682195	26.55	27.17908	100	0	55	11.43475	-2.279302	-0.5903032	
12:39:02	47.46548	-122.3112	100.364	100.4772	7.461488	26.55	27.17908	100	0	56	19.86838	-2.459977	0.1842918	
12:39:02	47.46555	-122.3112	100.389	100.4644	-1.65361	26.53	27.17908	100	0	57	28.13297	-2.836901	1.544468	
12:39:02	47.4656	-122.3112	100.329	100.419	-26.86638	26.53	27.14661	100	0	59	34.69168	-3.359328	3.757899	
12:39:02	47.46565	-122.3112	100.316	100.3348	-54.13961	26.53	27.13718	100	0	61	38.76463	-3.699895	6.578446	
12:39:02	47.4657	-122.3112	100.208	100.1897	-82.1115	26.57	27.12405	100	0	64	41.57224	-3.850603	9.863172	
12:39:03	47.46575	-122.3112	100.08	100.0369	-99.06459	26.66	27.13447	100	0	67	43.10002	-3.837094	13.7436	
12:39:03	47.4658	-122.3112	99.802	99.88985	-102.794	26.8	27.19129	100	0	69	44.03069	-3.657487	17.98881	
12:39:03	47.46587	-122.3111	99.345	99.69357	-98.25923	27.06	26.88843	100	0	70	44.59318	-3.298246	22.4269	
12:39:03	47.46587	-122.3111	99.345	99.50651	-86.3604	27.06	27.08471	100	0	71	45.4623	-2.966846	26.93945	
12:39:03	47.46596	-122.3111	98.763	99.29531	-73.83078	27.44	27.08471	100	0	72	46.31815	-2.676769	31.60114	
12:39:04	47.46601	-122.311	98.374	99.08341	-61.24801	27.66	27.37747	100	0	74	46.8175	-2.372454	36.39447	
12:39:04	47.46605	-122.311	98.106	98.87766	-49.41377	27.86	27.69126	100	0	75	46.84743	-1.939283	41.21779	
12:39:04	47.46609	-122.311	97.767	98.6767	-35.28079	28.06	27.83005	100	0	75	46.69997	-1.482841	46.0895	
12:39:04	47.46613	-122.3109	97.454	98.49346	-19.45383	28.24	27.96966	100	0	75	46.47871	-0.9748603	50.8659	
12:39:04	47.46613	-122.3109	97.454	98.33864	-1.629257	28.24	27.97433	100	0	76	46.5618	-0.52658	55.54682	
12:39:05	47.46616	-122.3108	97.204	98.21694	12.39377	28.4	27.97433	100	0	76	46.42479	-0.1015529	60.1263	
12:39:05	47.4662	-122.3108	96.909	98.04956	23.71365	28.63	28.07511	100	0	76	46.2481	0.306291	64.63454	
12:39:05	47.46623	-122.3107	96.633	97.92621	31.47236	28.77	28.22126	100	0	76	46.43264	0.5665375	69.07821	
12:39:05	47.46626	-122.3106	96.399	97.76911	36.1133	28.88	28.25057	100	0	77	46.60125	0.7303009	73.48122	
12:39:05	47.46628	-122.3105	96.098	97.59326	34.06461	29.01	28.31195	100	0	77	46.74112	0.8667284	77.78793	
12:39:06	47.46629	-122.3104	95.945	97.438	31.15859	29.09	28.37994	100	0	78	47.03545	0.9857072	82.12756	
12:39:06	47.4663	-122.3103	95.886	97.20533	24.70666	29.15	28.64773	100	0	79	46.85715	1.160917	86.51972	
12:39:06	47.4663	-122.3103	95.886	97.02852	20.79011	29.15	28.66662	100	0	79	46.55559	1.428969	90.88316	
12:39:06	47.4663	-122.3103	95.738	96.85176	20.84495	29.21	28.66662	100	0	80	46.19893	1.702897	95.27586	
12:39:06	47.4663	-122.3102	95.589	96.66913	24.09588	29.27	28.69426	100	0	80	45.41892	1.99102	99.59777	
12:39:07	47.4663	-122.3102	95.589	96.52355	28.18132	29.27	28.65685	100	0	79	44.43907	2.35732	103.8294	
12:39:07	47.46629	-122.31	95.327	96.41978	35.82539	29.35	28.65685	100	0	79	43.33089	2.74906	107.9799	
12:39:07	47.46627	-122.3099	95.265	96.31068	44.05051	29.36	28.67804	100	0	78	42.47017	3.048029	111.8416	
12:39:07	47.46625	-122.3098	95.284	96.20029	50.00433	29.34	28.63212	100	0	78	40.50462	3.294943	115.4918	
12:39:07	47.46622	-122.3097	95.347	96.13219	53.11437	29.3	28.59413	100	0	76	36.33413	3.58083	118.767	
12:39:08	47.46622	-122.3097	95.347	96.08852	60.67183	29.3	28.54039	100	0	74	30.61232	4.057565	121.6096	
12:39:08	47.4662	-122.3097	95.461	96.09557	81.23369	29.24	28.54039	100	0	72	24.51828	4.612779	123.8852	
12:39:08	47.46618	-122.3096	95.531	96.14332	96.40587	29.15	28.70089	100	0	70	19.11399	4.943519	125.4168	
12:39:08	47.46614	-122.3095	95.792	96.2333	105.0626	29	28.6097	100	0	69	14.19333	4.909838	126.4813	
12:39:08	47.46611	-122.3095	96.037	96.36642	95.40927	28.81	28.46069	100	0	68	9.603563	4.588961	127.1604	
12:39:09	47.46608	-122.3094	96.387	96.4629	71.69918	28.61	28.26343	100	0	67	4.458262	4.08671	127.5086	
12:39:09	47.46603	-122.3093	96.812	96.54991	46.28796	28.28	28.06227	100	0	67	-0.3233434	3.573212	127.5909	
12:39:09	47.46603	-122.3093	96.812	96.60838	15.22014	28.28	27.73824	100	0	67	-4.547523	3.218754	127.4495	
12:39:09	47.46596	-122.3092	97.196	96.68796	-15.7128	27.93	27.73824	100	0	67	-8.550177	2.917884	126.9964	
12:39:09	47.46596	-122.3092	97.196	96.73338	-35.73157	27.93	27.38517	100	0	68	-12.2854	2.531959	126.2422	
12:39:10	47.46589	-122.3091	97.45	96.73685	-51.74769	27.66	27.38517	100	0	68	-15.91378	2.102334	125.3326	
12:39:10	47.46586	-122.309	97.503	96.73107	-67.14205	27.58	27.11651	100	0	69	-18.69088	1.995644	124.1349	
12:39:10	47.46582	-122.3089	97.445	96.734	-73.70652	27.5	27.03785	100	0	70	-20.44554	1.992439	122.5544	
12:39:10	47.46582	-122.3089	97.445	96.73848	-70.21491	27.5	26.95913	100	0	70	-22.10118	2.076381	120.8095	
12:39:10	47.46579	-122.3089	97.404	96.74454	-61.8092	27.47	26.95913	100	0	71	-23.1926	2.186263	119.0338	
12:39:11	47.46576	-122.3088	97.276	96.7583	-52.72544	27.45	26.92473	100	0	71	-23.74621	2.325059	117.1617	
