Date	Latitude(deg) 	Longitude(deg)	hamsl(m)	hafl(m)	climbrate(cm/s)	GroundSpeed(m/s)	Airspeed(m/s)	Mav_Link(%)	Rssi_Link(%)	Throttle	Roll(deg)	Pitch(deg)	Yaw(deg)
09:37:01	-6.733778	38.9536	117.059	0	0	0.24	0	100	0	0	-2.236126	-13.23711	128.5776	
09:37:01	-6.733778	38.9536	117.2	0.96443	0	0.14	3	100	0	4	-2.416727	-13.35226	128.605	
09:37:01	-6.733786	38.9536	119.392	0.96443	0	0.12	3	100	0	4	-2.147262	-13.42882	128.4716	
09:37:02	-6.733786	38.9536	119.413	0.96443	0	0.09	3	100	0	5	-2.202783	-13.46119	128.4051	
09:37:02	-6.733787	38.9536	119.511	0.96443	0	0.14	3	100	0	4	-2.252353	-13.37038	128.4183	
09:37:02	-6.733787	38.9536	119.647	0.96443	0	0.11	3	100	0	4	-2.248421	-13.20934	128.4917	
09:37:02	-6.733787	38.9536	119.651	0.96443	0	0.04	3	100	0	4	-2.303674	-13.28975	128.4619	
09:37:02	-6.733788	38.9536	119.659	0.96443	0	0.19	3	100	0	4	-2.129166	-13.38258	128.3687	
09:37:03	-6.733789	38.9536	119.799	0.96443	0	0.04	3	100	0	5	-2.063401	-13.43833	128.3074	
09:37:03	-6.733789	38.9536	119.853	0.96443	0	0.16	3	100	0	4	-2.190482	-13.33987	128.4823	
09:37:03	-6.733789	38.9536	119.84	0.96443	0	0.34	3	100	0	5	-2.107427	-13.12582	128.5813	
09:37:03	-6.733789	38.9536	119.894	0.96443	0	0.13	3	100	0	4	-2.04592	-13.09463	128.5745	
09:37:03	-6.73379	38.9536	119.918	0.96443	0	0.04	3	100	0	4	-2.171345	-13.29131	128.5827	
09:37:04	-6.73379	38.9536	120.009	0.96443	0	0.19	3	100	0	4	-2.218172	-13.44001	128.6305	
09:37:04	-6.733791	38.9536	120.03	0.96443	0	0.19	3	100	0	4	-2.168836	-13.51528	128.802	
09:37:04	-6.733792	38.9536	120.062	0.96443	0	0.28	3	100	0	4	-2.171312	-13.2851	128.7164	
09:37:04	-6.733792	38.9536	120.103	0.96443	0	0.28	3	100	0	5	-2.368394	-12.92861	128.7308	
09:37:04	-6.733792	38.9536	120.211	0.96443	0	0.24	3	100	0	5	-2.361078	-12.94055	128.7262	
09:37:05	-6.733792	38.95359	120.267	0.96443	0	0.13	3	100	0	4	-2.334997	-13.01237	129.002	
09:37:05	-6.733792	38.95359	120.263	0.96443	0	0.31	3	100	0	5	-2.399813	-13.24178	129.0052	
09:37:05	-6.733793	38.9536	120.27	0.96443	0	0.38	3	100	0	4	-2.549716	-13.57161	128.8193	
09:37:05	-6.733794	38.9536	120.356	0.96443	0	0.29	3	100	0	5	-2.457104	-13.58339	128.7829	
09:37:06	-6.733794	38.9536	120.323	0.96443	0	0.13	3	100	0	5	-2.359886	-13.43413	128.6845	
09:37:06	-6.733794	38.9536	120.342	0.96443	0	0.09	3	100	0	4	-2.370228	-13.25485	128.6221	
09:37:06	-6.733794	38.95359	120.364	0.96443	0	0.19	3	100	0	4	-2.250533	-13.13298	128.5386	
09:37:06	-6.733794	38.95359	120.366	0.96443	0	0.09	3	100	0	5	-2.259231	-13.05797	128.5181	
09:37:06	-6.733794	38.95359	120.242	0.96443	0	0.35	3	100	0	4	-2.537915	-13.27225	128.7345	
09:37:07	-6.733794	38.95359	120.288	0.96443	0	0.29	3	100	0	4	-2.616162	-13.42096	128.7317	
09:37:07	-6.733794	38.95359	120.354	0.96443	0	0.12	3	100	0	4	-2.403723	-13.41952	128.5674	
09:37:07	-6.733794	38.95359	120.369	0.96443	0	0.04	3	100	0	5	-2.254646	-13.27301	128.4606	
09:37:07	-6.733794	38.95359	120.312	0.96443	0	0.22	3	100	0	4	-2.307485	-13.2865	128.5671	
09:37:07	-6.733794	38.95359	120.373	0.96443	0	0.19	3	100	0	5	-2.2621	-13.25889	128.648	
09:37:08	-6.733794	38.95359	120.441	0.96443	0	0.03	3	100	0	4	-2.189286	-13.08924	128.639	
09:37:08	-6.733794	38.95359	120.55	0.96443	0	0.04	3	100	0	4	-2.274256	-13.21993	128.643	
09:37:08	-6.733794	38.95359	120.668	0.96443	0	0.04	3	100	0	4	-2.228888	-13.22304	128.5945	
09:37:08	-6.733794	38.95359	120.756	0.96443	0	0.14	3	100	0	5	-2.154193	-13.1772	128.6542	
09:37:08	-6.733794	38.95359	120.863	0.96443	0	0.06	3	100	0	4	-2.181903	-13.12411	128.7609	
09:37:09	-6.733794	38.95359	120.961	0.96443	0	0.13	3	100	0	5	-2.231807	-13.12305	128.7544	
09:37:09	-6.733794	38.95359	121.162	0.96443	0	0.22	3	100	0	5	-2.082401	-13.11451	128.707	
09:37:09	-6.733794	38.95359	121.384	0.96443	0	0.19	3	100	0	4	-2.04023	-13.27398	128.7221	
09:37:09	-6.733794	38.95359	121.517	0.96443	0	0.34	3	100	0	4	-2.165759	-13.18904	128.8291	
09:37:09	-6.733794	38.95358	121.693	0.96443	0	0.18	3	100	0	4	-2.268713	-12.98781	128.8519	
09:37:10	-6.733794	38.95358	121.841	0.96443	0	0.16	3	100	0	4	-2.277363	-13.29208	128.8007	
09:37:10	-6.733794	38.95358	121.892	0.96443	0	0.12	3	100	0	5	-2.079265	-13.34263	128.6941	
09:37:10	-6.733794	38.95358	121.937	0.96443	0	0.22	3	100	0	4	-2.281843	-13.22832	128.9035	
09:37:10	-6.733794	38.95358	122.001	0.96443	0	0.25	3	100	0	5	-2.180013	-13.19786	128.8816	
09:37:10	-6.733794	38.95358	122.114	0.96443	0	0.12	3	100	0	4	-1.94714	-13.10969	128.825	
09:37:11	-6.733794	38.95358	122.123	0.96443	0	0.12	3	100	0	4	-2.117599	-13.18481	128.8519	
09:37:11	-6.733794	38.95358	122.063	0.96443	0	0.22	3	100	0	5	-2.022794	-13.37077	128.7985	
09:37:11	-6.733794	38.95358	122.08	0.96443	0	0.11	3	100	0	4	-1.94673	-13.51127	128.8636	
09:37:11	-6.733794	38.95358	122.17	0.96443	0	0.02	3	100	0	4	-2.009153	-13.38844	128.8509	
09:37:11	-6.733794	38.95358	122.241	0.96443	0	0.19	3	100	0	4	-1.940199	-13.36259	128.8036	
09:37:12	-6.733794	38.95358	122.298	0.96443	0	0.29	3	99	0	4	-1.749321	-13.12608	128.7483	
09:37:12	-6.733794	38.95358	122.422	0.96443	0	0.21	3	99	0	4	-1.788917	-13.08712	128.8926	
09:37:12	-6.733794	38.95358	122.526	0.96443	0	0.25	3	99	0	5	-1.88565	-13.1004	129.0701	
09:37:12	-6.733794	38.95358	122.566	0.96443	0	0.13	3	99	0	5	-1.997263	-13.19904	129.0895	
09:37:13	-6.733794	38.95358	122.58	0.96443	0	0.26	3	99	0	4	-2.170521	-13.44796	129.0677	
09:37:13	-6.733795	38.95358	122.559	0.96443	0	0.13	3	99	0	5	-2.062085	-13.39944	128.9547	
09:37:13	-6.733795	38.95358	122.371	0.96443	0	0.21	3	99	0	4	-2.083784	-13.38766	129.0938	
09:37:13	-6.733795	38.95358	122.407	0.96443	0	0.18	3	99	0	5	-2.232971	-13.56823	129.0656	
09:37:13	-6.733796	38.95358	122.38	0.96443	0	0.12	3	99	0	5	-2.064054	-13.51793	128.909	
09:37:13	-6.733796	38.95358	122.166	0.96443	0	0.22	3	99	0	5	-2.157052	-13.46019	128.8779	
09:37:14	-6.733796	38.95358	122.114	0.96443	0	0.26	3	99	0	4	-2.314636	-13.49603	128.8522	
09:37:14	-6.733796	38.95358	122.058	0.96443	0	0.22	3	99	0	5	-2.245229	-13.54325	128.9126	
09:37:14	-6.733796	38.95358	122.088	0.96443	0	0.14	3	99	0	4	-2.139913	-13.49784	128.8283	
09:37:14	-6.733795	38.95358	122.13	0.96443	0	0.14	3	99	0	4	-1.985679	-13.49833	128.7092	
09:37:14	-6.733796	38.95358	122.154	0.96443	0	0.22	3	99	0	5	-1.742148	-13.64349	128.6043	
09:37:15	-6.733796	38.95358	122.137	0.96443	0	0.24	3	99	0	4	-1.816365	-13.6829	128.8256	
09:37:15	-6.733796	38.95358	122.172	0.96443	0	0.16	3	99	0	4	-1.811999	-13.60405	128.8317	
09:37:15	-6.733796	38.95358	122.284	0.96443	0	0.22	3	99	0	4	-1.745359	-13.51277	128.7749	
09:37:15	-6.733796	38.95358	122.385	0.96443	0	0.12	3	99	0	4	-1.753931	-13.42304	128.7429	
09:37:15	-6.733796	38.95357	122.366	0.96443	0	0.37	3	99	0	5	-1.877043	-13.09429	128.7598	
09:37:16	-6.733795	38.95357	122.413	0.96443	0	0.09	3	99	0	4	-2.06925	-13.11197	129.1996	
09:37:16	-6.733795	38.95357	122.478	0.96443	0	0.14	3	99	0	4	-1.924708	-13.28873	129.1689	
09:37:16	-6.733795	38.95357	122.322	0.96443	0	0.18	3	99	0	4	-1.9918	-13.28549	129.1629	
09:37:16	-6.733795	38.95357	122.295	0.96443	0	0.02	3	99	0	5	-2.043517	-13.28281	129.1225	
09:37:16	-6.733794	38.95357	122.36	0.96443	0	0.16	3	99	0	4	-1.852203	-13.18921	129.0744	
09:37:17	-6.733794	38.95357	122.361	0.96443	0	0.06	3	99	0	5	-1.886558	-13.19137	129.3148	
09:37:17	-6.733794	38.95357	122.509	0.96443	0	0.22	3	99	0	4	-1.908904	-13.1574	129.3168	
09:37:17	-6.733792	38.95357	122.941	0.96443	0	0.28	3	99	0	5	-1.859345	-12.97493	129.3433	
09:37:17	-6.733791	38.95357	122.976	0.96443	0	0.18	3	99	0	5	-2.081559	-13.04631	129.7081	
09:37:18	-6.733791	38.95357	123.177	0.96443	0	0.29	3	99	0	4	-2.04141	-13.07451	129.7816	
09:37:18	-6.733791	38.95356	123.368	0.96443	0	0.17	3	99	0	4	-1.93874	-13.15394	129.7399	
09:37:18	-6.73379	38.95357	123.303	0.96443	0	0.11	3	99	0	4	-2.062686	-13.19534	129.7258	
09:37:18	-6.73379	38.95356	123.466	0.96443	0	0.18	3	99	0	4	-2.176848	-13.14553	129.7192	
09:37:19	-6.733789	38.95356	123.452	0.96443	0	0.17	3	97	0	4	-2.055786	-13.12895	129.8509	
09:37:19	-6.733789	38.95356	123.429	0.96443	0	0.13	3	98	0	4	-2.142183	-13.114	129.8364	
09:37:19	-6.733789	38.95356	123.437	0.96443	0	0.04	3	98	0	4	-2.175823	-13.26573	129.7813	
09:37:19	-6.733789	38.95356	123.498	0.96443	0	0.18	3	98	0	4	-2.030554	-13.39406	129.6541	
09:37:19	-6.733788	38.95357	123.391	0.96443	0	0.19	3	98	0	4	-2.192266	-13.34517	129.9659	
09:37:19	-6.733787	38.95357	123.163	0.96443	0	0.28	3	98	0	5	-2.410267	-13.45643	130.0017	
09:37:20	-6.733787	38.95357	123.108	0.96443	0	0.06	3	98	0	5	-2.291161	-13.53881	129.8288	
09:37:20	-6.733787	38.95357	123.172	0.96443	0	0.12	3	98	0	5	-2.211419	-13.47307	129.7	
09:37:20	-6.733786	38.95357	123.25	0.96443	0	0.06	3	98	0	4	-2.22195	-13.43649	129.7247	
09:37:20	-6.733786	38.95357	123.34	0.96443	0	0.19	3	98	0	4	-2.264835	-13.42398	129.7756	
09:37:20	-6.733785	38.95357	123.381	0.96443	0	0.19	3	98	0	5	-2.223995	-13.53003	129.666	
09:37:21	-6.733784	38.95357	123.454	0.96443	0	0.29	3	98	0	4	-2.292167	-13.47492	129.5921	
09:37:21	-6.733784	38.95357	123.515	0.96443	0	0.31	3	98	0	4	-2.053039	-13.59801	129.4311	
09:37:21	-6.733784	38.95357	123.516	0.96443	0	0.19	3	98	0	4	-1.976545	-13.64609	129.5558	
09:37:21	-6.733783	38.95357	123.426	0.96443	0	0.22	3	98	0	4	-2.05772	-13.60874	129.522	
09:37:21	-6.733783	38.95357	123.362	0.96443	0	0.34	3	98	0	5	-2.179256	-13.58554	129.4657	
09:37:22	-6.733782	38.95357	123.5	0.96443	0	0.14	3	98	0	4	-2.091559	-13.49465	129.3205	
09:37:22	-6.733782	38.95357	123.408	0.96443	0	0.17	3	98	0	4	-1.988337	-13.48066	129.3971	
09:37:22	-6.733782	38.95357	123.284	0.96443	0	0.06	3	98	0	4	-1.953826	-13.43475	129.469	
09:37:22	-6.733782	38.95357	123.106	0.96443	0	0.19	3	98	0	4	-1.970507	-13.46831	129.4193	
09:37:23	-6.733782	38.95357	123.15	0.96443	0	0.09	3	98	0	4	-1.886367	-13.45454	129.3383	
09:37:23	-6.733782	38.95357	123.081	0.96443	0	0.12	3	98	0	4	-1.807855	-13.4174	129.271	
09:37:23	-6.733782	38.95357	123.066	0.96443	0	0.09	3	98	0	4	-1.956955	-13.38924	129.5869	
09:37:23	-6.733782	38.95357	122.903	0.96443	0	0.07	3	98	0	5	-2.01007	-13.35619	129.5979	
09:37:23	-6.733782	38.95357	122.861	0.96443	0	0.14	3	98	0	5	-1.87517	-13.35654	129.5229	
09:37:23	-6.733782	38.95357	122.924	0.96443	0	0.26	3	98	0	4	-1.688273	-13.2195	129.4379	
09:37:24	-6.733782	38.95357	122.963	0.96443	0	0.16	3	98	0	5	-1.942695	-13.14475	129.837	
09:37:24	-6.733782	38.95357	122.929	0.96443	0	0.08	3	98	0	4	-2.066132	-13.21768	129.9226	
09:37:24	-6.733782	38.95357	123.013	0.96443	0	0.21	3	98	0	5	-1.827781	-13.17794	129.8604	
09:37:24	-6.733782	38.95357	123.169	0.96443	0	0.16	3	98	0	5	-1.739496	-13.1136	129.8363	
09:37:24	-6.733782	38.95357	123.171	0.96443	0	0.19	3	98	0	4	-1.758516	-13.09808	129.8697	
09:37:25	-6.733781	38.95357	123.248	0.96443	0	0.36	3	98	0	4	-1.800685	-12.91813	130.0176	
09:37:25	-6.733781	38.95357	123.153	0.96443	0	0.14	3	98	0	4	-1.878164	-12.92443	130.0868	
09:37:25	-6.733781	38.95357	123.137	0.96443	0	0.29	3	98	0	4	-1.9179	-12.90754	130.1032	
09:37:25	-6.73378	38.95357	123.002	0.96443	0	0.14	3	98	0	4	-1.972359	-13.15949	130.1198	
09:37:25	-6.73378	38.95357	122.754	0.96443	0	0.12	3	98	0	4	-2.01298	-13.17157	130.1331	
09:37:26	-6.733779	38.95357	122.761	0.96443	0	0.5	3	98	0	4	-1.998262	-12.80257	130.3289	
09:37:26	-6.733779	38.95357	122.662	0.96443	0	0.06	3	98	0	5	-2.046896	-13.03587	130.3593	
09:37:26	-6.733778	38.95357	122.641	0.96443	0	0.22	3	98	0	4	-1.99912	-13.11913	130.3031	
09:37:26	-6.733778	38.95357	122.476	0.96443	0	0.14	3	98	0	4	-2.069549	-13.18988	130.3015	
09:37:27	-6.733778	38.95358	122.242	0.96443	0	0.29	3	98	0	4	-2.378948	-13.13897	130.7058	
09:37:27	-6.733777	38.95358	122.129	0.96443	0	0.32	3	98	0	4	-2.482458	-13.02138	130.7486	
09:37:27	-6.733776	38.95358	121.999	0.96443	0	0.04	3	98	0	4	-2.099997	-13.12689	130.5876	
09:37:27	-6.733777	38.95358	121.925	0.96443	0	0.24	3	98	0	4	-1.725347	-13.2184	130.4442	
09:37:27	-6.733777	38.95358	121.778	0.96443	0	0.19	3	98	0	4	-1.976187	-13.34271	130.629	
09:37:28	-6.733777	38.95358	121.747	0.96443	0	0.21	3	98	0	4	-1.933237	-13.41457	130.5337	
09:37:28	-6.733777	38.95358	121.554	0.96443	0	0.29	3	98	0	4	-1.675613	-13.3274	130.4039	
09:37:28	-6.733777	38.95358	121.553	0.96443	0	0.24	3	98	0	4	-1.653774	-13.19152	130.3687	
09:37:28	-6.733778	38.95358	121.457	0.96443	0	0.42	3	98	0	5	-1.537207	-13.46145	130.3167	
09:37:28	-6.733778	38.95358	121.319	0.96443	0	0.33	3	98	0	6	-1.632615	-13.61178	130.4262	
09:37:29	-6.733778	38.95358	121.166	0.96443	0	0.29	3	98	0	5	-1.605588	-13.30751	130.4072	
09:37:29	-6.733778	38.95358	120.842	0.96443	0	0.22	3	98	0	5	-1.777157	-13.41879	130.4178	
09:37:29	-6.733778	38.95358	120.869	0.96443	0	0.18	3	98	0	4	-1.98374	-13.44012	130.3745	
09:37:29	-6.733778	38.95358	120.996	0.96443	0	0.11	3	98	0	4	-1.998089	-13.31622	130.3324	
09:37:29	-6.733778	38.95358	120.929	0.96443	0	0.11	3	98	0	4	-1.756563	-13.28422	130.3609	
09:37:30	-6.733778	38.95358	120.852	0.96443	0	0.09	3	98	0	4	-1.662093	-13.27635	130.3107	
09:37:30	-6.733778	38.95358	120.641	0.96443	0	0.28	3	98	0	5	-1.920651	-13.39042	130.3206	
09:37:30	-6.733777	38.95358	120.471	0.96443	0	0.63	3	98	0	4	-2.170202	-13.70899	130.266	
09:37:30	-6.733776	38.95358	120.418	0.96443	0	0.78	3	98	0	5	-2.451089	-13.77509	130.4296	
09:37:30	-6.733776	38.95358	120.377	0.96443	0	0.14	3	98	0	5	-1.997768	-13.44856	130.2061	
09:37:31	-6.733775	38.95359	120.411	0.96443	0	0.45	3	98	0	4	-1.932667	-13.33267	130.1357	
09:37:31	-6.733774	38.95359	120.517	0.96443	0	0.51	3	98	0	4	-2.086699	-13.12922	130.1103	
09:37:31	-6.733774	38.95359	120.551	0.96443	0	0.35	3	98	0	4	-1.862135	-13.29686	130.0257	
09:37:31	-6.733774	38.95359	120.624	0.96443	0	0.22	3	98	0	5	-1.798231	-13.14849	130.1647	
09:37:31	-6.733773	38.95359	120.843	0.96443	0	0.29	3	98	0	4	-1.744508	-13.26057	130.1445	
09:37:32	-6.733773	38.95359	121.055	0.96443	0	0.26	3	98	0	4	-1.282011	-13.07507	130.0133	
09:37:32	-6.733771	38.95359	121.541	0.96443	0	0.19	3	98	0	4	-1.436337	-12.84778	130.1206	
09:37:32	-6.73377	38.95359	121.647	0.96443	0	0.22	3	99	0	5	-1.58784	-12.94537	130.3427	
09:37:32	-6.733769	38.95359	121.713	0.96443	0	0.25	3	99	0	5	-1.672228	-13.08142	130.4849	
09:37:32	-6.733769	38.95359	121.713	0.96443	0	0.25	3	99	0	4	-1.638876	-12.83815	130.4756	
09:37:33	-6.733768	38.95359	122.074	0.96443	0	0.56	3	99	0	4	-1.608321	-13.00427	130.5016	
09:37:33	-6.733767	38.95359	121.933	0.96443	0	0.04	3	99	0	5	-2.029975	-13.05352	130.6069	
09:37:33	-6.733767	38.95359	121.734	0.96443	0	0.26	3	99	0	4	-1.598711	-12.87145	130.6585	
09:37:33	-6.733767	38.95359	121.688	0.96443	0	0.04	3	99	0	4	-1.477096	-13.13395	130.7559	
09:37:33	-6.733766	38.95359	121.777	0.96443	0	0.34	3	99	0	5	-1.505319	-13.0353	130.7457	
09:37:34	-6.733765	38.95359	121.856	0.96443	0	0.42	3	99	0	4	-1.780095	-13.02417	130.7972	
09:37:34	-6.733765	38.95359	121.749	0.96443	0	0.59	3	99	0	4	-1.908272	-13.21833	130.95	
09:37:34	-6.733765	38.95359	121.749	0.96443	0	0.59	3	99	0	5	-1.669035	-13.55136	130.9763	
09:37:34	-6.733766	38.95359	121.996	0.96443	0	0.53	3	99	0	4	-1.299443	-12.99189	130.8269	
09:37:34	-6.733766	38.95359	122.074	0.96443	0	0.29	3	99	0	5	-1.575741	-13.60716	130.9035	
09:37:35	-6.733766	38.95359	122.14	0.96443	0	0.21	3	99	0	5	-1.332691	-13.33107	130.7281	
09:37:35	-6.733767	38.95359	122.211	0.96443	0	0.14	3	98	0	4	-1.582298	-13.34325	131.0516	
09:37:35	-6.733767	38.95359	122.227	0.96443	0	0.41	3	98	0	5	-1.578401	-13.21417	131.2366	
09:37:35	-6.733767	38.95359	122.167	0.96443	0	0.19	3	98	0	4	-1.760967	-13.47902	131.2623	
09:37:35	-6.733767	38.95359	122.323	0.96443	0	0.34	3	98	0	5	-1.57054	-13.28864	131.0986	
09:37:36	-6.733766	38.95359	122.432	0.96443	0	0.06	3	98	0	4	-1.930281	-13.06861	131.2616	
09:37:36	-6.733767	38.95359	122.525	0.96443	0	0.24	3	98	0	4	-1.717607	-13.1041	131.205	
09:37:36	-6.733767	38.95359	122.536	0.96443	0	0.11	3	98	0	5	-1.635798	-13.2911	131.156	
09:37:36	-6.733767	38.95359	122.589	0.96443	0	0.09	3	98	0	4	-1.540096	-13.17776	131.0644	
09:37:36	-6.733767	38.95359	122.346	0.96443	0	0.12	3	98	0	4	-1.581533	-12.98904	131.0576	
09:37:37	-6.733766	38.9536	122.006	0.96443	0	0.13	3	98	0	4	-1.591843	-12.96752	131.343	
09:37:37	-6.733766	38.9536	121.951	0.96443	0	0.04	3	98	0	5	-1.806391	-13.11337	131.5282	
09:37:37	-6.733765	38.9536	121.725	0.96443	0	0.33	3	98	0	4	-1.792389	-13.05461	131.4626	
09:37:37	-6.733765	38.9536	121.649	0.96443	0	0.33	3	98	0	5	-1.981543	-12.92232	131.4586	
09:37:37	-6.733764	38.9536	121.642	0.96443	0	0.61	3	98	0	5	-1.705313	-12.68163	131.4059	
09:37:38	-6.733764	38.9536	121.433	0.96443	0	0.16	3	98	0	5	-1.21522	-12.53129	131.4486	
09:37:38	-6.733764	38.9536	121.329	0.96443	0	0.14	3	98	0	4	-1.576306	-12.77274	131.7432	
09:37:38	-6.733764	38.9536	121.315	0.96443	0	0.41	3	98	0	4	-1.565377	-13.00157	131.7558	
09:37:38	-6.733764	38.9536	121.224	0.96443	0	0.42	3	98	0	5	-1.319733	-12.6702	131.6966	
09:37:38	-6.733765	38.95359	121.408	0.96443	0	0.39	3	98	0	5	-1.548836	-13.12089	132.1622	
09:37:39	-6.733766	38.95359	121.407	0.96443	0	0.29	3	98	0	5	-1.361696	-13.05874	132.1241	
09:37:39	-6.733766	38.95359	121.323	0.96443	0	0.14	3	98	0	4	-1.518014	-13.0902	132.1368	
09:37:39	-6.733766	38.95359	121.222	0.96443	0	0.02	3	98	0	4	-1.73579	-13.00551	132.1224	
09:37:39	-6.733766	38.9536	121.088	0.96443	0	0.07	3	98	0	4	-1.795896	-12.85419	132.2058	
09:37:39	-6.733765	38.9536	120.895	0.96443	0	0.09	3	98	0	4	-1.810676	-12.76369	132.2855	
09:37:40	-6.733765	38.9536	120.859	0.96443	0	0.48	3	98	0	5	-1.815742	-12.73936	132.2513	
09:37:40	-6.733764	38.9536	120.828	0.96443	0	0.21	3	98	0	4	-2.051483	-12.51873	132.2863	
09:37:40	-6.733763	38.9536	120.817	0.96443	0	0.08	3	98	0	4	-1.847496	-12.95319	132.2142	
09:37:40	-6.733763	38.9536	120.824	0.96443	0	0.01	3	98	0	5	-1.740744	-13.09764	132.2519	
09:37:40	-6.733764	38.9536	120.905	0.96443	0	0.21	3	98	0	4	-1.619895	-13.14916	132.1808	
09:37:41	-6.733764	38.9536	120.932	0.96443	0	0.22	3	98	0	4	-1.371427	-13.15115	132.073	
09:37:41	-6.733764	38.9536	120.896	0.96443	0	0.03	3	99	0	5	-1.520309	-12.90405	132.0881	
09:37:41	-6.733764	38.9536	120.97	0.96443	0	0.26	3	99	0	4	-1.621768	-13.1231	132.1566	
09:37:41	-6.733764	38.9536	121.02	0.96443	0	0.13	3	99	0	4	-1.678881	-12.91561	132.2328	
09:37:41	-6.733764	38.95359	121.175	0.96443	0	0.13	3	99	0	5	-1.798544	-13.0996	132.2289	
09:37:42	-6.733764	38.95359	121.243	0.96443	0	0.29	3	99	0	4	-1.574097	-13.09991	132.1096	
09:37:42	-6.733764	38.95359	121.425	0.96443	0	0.19	3	99	0	4	-1.878618	-13.12185	132.1407	
09:37:42	-6.733765	38.95359	121.577	0.96443	0	0.17	3	99	0	4	-1.584332	-13.38366	132.349	
09:37:42	-6.733765	38.95359	121.723	0.96443	0	0.13	3	99	0	4	-1.530452	-13.32128	132.4991	
09:37:42	-6.733765	38.95359	121.927	0.96443	0	0.09	3	99	0	5	-1.783954	-13.23769	132.4637	
09:37:43	-6.733765	38.95359	122.162	0.96443	0	0.07	3	99	0	4	-1.767771	-13.20189	132.3757	
09:37:43	-6.733765	38.95359	122.197	0.96443	0	0.13	3	99	0	5	-1.729977	-13.21468	132.3608	
09:37:43	-6.733765	38.95359	122.536	0.96443	0	0.42	3	99	0	5	-1.809849	-13.21957	132.4616	
09:37:43	-6.733765	38.95359	122.824	0.96443	0	0.29	3	99	0	4	-2.085062	-13.22423	132.4094	
09:37:43	-6.733765	38.95359	122.992	0.96443	0	0.09	3	99	0	4	-1.831576	-13.39149	132.2124	
09:37:44	-6.733765	38.95359	123.092	0.96443	0	0.13	3	99	0	4	-1.613298	-13.03399	132.0575	
09:37:44	-6.733765	38.95359	123.162	0.96443	0	0.29	3	99	0	4	-1.612416	-12.97776	132.2426	
09:37:44	-6.733765	38.95359	123.192	0.96443	0	0.18	3	99	0	4	-1.882887	-13.08047	132.3314	
09:37:44	-6.733765	38.95359	123.231	0.96443	0	0.11	3	99	0	4	-1.804088	-13.07277	132.2511	
09:37:44	-6.733765	38.95359	123.216	0.96443	0	0.18	3	99	0	5	-1.277835	-12.99157	132.0809	
09:37:45	-6.733765	38.95359	123.371	0.96443	0	0.17	3	99	0	5	-1.417047	-13.07134	132.1869	
09:37:45	-6.733765	38.95359	123.348	0.96443	0	0.22	3	99	0	5	-1.114735	-12.63294	132.4131	
09:37:45	-6.733765	38.95359	123.524	0.96443	0	0.21	3	99	0	4	-0.9499301	-12.63831	132.5023	
09:37:45	-6.733764	38.95359	123.896	0.96443	0	0.56	3	99	0	4	-1.178481	-12.9172	132.6035	
09:37:45	-6.733763	38.95359	124.037	0.96443	0	0.33	3	99	0	4	-1.523078	-12.41331	132.7273	
09:37:46	-6.733763	38.9536	123.868	0.96443	0	0.24	3	99	0	4	-1.47089	-12.84183	132.8768	
09:37:46	-6.733763	38.9536	123.818	0.96443	0	0.11	3	99	0	5	-1.397982	-12.87699	132.9543	
09:37:46	-6.733763	38.9536	123.83	0.96443	0	0.19	3	99	0	5	-1.228372	-12.86642	132.8999	
09:37:46	-6.733762	38.9536	123.977	0.96443	0	0.13	3	98	0	5	-1.33402	-12.77868	132.9519	
09:37:47	-6.733762	38.9536	124.055	0.96443	0	0.01	3	98	0	5	-1.278469	-12.76304	133.2232	
09:37:47	-6.733763	38.9536	123.934	0.96443	0	0.12	3	98	0	5	-1.199706	-12.93055	133.2284	
09:37:47	-6.733763	38.9536	123.783	0.96443	0	0.03	3	98	0	5	-1.049284	-12.96996	133.204	
09:37:47	-6.733763	38.9536	123.604	0.96443	0	0.04	3	98	0	5	-1.189326	-12.95057	133.2229	
09:37:47	-6.733764	38.9536	123.412	0.96443	0	0.19	3	98	0	5	-1.341825	-12.95482	133.4051	
09:37:48	-6.733763	38.9536	123.445	0.96443	0	0.29	3	98	0	5	-1.428383	-13.1272	133.4145	
09:37:48	-6.733763	38.9536	123.545	0.96443	0	0.33	3	98	0	5	-1.510386	-12.55844	133.3777	
09:37:48	-6.733764	38.9536	123.583	0.96443	0	0.07	3	98	0	5	-1.439641	-13.14586	133.3461	
09:37:48	-6.733764	38.9536	123.52	0.96443	0	0.38	3	99	0	4	-1.278904	-12.81033	133.2851	
09:37:48	-6.733765	38.95361	123.491	0.96443	0	0.32	3	99	0	4	-1.483842	-13.23965	133.584	
09:37:49	-6.733766	38.95361	123.431	0.96443	0	0.24	3	99	0	4	-1.160742	-13.07229	133.4823	
09:37:49	-6.733766	38.95361	123.503	0.96443	0	0.32	3	99	0	4	-1.420994	-13.08847	133.5125	
09:37:49	-6.733766	38.95361	123.411	0.96443	0	0.29	3	99	0	5	-1.499702	-12.4393	133.4787	
09:37:49	-6.733767	38.95361	123.243	0.96443	0	0.12	3	99	0	4	-1.598041	-13.02307	133.7336	
09:37:49	-6.733767	38.95361	123.23	0.96443	0	0.22	3	99	0	5	-1.417159	-12.5014	133.7924	
09:37:50	-6.733767	38.95361	123.125	0.96443	0	0.29	3	99	0	4	-1.639945	-12.44154	133.8872	
09:37:50	-6.733767	38.95361	123.025	0.96443	0	0.13	3	99	0	6	-1.625201	-13.01849	133.8277	
09:37:50	-6.733767	38.95361	122.923	0.96443	0	0.11	3	99	0	4	-1.434822	-12.8935	133.7054	
09:37:50	-6.733767	38.95361	122.792	0.96443	0	0.22	3	99	0	5	-1.561376	-12.64129	133.9053	
09:37:50	-6.733767	38.95361	122.886	0.96443	0	0.07	3	99	0	5	-1.560076	-13.02791	133.8728	
09:37:51	-6.733768	38.95361	122.771	0.96443	0	0.33	3	99	0	5	-1.540385	-12.80374	133.797	
09:37:51	-6.733769	38.95361	122.645	0.96443	0	0.14	3	99	0	5	-0.9747426	-13.29059	133.6287	
09:37:51	-6.733769	38.95362	122.555	0.96443	0	0.25	3	99	0	4	-1.158394	-13.22161	133.6529	
09:37:51	-6.733769	38.95362	122.445	0.96443	0	0.19	3	99	0	5	-1.352341	-13.34694	133.9015	
09:37:51	-6.733769	38.95362	122.408	0.96443	0	0.26	3	99	0	5	-1.319768	-12.78329	133.8061	
09:37:52	-6.733769	38.95362	122.418	0.96443	0	0.19	3	99	0	4	-1.49437	-12.72234	133.8353	
09:37:52	-6.733769	38.95362	122.382	0.96443	0	0.19	3	99	0	4	-1.512277	-12.84643	133.7889	
09:37:52	-6.733769	38.95362	122.426	0.96443	0	0.25	3	99	0	4	-1.429678	-13.16181	134.1106	
09:37:52	-6.733769	38.95362	122.598	0.96443	0	0	3	99	0	4	-1.683158	-13.20214	134.1079	
09:37:52	-6.733769	38.95362	122.495	0.96443	0	0.08	3	99	0	4	-1.541254	-13.02138	133.9782	
09:37:53	-6.73377	38.95362	122.531	0.96443	0	0.24	3	99	0	4	-1.597053	-13.15202	133.8726	
09:37:53	-6.73377	38.95362	122.508	0.96443	0	0.17	3	99	0	4	-1.466936	-13.31258	133.8488	
09:37:53	-6.733771	38.95362	122.305	0.96443	0	0.08	3	98	0	4	-1.420444	-13.01316	133.7133	
09:37:53	-6.733771	38.95362	122.147	0.96443	0	0.19	3	98	0	4	-1.640247	-13.09398	133.6712	
09:37:54	-6.733772	38.95362	122.097	0.96443	0	0.26	3	98	0	5	-1.732382	-13.04263	133.9732	
09:37:54	-6.733773	38.95362	122.171	0.96443	0	0.21	3	98	0	5	-1.594259	-12.65133	133.9793	
09:37:54	-6.733773	38.95362	122.237	0.96443	0	0.01	3	98	0	4	-1.548361	-12.80494	133.9073	
09:37:54	-6.733774	38.95362	122.203	0.96443	0	0.12	3	98	0	4	-1.767416	-12.93538	133.8918	
09:37:55	-6.733774	38.95362	122.206	0.96443	0	0.21	3	98	0	4	-1.783532	-13.1253	133.7803	
09:37:55	-6.733775	38.95362	122.141	0.96443	0	0.31	3	98	0	5	-1.729762	-13.22666	133.9086	
09:37:55	-6.733776	38.95362	122.08	0.96443	0	0.04	3	98	0	5	-1.747863	-13.39078	133.7735	
09:37:55	-6.733777	38.95362	122.036	0.96443	0	0.19	3	98	0	4	-1.783145	-13.14974	133.629	
09:37:55	-6.733777	38.95362	122.042	0.96443	0	0.37	3	98	0	4	-1.926663	-13.1628	133.509	
09:37:56	-6.733778	38.95362	121.931	0.96443	0	0.22	3	98	0	4	-1.73556	-12.79844	133.644	
09:37:56	-6.733778	38.95362	121.81	0.96443	0	0.09	3	98	0	4	-1.662581	-13.08487	133.6484	
09:37:56	-6.733779	38.95362	121.682	0.96443	0	0.37	3	98	0	4	-1.696033	-13.26802	133.5422	
09:37:56	-6.73378	38.95362	121.481	0.96443	0	0.33	3	98	0	4	-1.576582	-12.88489	133.4187	
09:37:56	-6.733781	38.95362	121.328	0.96443	0	0.36	3	98	0	5	-1.792873	-13.40738	133.4807	
09:37:57	-6.733781	38.95362	121.142	0.96443	0	0.38	3	98	0	5	-2.213768	-13.19146	133.5214	
09:37:57	-6.733782	38.95362	120.949	0.96443	0	0.19	3	98	0	5	-1.95381	-12.684	133.3365	
09:37:57	-6.733782	38.95362	120.882	0.96443	0	0.16	3	98	0	4	-1.987162	-13.13056	133.2423	
09:37:57	-6.733782	38.95362	120.761	0.96443	0	0.14	3	98	0	5	-1.880561	-12.96624	133.0827	
09:37:57	-6.733783	38.95362	120.583	0.96443	0	0.03	3	98	0	4	-1.707456	-13.14477	133.2814	
09:37:58	-6.733786	38.95362	120.497	0.96443	0	0.04	3	98	0	5	-1.554524	-13.4174	133.0694	
09:37:58	-6.733786	38.95362	120.264	0.96443	0	0.14	3	98	0	5	-1.740703	-13.08758	132.9644	
09:37:58	-6.733787	38.95362	120.066	0.96443	0	0.47	3	98	0	4	-1.919852	-13.25126	133.0429	
09:37:58	-6.733787	38.95362	119.919	0.96443	0	0.52	3	98	0	5	-2.152631	-13.42807	133.1591	
09:37:59	-6.733789	38.95362	119.808	0.96443	0	0.76	3	98	0	5	-1.846908	-13.66433	132.9166	
09:37:59	-6.73379	38.95362	119.695	0.96443	0	0.44	3	98	0	4	-1.795422	-13.13826	132.4865	
09:37:59	-6.73379	38.95362	119.633	0.96443	0	0.28	3	98	0	5	-1.897373	-13.24301	132.6591	
09:37:59	-6.733792	38.95362	119.45	0.96443	0	0.19	3	98	0	4	-1.663087	-13.08129	132.5204	
09:38:00	-6.733792	38.95362	119.305	0.96443	0	0.13	3	98	0	5	-1.485232	-12.97751	132.4149	
09:38:00	-6.733792	38.95362	119.278	0.96443	0	0.29	3	98	0	5	-1.625016	-12.66431	132.421	
09:38:00	-6.733793	38.95362	119.104	0.96443	0	0.16	3	98	0	4	-1.771364	-12.59922	132.4465	
09:38:00	-6.733794	38.95362	119.024	0.96443	0	0.13	3	98	0	4	-1.459933	-12.73921	132.466	
09:38:00	-6.733794	38.95362	118.928	0.96443	0	0.08	3	98	0	4	-1.492766	-12.83264	132.47	
09:38:01	-6.733794	38.95362	118.792	0.96443	0	0.04	3	98	0	4	-1.627514	-12.78607	132.4978	
09:38:01	-6.733795	38.95362	118.775	0.96443	0	0.12	3	98	0	4	-1.6481	-12.81227	132.459	
09:38:01	-6.733796	38.95362	118.656	0.96443	0	0.11	3	98	0	4	-1.701223	-12.79848	132.6943	
09:38:01	-6.733797	38.95362	118.63	0.96443	0	0.25	3	98	0	4	-1.672523	-13.08951	132.6442	
09:38:01	-6.733797	38.95362	118.64	0.96443	0	0.22	3	98	0	5	-1.722035	-13.01142	132.5708	
09:38:02	-6.733798	38.95362	118.655	0.96443	0	0.22	3	98	0	4	-1.734255	-12.3703	132.5421	
09:38:02	-6.733799	38.95362	118.716	0.96443	0	0.37	3	98	0	4	-1.703469	-12.72143	132.5699	
09:38:02	-6.733799	38.95362	118.685	0.96443	0	0.22	3	98	0	4	-1.861532	-12.8088	132.7171	
09:38:02	-6.733799	38.95362	118.564	0.96443	0	0.02	3	98	0	5	-1.54503	-12.53889	132.6255	
09:38:02	-6.7338	38.95362	118.464	0.96443	0	0.17	3	98	0	4	-1.759627	-12.47377	132.6744	
09:38:03	-6.733801	38.95363	118.353	0.96443	0	0.12	3	98	0	4	-1.769576	-12.64478	132.6543	
09:38:03	-6.733801	38.95363	118.227	0.96443	0	0.12	3	98	0	5	-1.695616	-12.6023	132.7216	
09:38:03	-6.733802	38.95363	118.183	0.96443	0	0.12	3	98	0	5	-1.78801	-12.64848	132.8566	
09:38:03	-6.733803	38.95363	118.176	0.96443	0	0.24	3	98	0	4	-1.759694	-12.67685	132.8099	
09:38:03	-6.733804	38.95363	118.126	0.96443	0	0.22	3	98	0	4	-1.88973	-12.77835	132.7736	
09:38:04	-6.733805	38.95363	118.126	0.96443	0	0.53	3	98	0	5	-1.945389	-12.80122	132.8129	
09:38:04	-6.733806	38.95363	118.159	0.96443	0	0.51	3	98	0	5	-1.808446	-12.85093	132.9023	
09:38:04	-6.733807	38.95363	118.183	0.96443	0	0.12	3	98	0	5	-1.63297	-12.19779	132.827	
09:38:04	-6.733807	38.95363	118.26	0.96443	0	0.25	3	98	0	4	-1.761577	-12.39604	132.9063	
09:38:04	-6.733806	38.95363	118.466	0.96443	0	0.62	3	98	0	4	-1.907109	-12.04365	132.936	
09:38:05	-6.733806	38.95363	118.523	0.96443	0	0.22	3	98	0	5	-2.11497	-11.87772	133.2974	
09:38:05	-6.733807	38.95363	118.496	0.96443	0	0.72	3	98	0	4	-1.701467	-12.39786	133.3779	
09:38:05	-6.733807	38.95363	118.322	0.96443	0	0.47	3	98	0	5	-0.8391864	-13.05539	133.1725	
09:38:05	-6.733808	38.95363	118.134	0.96443	0	0.45	3	98	0	5	-1.10511	-12.72598	133.2425	
09:38:05	-6.733809	38.95363	117.994	0.96443	0	0.16	3	98	0	6	-1.349194	-13.00468	133.425	
09:38:06	-6.733809	38.95363	117.977	0.96443	0	0.32	3	98	0	4	-1.857644	-12.71503	133.7265	
09:38:06	-6.733809	38.95363	117.872	0.96443	0	0.14	3	98	0	4	-1.932578	-12.64662	133.6574	
09:38:06	-6.733809	38.95363	117.82	0.96443	0	0.14	3	98	0	5	-1.775662	-12.80499	133.5363	
09:38:06	-6.733809	38.95363	117.902	0.96443	0	0.22	3	98	0	4	-1.617191	-12.95556	133.3933	
09:38:06	-6.73381	38.95363	117.905	0.96443	0	0.16	3	98	0	5	-1.531706	-12.82752	133.4183	
09:38:07	-6.73381	38.95363	117.691	0.96443	0	0.19	3	98	0	5	-1.658137	-12.45883	133.4569	
09:38:07	-6.73381	38.95363	117.652	0.96443	0	0.5	3	98	0	4	-1.833297	-12.48847	133.4879	
09:38:07	-6.73381	38.95363	117.664	0.96443	0	0.12	3	98	0	4	-1.9784	-12.5907	133.4572	
09:38:07	-6.73381	38.95363	117.668	0.96443	0	0.35	3	98	0	4	-1.585162	-12.48923	133.3397	
09:38:07	-6.733811	38.95363	117.297	0.96443	0	0.36	3	98	0	5	-1.691148	-12.54179	133.5805	
09:38:08	-6.733812	38.95363	117.267	0.96443	0	0.45	3	98	0	4	-1.086982	-12.96225	133.4772	
09:38:08	-6.733813	38.95363	117.234	0.96443	0	0.33	3	98	0	4	-1.072397	-12.96106	133.4387	
09:38:08	-6.733813	38.95363	117.082	0.96443	0	0.18	3	98	0	4	-1.278744	-13.02698	133.4206	
09:38:08	-6.733814	38.95363	117.033	0.96443	0	0.14	3	98	0	4	-1.425987	-12.77965	133.5482	
09:38:08	-6.733814	38.95363	117.088	0.96443	0	0.19	3	98	0	5	-1.571923	-12.72799	133.7634	
09:38:09	-6.733814	38.95363	117.027	0.96443	0	0.14	3	98	0	4	-1.493354	-12.76102	133.6951	
09:38:09	-6.733814	38.95363	116.908	0.96443	0	0.26	3	98	0	5	-1.422713	-12.88732	133.6344	
09:38:09	-6.733814	38.95363	116.649	0.96443	0	0.17	3	98	0	5	-1.497077	-12.942	133.6223	
09:38:09	-6.733815	38.95363	116.536	0.96443	0	0.45	3	98	0	4	-1.672541	-13.18358	133.8456	
09:38:09	-6.733816	38.95363	116.458	0.96443	0	0.48	3	98	0	4	-1.23408	-13.18561	133.6572	
09:38:10	-6.733817	38.95363	116.214	0.96443	0	0.06	3	98	0	5	-1.348036	-13.04026	133.6161	
09:38:10	-6.733817	38.95363	116.085	0.96443	0	0.32	3	98	0	4	-1.796911	-13.14256	133.5907	
09:38:10	-6.733818	38.95363	116.024	0.96443	0	0.26	3	98	0	5	-1.9569	-13.2617	133.6513	
09:38:10	-6.733818	38.95363	115.567	0.96443	0	0.32	3	98	0	5	-1.915907	-13.25776	133.5205	
09:38:10	-6.733819	38.95363	115.288	0.96443	0	0.59	3	98	0	5	-1.928768	-13.386	133.3686	
09:38:11	-6.733819	38.95363	115.06	0.96443	0	0.14	3	98	0	5	-1.596956	-13.64051	133.0754	
09:38:11	-6.733819	38.95364	114.852	0.96443	0	0.22	3	98	0	5	-1.733811	-13.20462	132.9559	
09:38:11	-6.733819	38.95364	114.898	0.96443	0	0.95	3	98	0	5	-1.843803	-13.33198	133.0473	
09:38:11	-6.733819	38.95364	114.757	0.96443	0	0.33	3	98	0	4	-1.863506	-13.47213	132.918	
09:38:11	-6.733819	38.95364	114.823	0.96443	0	0.21	3	98	0	4	-1.918595	-12.72072	132.7876	
09:38:12	-6.733819	38.95363	115.071	0.96443	0	0.22	3	98	0	5	-1.845785	-12.78994	132.7008	
09:38:12	-6.73382	38.95363	115.187	0.96443	0	0.22	3	98	0	5	-1.907943	-12.79948	132.8875	
09:38:12	-6.73382	38.95363	115.244	0.96443	0	0.19	3	98	0	5	-1.892889	-12.75805	132.9782	
09:38:12	-6.733821	38.95363	115.298	0.96443	0	0.26	3	98	0	5	-1.707255	-12.74251	132.8742	
09:38:12	-6.733821	38.95363	115.224	0.96443	0	0.22	3	98	0	5	-1.502456	-12.89066	132.7809	
09:38:13	-6.733822	38.95363	115.218	0.96443	0	0.03	3	98	0	4	-1.608377	-12.8174	132.7312	
09:38:13	-6.733823	38.95363	115.454	0.96443	0	0.38	3	98	0	5	-1.802803	-12.92214	132.8821	
09:38:13	-6.733824	38.95363	115.53	0.96443	0	0.14	3	98	0	5	-1.818526	-12.94008	132.7952	
09:38:13	-6.733824	38.95363	115.818	0.96443	0	0.04	3	98	0	5	-1.795996	-12.68116	132.7134	
09:38:13	-6.733825	38.95363	115.803	0.96443	0	0.12	3	98	0	4	-1.692628	-12.82778	132.6409	
09:38:14	-6.733826	38.95363	115.887	0.96443	0	0.14	3	98	0	5	-1.676059	-12.8412	132.6674	
09:38:14	-6.733827	38.95363	115.969	0.96443	0	0.17	3	98	0	4	-1.652401	-12.81204	132.7377	
09:38:14	-6.733827	38.95363	116.016	0.96443	0	0.07	3	98	0	4	-1.653051	-12.96448	132.6756	
09:38:14	-6.733829	38.95362	116.125	0.96443	0	0.21	3	98	0	4	-1.652385	-12.82081	132.6106	
09:38:14	-6.733829	38.95362	116.15	0.96443	0	0.12	3	98	0	4	-1.61818	-12.78417	132.5938	
09:38:15	-6.73383	38.95362	116.268	0.96443	0	0.08	3	98	0	4	-1.763379	-12.95752	132.9108	
09:38:15	-6.733832	38.95362	116.348	0.96443	0	0.25	3	98	0	5	-1.734543	-12.97617	132.7986	
09:38:15	-6.733833	38.95362	116.642	0.96443	0	0.14	3	98	0	5	-1.737861	-13.0068	132.7301	
09:38:15	-6.733834	38.95362	116.971	0.96443	0	0.26	3	98	0	5	-2.001132	-12.9352	132.6771	
09:38:15	-6.733834	38.95362	117.225	0.96443	0	0.16	3	98	0	5	-2.114283	-12.8256	132.8555	
09:38:16	-6.733834	38.95362	117.421	0.96443	0	0.29	3	99	0	4	-2.027947	-13.11815	132.7675	
09:38:16	-6.733835	38.95362	117.677	0.96443	0	0.12	3	99	0	5	-1.83523	-13.10979	132.5876	
09:38:16	-6.733836	38.95362	117.944	0.96443	0	0.14	3	99	0	6	-1.780278	-12.79176	132.4878	
09:38:16	-6.733837	38.95362	118.24	0.96443	0	0.11	3	99	0	5	-1.833906	-12.83887	132.5358	
09:38:16	-6.733838	38.95362	118.476	0.96443	0	0.09	3	99	0	5	-1.775491	-12.94492	132.5392	
09:38:17	-6.733839	38.95362	118.772	0.96443	0	0.04	3	99	0	4	-1.77597	-12.91111	132.4706	
09:38:17	-6.733839	38.95362	119.026	0.96443	0	0.21	3	99	0	4	-1.79326	-12.80983	132.4004	
09:38:17	-6.73384	38.95362	119.256	0.96443	0	0.24	3	99	0	4	-1.702741	-12.71289	132.3294	
09:38:17	-6.733841	38.95362	119.46	0.96443	0	0.48	3	99	0	5	-1.814102	-12.59688	132.6866	
09:38:17	-6.733841	38.95362	119.688	0.96443	0	0.13	3	99	0	4	-1.996757	-12.45114	132.7878	
09:38:18	-6.733841	38.95362	120.054	0.96443	0	0.38	3	99	0	4	-1.941791	-12.93437	132.7139	
09:38:18	-6.733842	38.95362	120.377	0.96443	0	0.19	3	99	0	4	-1.92838	-13.195	132.579	
09:38:18	-6.733843	38.95362	120.651	0.96443	0	0.16	3	99	0	4	-1.849001	-13.06511	132.6029	
09:38:18	-6.733844	38.95362	121.124	0.96443	0	0.35	3	99	0	5	-1.882096	-13.12001	132.7781	
09:38:18	-6.733844	38.95362	121.469	0.96443	0	0.14	3	99	0	4	-2.002634	-12.9674	132.6701	
09:38:19	-6.733844	38.95362	121.661	0.96443	0	0.14	3	99	0	4	-2.167543	-12.63203	132.6014	
09:38:19	-6.733844	38.95362	121.779	0.96443	0	0.04	3	99	0	5	-2.079328	-12.69501	132.4944	
09:38:19	-6.733844	38.95362	122.048	0.96443	0	0.02	3	99	0	5	-2.103303	-12.75992	132.8824	
09:38:19	-6.733844	38.95362	122.202	0.96443	0	0.16	3	99	0	4	-2.175227	-12.81502	132.8685	
09:38:19	-6.733844	38.95362	122.323	0.96443	0	0.22	3	99	0	4	-2.244515	-12.89664	132.7516	
09:38:20	-6.733844	38.95362	122.494	0.96443	0	0.04	3	99	0	4	-2.19029	-12.85181	132.6062	
09:38:20	-6.733844	38.95362	122.638	0.96443	0	0.02	3	99	0	4	-2.065799	-12.82195	132.6619	
09:38:20	-6.733844	38.95362	122.702	0.96443	0	0.09	3	99	0	4	-1.976802	-12.85273	132.6929	
09:38:20	-6.733844	38.95362	122.762	0.96443	0	0.06	3	99	0	4	-1.929148	-12.91223	132.5911	
09:38:20	-6.733844	38.95362	122.845	0.96443	0	0.21	3	99	0	5	-1.963089	-12.79807	132.49	
09:38:21	-6.733844	38.95362	122.845	0.96443	0	0.16	3	99	0	5	-1.91293	-12.83113	132.4045	
09:38:21	-6.733844	38.95362	122.985	0.96443	0	0.09	3	99	0	4	-1.987205	-12.94699	132.4934	
09:38:21	-6.733844	38.95362	123.057	0.96443	0	0.11	3	99	0	4	-2.040908	-12.82681	132.4275	
09:38:21	-6.733844	38.95362	123.228	0.96443	0	0.18	3	99	0	4	-1.907574	-12.77527	132.3254	
09:38:21	-6.733844	38.95362	123.351	0.96443	0	0.14	3	99	0	4	-1.830851	-12.74856	132.2474	
09:38:22	-6.733844	38.95362	123.534	0.96443	0	0.06	3	99	0	5	-1.938295	-12.80885	132.3714	
09:38:22	-6.733844	38.95362	123.604	0.96443	0	0.03	3	99	0	5	-1.909613	-12.89821	132.419	
09:38:22	-6.733844	38.95362	123.712	0.96443	0	0.09	3	99	0	5	-1.891874	-12.9059	132.3355	
09:38:22	-6.733844	38.95362	123.75	0.96443	0	0.07	3	99	0	5	-1.914437	-12.9151	132.2422	
09:38:22	-6.733844	38.95362	123.835	0.96443	0	0.25	3	99	0	4	-1.769695	-12.93411	132.1658	
09:38:23	-6.733844	38.95362	123.885	0.96443	0	0.09	3	99	0	5	-1.827503	-12.91707	132.4555	
09:38:23	-6.733844	38.95362	123.828	0.96443	0	0.24	3	99	0	4	-1.947569	-12.85118	132.4209	
09:38:23	-6.733843	38.95362	123.844	0.96443	0	0.19	3	99	0	4	-1.953083	-12.79893	132.3414	
09:38:23	-6.733843	38.95362	123.882	0.96443	0	0.14	3	99	0	5	-1.950286	-12.86247	132.2767	
09:38:23	-6.733843	38.95362	123.856	0.96443	0	0.14	3	99	0	4	-1.891053	-12.96635	132.3696	
09:38:24	-6.733843	38.95362	123.906	0.96443	0	0.11	3	99	0	4	-1.88631	-13.12967	132.3928	
09:38:24	-6.733843	38.95362	123.952	0.96443	0	0.12	3	99	0	4	-1.982544	-13.15199	132.2865	
09:38:24	-6.733843	38.95362	123.88	0.96443	0	0.18	3	99	0	4	-2.070182	-13.0843	132.2014	
09:38:24	-6.733843	38.95363	123.937	0.96443	0	0.24	3	99	0	4	-1.84823	-13.12761	132.0228	
09:38:24	-6.733843	38.95363	123.986	0.96443	0	0.26	3	99	0	4	-1.790011	-13.26352	131.9655	
09:38:25	-6.733843	38.95363	124.111	0.96443	0	0.19	3	99	0	4	-1.773874	-13.10364	131.8153	
09:38:25	-6.733843	38.95363	124.083	0.96443	0	0.09	3	99	0	4	-1.60094	-12.96136	131.7245	
09:38:25	-6.733842	38.95363	124.037	0.96443	0	0.11	3	99	0	5	-1.625476	-13.00383	131.6717	
09:38:25	-6.733842	38.95363	124.042	0.96443	0	0.22	3	99	0	4	-1.81933	-13.05592	131.8168	
09:38:25	-6.733841	38.95363	124.122	0.96443	0	0.04	3	99	0	4	-1.864863	-13.0899	131.8976	
09:38:26	-6.733841	38.95363	124.079	0.96443	0	0.14	3	99	0	4	-1.740308	-12.94869	131.7842	
09:38:26	-6.733841	38.95363	124.095	0.96443	0	0.06	3	99	0	5	-1.699677	-13.02503	131.7103	
09:38:26	-6.733841	38.95363	124.132	0.96443	0	0.25	3	99	0	4	-1.65156	-13.00966	131.6455	
09:38:26	-6.733841	38.95363	124.224	0.96443	0	0.26	3	99	0	5	-1.808509	-13.03513	131.715	
09:38:26	-6.733841	38.95363	124.372	0.96443	0	0.08	3	99	0	4	-1.752672	-13.12255	131.6033	
09:38:27	-6.733841	38.95363	124.539	0.96443	0	0.07	3	99	0	5	-1.568779	-13.05971	131.5179	
09:38:27	-6.733841	38.95363	124.651	0.96443	0	0.14	3	99	0	4	-1.612525	-13.18816	131.4732	
09:38:27	-6.733841	38.95363	124.76	0.96443	0	0.04	3	99	0	5	-1.726136	-13.1807	131.6776	
09:38:27	-6.733841	38.95363	124.787	0.96443	0	0.24	3	99	0	5	-1.817136	-13.22713	131.7776	
09:38:27	-6.733841	38.95363	124.856	0.96443	0	0.09	3	99	0	5	-1.804863	-13.31138	131.6639	
09:38:28	-6.733841	38.95363	124.86	0.96443	0	0.06	3	99	0	5	-1.725888	-13.13943	131.5423	
09:38:28	-6.733841	38.95363	124.873	0.96443	0	0.08	3	99	0	5	-1.668455	-13.04908	131.5555	
09:38:28	-6.733841	38.95363	124.965	0.96443	0	0.03	3	99	0	5	-1.71938	-13.07537	131.8479	
09:38:28	-6.733841	38.95363	125.059	0.96443	0	0.21	3	99	0	5	-1.680617	-12.96965	131.9829	
09:38:28	-6.73384	38.95363	125.217	0.96443	0	0.25	3	99	0	4	-1.760486	-13.13355	131.9409	
09:38:29	-6.73384	38.95363	125.152	0.96443	0	0.19	3	99	0	4	-1.912724	-13.15984	131.8462	
09:38:29	-6.733839	38.95364	125.079	0.96443	0	0.21	3	99	0	5	-1.974885	-13.22494	131.9568	
09:38:29	-6.733839	38.95364	125.048	0.96443	0	0.12	3	99	0	4	-1.881309	-13.352	131.937	
09:38:29	-6.733839	38.95364	125.143	0.96443	0	0.11	3	99	0	4	-1.829255	-13.30684	131.7932	
09:38:29	-6.733839	38.95364	125.105	0.96443	0	0.21	3	99	0	4	-1.910132	-13.27008	131.6927	
09:38:30	-6.733839	38.95364	125.064	0.96443	0	0.18	3	99	0	4	-1.754809	-13.38766	131.5148	
09:38:30	-6.733838	38.95364	125.035	0.96443	0	0.14	3	99	0	4	-1.710404	-13.43616	131.6512	
09:38:30	-6.733837	38.95364	125.043	0.96443	0	0.29	3	99	0	4	-1.876474	-13.27942	131.5631	
09:38:30	-6.733837	38.95364	124.926	0.96443	0	0.22	3	99	0	5	-1.938685	-13.25469	131.4679	
09:38:30	-6.733836	38.95364	125.029	0.96443	0	0.29	3	99	0	5	-1.664365	-13.45871	131.2915	
09:38:31	-6.733836	38.95364	125.167	0.96443	0	0.13	3	99	0	5	-1.5501	-13.38568	131.4614	
09:38:31	-6.733836	38.95364	125.261	0.96443	0	0.09	3	99	0	3	-1.614708	-13.32433	131.4816	
09:38:31	-6.733835	38.95364	125.387	0.96443	0	0.26	3	99	0	4	-1.849809	-13.36702	131.4359	
09:38:31	-6.733835	38.95364	125.394	0.96443	0	0.11	3	99	0	5	-1.826556	-13.38022	131.2957	
09:38:31	-6.733834	38.95363	125.435	0.96443	0	0.07	3	99	0	5	-1.607626	-13.32668	131.1253	
09:38:32	-6.733834	38.95364	125.302	0.96443	0	0.21	3	99	0	5	-1.598728	-13.40226	131.2058	
09:38:32	-6.733834	38.95363	125.404	0.96443	0	0.25	3	99	0	4	-1.514182	-13.48257	131.0968	
09:38:32	-6.733834	38.95364	125.386	0.96443	0	0.19	3	99	0	5	-1.576994	-13.47527	131.0089	
09:38:32	-6.733834	38.95364	125.309	0.96443	0	0.14	3	99	0	4	-1.619489	-13.42784	130.9298	
09:38:33	-6.733834	38.95364	125.246	0.96443	0	0.21	3	99	0	4	-1.830677	-13.34851	131.1067	
09:38:33	-6.733834	38.95364	125.263	0.96443	0	0.26	3	99	0	4	-1.99018	-13.38788	131.315	
09:38:33	-6.733834	38.95364	125.322	0.96443	0	0.06	3	99	0	4	-1.801623	-13.30978	131.1229	
09:38:33	-6.733833	38.95364	125.374	0.96443	0	0.14	3	99	0	5	-1.742505	-13.28724	131.0263	
09:38:33	-6.733833	38.95364	125.267	0.96443	0	0.21	3	99	0	5	-1.781733	-13.3768	130.9434	
09:38:34	-6.733833	38.95364	125.268	0.96443	0	0.13	3	99	0	5	-1.861605	-13.34566	131.2316	
09:38:34	-6.733833	38.95364	125.24	0.96443	0	0.26	3	99	0	5	-1.939771	-13.39129	131.135	
09:38:34	-6.733832	38.95364	125.169	0.96443	0	0.26	3	99	0	4	-2.015124	-13.40637	131.0086	
09:38:34	-6.733832	38.95364	125.051	0.96443	0	0.18	3	99	0	5	-1.981369	-13.27279	130.8559	
09:38:34	-6.733831	38.95364	124.972	0.96443	0	0.22	3	99	0	4	-2.035778	-13.16954	131.041	
09:38:34	-6.733831	38.95364	124.89	0.96443	0	0.11	3	99	0	4	-1.962872	-13.19178	130.9914	
09:38:35	-6.73383	38.95364	124.928	0.96443	0	0.14	3	99	0	5	-1.913281	-13.22576	130.9117	
09:38:35	-6.73383	38.95364	124.974	0.96443	0	0.07	3	99	0	4	-1.774214	-13.20207	130.7726	
09:38:35	-6.73383	38.95364	125.048	0.96443	0	0.11	3	99	0	4	-1.685128	-13.22393	130.6737	
09:38:35	-6.733829	38.95364	125.217	0.96443	0	0.17	3	99	0	5	-1.86574	-13.269	131.0009	
09:38:35	-6.733829	38.95364	125.287	0.96443	0	0.07	3	99	0	4	-1.872932	-13.23628	130.9765	
09:38:36	-6.733829	38.95364	125.645	0.96443	0	0.45	3	99	0	4	-2.147579	-13.25247	130.9493	
09:38:36	-6.733829	38.95364	125.87	0.96443	0	0.04	3	99	0	5	-2.027425	-13.22315	130.7898	
09:38:36	-6.733828	38.95364	125.899	0.96443	0	0.35	3	99	0	5	-2.07638	-13.04667	130.821	
09:38:36	-6.733827	38.95364	125.942	0.96443	0	0.19	3	99	0	4	-1.772509	-13.2321	130.8105	
09:38:37	-6.733827	38.95364	125.831	0.96443	0	0.18	3	99	0	4	-1.838825	-13.31541	130.7525	
09:38:37	-6.733827	38.95364	125.801	0.96443	0	0.11	3	99	0	4	-1.873498	-13.31941	130.6567	
09:38:37	-6.733827	38.95364	125.806	0.96443	0	0.14	3	99	0	4	-1.708819	-13.19047	130.5394	
09:38:37	-6.733827	38.95364	125.832	0.96443	0	0.16	3	99	0	5	-1.848904	-13.2237	130.6313	
09:38:37	-6.733827	38.95364	125.669	0.96443	0	0.17	3	99	0	5	-1.957719	-13.14879	130.5905	
09:38:38	-6.733826	38.95364	125.711	0.96443	0	0.26	3	99	0	5	-2.020703	-13.1598	130.5222	
09:38:38	-6.733825	38.95364	125.739	0.96443	0	0.21	3	99	0	4	-1.990272	-13.28404	130.422	
09:38:38	-6.733825	38.95364	125.631	0.96443	0	0.41	3	99	0	4	-2.081905	-13.40862	130.5012	
09:38:38	-6.733824	38.95364	125.658	0.96443	0	0.29	3	99	0	5	-2.162449	-13.35029	130.5766	
09:38:38	-6.733824	38.95364	125.898	0.96443	0	0.12	3	99	0	4	-1.978427	-13.25679	130.4214	
09:38:39	-6.733824	38.95364	126.179	0.96443	0	0.03	3	99	0	4	-1.802736	-13.20565	130.3091	
09:38:39	-6.733824	38.95364	126.174	0.96443	0	0.24	3	99	0	4	-1.882251	-13.40408	130.2453	
09:38:39	-6.733823	38.95364	126.32	0.96443	0	0.09	3	99	0	5	-1.920007	-13.34274	130.3015	
09:38:39	-6.733823	38.95364	126.357	0.96443	0	0.39	3	99	0	4	-2.034686	-13.42601	130.4151	
09:38:39	-6.733823	38.95364	126.512	0.96443	0	0.28	3	99	0	4	-2.050729	-13.35326	130.3003	
09:38:40	-6.733823	38.95364	126.571	0.96443	0	0.38	3	99	0	5	-2.05302	-13.38152	130.1848	
09:38:40	-6.733823	38.95364	126.509	0.96443	0	0.35	3	99	0	4	-2.119807	-13.35304	130.3854	
09:38:40	-6.733822	38.95364	126.597	0.96443	0	0.22	3	99	0	4	-2.107599	-13.21894	130.5359	
09:38:40	-6.733822	38.95364	126.518	0.96443	0	0.21	3	99	0	5	-2.05056	-13.2116	130.5057	
09:38:40	-6.733822	38.95364	126.591	0.96443	0	0.31	3	99	0	5	-2.003844	-13.35365	130.3896	
09:38:41	-6.733822	38.95364	126.67	0.96443	0	0.29	3	99	0	5	-2.025799	-13.36608	130.3539	
09:38:41	-6.733822	38.95364	126.963	0.96443	0	0.29	3	99	0	5	-2.083252	-13.08971	130.3841	
09:38:41	-6.733821	38.95364	127.193	0.96443	0	0.09	3	99	0	4	-1.914163	-13.03026	130.3592	
09:38:41	-6.733821	38.95364	127.378	0.96443	0	0.09	3	99	0	4	-1.827378	-13.0537	130.2932	
09:38:41	-6.733821	38.95364	127.408	0.96443	0	0.07	3	99	0	4	-1.829523	-13.12584	130.2455	
09:38:42	-6.733821	38.95364	127.525	0.96443	0	0.34	3	99	0	5	-1.995334	-13.35797	130.6305	
09:38:42	-6.733821	38.95364	127.911	0.96443	0	0.22	3	99	0	4	-1.986054	-13.39684	130.5715	
09:38:42	-6.733821	38.95364	127.911	0.96443	0	0.22	3	99	0	4	-1.679978	-13.36724	130.4117	
09:38:42	-6.733822	38.95364	127.967	0.96443	0	0.09	3	99	0	4	-1.718184	-13.25265	130.3509	
09:38:42	-6.733822	38.95364	128.01	0.96443	0	0.09	3	99	0	4	-1.655012	-13.10657	130.4119	
09:38:43	-6.733822	38.95364	128.494	0.96443	0	0.11	3	99	0	4	-1.673676	-13.0179	130.6109	
09:38:43	-6.733822	38.95364	128.522	0.96443	0	0.19	3	99	0	4	-1.689452	-13.0852	130.6125	
09:38:43	-6.733822	38.95364	128.522	0.96443	0	0.19	3	99	0	4	-1.871238	-13.26059	130.593	
09:38:43	-6.733821	38.95364	128.964	0.96443	0	0.29	3	99	0	5	-2.315529	-13.32493	130.5892	
09:38:43	-6.733821	38.95363	129.384	0.96443	0	0.22	3	99	0	5	-2.124446	-13.24646	130.4839	
09:38:44	-6.733821	38.95363	129.781	0.96443	0	0.36	3	99	0	4	-1.78186	-13.38129	130.344	
09:38:44	-6.733821	38.95363	130.065	0.96443	0	0.33	3	99	0	4	-1.806549	-13.45907	130.2643	
09:38:44	-6.733821	38.95363	130.399	0.96443	0	0.32	3	99	0	4	-1.833794	-12.90364	130.1914	
09:38:44	-6.73382	38.95363	130.571	0.96443	0	0.18	3	99	0	4	-1.864552	-12.77823	130.2272	
09:38:44	-6.73382	38.95363	130.571	0.96443	0	0.18	3	99	0	4	-1.823435	-12.80069	130.5035	
09:38:45	-6.733819	38.95363	130.629	0.96443	0	0.39	3	99	0	6	-1.442307	-12.83739	130.4435	
09:38:45	-6.733819	38.95363	130.365	0.96443	0	0.18	3	99	0	4	-1.765363	-12.59966	130.5663	
09:38:45	-6.733819	38.95363	130.22	0.96443	0	0.25	3	99	0	5	-1.924058	-12.79131	130.6162	
09:38:45	-6.733819	38.95363	130.252	0.96443	0	0.14	3	99	0	4	-1.868213	-13.18176	130.8185	
09:38:45	-6.733819	38.95363	130.061	0.96443	0	0.32	3	99	0	4	-1.932365	-13.12535	130.7762	
09:38:46	-6.733818	38.95364	129.845	0.96443	0	0.37	3	99	0	5	-2.098363	-13.18371	130.7235	
09:38:46	-6.733818	38.95364	129.977	0.96443	0	0.09	3	99	0	4	-2.127485	-13.28553	130.6229	
09:38:46	-6.733817	38.95364	130.05	0.96443	0	0.32	3	99	0	4	-1.855682	-13.01558	130.5443	
09:38:46	-6.733817	38.95364	130.157	0.96443	0	0.26	3	99	0	4	-2.169729	-12.97843	130.7886	
09:38:46	-6.733817	38.95363	130.464	0.96443	0	0.39	3	99	0	4	-2.197805	-13.15203	130.9022	
09:38:47	-6.733818	38.95363	130.867	0.96443	0	0.19	3	99	0	4	-1.814234	-13.4737	130.6984	
09:38:47	-6.733818	38.95363	130.888	0.96443	0	0.17	3	99	0	4	-1.610187	-13.32598	130.537	
09:38:47	-6.733817	38.95363	131.181	0.96443	0	0.26	3	99	0	4	-2.04892	-13.13865	130.8209	
09:38:47	-6.733817	38.95363	131.319	0.96443	0	0.14	3	99	0	4	-1.892975	-12.96378	130.8004	
09:38:47	-6.733816	38.95363	131.566	0.96443	0	0.06	3	99	0	4	-2.126534	-13.14186	130.8411	
09:38:48	-6.733816	38.95363	131.924	0.96443	0	0.14	3	99	0	5	-2.024142	-13.14477	130.7349	
09:38:48	-6.733815	38.95363	132.357	0.96443	0	0.25	3	99	0	5	-1.920145	-13.06201	130.6383	
09:38:48	-6.733815	38.95363	132.27	0.96443	0	0.32	3	99	0	4	-1.893032	-12.9849	130.8647	
09:38:48	-6.733815	38.95363	132.176	0.96443	0	0.34	3	99	0	4	-1.703022	-13.17361	130.8446	
09:38:48	-6.733815	38.95363	132.228	0.96443	0	0.61	3	99	0	4	-1.669304	-13.09936	130.7927	
09:38:49	-6.733814	38.95363	132.304	0.96443	0	0.26	3	99	0	5	-1.65821	-12.74906	130.7712	
09:38:49	-6.733814	38.95363	132.507	0.96443	0	0.59	3	99	0	4	-1.824291	-12.92526	130.9593	
09:38:49	-6.733814	38.95363	132.529	0.96443	0	0.32	3	99	0	4	-1.842019	-12.69409	131.1943	
09:38:49	-6.733814	38.95363	132.426	0.96443	0	0.14	3	99	0	5	-1.895539	-12.90816	131.2348	
09:38:49	-6.733814	38.95363	132.316	0.96443	0	0.08	3	99	0	4	-2.107325	-13.0888	131.201	
09:38:50	-6.733814	38.95363	132.163	0.96443	0	0.06	3	99	0	4	-2.255111	-13.26111	131.1118	
09:38:50	-6.733813	38.95363	132.114	0.96443	0	0.18	3	99	0	5	-2.181571	-13.32966	131.0878	
09:38:50	-6.733813	38.95363	132.157	0.96443	0	0.38	3	99	0	5	-2.069261	-13.10511	130.9661	
09:38:50	-6.733813	38.95363	131.953	0.96443	0	0.09	3	99	0	5	-1.954658	-12.88924	130.8565	
09:38:50	-6.733812	38.95363	131.998	0.96443	0	0.04	3	99	0	5	-2.01347	-13.23682	130.7976	
09:38:51	-6.733812	38.95363	132.187	0.96443	0	0.38	3	99	0	4	-2.136979	-13.30409	130.7952	
09:38:51	-6.733812	38.95363	132.245	0.96443	0	0.09	3	99	0	5	-1.670405	-13.12921	130.8462	
09:38:51	-6.733812	38.95363	132.476	0.96443	0	0.02	3	99	0	4	-1.871445	-13.28753	130.8585	
09:38:51	-6.733811	38.95363	132.551	0.96443	0	0.5	3	99	0	4	-1.952772	-13.23289	130.7925	
09:38:51	-6.733811	38.95363	132.662	0.96443	0	0.12	3	99	0	4	-1.402598	-13.06781	130.6075	
09:38:52	-6.733811	38.95363	132.544	0.96443	0	0.33	3	99	0	4	-1.810192	-13.1091	130.8402	
09:38:52	-6.733811	38.95363	132.654	0.96443	0	0.17	3	99	0	5	-1.658454	-13.09659	130.7889	
09:38:52	-6.733811	38.95363	132.62	0.96443	0	0.22	3	99	0	5	-1.921488	-13.05968	130.8119	
09:38:52	-6.733811	38.95363	132.885	0.96443	0	0.31	3	99	0	5	-1.886158	-13.34727	130.7171	
09:38:52	-6.733811	38.95363	132.815	0.96443	0	0.47	3	99	0	5	-1.984619	-12.8923	130.6367	
09:38:53	-6.733812	38.95363	132.855	0.96443	0	0.26	3	99	0	4	-1.688773	-13.50748	130.5538	
09:38:53	-6.733812	38.95363	133.053	0.96443	0	0.09	3	99	0	5	-1.7281	-13.31201	130.5115	
09:38:53	-6.733812	38.95363	133.115	0.96443	0	0.09	3	99	0	4	-2.10656	-13.19907	130.5276	
09:38:53	-6.733812	38.95363	133.21	0.96443	0	0.26	3	99	0	4	-1.992174	-13.0535	130.4286	
09:38:53	-6.733812	38.95363	133.291	0.96443	0	0.08	3	99	0	4	-2.07065	-12.85304	130.5619	
09:38:54	-6.733812	38.95363	133.463	0.96443	0	0.14	3	99	0	5	-2.047302	-13.17236	130.6002	
09:38:54	-6.733812	38.95363	133.504	0.96443	0	0.16	3	99	0	5	-2.009567	-13.2906	130.5222	
09:38:54	-6.733812	38.95363	133.5	0.96443	0	0.29	3	99	0	4	-2.134902	-12.9633	130.4619	
09:38:54	-6.733813	38.95363	133.339	0.96443	0	0.42	3	99	0	4	-1.752754	-13.28917	130.321	
09:38:54	-6.733814	38.95364	133.057	0.96443	0	0.87	3	99	0	5	-1.730031	-13.51248	130.4828	
09:38:55	-6.733814	38.95364	132.823	0.96443	0	0.57	3	99	0	5	-1.491784	-14.22137	130.4382	
09:38:55	-6.733816	38.95364	132.473	0.96443	0	0.63	3	99	0	4	-1.574876	-14.03276	130.2468	
09:38:55	-6.733816	38.95364	132.294	0.96443	0	0.45	3	99	0	4	-1.484281	-14.06407	130.081	
09:38:55	-6.733817	38.95364	132.19	0.96443	0	0.35	3	99	0	5	-1.717015	-13.96869	129.9786	
09:38:55	-6.733817	38.95364	132.28	0.96443	0	0.09	3	99	0	4	-1.607089	-13.74025	130.0085	
09:38:56	-6.733817	38.95364	132.291	0.96443	0	0.29	3	99	0	4	-1.807183	-13.42969	130.125	
09:38:56	-6.733817	38.95364	132.311	0.96443	0	0.04	3	99	0	5	-2.023054	-13.35139	130.0964	
09:38:56	-6.733817	38.95364	132.351	0.96443	0	0.25	3	99	0	4	-1.655823	-13.41672	129.9251	
09:38:56	-6.733818	38.95364	132.327	0.96443	0	0.08	3	99	0	4	-1.755617	-13.5798	130.2463	
09:38:56	-6.733818	38.95364	132.38	0.96443	0	0.04	3	99	0	5	-1.769386	-13.22358	130.2288	
09:38:57	-6.733818	38.95364	132.387	0.96443	0	0.14	3	99	0	5	-1.708118	-13.22685	130.1704	
09:38:57	-6.733818	38.95364	132.33	0.96443	0	0.07	3	99	0	4	-1.807197	-13.44669	130.1207	
09:38:57	-6.733817	38.95364	132.373	0.96443	0	0.25	3	99	0	5	-1.698593	-13.36948	130.0795	
09:38:57	-6.733817	38.95364	132.357	0.96443	0	0.12	3	99	0	5	-1.959939	-13.04053	130.5641	
09:38:57	-6.733817	38.95364	132.301	0.96443	0	0.11	3	99	0	4	-1.941767	-13.40396	130.5178	
09:38:58	-6.733817	38.95364	132.329	0.96443	0	0.13	3	99	0	5	-1.854617	-13.43038	130.3696	
09:38:58	-6.733817	38.95364	132.249	0.96443	0	0.14	3	99	0	5	-1.862894	-13.45179	130.2934	
09:38:58	-6.733817	38.95364	132.206	0.96443	0	0.14	3	99	0	4	-1.724361	-13.21949	130.6005	
09:38:58	-6.733817	38.95364	132.175	0.96443	0	0.08	3	99	0	4	-1.797042	-13.38751	130.6296	
09:38:58	-6.733817	38.95364	132.106	0.96443	0	0.11	3	99	0	4	-1.794507	-13.2432	130.5566	
09:38:59	-6.733817	38.95364	132.051	0.96443	0	0.31	3	99	0	4	-1.75634	-13.23816	130.4823	
09:38:59	-6.733818	38.95364	132.003	0.96443	0	0.09	3	99	0	4	-1.591892	-13.45362	130.38	
09:38:59	-6.733817	38.95364	131.99	0.96443	0	0.24	3	99	0	5	-2.0097	-13.26026	130.4981	
09:38:59	-6.733818	38.95364	132.025	0.96443	0	0.24	3	99	0	4	-1.975645	-13.48263	130.4028	
09:38:59	-6.733818	38.95364	132.03	0.96443	0	0.22	3	99	0	5	-1.625842	-13.32461	130.2299	
09:39:00	-6.733817	38.95364	132.056	0.96443	0	0.19	3	99	0	4	-2.051964	-13.16636	130.2743	
09:39:00	-6.733816	38.95364	131.967	0.96443	0	0.41	3	99	0	4	-2.067898	-13.09272	130.4702	
09:39:00	-6.733815	38.95364	131.894	0.96443	0	0.17	3	99	0	4	-2.283585	-12.90435	130.6804	
09:39:00	-6.733815	38.95364	131.913	0.96443	0	0.14	3	99	0	5	-2.114966	-13.12517	130.7054	
09:39:00	-6.733816	38.95364	131.892	0.96443	0	0.06	3	99	0	4	-1.872201	-13.33702	130.5568	
09:39:01	-6.733816	38.95364	131.847	0.96443	0	0.19	3	99	0	5	-1.984571	-13.21503	130.5883	
09:39:01	-6.733815	38.95364	131.789	0.96443	0	0.13	3	99	0	5	-2.062891	-13.00159	130.6981	
09:39:01	-6.733815	38.95364	131.749	0.96443	0	0.11	3	99	0	5	-1.860182	-13.05181	130.5988	
09:39:01	-6.733816	38.95364	131.721	0.96443	0	0.13	3	99	0	5	-1.875073	-13.1046	130.5688	
09:39:01	-6.733816	38.95364	131.635	0.96443	0	0.12	3	99	0	5	-1.844049	-13.32308	130.4871	
09:39:02	-6.733815	38.95364	131.568	0.96443	0	0.29	3	99	0	4	-2.082394	-13.09975	130.8983	
09:39:02	-6.733815	38.95364	131.684	0.96443	0	0.08	3	99	0	5	-2.364039	-13.00994	130.9313	
09:39:02	-6.733814	38.95364	131.72	0.96443	0	0.39	3	99	0	5	-2.277166	-13.08804	130.8617	
09:39:02	-6.733814	38.95364	131.789	0.96443	0	0.18	3	99	0	4	-2.508043	-13.02725	130.7493	
09:39:02	-6.733814	38.95364	131.93	0.96443	0	0.06	3	99	0	5	-2.345672	-13.05655	130.6534	
09:39:03	-6.733814	38.95364	132.022	0.96443	0	0.08	3	98	0	4	-2.016187	-13.20731	130.653	
09:39:03	-6.733814	38.95364	132.12	0.96443	0	0.14	3	98	0	5	-1.931527	-13.16082	130.5649	
09:39:03	-6.733814	38.95364	132.111	0.96443	0	0.24	3	98	0	4	-2.064287	-13.29006	130.5325	
09:39:03	-6.733814	38.95364	132.108	0.96443	0	0.08	3	98	0	8	-2.093155	-13.34969	130.4364	
09:39:03	-6.733814	38.95364	132.147	0.96443	0	0.03	3	98	0	4	-2.076253	-13.06577	130.5938	
09:39:04	-6.733814	38.95364	132.254	0.96443	0	0.14	3	98	0	4	-1.971631	-13.05129	130.5949	
09:39:04	-6.733814	38.95364	132.235	0.96443	0	0.06	3	98	0	4	-1.857844	-13.01573	130.5136	
09:39:04	-6.733814	38.95364	132.19	0.96443	0	0.17	3	98	0	5	-2.055826	-13.0118	130.5226	
09:39:04	-6.733814	38.95364	132.196	0.96443	0	0.12	3	98	0	4	-2.174139	-13.02377	130.5008	
09:39:04	-6.733814	38.95364	132.292	0.96443	0	0.09	3	99	0	4	-2.074155	-13.19145	130.5263	
09:39:05	-6.733814	38.95364	132.219	0.96443	0	0.11	3	99	0	4	-2.089313	-13.14621	130.4675	
09:39:05	-6.733814	38.95364	132.29	0.96443	0	0.19	3	99	0	5	-2.026895	-13.19412	130.3852	
09:39:05	-6.733814	38.95364	132.412	0.96443	0	0.02	3	99	0	5	-2.18002	-13.17461	130.3356	
09:39:05	-6.733814	38.95364	132.461	0.96443	0	0.19	3	99	0	4	-2.05281	-13.02175	130.4124	
09:39:05	-6.733814	38.95364	132.465	0.96443	0	0.19	3	99	0	5	-2.192214	-12.81316	130.6384	
09:39:06	-6.733814	38.95364	132.622	0.96443	0	0.14	3	99	0	5	-2.26921	-12.92753	130.6138	
09:39:06	-6.733814	38.95364	132.679	0.96443	0	0.06	3	99	0	5	-2.236876	-12.99092	130.5735	
09:39:06	-6.733814	38.95364	132.792	0.96443	0	0.04	3	98	0	5	-2.0232	-13.10157	130.4036	
09:39:06	-6.733813	38.95364	132.91	0.96443	0	0.22	3	98	0	4	-2.228633	-12.96944	130.7664	
09:39:07	-6.733813	38.95364	132.961	0.96443	0	0.12	3	98	0	5	-2.243834	-12.89738	130.7017	
09:39:07	-6.733813	38.95364	132.896	0.96443	0	0.14	3	98	0	5	-1.928188	-13.07727	130.5665	
09:39:07	-6.733813	38.95364	133.07	0.96443	0	0.07	3	98	0	4	-2.02248	-13.12736	130.9039	
09:39:07	-6.733813	38.95364	133.157	0.96443	0	0.24	3	98	0	4	-2.185795	-13.08372	130.9412	
09:39:07	-6.733813	38.95364	133.28	0.96443	0	0.21	3	98	0	4	-2.285963	-13.22706	130.8428	
09:39:08	-6.733813	38.95364	133.339	0.96443	0	0.19	3	98	0	5	-2.117665	-12.98583	130.6947	
09:39:08	-6.733813	38.95364	133.441	0.96443	0	0.14	3	98	0	5	-1.982245	-13.20209	130.6487	
09:39:08	-6.733813	38.95364	133.455	0.96443	0	0.21	3	98	0	4	-1.999973	-12.88323	130.8496	
09:39:08	-6.733813	38.95364	133.577	0.96443	0	0.13	3	98	0	4	-1.92531	-12.88143	130.8109	
09:39:08	-6.733813	38.95364	133.708	0.96443	0	0.11	3	98	0	4	-1.989764	-13.0111	130.7908	
09:39:09	-6.733813	38.95364	133.858	0.96443	0	0.22	3	98	0	5	-2.040789	-13.14701	130.743	
09:39:09	-6.733813	38.95364	133.984	0.96443	0	0.16	3	98	0	4	-1.977864	-13.16612	130.8173	
09:39:09	-6.733813	38.95364	134.207	0.96443	0	0.22	3	98	0	4	-2.141801	-12.86554	130.8289	
09:39:09	-6.733813	38.95364	134.392	0.96443	0	0.19	3	98	0	4	-2.103528	-12.90511	130.7668	
09:39:09	-6.733814	38.95364	134.49	0.96443	0	0.26	3	98	0	5	-1.884962	-13.30989	130.6448	
09:39:10	-6.733814	38.95364	134.643	0.96443	0	0.26	3	98	0	5	-1.916825	-13.34222	130.5941	
09:39:10	-6.733814	38.95364	134.79	0.96443	0	0.12	3	98	0	5	-2.294074	-13.23615	130.8013	
09:39:10	-6.733814	38.95363	134.93	0.96443	0	0.07	3	98	0	4	-2.021828	-13.06413	130.6803	
09:39:10	-6.733814	38.95363	135.071	0.96443	0	0.19	3	98	0	4	-2.094472	-13.2136	130.6501	
09:39:10	-6.733814	38.95363	135.299	0.96443	0	0.16	3	98	0	5	-2.138633	-13.31585	130.5561	
09:39:11	-6.733814	38.95363	135.471	0.96443	0	0.26	3	98	0	4	-2.254587	-13.24245	130.6386	
09:39:11	-6.733814	38.95363	135.67	0.96443	0	0.22	3	98	0	4	-2.29802	-13.27952	130.5614	
09:39:11	-6.733814	38.95363	135.883	0.96443	0	0.29	3	98	0	5	-2.100336	-13.27093	130.4187	
09:39:11	-6.733814	38.95363	135.891	0.96443	0	0.22	3	98	0	5	-2.349406	-13.07142	130.3889	
09:39:11	-6.733815	38.95363	135.842	0.96443	0	0.22	3	98	0	5	-2.073054	-13.37388	130.2349	
09:39:12	-6.733815	38.95363	135.844	0.96443	0	0.14	3	98	0	5	-2.19873	-13.30096	130.3349	
09:39:12	-6.733815	38.95363	135.967	0.96443	0	0.09	3	98	0	5	-2.092206	-13.24137	130.1993	
09:39:12	-6.733815	38.95363	136.043	0.96443	0	0.14	3	98	0	4	-1.9056	-13.2362	130.0788	
09:39:12	-6.733816	38.95363	136.066	0.96443	0	0.04	3	98	0	4	-1.858873	-13.20746	130.0388	
09:39:12	-6.733815	38.95363	136.151	0.96443	0	0.22	3	98	0	5	-2.096294	-13.0891	130.2359	
09:39:13	-6.733815	38.95363	136.232	0.96443	0	0.33	3	98	0	4	-2.205689	-13.08114	130.3258	
09:39:13	-6.733816	38.95363	136.421	0.96443	0	0.13	3	98	0	4	-2.068577	-13.2665	130.2196	
09:39:13	-6.733816	38.95363	136.519	0.96443	0	0.24	3	98	0	5	-2.160404	-12.83037	130.1936	
09:39:13	-6.733816	38.95363	136.667	0.96443	0	0.08	3	98	0	5	-2.13571	-13.05304	130.1412	
09:39:13	-6.733816	38.95363	136.614	0.96443	0	0.17	3	98	0	5	-2.129454	-12.87032	130.3136	
09:39:14	-6.733816	38.95363	136.671	0.96443	0	0.21	3	98	0	4	-2.234091	-12.83099	130.3284	
09:39:14	-6.733816	38.95363	136.752	0.96443	0	0.06	3	98	0	4	-2.184236	-13.08239	130.2604	
09:39:14	-6.733816	38.95363	136.884	0.96443	0	0.24	3	98	0	5	-2.104043	-12.94991	130.1781	
09:39:14	-6.733816	38.95363	136.95	0.96443	0	0.09	3	98	0	5	-2.237427	-12.73815	130.3551	
09:39:14	-6.733816	38.95363	137.055	0.96443	0	0.26	3	98	0	5	-2.072426	-12.81244	130.346	
09:39:15	-6.733817	38.95363	137.012	0.96443	0	0.22	3	98	0	4	-1.925727	-12.77115	130.3038	
09:39:15	-6.733817	38.95363	136.933	0.96443	0	0.13	3	98	0	4	-2.039291	-12.88949	130.3083	
09:39:15	-6.733817	38.95363	136.891	0.96443	0	0.06	3	98	0	5	-2.247569	-13.1252	130.3162	
09:39:15	-6.733818	38.95363	136.919	0.96443	0	0.13	3	98	0	5	-2.258758	-13.03156	130.6384	
09:39:15	-6.733818	38.95363	136.889	0.96443	0	0.22	3	98	0	4	-2.112169	-12.95611	130.5576	
09:39:16	-6.733818	38.95363	136.798	0.96443	0	0.16	3	98	0	5	-2.149559	-12.8266	130.5133	
09:39:16	-6.733818	38.95364	136.576	0.96443	0	0.16	3	99	0	5	-2.115204	-12.88823	130.473	
09:39:16	-6.733819	38.95364	136.561	0.96443	0	0.04	3	99	0	5	-2.161106	-12.93751	130.5896	
09:39:16	-6.733819	38.95364	136.629	0.96443	0	0.36	3	99	0	5	-2.154067	-12.95623	130.579	
09:39:16	-6.733819	38.95364	136.67	0.96443	0	0.14	3	99	0	4	-2.107876	-12.79988	130.5506	
