Date	Latitude(deg) 	Longitude(deg)	hamsl(m)	hafl(m)	climbrate(cm/s)	GroundSpeed(m/s)	Airspeed(m/s)	Mav_Link(%)	Rssi_Link(%)	Throttle	Roll(deg)	Pitch(deg)	Yaw(deg)
10:25:42	0	0	0	0	0	0	0	100	0	0	18.17267	-1.932519	35.26308	
10:25:42	0	0	0	0.1346778	-0.09112848	0	3	100	0	50	18.18919	-1.907993	35.22152	
10:25:42	0	0	0	0.08321393	-2.80911	0	3	100	0	50	18.22222	-1.875785	35.07851	
10:25:43	0	0	0	0.03664124	-5.456011	0	3	100	0	50	18.24171	-1.864628	35.03145	
10:25:43	0	0	0	0.2265201	3.838973	0	3	100	0	50	18.27451	-1.827721	34.91073	
10:25:43	0	0	0	0.3979579	12.28946	0	3	100	0	50	18.30585	-1.811653	34.78938	
10:25:43	0	0	0	0.760506	29.14823	0	3	100	0	50	18.3282	-1.787777	34.61403	
10:25:43	0	0	0	1.054108	40.99136	0	3	100	0	50	18.34938	-1.755746	34.49006	
10:25:43	0	0	0	1.143565	41.64491	0	3	100	0	50	18.37124	-1.735494	34.40754	
10:25:44	0	0	0	1.209265	40.92901	0	3	100	0	50	18.39232	-1.722429	34.32233	
10:25:44	0	0	0	1.124516	31.84001	0	3	100	0	50	18.41105	-1.717477	34.2501	
10:25:44	0	0	0	1.055574	25.44166	0	3	100	0	50	18.42549	-1.667973	34.10632	
10:25:44	0	0	0	1.026	21.26693	0	3	100	0	50	18.43275	-1.620839	33.95113	
10:25:44	0	0	0	0.9916938	16.97992	0	3	100	0	50	18.46367	-1.5842	33.78389	
10:25:45	0	0	0	0.9401063	12.51725	0	3	100	0	50	18.48351	-1.569724	33.71081	
10:25:45	0	0	0	0.8844801	7.989	0	3	100	0	50	18.50544	-1.533271	33.54802	
10:25:45	0	0	0	0.8783317	6.299734	0	3	100	0	50	18.51761	-1.520499	33.49898	
10:25:45	0	0	0	0.8707356	5.164965	0	3	100	0	50	18.53082	-1.544243	33.50645	
10:25:45	0	0	0	0.7685102	-0.7891832	0	3	100	0	50	18.54089	-1.542972	33.47591	
10:25:46	0	0	0	0.6654382	-7.002195	0	3	100	0	50	18.55502	-1.582853	33.48602	
10:25:46	0	0	0	0.5526804	-12.74815	0	3	100	0	50	18.57349	-1.59968	33.45214	
10:25:46	0	0	0	0.461509	-16.3468	0	3	100	0	50	18.5731	-1.630807	33.41342	
10:25:46	0	0	0	0.3708746	-19.69361	0	3	100	0	50	18.58695	-1.633902	33.37416	
10:25:47	0	0	0	0.2923235	-21.80107	0	3	100	0	50	18.59855	-1.679832	33.36198	
10:25:47	0	0	0	0.2339429	-23.06847	0	3	100	0	50	18.59828	-1.67046	33.19847	
10:25:47	0	0	0	0.198005	-22.85249	0	3	100	0	50	18.6003	-1.659373	33.1039	
10:25:47	0	0	0	0.1866535	-21.70849	0	3	100	0	50	18.60466	-1.694697	33.09549	
10:25:48	0	0	0	0.1953153	-19.44022	0	3	100	0	50	18.61403	-1.688736	33.09851	
10:25:48	0	0	0	0.1930495	-18.10053	0	3	100	0	50	18.62293	-1.697979	33.06166	
10:25:48	0	0	0	0.1858442	-16.96423	0	3	100	0	50	18.63693	-1.703344	32.99419	
10:25:48	0	0	0	0.1584708	-16.78052	0	3	100	0	50	18.64765	-1.63015	32.8145	
10:25:48	0	0	0	0.1247101	-17.37223	0	3	100	0	50	18.66101	-1.625451	32.73551	
10:25:48	0	0	0	0.1064373	-16.79989	0	3	100	0	50	18.66778	-1.587597	32.62063	
10:25:48	0	0	0	0.111185	-15.53569	0	3	100	0	50	18.68216	-1.526354	32.46659	
10:25:49	0	0	0	0.1296613	-13.30097	0	3	100	0	50	18.68348	-1.531273	32.39294	
10:25:49	0	0	0	0.1662743	-10.64706	0	3	100	0	50	18.69867	-1.529088	32.32141	
10:25:49	0	0	0	0.211614	-7.939014	0	3	100	0	50	18.70005	-1.542458	32.24481	
10:25:49	0	0	0	0.2577749	-5.185014	0	3	100	0	50	18.72307	-1.516916	32.10347	
10:25:49	0	0	0	0.3002999	-2.905612	0	3	100	0	50	18.73122	-1.495735	31.99241	
10:25:50	0	0	0	0.3386075	-1.34621	0	3	100	0	50	18.73454	-1.517979	31.95829	
10:25:50	0	0	0	0.3906677	1.436677	0	3	100	0	50	18.7417	-1.519982	31.9061	
10:25:50	0	0	0	0.4441916	4.227087	0	3	100	0	50	18.72873	-1.53699	31.88656	
10:25:50	0	0	0	0.4717167	4.873119	0	3	100	0	50	18.7245	-1.525737	31.82235	
10:25:50	0	0	0	0.4580131	3.135123	0	3	100	0	50	18.71819	-1.486373	31.64487	
10:25:51	0	0	0	0.4419866	1.420578	0	3	100	0	50	18.72239	-1.514262	31.6513	
10:25:51	0	0	0	0.4216401	-0.3463874	0	3	100	0	50	18.73507	-1.508923	31.53605	
10:25:51	0	0	0	0.4036881	-1.503624	0	3	100	0	50	18.73875	-1.55309	31.58252	
10:25:51	0	0	0	0.4260992	-0.4104777	0	3	100	0	50	18.74107	-1.60819	31.64326	
10:25:51	0	0	0	0.4457098	0.151971	0	3	100	0	50	18.73712	-1.639813	31.62656	
10:25:52	0	0	0	0.5035567	2.904354	0	3	100	0	50	18.73455	-1.664535	31.61523	
10:25:52	0	0	0	0.5511221	5.756342	0	3	100	0	50	18.73579	-1.670123	31.55729	
10:25:52	0	0	0	0.6039732	7.504343	0	3	100	0	50	18.73442	-1.67198	31.52897	
10:25:52	0	0	0	0.6494882	8.908943	0	3	100	0	50	18.73455	-1.61345	31.27208	
10:25:52	0	0	0	0.6328807	6.953719	0	3	100	0	50	18.74621	-1.584531	31.13803	
10:25:53	0	0	0	0.6191536	5.571338	0	3	100	0	50	18.75006	-1.59286	31.07285	
10:25:53	0	0	0	0.6479226	6.877604	0	3	100	0	50	18.75933	-1.623663	31.07758	
10:25:53	0	0	0	0.6752855	7.593729	0	3	100	0	50	18.76086	-1.626195	30.98546	
10:25:53	0	0	0	0.6280237	4.455258	0	3	100	0	50	18.76551	-1.598033	30.78705	
10:25:54	0	0	0	0.5837421	1.644348	0	3	100	0	50	18.75561	-1.58646	30.68523	
10:25:54	0	0	0	0.499664	-3.057853	0	3	100	0	50	18.73793	-1.602075	30.63304	
10:25:54	0	0	0	0.4294148	-6.761816	0	3	100	0	50	18.74028	-1.577361	30.52143	
10:25:54	0	0	0	0.3566662	-10.55625	0	3	100	0	50	18.7387	-1.63513	30.58913	
10:25:54	0	0	0	0.2917237	-13.09776	0	3	100	0	50	18.71502	-1.70097	30.69942	
10:25:55	0	0	0	0.2521462	-14.30897	0	3	100	0	50	18.70601	-1.694874	30.62405	
10:25:55	0	0	0	0.2216917	-14.72884	0	3	100	0	50	18.69726	-1.748407	30.68229	
10:25:55	0	0	0	0.2540669	-11.97592	0	3	100	0	50	18.69864	-1.722874	30.56819	
10:25:55	0	0	0	0.2851185	-9.615646	0	3	100	0	50	18.69835	-1.664094	30.35959	
10:25:55	0	0	0	0.265296	-10.16378	0	3	100	0	50	18.70166	-1.630986	30.25121	
10:25:56	0	0	0	0.2487886	-9.941704	0	3	100	0	50	18.70215	-1.690378	30.3427	
10:25:56	0	0	0	0.2706217	-8.091663	0	3	100	0	50	18.70369	-1.674486	30.21475	
10:25:56	0	0	0	0.2921375	-6.130843	0	3	100	0	50	18.70334	-1.686805	30.1598	
10:25:56	0	0	0	0.3165924	-4.500978	0	3	100	0	50	18.69913	-1.709854	30.19718	
10:25:57	0	0	0	0.3494795	-2.390967	0	3	100	0	50	18.69026	-1.716356	30.09233	
10:25:57	0	0	0	0.3872284	-0.1763459	0	3	100	0	50	18.69089	-1.733455	30.06412	
10:25:57	0	0	0	0.4311948	1.772512	0	3	100	0	50	18.6925	-1.797568	30.17073	
10:25:57	0	0	0	0.4693624	3.328779	0	3	100	0	50	18.67484	-1.79959	30.08538	
10:25:57	0	0	0	0.4967328	4.480511	0	3	100	0	50	18.66053	-1.862912	30.17141	
10:25:57	0	0	0	0.4770026	2.743363	0	3	100	0	50	18.6619	-1.848797	30.04374	
10:25:58	0	0	0	0.4295531	-0.003494136	0	3	100	0	50	18.66433	-1.839111	29.98178	
10:25:58	0	0	0	0.4043488	-1.903288	0	3	100	0	50	18.65156	-1.878234	30.00908	
10:25:58	0	0	0	0.3986233	-2.378755	0	3	100	0	50	18.64243	-1.881708	30.04756	
10:25:58	0	0	0	0.4023687	-1.731021	0	3	100	0	50	18.63608	-1.862242	29.8949	
10:25:58	0	0	0	0.4196759	-0.95884	0	3	100	0	50	18.63216	-1.874083	29.76327	
10:25:59	0	0	0	0.4444993	0.2736441	0	3	100	0	50	18.63154	-1.900423	29.74233	
10:25:59	0	0	0	0.4793012	1.826269	0	3	100	0	50	18.61411	-1.944417	29.76745	
10:25:59	0	0	0	0.5314776	4.275186	0	3	100	0	50	18.61324	-1.95654	29.71755	
10:25:59	0	0	0	0.6085877	7.076668	0	3	100	0	50	18.616	-1.862207	29.34414	
10:26:00	0	0	0	0.5995501	6.027376	0	3	100	0	50	18.61031	-1.879728	29.40141	
10:26:00	0	0	0	0.5924965	4.248984	0	3	100	0	50	18.59136	-1.900496	29.39619	
10:26:00	0	0	0	0.5859308	3.219227	0	3	100	0	50	18.58558	-1.896299	29.3825	
10:26:00	0	0	0	0.5687737	2.173738	0	3	100	0	50	18.58119	-1.941648	29.40796	
10:26:00	0	0	0	0.535823	-0.02007652	0	3	100	0	50	18.5788	-1.945298	29.3801	
10:26:00	0	0	0	0.5071753	-2.277597	0	3	100	0	50	18.57315	-1.930673	29.31358	
10:26:01	0	0	0	0.481976	-3.44219	0	3	100	0	50	18.57482	-1.950011	29.3227	
10:26:01	0	0	0	0.4621366	-4.127156	0	3	100	0	50	18.57128	-1.946319	29.22212	
10:26:01	0	0	0	0.4257016	-5.688859	0	3	100	0	50	18.56784	-1.982771	29.23576	
10:26:01	0	0	0	0.3931175	-7.26218	0	3	100	0	50	18.56824	-1.947299	29.10887	
10:26:02	0	0	0	0.3047509	-11.11742	0	3	100	0	50	18.56821	-1.940688	29.10258	
10:26:02	0	0	0	0.2333108	-14.13888	0	3	100	0	50	18.56561	-1.958839	29.12934	
10:26:02	0	0	0	0.1645578	-15.94026	0	3	100	0	50	18.56216	-1.997586	29.18049	
10:26:02	0	0	0	0.1147606	-17.76258	0	3	100	0	50	18.54752	-2.014106	29.12877	
10:26:02	0	0	0	0.06814291	-18.23252	0	3	100	0	50	18.55119	-2.020468	29.09844	
10:26:03	0	0	0	0.02918154	-19.03373	0	3	100	0	50	18.54333	-2.034825	29.05616	
10:26:03	0	0	0	0.06247128	-15.30909	0	3	100	0	50	18.53598	-2.077865	29.12682	
10:26:03	0	0	0	0.09421156	-11.68264	0	3	100	0	50	18.52749	-2.061156	29.02905	
10:26:03	0	0	0	0.1278986	-9.102973	0	3	100	0	50	18.5192	-2.118864	29.15338	
10:26:03	0	0	0	0.1663697	-6.290401	0	3	100	0	50	18.50255	-2.157073	29.16129	
10:26:04	0	0	0	0.2215273	-2.940085	0	3	100	0	50	18.49868	-2.16278	29.16536	
10:26:04	0	0	0	0.2670731	-0.203224	0	3	100	0	50	18.4969	-2.185296	29.18063	
10:26:04	0	0	0	0.2784823	0.4178899	0	3	100	0	50	18.50006	-2.198736	29.17658	
10:26:04	0	0	0	0.2890207	0.8904201	0	3	100	0	50	18.4981	-2.175872	29.00285	
10:26:04	0	0	0	0.2766731	0.08923186	0	3	100	0	50	18.50489	-2.107171	28.78581	
10:26:05	0	0	0	0.2652746	-0.4344048	0	3	100	0	50	18.50124	-2.137849	28.76006	
10:26:05	0	0	0	0.3087351	1.885924	0	3	100	0	50	18.47623	-2.170013	28.80571	
10:26:05	0	0	0	0.3443371	3.352502	0	3	100	0	50	18.46098	-2.191631	28.82536	
10:26:05	0	0	0	0.373183	4.346456	0	3	100	0	50	18.44435	-2.253016	28.9404	
10:26:05	0	0	0	0.3979389	4.309341	0	3	100	0	50	18.43733	-2.216641	28.79007	
10:26:06	0	0	0	0.4322051	5.030426	0	3	100	0	50	18.4234	-2.222237	28.80362	
10:26:06	0	0	0	0.4590185	6.119031	0	3	100	0	50	18.4204	-2.276231	28.90213	
10:26:06	0	0	0	0.4647667	6.353122	0	3	100	0	50	18.41578	-2.259198	28.88252	
10:26:06	0	0	0	0.4393027	4.692955	0	3	100	0	50	18.40977	-2.257884	28.86174	
10:26:06	0	0	0	0.4144764	2.91709	0	3	100	0	50	18.39861	-2.271721	28.8535	
10:26:06	0	0	0	0.3891354	0.3313626	0	3	100	0	50	18.40003	-2.254304	28.78814	
10:26:07	0	0	0	0.3647501	-0.4496091	0	3	100	0	50	18.40689	-2.249174	28.7435	
10:26:07	0	0	0	0.3471431	-1.276702	0	3	100	0	50	18.3984	-2.301604	28.82891	
10:26:07	0	0	0	0.3143087	-2.845227	0	3	100	0	50	18.39272	-2.279021	28.79187	
10:26:07	0	0	0	0.2682856	-5.240078	0	3	100	0	50	18.39141	-2.300314	28.83742	
10:26:08	0	0	0	0.2494321	-5.732272	0	3	100	0	50	18.38714	-2.327394	28.87051	
10:26:08	0	0	0	0.2539633	-4.936634	0	3	100	0	50	18.39282	-2.359066	28.95313	
10:26:08	0	0	0	0.258946	-4.481299	0	3	100	0	50	18.41451	-2.385328	28.93855	
10:26:08	0	0	0	0.2645437	-3.926618	0	3	100	0	50	16.4369	-2.624182	28.75209	
10:26:08	0	0	0	0.2852469	-3.186593	0	3	100	0	50	16.85986	-2.58257	28.78213	
10:26:08	0	0	0	0.3225372	-1.377168	0	3	100	0	50	19.58316	-2.303561	29.3117	
10:26:09	0	0	0	0.3481577	3.486075	0	3	100	0	50	16.76453	-2.606255	28.70114	
10:26:09	0	0	0	0.3569891	1.073134	0	3	100	0	50	17.98365	-2.473479	28.93285	
10:26:09	0	0	0	0.3378142	2.020763	0	3	100	0	50	18.14097	-2.425997	28.9013	
10:26:09	0	0	0	0.3068886	0.7014785	0	3	100	0	50	18.1103	-2.452593	28.95984	
10:26:09	0	0	0	0.2976064	0.06705263	0	3	100	0	50	18.13507	-2.443838	28.90778	
10:26:10	0	0	0	0.3108959	0.8585134	0	3	100	0	50	18.14131	-2.436278	28.85352	
10:26:10	0	0	0	0.2958135	0.154057	0	3	100	0	50	18.13706	-2.433983	28.87501	
10:26:10	0	0	0	0.258241	-1.712615	0	3	100	0	50	18.13348	-2.450803	28.88456	
10:26:10	0	0	0	0.2187136	-3.833528	0	3	100	0	50	18.14058	-2.46261	28.87862	
10:26:10	0	0	0	0.1785946	-5.521401	0	3	100	0	50	18.15185	-2.479102	28.93935	
10:26:11	0	0	0	0.1427071	-7.280165	0	3	100	0	50	18.14403	-2.450584	28.90833	
10:26:11	0	0	0	0.1580208	-5.785311	0	3	100	0	50	18.11331	-2.466536	28.94309	
10:26:11	0	0	0	0.173113	-4.361919	0	3	100	0	50	18.11571	-2.450881	28.93532	
10:26:11	0	0	0	0.2134936	-2.126486	0	3	100	0	50	18.1135	-2.449602	28.86568	
10:26:11	0	0	0	0.2462998	-0.4846047	0	3	100	0	50	18.10957	-2.477036	28.89571	
10:26:12	0	0	0	0.2851174	1.187686	0	3	100	0	50	18.10832	-2.523085	28.98465	
10:26:12	0	0	0	0.3197029	3.033597	0	3	100	0	50	18.1222	-2.511773	28.95325	
10:26:12	0	0	0	0.2825601	0.7296081	0	3	100	0	50	18.11433	-2.54964	29.02479	
10:26:13	0	0	0	0.2474733	-1.583064	0	3	100	0	50	18.09609	-2.595286	29.1623	
10:26:13	0	0	0	0.2557242	-1.597685	0	3	100	0	50	18.09775	-2.601841	29.25028	
10:26:13	0	0	0	0.2623645	-0.7403762	0	3	100	0	50	18.07968	-2.625256	29.31016	
10:26:13	0	0	0	0.2300651	-2.205959	0	3	100	0	50	18.06471	-2.649687	29.40233	
10:26:13	0	0	0	0.2013474	-3.432079	0	3	100	0	50	18.07708	-2.60551	29.28551	
10:26:14	0	0	0	0.1529305	-5.480486	0	3	100	0	50	18.0687	-2.637313	29.4045	
10:26:14	0	0	0	0.113676	-6.97675	0	3	100	0	50	18.07374	-2.661574	29.4813	
10:26:14	0	0	0	0.09297006	-7.126782	0	3	100	0	50	18.05609	-2.664629	29.49641	
10:26:14	0	0	0	0.07523069	-7.550505	0	3	100	0	50	18.06389	-2.645611	29.43663	
10:26:14	0	0	0	0.1184257	-4.264937	0	3	100	0	50	18.0584	-2.660688	29.52664	
10:26:15	0	0	0	0.1587971	-1.885238	0	3	100	0	50	18.07014	-2.619736	29.42158	
10:26:15	0	0	0	0.2205474	1.238753	0	3	100	0	50	18.06957	-2.59493	29.3469	
10:26:15	0	0	0	0.2704702	3.562269	0	3	100	0	50	18.06915	-2.570633	29.3424	
10:26:15	0	0	0	0.2852434	3.430653	0	3	100	0	50	18.06938	-2.561782	29.34135	
10:26:15	0	0	0	0.2969289	3.452958	0	3	100	0	50	18.0811	-2.526478	29.24157	
10:26:16	0	0	0	0.3129767	3.88223	0	3	100	0	50	18.06629	-2.551214	29.2956	
10:26:16	0	0	0	0.3247931	3.62077	0	3	100	0	50	18.0486	-2.583132	29.38622	
10:26:16	0	0	0	0.3280492	3.313664	0	3	100	0	50	18.04193	-2.596049	29.41234	
10:26:16	0	0	0	0.3190839	2.358462	0	3	100	0	50	18.02839	-2.620772	29.43823	
10:26:16	0	0	0	0.3143399	1.743924	0	3	100	0	50	18.03579	-2.613087	29.42904	
10:26:17	0	0	0	0.3164648	2.095602	0	3	100	0	50	18.02989	-2.615501	29.45342	
10:26:17	0	0	0	0.3371559	3.063481	0	3	100	0	50	18.02879	-2.595354	29.473	
10:26:17	0	0	0	0.3676865	4.165463	0	3	100	0	50	18.03019	-2.579407	29.45735	
10:26:17	0	0	0	0.3947231	5.162485	0	3	100	0	50	18.02388	-2.525927	29.34411	
10:26:17	0	0	0	0.4185147	5.788009	0	3	100	0	50	18.02026	-2.51117	29.24503	
10:26:17	0	0	0	0.4499756	6.777808	0	3	100	0	50	18.01633	-2.472363	29.15112	
10:26:17	0	0	0	0.4915898	8.287307	0	3	100	0	50	18.01262	-2.476395	29.17482	
10:26:18	0	0	0	0.5073964	8.228312	0	3	100	0	50	18.01605	-2.489128	29.22368	
10:26:18	0	0	0	0.4889951	6.341741	0	3	100	0	50	18.01434	-2.493012	29.2864	
10:26:18	0	0	0	0.4583728	4.136104	0	3	100	0	50	18.01276	-2.503216	29.37296	
10:26:18	0	0	0	0.4058627	0.2719955	0	3	100	0	50	18.00647	-2.507492	29.43204	
10:26:19	0	0	0	0.3725345	-1.249749	0	3	100	0	50	18.00398	-2.53227	29.51289	
10:26:19	0	0	0	0.3491491	-2.283523	0	3	100	0	50	17.99366	-2.529833	29.4701	
10:26:19	0	0	0	0.3095264	-4.314976	0	3	100	0	50	17.97756	-2.531841	29.48926	
10:26:19	0	0	0	0.262114	-6.235769	0	3	100	0	50	17.98106	-2.537138	29.55196	
10:26:20	0	0	0	0.2413303	-6.133826	0	3	100	0	50	17.97962	-2.55228	29.58887	
10:26:20	0	0	0	0.2384978	-5.636849	0	3	100	0	50	17.96919	-2.573571	29.7333	
10:26:20	0	0	0	0.245442	-5.091527	0	3	100	0	50	17.96372	-2.559777	29.79936	
10:26:20	0	0	0	0.2612657	-3.951304	0	3	100	0	50	17.96931	-2.506265	29.69181	
10:26:20	0	0	0	0.2800023	-2.272435	0	3	100	0	50	17.97189	-2.466309	29.60664	
10:26:21	0	0	0	0.302571	-0.5456057	0	3	100	0	50	17.983	-2.435464	29.59221	
10:26:21	0	0	0	0.3237908	0.7875805	0	3	100	0	50	17.98462	-2.424885	29.60393	
10:26:21	0	0	0	0.3203045	0.4404658	0	3	100	0	50	17.97104	-2.461745	29.72038	
10:26:21	0	0	0	0.3166286	-0.1633703	0	3	100	0	50	17.97209	-2.431226	29.6545	
10:26:21	0	0	0	0.2516524	-3.592334	0	3	100	0	50	17.95518	-2.48828	29.80226	
10:26:22	0	0	0	0.1981906	-6.11913	0	3	100	0	50	17.94794	-2.500736	29.85309	
10:26:22	0	0	0	0.1551861	-7.825846	0	3	100	0	50	17.93941	-2.523317	29.93109	
10:26:22	0	0	0	0.1179385	-8.947407	0	3	100	0	50	17.94267	-2.499421	29.89829	
10:26:22	0	0	0	0.1112902	-8.423737	0	3	100	0	50	17.9418	-2.529377	30.02592	
10:26:22	0	0	0	0.1072504	-7.665251	0	3	100	0	50	17.94473	-2.503439	29.922	
10:26:23	0	0	0	0.1270538	-5.749523	0	3	100	0	50	17.94493	-2.485016	29.95084	
10:26:23	0	0	0	0.1450877	-3.967646	0	3	100	0	50	17.94584	-2.494328	30.00553	
10:26:23	0	0	0	0.1684892	-2.082925	0	3	100	0	50	17.96844	-2.43721	29.82076	
10:26:23	0	0	0	0.193577	-1.301617	0	3	100	0	50	17.96631	-2.386899	29.73129	
10:26:23	0	0	0	0.2129775	0.3450029	0	3	100	0	50	17.97731	-2.405877	29.8509	
10:26:23	0	0	0	0.2357848	1.646994	0	3	100	0	50	17.97199	-2.389399	29.91311	
10:26:24	0	0	0	0.1968024	-0.7049649	0	3	100	0	50	17.98152	-2.34668	29.89563	
10:26:24	0	0	0	0.1633819	-2.295615	0	3	100	0	50	17.97972	-2.329233	29.90733	
10:26:24	0	0	0	0.1135502	-4.641619	0	3	100	0	50	17.9909	-2.314283	29.92102	
10:26:24	0	0	0	0.07201578	-6.121491	0	3	100	0	50	17.99918	-2.261396	29.85027	
10:26:25	0	0	0	0.06061264	-6.043648	0	3	100	0	50	18.00112	-2.226678	29.72195	
10:26:25	0	0	0	0.05176456	-5.444441	0	3	100	0	50	18.00014	-2.214296	29.7648	
10:26:25	0	0	0	0.04666101	-4.999453	0	3	100	0	50	17.99418	-2.221288	29.83505	
10:26:25	0	0	0	0.04364772	-4.900762	0	3	100	0	50	17.9754	-2.25935	29.9066	
10:26:26	0	0	0	0.01433911	-6.383811	0	3	100	0	50	17.9755	-2.2707	29.9393	
10:26:26	0	0	0	-0.01374263	-6.88207	0	3	100	0	50	17.97687	-2.290672	29.97819	
10:26:26	0	0	0	-0.02229458	-6.457558	0	3	100	0	50	17.9877	-2.26677	29.94921	
10:26:26	0	0	0	-0.0284461	-6.395025	0	3	100	0	50	17.96762	-2.313798	30.07264	
10:26:26	0	0	0	-0.03862197	-6.832693	0	3	100	0	50	17.97173	-2.249516	29.96614	
10:26:27	0	0	0	-0.04705109	-6.649325	0	3	100	0	50	17.96892	-2.26094	30.02819	
10:26:27	0	0	0	-0.02757559	-4.962794	0	3	100	0	50	17.9687	-2.285452	30.15614	
10:26:27	0	0	0	-0.004895218	-3.161885	0	3	100	0	50	17.9667	-2.30358	30.24004	
10:26:27	0	0	0	0.002258133	-2.70374	0	3	100	0	50	17.96003	-2.34724	30.38749	
10:26:28	0	0	0	0.009363307	-2.335445	0	3	100	0	50	17.96221	-2.329828	30.37134	
10:26:28	0	0	0	0.06650452	0.596629	0	3	100	0	50	17.96622	-2.339689	30.39231	
10:26:28	0	0	0	0.1138605	3.115138	0	3	100	0	50	17.96817	-2.351393	30.42754	
10:26:28	0	0	0	0.07145217	0.1950877	0	3	100	0	50	17.96433	-2.365176	30.46438	
10:26:28	0	0	0	0.03237886	-1.59145	0	3	100	0	50	17.98057	-2.33639	30.36782	
10:26:29	0	0	0	-0.02109457	-4.990582	0	3	100	0	50	17.98803	-2.313708	30.30514	
10:26:29	0	0	0	-0.06961361	-7.193521	0	3	100	0	50	17.979	-2.309372	30.33998	
10:26:29	0	0	0	-0.1119728	-8.999946	0	3	100	0	50	17.96449	-2.322324	30.41173	
10:26:29	0	0	0	-0.1578919	-10.88564	0	3	100	0	50	17.97622	-2.326835	30.45181	
10:26:29	0	0	0	-0.1853495	-11.28533	0	3	100	0	50	17.97359	-2.336979	30.5416	
10:26:30	0	0	0	-0.1887025	-10.46739	0	3	100	0	50	17.96479	-2.305047	30.48854	
10:26:30	0	0	0	-0.1965319	-9.483342	0	3	100	0	50	17.96431	-2.280263	30.42863	
10:26:30	0	0	0	-0.2083272	-9.575785	0	3	100	0	50	17.95585	-2.310272	30.54927	
10:26:30	-6.733616	38.95366	87.698	-0.2186383	-9.282275	0.39	3	100	0	50	17.9435	-2.287885	30.56383	
10:26:30	-6.733616	38.95366	87.387	-0.2271262	-8.892487	0.59	3	100	0	50	17.92358	-2.3081	30.59066	
10:26:30	-6.733616	38.95366	87.387	-0.233831	-8.89799	0.59	3	100	0	50	17.92265	-2.301411	30.60452	
10:26:31	-6.733613	38.95366	85.661	-0.2384965	-8.687905	0.48	3	100	0	50	17.91104	-2.32098	30.69946	
10:26:31	-6.733614	38.95365	85.412	-0.2342016	-7.707468	0.14	3	100	0	50	17.91818	-2.309842	30.7199	
10:26:31	-6.733616	38.95365	85.317	-0.2166637	-5.290245	0.19	3	100	0	50	17.91661	-2.32444	30.78819	
10:26:31	-6.733618	38.95365	85.51	-0.1741956	-2.313513	0.33	3	100	0	50	17.92254	-2.311648	30.83162	
10:26:31	-6.733619	38.95365	85.404	-0.1005111	1.524253	0.39	3	100	0	50	17.93737	-2.256784	30.77525	
10:26:32	-6.73362	38.95365	85.336	-0.03057969	5.235714	0.32	3	100	0	50	17.93457	-2.244322	30.77034	
10:26:32	-6.733621	38.95365	85.253	0.0228711	7.792149	0.79	3	100	0	50	17.93662	-2.201131	30.63471	
10:26:32	-6.73362	38.95365	85.116	0.005092427	6.269396	0.22	3	100	0	50	17.92703	-2.216465	30.72151	
10:26:32	-6.73362	38.95365	85.155	-0.05450046	2.099752	0.18	3	100	0	50	17.91914	-2.214565	30.78364	
10:26:32	-6.733621	38.95364	85.574	-0.1076624	-1.101964	0.39	3	100	0	50	17.92171	-2.15767	30.67463	
10:26:32	-6.733623	38.95364	86.076	-0.1492574	-3.612264	0.16	3	100	0	50	17.92466	-2.157375	30.67288	
10:26:33	-6.733624	38.95364	86.327	-0.1884533	-5.329025	0.08	3	100	0	50	17.91788	-2.146202	30.70436	
10:26:33	-6.733627	38.95364	87.309	-0.2183244	-6.641699	0.33	3	100	0	50	17.91449	-2.161677	30.72378	
10:26:33	-6.73363	38.95364	88.023	-0.2368039	-6.565338	0.28	3	100	0	50	17.92066	-2.178307	30.78882	
10:26:33	-6.733634	38.95364	89.1	-0.2405486	-5.904263	0.19	3	100	0	50	17.91855	-2.195769	30.86727	
10:26:33	-6.733637	38.95364	89.866	-0.2431324	-5.558799	0.31	3	100	0	50	17.91089	-2.247251	30.97851	
10:26:34	-6.733642	38.95364	91.1	-0.2663076	-5.555748	0.45	3	100	0	50	17.89763	-2.258015	30.98061	
10:26:34	-6.733643	38.95364	91.478	-0.2850431	-5.785769	0.29	3	100	0	50	17.8831	-2.240104	31.01418	
10:26:34	-6.733645	38.95364	92.143	-0.2843834	-5.19295	0.29	3	100	0	50	17.87619	-2.255696	31.03815	
10:26:34	-6.733646	38.95364	92.641	-0.2822257	-4.090382	0.44	3	100	0	50	17.86485	-2.214733	31.03189	
10:26:35	-6.733647	38.95364	93.059	-0.243382	-1.490096	0.03	3	100	0	50	17.86251	-2.205021	31.08634	
10:26:35	-6.733648	38.95364	93.35	-0.2030097	0.4995631	0.26	3	100	0	50	17.86286	-2.213626	31.16458	
10:26:35	-6.73365	38.95364	93.746	-0.1792261	1.648944	0.39	3	100	0	50	17.86116	-2.23536	31.28588	
10:26:35	-6.733649	38.95364	93.794	-0.1619728	2.034494	0.36	3	100	0	50	17.86755	-2.242419	31.34066	
10:26:35	-6.733649	38.95364	93.809	-0.1196836	3.794433	0.09	3	100	0	50	17.8732	-2.230967	31.33561	
10:26:36	-6.733648	38.95364	93.381	-0.08245691	5.182223	0.22	3	100	0	50	17.87904	-2.228117	31.38144	
10:26:36	-6.733649	38.95364	93.446	-0.09121739	4.565686	0.17	3	100	0	50	17.88167	-2.247793	31.37537	
10:26:36	-6.733648	38.95364	93.211	-0.1000661	3.566622	0.07	3	100	0	50	17.88083	-2.221769	31.36674	
10:26:36	-6.733647	38.95364	92.505	-0.1496535	0.1543537	0.42	3	100	0	50	17.8747	-2.2642	31.50945	
10:26:37	-6.733647	38.95364	92.547	-0.1955471	-2.103239	0.12	3	100	0	50	17.85282	-2.26	31.54597	
10:26:37	-6.733646	38.95364	91.945	-0.2636071	-5.500881	0.16	3	100	0	50	17.85763	-2.265608	31.57712	
10:26:37	-6.733645	38.95364	91.373	-0.3243757	-7.884236	0.14	3	100	0	50	17.86886	-2.26999	31.53873	
10:26:37	-6.733645	38.95364	91.306	-0.3753361	-9.608813	0.29	3	100	0	50	17.85707	-2.312086	31.66587	
10:26:38	-6.733645	38.95363	91.043	-0.415676	-10.85479	0.22	3	100	0	50	17.84949	-2.33446	31.71922	
10:26:38	-6.733643	38.95363	90.81	-0.4337111	-10.30243	0.34	3	100	0	50	17.85037	-2.369986	31.82543	
10:26:38	-6.733641	38.95363	90.042	-0.4474864	-10.15742	0.12	3	100	0	50	17.85079	-2.347017	31.7499	
10:26:38	-6.73364	38.95363	89.766	-0.4472583	-9.184213	0.39	3	100	0	50	17.84542	-2.307841	31.66907	
10:26:38	-6.733638	38.95363	89.374	-0.4447349	-7.989503	0.26	3	100	0	50	17.8503	-2.255048	31.59041	
10:26:39	-6.733636	38.95363	88.808	-0.4174904	-6.206413	0.35	3	100	0	50	17.84856	-2.253002	31.61177	
10:26:39	-6.733633	38.95363	87.61	-0.3945437	-4.454482	0.22	3	100	0	50	17.85356	-2.227598	31.56229	
10:26:39	-6.733632	38.95363	87.366	-0.3668242	-2.509922	0.26	3	100	0	50	17.84783	-2.201859	31.56917	
10:26:39	-6.73363	38.95363	86.882	-0.336145	-0.6913451	0.28	3	100	0	50	17.83974	-2.218532	31.60605	
10:26:39	-6.733628	38.95363	85.904	-0.3212424	0.4163083	0.55	3	100	0	50	17.84542	-2.202678	31.56803	
10:26:40	-6.733625	38.95363	84.937	-0.3270428	-0.3044886	0.38	3	100	0	50	17.84259	-2.185268	31.52805	
10:26:40	-6.733623	38.95363	84.649	-0.3093959	0.9349039	0.58	3	100	0	50	17.84558	-2.18488	31.61304	
10:26:40	-6.733622	38.95363	84.168	-0.2693204	3.667279	0.42	3	100	0	50	17.84165	-2.171768	31.57012	
10:26:40	-6.73362	38.95363	83.484	-0.2487444	4.394929	0.42	3	100	0	50	17.84384	-2.174382	31.61333	
10:26:40	-6.733619	38.95363	83.193	-0.2415779	4.208106	0.13	3	100	0	50	17.85449	-2.15409	31.54155	
10:26:41	-6.733618	38.95363	82.745	-0.2287182	4.875187	0.36	3	100	0	50	17.86199	-2.137547	31.4787	
10:26:41	-6.733617	38.95363	82.304	-0.21501	5.034672	0.71	3	100	0	50	17.86737	-2.137907	31.5426	
10:26:41	-6.733614	38.95363	81.775	-0.1872005	5.788169	0.42	3	100	0	50	17.87662	-2.149153	31.61518	
10:26:41	-6.733613	38.95363	81.305	-0.1420118	7.388342	0.62	3	100	0	50	17.88016	-2.097252	31.56752	
10:26:41	-6.733612	38.95363	81.131	-0.1044944	8.225179	0.34	3	100	0	50	17.89253	-2.100432	31.5682	
10:26:42	-6.733611	38.95363	80.423	-0.07386236	9.267447	0.22	3	100	0	50	17.89641	-2.066324	31.49923	
10:26:42	-6.733611	38.95363	80.709	-0.04888466	10.05588	0.26	3	100	0	50	17.88908	-2.07511	31.54756	
10:26:42	-6.733611	38.95363	80.445	-0.03310746	10.10249	0.47	3	100	0	50	17.88453	-2.09168	31.60536	
10:26:42	-6.733609	38.95363	79.901	-0.04731385	7.911325	0.13	3	100	0	50	17.87735	-2.079257	31.57537	
10:26:42	-6.733609	38.95363	79.682	-0.08784528	4.24714	0.14	3	100	0	50	17.87988	-2.06834	31.56903	
10:26:43	-6.733609	38.95363	79.266	-0.1061198	2.525886	0.31	3	100	0	50	17.88134	-2.037037	31.55044	
10:26:43	-6.73361	38.95363	78.925	-0.1098587	2.282255	0.59	3	100	0	50	17.8907	-2.073955	31.68438	
10:26:43	-6.733608	38.95363	77.918	-0.1167121	1.370215	0.19	3	100	0	50	17.90401	-2.087409	31.72679	
10:26:43	-6.733607	38.95363	77.745	-0.1246947	0.6837886	0.34	3	100	0	50	17.92353	-2.071127	31.65677	
10:26:43	-6.733606	38.95363	77.148	-0.1180438	1.17005	0.14	3	100	0	50	17.92788	-2.066189	31.70878	
10:26:44	-6.733607	38.95363	77.188	-0.09100217	2.280693	0.28	3	100	0	50	17.92348	-2.09414	31.77814	
10:26:44	-6.733608	38.95363	77.341	-0.06498881	3.246302	0.21	3	100	0	50	17.91916	-2.070876	31.65722	
10:26:44	-6.73361	38.95364	77.591	-0.05652894	3.472477	0.33	3	100	0	50	17.91838	-2.051776	31.62639	
10:26:44	-6.733608	38.95364	77.076	-0.04953517	3.467235	0.04	3	100	0	50	17.92805	-1.997033	31.53199	
10:26:45	-6.733611	38.95364	77.416	-0.05165357	3.607368	0.21	3	100	0	50	17.91754	-2.001214	31.57824	
10:26:45	-6.73361	38.95364	76.851	-0.05326356	3.328233	0.38	3	100	0	50	17.91448	-2.042696	31.66122	
10:26:45	-6.733611	38.95364	77.019	-0.05778449	2.964319	0.39	3	100	0	50	17.9181	-2.054875	31.73704	
10:26:45	-6.733612	38.95364	77.509	-0.06271236	2.505489	0.22	3	100	0	50	17.91249	-2.078112	31.83556	
10:26:45	-6.733612	38.95364	77.244	-0.04918618	3.369909	0.21	3	100	0	50	17.91093	-2.055088	31.80961	
10:26:46	-6.733613	38.95364	77.084	-0.03927866	4.125958	0.44	3	100	0	50	17.90613	-2.022616	31.72144	
10:26:46	-6.733613	38.95364	76.852	-0.005256468	5.601724	0.41	3	100	0	50	17.91252	-1.980898	31.58103	
10:26:46	-6.733613	38.95364	76.767	0.02847373	7.040297	0.21	3	100	0	50	17.90882	-1.99575	31.57123	
10:26:46	-6.733611	38.95364	76.166	0.05544602	8.053441	0.9	3	100	0	50	17.90652	-2.017836	31.5799	
10:26:46	-6.733611	38.95364	76.071	0.07861315	8.414927	0.14	3	100	0	50	17.88828	-2.027064	31.64587	
10:26:46	-6.733609	38.95364	75.515	0.1159186	9.924133	0.17	3	100	0	50	17.89724	-1.994027	31.54307	
10:26:47	-6.733608	38.95364	75.223	0.1447904	10.16478	0.53	3	100	0	50	17.90199	-2.026459	31.63678	
10:26:47	-6.733607	38.95364	75.09	0.1340124	8.335514	0.19	3	100	0	50	17.9114	-1.973322	31.49638	
10:26:47	-6.733607	38.95364	75.112	0.1222132	6.692668	0.52	3	100	0	50	17.9123	-1.970094	31.51099	
10:26:47	-6.733606	38.95364	74.726	0.06525952	3.281881	0.35	3	100	0	50	17.92362	-1.98728	31.53104	
10:26:48	-6.733605	38.95364	74.399	0.01341332	0.2294059	0.09	3	100	0	50	17.93123	-2.024776	31.65532	
10:26:48	-6.733604	38.95364	73.613	-0.002672534	-0.6449839	0.37	3	100	0	50	17.93529	-2.018886	31.64685	
10:26:48	-6.733603	38.95364	73.041	-0.01539017	-1.281239	0.62	3	100	0	50	17.93054	-2.015332	31.66324	
10:26:48	-6.733602	38.95364	72.717	0.01119934	1.681173	0.29	3	100	0	50	17.93444	-1.999345	31.66706	
10:26:48	-6.733603	38.95364	73.088	0.0385928	3.631549	0.66	3	100	0	50	17.92725	-2.022425	31.70554	
10:26:48	-6.733603	38.95365	73.141	0.04363825	3.579926	0.14	3	100	0	50	17.91336	-2.022979	31.70415	
10:26:49	-6.733603	38.95365	73.003	0.04683637	3.114091	0.29	3	100	0	50	17.91369	-1.990184	31.63196	
10:26:49	-6.733601	38.95365	71.909	0.0301502	1.960306	0.29	3	100	0	50	17.9078	-2.041078	31.72576	
10:26:49	-6.7336	38.95365	71.346	-0.003744188	0.0532283	0.39	3	100	0	50	17.91588	-1.996871	31.61775	
10:26:49	-6.7336	38.95365	71.221	-0.03633546	-1.536248	0.65	3	100	0	50	17.92408	-1.987582	31.61444	
10:26:49	-6.7336	38.95365	71.168	-0.06672939	-2.59779	0.22	3	100	0	50	17.93252	-1.970991	31.64348	
10:26:50	-6.733601	38.95365	71.172	-0.07392891	-2.589731	0.42	3	100	0	50	17.93903	-1.972374	31.70079	
10:26:50	-6.733603	38.95365	71.482	-0.05573329	-1.070072	0.26	3	100	0	50	17.94099	-1.995085	31.71974	
10:26:50	-6.733603	38.95365	71.721	-0.05206453	-1.064308	0.24	3	100	0	50	17.94604	-1.997199	31.69824	
10:26:50	-6.733604	38.95365	71.844	-0.05769601	-1.535382	0.58	3	100	0	50	17.95765	-1.949728	31.52666	
10:26:50	-6.733605	38.95365	72.341	-0.03530954	-0.1800491	0.11	3	100	0	50	17.94861	-1.964857	31.56208	
10:26:50	-6.733606	38.95365	72.437	-0.0008123594	2.168673	0.47	3	100	0	50	17.94773	-1.917367	31.46417	
10:26:51	-6.733605	38.95365	71.922	0.03938688	4.100441	0.29	3	100	0	50	17.95019	-1.940876	31.53868	
10:26:51	-6.733605	38.95365	71.664	0.06990295	5.725363	0.12	3	100	0	50	17.94667	-1.927988	31.51563	
10:26:51	-6.733605	38.95365	71.638	0.09899343	6.866062	0.52	3	100	0	50	17.95612	-1.921132	31.49974	
10:26:51	-6.733606	38.95365	72.177	0.1223042	7.403786	0.33	3	100	0	50	17.93838	-1.905226	31.47156	
10:26:51	-6.733607	38.95365	72.164	0.1343307	7.030599	0.39	3	100	0	50	17.94981	-1.860404	31.34541	
10:26:52	-6.733607	38.95365	72.125	0.1349668	5.890825	0.29	3	100	0	50	17.93892	-1.90539	31.49824	
10:26:52	-6.733607	38.95365	71.586	0.09310164	2.846359	0.55	3	99	0	50	17.95552	-1.872412	31.43641	
10:26:52	-6.733606	38.95365	71.253	-0.01319943	-2.922001	0.42	3	99	0	50	17.95454	-1.898174	31.44277	
10:26:52	-6.733608	38.95365	71.603	-0.03779619	-4.32864	0.59	3	99	0	50	17.96094	-1.910938	31.43175	
10:26:52	-6.733608	38.95366	71.465	-0.04777397	-4.164116	0.29	3	99	0	50	17.95073	-1.908458	31.47985	
10:26:53	-6.733606	38.95366	70.932	-0.03822148	-2.995095	0.61	3	99	0	50	17.93731	-1.916751	31.54584	
10:26:53	-6.733608	38.95366	71.108	-0.01888534	-1.587338	0.18	3	99	0	50	17.93924	-1.943135	31.63885	
10:26:53	-6.73361	38.95366	71.346	0.008085301	-0.008994015	0.35	3	99	0	50	17.9362	-1.959333	31.63153	
10:26:53	-6.733611	38.95366	71.248	0.03230197	1.061532	0.21	3	99	0	50	17.93688	-1.956665	31.58735	
10:26:53	-6.733613	38.95366	72.052	0.04492586	1.384115	0.52	3	99	0	50	17.94835	-1.96633	31.58921	
10:26:54	-6.733616	38.95366	72.366	0.05449687	1.46957	0.22	3	99	0	50	17.9498	-1.965411	31.62728	
10:26:54	-6.733618	38.95366	72.99	0.02489996	-0.2097064	0.22	3	99	0	50	17.94684	-1.962355	31.60459	
10:26:54	-6.733619	38.95366	72.921	-0.004038733	-1.361483	0.28	3	99	0	50	17.95164	-1.972549	31.69189	
10:26:54	-6.733621	38.95366	73.152	0.0259023	0.2546708	0.12	3	99	0	50	17.96099	-1.934954	31.55158	
10:26:54	-6.733623	38.95366	73.166	0.05040297	1.647595	0.24	3	99	0	50	17.94749	-1.902369	31.49981	
10:26:55	-6.733625	38.95366	73.88	0.01622127	0.05531446	0.14	3	99	0	50	17.94582	-1.865323	31.36088	
10:26:55	-6.733629	38.95366	74.574	-0.01501825	-2.039362	0.04	3	99	0	50	17.94734	-1.874933	31.39111	
10:26:55	-6.733634	38.95366	75.845	-0.02515376	-2.352892	0.11	3	99	0	50	17.9554	-1.896587	31.41469	
10:26:55	-6.733635	38.95366	76.385	-0.03509059	-2.877049	0.39	3	99	0	50	17.96128	-1.868703	31.31537	
10:26:55	-6.733636	38.95366	76.432	-0.04203913	-3.09066	0.26	3	99	0	50	17.96259	-1.907553	31.38749	
10:26:56	-6.733637	38.95366	76.255	-0.04811593	-3.510799	0.33	3	99	0	50	17.96236	-1.910398	31.46834	
10:26:56	-6.733641	38.95366	77.401	-0.02449969	-2.232407	0.14	3	99	0	50	17.96007	-1.944522	31.54244	
10:26:56	-6.733642	38.95366	77.42	-0.004808378	-0.9864268	0.06	3	99	0	50	17.96231	-1.92892	31.46225	
10:26:56	-6.733643	38.95366	77.731	0.05036174	1.899043	0.24	3	99	0	50	17.96242	-1.950847	31.48897	
10:26:56	-6.733645	38.95366	78.11	0.100883	4.651306	0.16	3	99	0	50	17.964	-1.979004	31.4577	
10:26:57	-6.733647	38.95366	78.799	0.1083781	5.021551	0.17	3	99	0	50	17.95514	-2.001417	31.49058	
10:26:57	-6.73365	38.95366	79.599	0.1139484	4.639685	0.17	3	99	0	50	17.95199	-1.998689	31.51936	
10:26:57	-6.733652	38.95366	80.1	0.1153574	4.588655	0.22	3	99	0	50	17.95937	-2.010652	31.58319	
10:26:57	-6.733651	38.95366	79.91	0.1158699	4.2462	0.42	3	99	0	50	17.96889	-1.961801	31.44125	
10:26:57	-6.733655	38.95366	81.07	0.0981027	2.886806	0.17	3	99	0	50	17.9644	-1.9525	31.41279	
10:26:58	-6.733657	38.95366	81.427	0.08050721	1.056371	0.13	3	99	0	50	17.95774	-1.951597	31.40099	
10:26:58	-6.733656	38.95366	81.064	0.04531189	-1.499271	0.52	3	99	0	50	17.94591	-1.983149	31.44339	
10:26:58	-6.733657	38.95366	81.459	0.01608755	-2.886893	0.31	3	99	0	50	17.94091	-2.013783	31.57055	
10:26:58	-6.733658	38.95366	81.903	-0.01521484	-4.415725	0.39	3	99	0	50	17.95347	-1.998425	31.53179	
10:26:59	-6.73366	38.95366	82.417	-0.04494165	-5.456533	0.42	3	99	0	50	17.9532	-2.018865	31.6412	
10:26:59	-6.733663	38.95366	83.481	-0.07487445	-6.995617	0.35	3	99	0	50	17.95687	-2.013165	31.61516	
10:26:59	-6.733664	38.95366	83.862	-0.1040982	-7.876243	0.33	3	99	0	50	17.96012	-1.968744	31.54561	
10:26:59	-6.733666	38.95366	84.392	-0.1044897	-7.278255	0.26	3	99	0	50	17.97506	-1.919502	31.42431	
10:27:00	-6.73367	38.95366	85.669	-0.08425287	-5.519566	0.35	3	99	0	50	17.98182	-1.961955	31.56951	
10:27:00	-6.733672	38.95366	86.16	-0.08432957	-4.743618	0.14	3	99	0	50	17.98103	-1.923444	31.50806	
10:27:00	-6.733675	38.95366	87.224	-0.09610058	-4.857296	0.17	3	99	0	50	17.97591	-1.942764	31.65124	
10:27:00	-6.733702	38.95366	96.082	-0.0833753	-3.926934	0.16	3	99	0	50	17.96712	-1.947696	31.69482	
10:27:00	-6.733717	38.95366	101.457	-0.05875047	-1.980443	0.06	3	99	0	50	17.97789	-1.949899	31.69693	
10:27:00	-6.733723	38.95366	103.704	-0.05217943	-1.916274	0.19	3	99	0	50	17.98051	-1.874603	31.5134	
10:27:01	-6.733728	38.95366	105.332	-0.07378358	-3.180418	0.14	3	99	0	50	17.98922	-1.856968	31.42	
10:27:01	-6.733733	38.95366	106.816	-0.112991	-5.274382	0.53	3	99	0	50	17.98199	-1.820526	31.34029	
10:27:01	-6.733735	38.95366	107.511	-0.1772238	-7.959757	0.59	3	99	0	50	17.97401	-1.836772	31.41124	
10:27:01	-6.733737	38.95366	108.003	-0.227795	-9.965622	0.21	3	99	0	50	17.97096	-1.877136	31.54631	
10:27:01	-6.733738	38.95366	108.493	-0.2563276	-10.58238	0.04	3	99	0	50	17.96228	-1.920859	31.71164	
10:27:02	-6.733739	38.95366	108.878	-0.2749077	-10.79444	0.14	3	99	0	50	17.95939	-1.958532	31.81091	
10:27:02	-6.733741	38.95366	109.343	-0.2857016	-10.37456	0.22	3	99	0	50	17.95154	-1.945256	31.84955	
10:27:02	-6.733742	38.95366	109.637	-0.2788394	-9.311722	0.19	3	99	0	50	17.94761	-1.906666	31.75309	
10:27:02	-6.733742	38.95366	109.916	-0.2630538	-7.553405	0.11	3	99	0	50	17.95243	-1.894223	31.71741	
10:27:03	-6.733744	38.95366	110.281	-0.2424149	-5.700981	0.07	3	99	0	50	17.96103	-1.927197	31.8068	
10:27:03	-6.733745	38.95367	110.663	-0.2196256	-4.417492	0.18	3	99	0	50	17.9686	-1.915026	31.79354	
10:27:03	-6.733746	38.95367	110.924	-0.1795793	-1.848864	0.29	3	99	0	50	17.96931	-1.941467	31.88171	
10:27:03	-6.733747	38.95367	111.254	-0.1283834	1.187706	0.26	3	99	0	50	17.97571	-1.939121	31.89553	
10:27:03	-6.733748	38.95367	111.54	-0.08147518	3.331004	0.04	3	99	0	50	17.97346	-1.958146	31.9426	
10:27:04	-6.733749	38.95367	111.836	-0.05217392	4.820242	0.14	3	99	0	50	17.96496	-1.947693	31.92763	
10:27:04	-6.733749	38.95367	112.132	-0.02510497	6.487779	0.04	3	99	0	50	17.97007	-1.960359	31.93621	
10:27:04	-6.733749	38.95367	112.14	0.04445314	9.409345	0.04	3	99	0	50	17.96806	-1.926397	31.82715	
10:27:04	-6.733751	38.95367	112.356	0.1060571	11.94361	0.39	3	99	0	50	17.96898	-1.889349	31.77991	
10:27:05	-6.733752	38.95367	112.437	0.1834314	15.24061	0.29	3	99	0	50	17.96332	-1.905395	31.81043	
10:27:05	-6.733753	38.95367	112.438	0.2512325	17.21367	0.37	3	99	0	50	17.96171	-1.915713	31.80088	
10:27:05	-6.733754	38.95367	112.531	0.2374943	14.5843	0.19	3	99	0	50	17.96354	-1.917138	31.80775	
10:27:05	-6.733755	38.95367	112.746	0.2217271	12.26106	0.31	3	99	0	50	17.95423	-1.934973	31.87303	
10:27:05	-6.733755	38.95367	112.887	0.1789017	9.203482	0.09	3	99	0	50	17.95329	-1.915413	31.79838	
10:27:06	-6.733755	38.95367	112.826	0.1387719	6.675336	0.09	3	99	0	50	17.94532	-1.902529	31.75006	
10:27:06	-6.733755	38.95367	112.87	0.1361691	5.625356	0.34	3	99	0	50	17.93397	-1.96559	31.85443	
10:27:06	-6.733755	38.95367	112.9	0.1323802	5.06153	0.11	3	99	0	50	17.93771	-1.967129	31.80867	
10:27:06	-6.733756	38.95367	112.93	0.14933	5.865685	0.19	3	99	0	50	17.94373	-2.003521	31.93249	
10:27:06	-6.733755	38.95367	112.872	0.164188	6.01649	0.06	3	99	0	50	17.9578	-1.976932	31.89019	
10:27:07	-6.733755	38.95367	112.891	0.1705974	5.293527	0.26	3	99	0	50	17.94992	-1.932976	31.82638	
10:27:07	-6.733755	38.95367	112.811	0.1752941	5.533442	0.22	3	99	0	50	17.9468	-1.947197	31.93747	
10:27:07	-6.733755	38.95367	112.682	0.1749657	5.492064	0.19	3	99	0	50	17.9503	-1.921999	31.92282	
10:27:07	-6.733755	38.95367	112.736	0.1744499	5.216483	0.09	3	99	0	50	17.96231	-1.919691	31.94529	
10:27:07	-6.733755	38.95367	112.681	0.1900223	5.25773	0.19	3	99	0	50	17.96241	-1.89125	31.89752	
10:27:08	-6.733755	38.95367	112.677	0.2030971	5.491043	0.02	3	99	0	50	17.97037	-1.907191	31.88731	
10:27:08	-6.733756	38.95367	112.795	0.2035903	4.930269	0.19	3	99	0	50	17.97222	-1.931261	31.92772	
10:27:08	-6.733756	38.95367	112.862	0.2027563	4.131116	0.31	3	99	0	50	17.97521	-1.939018	31.92105	
10:27:08	-6.733757	38.95367	112.985	0.1688427	1.763759	0.09	3	99	0	50	17.96981	-1.946245	31.90045	
10:27:09	-6.733757	38.95367	113.001	0.1399716	0.1652895	0.19	3	99	0	50	17.9673	-1.91337	31.79884	
10:27:09	-6.733757	38.95367	112.874	0.1175736	-0.5481162	0.14	3	99	0	50	17.96156	-1.915916	31.82402	
10:27:09	-6.733756	38.95368	112.872	0.1053979	-1.480009	0.36	3	99	0	50	17.96432	-1.92386	31.81263	
10:27:09	-6.733755	38.95368	112.709	0.08432292	-2.490011	0.26	3	99	0	50	17.96602	-1.94861	31.88439	
10:27:09	-6.733755	38.95368	112.725	0.05082605	-4.203899	0.36	3	99	0	50	17.95922	-1.974632	31.9355	
10:27:10	-6.733756	38.95368	112.784	0.02274562	-5.40536	0.14	3	99	0	50	17.95412	-1.981809	31.97299	
10:27:10	-6.733756	38.95368	112.851	0.005796571	-5.195899	0.06	3	99	0	50	17.94978	-1.940542	31.87273	
10:27:10	-6.733757	38.95368	112.823	-0.0379912	-7.019851	0.42	3	99	0	50	17.94689	-1.948144	31.95537	
10:27:10	-6.733755	38.95368	112.655	-0.09563123	-9.337818	0.26	3	99	0	50	17.93736	-1.945724	32.00775	
10:27:10	-6.733755	38.95368	112.682	-0.1381486	-10.58457	0.13	3	99	0	50	17.94527	-1.924517	31.96708	
10:27:10	-6.733755	38.95368	112.646	-0.1666365	-10.73516	0.22	3	99	0	50	17.95837	-1.871137	31.81108	
10:27:11	-6.733755	38.95368	112.708	-0.1833714	-10.93503	0.24	3	99	0	50	17.95839	-1.880784	31.83605	
10:27:11	-6.733755	38.95368	112.754	-0.1921547	-10.11396	0.09	3	99	0	50	17.95008	-1.879358	31.77567	
10:27:11	-6.733754	38.95368	112.711	-0.1698572	-7.604363	0.19	3	99	0	50	17.94237	-1.92794	31.81827	
10:27:11	-6.733753	38.95368	112.652	-0.1074093	-4.04781	0.22	3	99	0	50	17.94913	-1.914688	31.72098	
10:27:11	-6.733753	38.95368	112.696	-0.04769922	-0.6477351	0.18	3	99	0	50	17.94939	-1.913707	31.68879	
10:27:12	-6.733752	38.95368	112.667	-0.0008108802	1.782845	0.35	3	99	0	50	17.95679	-1.900699	31.73374	
10:27:12	-6.733752	38.95368	112.638	-0.02573032	-0.2154452	0.35	3	99	0	50	17.9452	-1.885356	31.73408	
10:27:12	-6.733751	38.95368	112.692	-0.09082907	-3.05437	0.19	3	99	0	50	17.93371	-1.91668	31.83924	
10:27:12	-6.73375	38.95368	112.666	-0.1274591	-4.414081	0.29	3	99	0	50	17.92626	-1.924749	31.83764	
10:27:13	-6.733751	38.95368	112.773	-0.1438665	-4.766908	0.16	3	99	0	50	17.93148	-1.913426	31.80412	
10:27:13	-6.733752	38.95368	112.759	-0.1791351	-6.144661	0.45	3	99	0	50	17.93943	-1.898564	31.70527	
10:27:13	-6.733752	38.95368	112.732	-0.2378827	-8.602599	0.12	3	99	0	50	17.94664	-1.884606	31.6413	
10:27:13	-6.733754	38.95368	112.818	-0.2976909	-11.15919	0.21	3	99	0	50	17.94746	-1.894002	31.70678	
10:27:14	-6.733753	38.95368	112.79	-0.3607814	-13.09898	0.17	3	99	0	50	17.9373	-1.88297	31.68758	
10:27:14	-6.733753	38.95368	112.809	-0.4212418	-15.42282	0.32	3	99	0	50	17.92828	-1.90281	31.80562	
10:27:14	-6.733753	38.95368	112.814	-0.4587699	-15.90887	0.09	3	99	0	50	17.92158	-1.932347	31.84395	
10:27:14	-6.733752	38.95368	112.686	-0.4891804	-15.74744	0.08	3	99	0	50	17.91148	-1.943756	31.92038	
10:27:14	-6.733752	38.95368	112.605	-0.4790668	-14.04949	0.09	3	99	0	50	17.9052	-1.987958	32.07013	
10:27:15	-6.73375	38.95368	112.438	-0.4644499	-11.61163	0.33	3	99	0	50	17.88528	-2.034831	32.21478	
10:27:15	-6.733749	38.95368	112.191	-0.4456928	-9.490649	0.38	3	99	0	50	17.88922	-2.045797	32.20304	
10:27:15	-6.733749	38.95368	112.164	-0.4247732	-7.462568	0.09	3	99	0	50	17.89889	-2.050889	32.20337	
10:27:15	-6.733749	38.95368	112.18	-0.4538409	-8.312234	0.26	3	99	0	50	17.9003	-2.026852	32.22238	
10:27:15	-6.733749	38.95368	112.171	-0.4786388	-8.876396	0.09	3	99	0	50	17.90761	-2.027379	32.22229	
10:27:16	-6.733749	38.95368	112.131	-0.4883775	-8.367448	0.14	3	99	0	50	17.91261	-2.018671	32.21433	
10:27:16	-6.733749	38.95368	112.139	-0.4954146	-7.450508	0.09	3	99	0	50	17.91734	-2.00087	32.1934	
10:27:16	-6.733748	38.95368	112.02	-0.4836495	-6.173708	0.11	3	99	0	50	17.91283	-2.00183	32.19954	
10:27:16	-6.733747	38.95368	111.846	-0.4718817	-5.015396	0.34	3	99	0	50	17.91056	-1.988464	32.18853	
10:27:17	-6.733746	38.95368	111.559	-0.449118	-3.32629	0.14	3	99	0	50	17.91315	-1.994794	32.2441	
10:27:17	-6.733746	38.95368	111.398	-0.4279431	-2.225576	0.04	3	99	0	50	17.91212	-1.979183	32.16373	
10:27:17	-6.733744	38.95368	111.122	-0.4023214	-0.9685181	0.03	3	99	0	50	17.9108	-1.990779	32.21826	
10:27:17	-6.733744	38.95368	110.857	-0.3757197	0.8999029	0.04	3	99	0	50	17.91712	-1.968776	32.24849	
10:27:17	-6.733743	38.95368	110.759	-0.3278149	3.379285	0.19	3	99	0	50	17.90994	-1.947861	32.16284	
10:27:18	-6.733743	38.95368	110.64	-0.2838059	6.018085	0.21	3	99	0	50	17.91028	-1.919428	32.09795	
10:27:18	-6.733742	38.95368	110.523	-0.2426686	7.286159	0.32	3	99	0	50	17.91538	-1.93706	32.23903	
10:27:18	-6.733742	38.95368	110.339	-0.2115206	8.183068	0.13	3	99	0	50	17.92503	-1.890988	32.0849	
10:27:18	-6.733742	38.95368	110.347	-0.2125888	7.084813	0.33	3	99	0	50	17.92188	-1.909311	32.15105	
10:27:18	-6.733742	38.95368	110.248	-0.2380597	5.479345	0.31	3	99	0	50	17.93822	-1.883215	32.06973	
10:27:19	-6.733742	38.95368	110.057	-0.2593468	3.812756	0.29	3	99	0	50	17.95621	-1.869098	32.02564	
10:27:19	-6.733742	38.95369	109.997	-0.280076	1.952157	0.42	3	99	0	50	17.95083	-1.904841	32.12961	
10:27:19	-6.733742	38.95369	109.897	-0.2901159	1.16815	0.24	3	99	0	50	17.94313	-1.904141	32.06833	
10:27:20	-6.733741	38.95369	109.81	-0.3059593	0.2239337	0.41	3	99	0	50	17.93243	-1.918433	32.10252	
10:27:20	-6.733741	38.95369	109.864	-0.3158127	-0.3679266	0.59	3	99	0	50	17.93305	-1.893442	32.05792	
10:27:20	-6.733741	38.95369	109.892	-0.3174107	-0.08784759	0.47	3	99	0	50	17.91522	-1.960589	32.18531	
10:27:20	-6.73374	38.95369	109.704	-0.3142284	0.4432904	0.24	3	98	0	50	17.91672	-1.996325	32.24086	
10:27:20	-6.73374	38.95369	109.57	-0.3051178	0.3828371	0.26	3	98	0	50	17.92679	-1.954383	32.1719	
10:27:21	-6.733739	38.95369	109.364	-0.301848	1.142355	0.19	3	98	0	50	17.93438	-1.935311	32.18058	
10:27:21	-6.733739	38.95369	109.131	-0.3114552	0.2181466	0.14	3	98	0	50	17.94068	-1.911552	32.13594	
10:27:21	-6.733738	38.95369	108.886	-0.3309252	-1.006705	0.21	3	98	0	50	17.93942	-1.944236	32.21386	
10:27:21	-6.733738	38.95369	108.781	-0.336579	-0.7573292	0.29	3	98	0	50	17.95437	-1.923383	32.14667	
10:27:21	-6.733737	38.95369	108.675	-0.3234362	0.3158493	0.44	3	98	0	50	17.96643	-1.915187	32.04033	
10:27:22	-6.733736	38.95369	108.443	-0.3093542	0.7012	0.65	3	98	0	50	17.97167	-1.909967	32.05265	
10:27:22	-6.733735	38.95369	108.347	-0.2962022	1.460485	0.51	3	98	0	50	17.97378	-1.912295	32.07931	
10:27:22	-6.733734	38.95369	108.153	-0.2583996	3.195704	0.19	3	98	0	50	17.97059	-1.875125	32.0189	
10:27:22	-6.733733	38.95369	108.122	-0.2131359	5.574106	0.33	3	98	0	50	17.97289	-1.886862	32.06736	
10:27:22	-6.733732	38.95369	108.133	-0.1431623	8.73011	1.02	3	98	0	50	17.96786	-1.916978	32.17184	
10:27:23	-6.73373	38.95369	108.105	-0.05878073	11.95915	0.63	3	98	0	50	17.96131	-1.876104	32.08204	
10:27:23	-6.73373	38.95369	108.216	0.004200696	13.5338	0.55	3	98	0	50	17.97303	-1.875379	32.14204	
10:27:23	-6.733729	38.95369	108.039	0.03483247	13.32143	0.45	3	98	0	50	17.98055	-1.884663	32.15126	
10:27:23	-6.733727	38.95369	107.75	0.08154374	14.51024	0.71	3	98	0	50	17.98297	-1.837694	32.00597	
10:27:24	-6.733727	38.95369	107.894	0.1426358	16.25628	0.44	3	98	0	50	17.99447	-1.8172	31.94607	
10:27:24	-6.733724	38.95369	107.557	0.1961336	17.59959	0.39	3	98	0	50	18.00559	-1.806141	31.91026	
10:27:24	-6.733723	38.95369	107.433	0.2320248	18.0696	0.66	3	98	0	50	18.00272	-1.798413	31.89006	
10:27:24	-6.73372	38.95369	107.028	0.2621383	18.55463	0.39	3	98	0	50	17.99714	-1.825134	31.92359	
10:27:24	-6.733717	38.95369	106.569	0.2366679	15.02552	0.42	3	98	0	50	17.99714	-1.825134	31.92359	
10:27:25	-6.733715	38.95369	106.126	0.2317702	12.15221	0.22	3	97	0	50	18.00472	-1.853024	31.97334	
10:27:25	-6.733715	38.95369	105.923	0.2497122	11.90188	0.39	3	97	0	50	18.01344	-1.809075	31.88671	
10:27:25	-6.733713	38.95369	105.68	0.2460559	11.00521	0.41	3	97	0	50	18.01664	-1.815289	31.8405	
10:27:25	-6.733713	38.95369	105.543	0.2410626	10.02655	0.5	3	97	0	50	18.01221	-1.82331	31.86076	
10:27:26	-6.733713	38.95369	105.49	0.2442249	9.671844	0.22	3	97	0	50	18.01795	-1.795208	31.81947	
10:27:26	-6.73371	38.95369	105.105	0.2454347	8.595458	0.29	3	97	0	50	18.01714	-1.772391	31.76744	
10:27:26	-6.73371	38.9537	104.934	0.2256197	6.465311	0.72	3	97	0	50	18.01325	-1.769208	31.8285	
10:27:26	-6.733708	38.9537	104.625	0.2054189	4.445858	0.29	3	97	0	50	18.00479	-1.809966	31.96201	
10:27:26	-6.733708	38.9537	104.592	0.1963247	3.701318	0.5	3	97	0	50	18.00924	-1.800955	31.89474	
10:27:26	-6.733705	38.9537	104.221	0.1885623	3.042433	0.84	3	97	0	50	18.00896	-1.810537	31.84349	
10:27:27	-6.733702	38.9537	103.927	0.1746458	2.302009	0.65	3	97	0	50	18.00229	-1.82538	31.89181	
10:27:27	-6.733701	38.9537	103.694	0.1600028	1.028955	0.45	3	97	0	50	17.99614	-1.820661	31.88196	
10:27:27	-6.733701	38.9537	103.644	0.1070492	-1.810686	0.24	3	97	0	50	17.9806	-1.812507	31.83367	
10:27:27	-6.7337	38.9537	103.339	0.05441298	-4.107962	0.22	3	97	0	50	17.96426	-1.853067	31.94115	
10:27:28	-6.733696	38.9537	102.809	-0.003244958	-6.826161	0.44	3	97	0	50	17.94874	-1.854786	31.88373	
10:27:28	-6.733696	38.9537	102.809	-0.04905925	-8.126842	0.59	3	97	0	50	17.94541	-1.888065	31.93453	
10:27:28	-6.733695	38.9537	102.505	-0.1127208	-10.92787	0.25	3	97	0	50	17.93968	-1.902463	31.97569	
10:27:28	-6.733695	38.9537	102.331	-0.1691098	-13.03656	0.55	3	97	0	50	17.93921	-1.876362	31.84837	
10:27:28	-6.733693	38.9537	102.036	-0.2365988	-14.78806	0.31	3	97	0	50	17.94581	-1.909864	31.95736	
10:27:29	-6.73369	38.9537	101.509	-0.2888782	-15.83116	0.47	3	96	0	50	17.94006	-1.945849	32.09531	
10:27:29	-6.733688	38.9537	101.336	-0.4918105	-21.69548	1	3	96	0	50	17.93585	-1.915954	32.06158	
10:27:29	-6.733687	38.9537	101.333	-0.5339061	-21.6212	0.45	3	96	0	50	17.94214	-1.904198	32.03767	
10:27:29	-6.733686	38.9537	101.198	-0.5642388	-21.22216	0.48	3	96	0	50	17.94481	-1.915235	32.09901	
10:27:30	-6.733685	38.9537	101.113	-0.5792848	-19.4824	0.66	3	96	0	50	17.93875	-1.91556	32.11058	
10:27:30	-6.733684	38.9537	101.085	-0.5492611	-16.05031	0.64	3	96	0	50	17.93925	-1.885959	31.988	
10:27:30	-6.733683	38.9537	101.061	-0.4800181	-10.67374	0.58	3	96	0	50	17.93914	-1.872004	31.93873	
10:27:30	-6.733682	38.9537	100.99	-0.4103837	-5.938069	0.66	3	96	0	50	17.93397	-1.872574	31.91477	
10:27:31	-6.733681	38.9537	100.866	-0.3479157	-2.003552	0.33	3	96	0	50	17.94318	-1.871519	31.86392	
10:27:31	-6.733679	38.9537	100.697	-0.2793045	1.640599	0.66	3	96	0	50	17.94593	-1.905285	31.99294	
10:27:31	-6.733677	38.9537	100.557	-0.2113336	5.234724	0.5	3	96	0	50	17.94595	-1.903539	31.97989	
10:27:31	-6.733675	38.9537	100.236	-0.1433914	8.215288	0.72	3	96	0	50	17.94159	-1.924605	32.02876	
10:27:32	-6.733672	38.95371	100.133	-0.06824408	11.17225	0.85	3	96	0	50	17.9379	-1.946057	32.05588	
10:27:32	-6.73367	38.95371	100.035	-0.02505278	12.21473	0.78	3	96	0	50	17.92849	-1.971313	32.09861	
10:27:32	-6.733665	38.95371	99.83	0.0004214721	12.11333	1.28	3	96	0	50	17.93326	-1.99135	32.16945	
10:27:32	-6.733658	38.95371	99.276	0.001184606	11.06309	0.93	3	95	0	50	17.93011	-2.006954	32.20813	
10:27:32	-6.733656	38.95371	99.008	-0.001213974	8.799957	0.56	3	95	0	50	17.93746	-1.962491	32.14536	
10:27:32	-6.733655	38.95372	98.683	0.02036285	8.879374	0.22	3	95	0	50	17.94526	-1.977446	32.15591	
10:27:33	-6.733654	38.95372	98.657	0.04216086	9.25961	0.85	3	95	0	50	17.95675	-1.931484	32.06747	
10:27:33	-6.733654	38.95372	98.742	0.0629954	9.270264	0.33	3	95	0	50	17.95131	-1.923567	32.04003	
10:27:33	-6.733654	38.95372	98.651	0.1057376	9.720718	0.52	3	95	0	50	17.95245	-1.933851	32.06293	
10:27:34	-6.733655	38.95372	99.011	0.1230072	10.00033	0.35	3	95	0	50	17.96608	-1.878976	31.88258	
10:27:34	-6.733657	38.95372	99.174	0.1052007	8.041663	0.14	3	95	0	50	17.95823	-1.865785	31.79675	
10:27:34	-6.733655	38.95372	98.89	0.08742326	6.544509	0.16	3	95	0	50	17.94647	-1.900159	31.87271	
10:27:34	-6.733655	38.95372	98.911	0.02799136	3.009603	0.33	3	95	0	50	17.92673	-1.892752	31.83281	
10:27:35	-6.733654	38.95372	99.014	-0.0258849	0.4298381	0.26	3	95	0	50	17.94017	-1.890336	31.72678	
10:27:35	-6.733654	38.95372	99.014	-0.0258849	0.4298381	0.26	3	94	0	50	17.93731	-1.905492	31.76283	
10:27:35	-6.733653	38.95372	98.933	-0.09807587	-3.751222	0.25	3	95	0	50	17.94073	-1.9161	31.78055	
10:27:35	-6.733654	38.95372	99.163	-0.1198974	-4.643896	0.24	3	95	0	50	17.93207	-1.937448	31.8071	
10:27:35	-6.733654	38.95372	99.291	-0.1642908	-5.743361	0.39	3	93	0	50	17.91683	-1.972227	31.92178	
10:27:36	-6.733654	38.95372	99.333	-0.158879	-4.653506	0.29	3	93	0	50	17.91213	-1.980493	31.9032	
10:27:36	-6.733654	38.95373	99.466	-0.153279	-4.06369	0.63	3	93	0	50	17.90955	-1.962495	31.81601	
10:27:36	-6.73365	38.95373	98.882	-0.1500715	-2.968282	0.37	3	93	0	50	17.91638	-1.929952	31.70605	
10:27:36	-6.73365	38.95373	98.818	-0.1460744	-2.592522	0.24	3	93	0	50	17.91637	-1.920866	31.65727	
10:27:36	-6.73365	38.95373	98.851	-0.1757912	-3.694539	0.44	3	93	0	50	17.92543	-1.86231	31.54264	
10:27:36	-6.733649	38.95373	98.618	-0.2057543	-5.36783	0.06	3	93	0	50	17.92937	-1.881881	31.56426	
10:27:37	-6.733648	38.95373	98.361	-0.2485476	-7.048827	0.09	3	93	0	50	17.92766	-1.883364	31.5703	
10:27:37	-6.733647	38.95373	98.07	-0.2867992	-8.591998	0.17	3	93	0	50	17.92659	-1.846794	31.41667	
10:27:37	-6.733646	38.95373	97.777	-0.2866856	-7.433873	0.34	3	93	0	50	17.93214	-1.887715	31.47437	
10:27:37	-6.733644	38.95374	97.28	-0.2844474	-6.391421	0.29	3	93	0	50	17.93777	-1.879072	31.43873	
10:27:37	-6.73364	38.95374	95.947	-0.2790404	-5.705632	0.55	3	93	0	50	17.92854	-1.886217	31.43206	
10:27:38	-6.733635	38.95374	94.51	-0.2736625	-5.24203	0.12	3	94	0	50	17.91993	-1.927045	31.48357	
10:27:38	-6.733635	38.95374	94.286	-0.2651438	-4.364842	0.59	3	94	0	50	17.90989	-1.986133	31.61766	
10:27:38	-6.733634	38.95374	94.134	-0.2568708	-3.003	0.33	3	94	0	50	17.91586	-1.944119	31.46631	
10:27:38	-6.733634	38.95374	93.97	-0.2450882	-1.836164	0.52	3	94	0	50	17.9156	-1.949927	31.50508	
10:27:38	-6.733633	38.95374	93.789	-0.2310664	-1.276544	0.58	3	94	0	50	17.91536	-1.929315	31.46347	
10:27:38	-6.733632	38.95374	93.739	-0.2000602	0.9078804	0.58	3	94	0	50	17.90913	-1.95108	31.50219	
10:27:39	-6.733631	38.95374	93.426	-0.1456629	3.710585	0.53	3	94	0	50	17.90535	-1.969462	31.55015	
10:27:39	-6.73363	38.95374	93.012	-0.08220095	6.574751	0.38	3	94	0	50	17.90469	-1.946947	31.49551	
10:27:39	-6.733629	38.95374	93.127	-0.02122282	8.650047	0.71	3	94	0	50	17.9067	-1.944316	31.48564	
10:27:39	-6.733628	38.95374	93.221	-0.005090528	8.473959	0.95	3	94	0	50	17.91213	-1.88938	31.37977	
10:27:40	-6.733628	38.95374	93.423	-0.01656449	6.618892	0.68	3	94	0	50	17.90513	-1.888689	31.34185	
10:27:40	-6.733629	38.95374	93.633	-0.03213236	5.616619	0.51	3	94	0	50	17.90171	-1.90124	31.29282	
10:27:40	-6.733628	38.95374	93.744	-0.04804893	4.151267	0.74	3	94	0	50	17.90344	-1.939483	31.40214	
10:27:40	-6.733628	38.95374	93.882	-0.06715373	2.543437	0.31	3	94	0	50	17.89862	-1.961014	31.49447	
10:27:40	-6.733628	38.95374	94.009	-0.08829953	1.396726	0.71	3	94	0	50	17.89224	-1.972748	31.56902	
10:27:41	-6.733627	38.95374	93.799	-0.1064634	0.2332209	0.34	3	94	0	50	17.88737	-1.968962	31.56255	
10:27:41	-6.733625	38.95374	93.431	-0.1214479	-0.5685908	0.48	3	94	0	50	17.88737	-1.997178	31.65518	
10:27:41	-6.733624	38.95374	93.071	-0.1402283	-1.692968	0.56	3	94	0	50	17.89292	-1.949381	31.45104	
10:27:41	-6.733624	38.95374	92.863	-0.1589154	-2.263423	0.29	3	94	0	50	17.88722	-1.977281	31.48968	
10:27:41	-6.733625	38.95374	93.01	-0.1525325	-1.536675	0.65	3	94	0	50	17.88976	-1.99432	31.49421	
10:27:42	-6.733624	38.95374	92.663	-0.1318742	-0.5148108	0.52	3	95	0	50	17.89744	-2.040426	31.53133	
10:27:42	-6.733625	38.95374	92.755	-0.09117536	1.52646	0.42	3	95	0	50	17.89122	-2.061526	31.61582	
10:27:42	-6.733623	38.95374	92.451	-0.04457324	3.988555	0.85	3	95	0	50	17.88041	-2.077139	31.61693	
10:27:42	-6.733622	38.95374	92.239	0.0006546378	5.912187	0.32	3	95	0	50	17.87675	-2.105373	31.68413	
10:27:42	-6.733623	38.95374	92.528	0.03946915	7.576006	0.22	3	95	0	50	17.86798	-2.097678	31.64918	
10:27:43	-6.733624	38.95374	92.964	0.06017692	7.538117	0.34	3	95	0	50	17.87689	-2.110618	31.67321	
10:27:43	-6.733627	38.95374	93.802	0.05808434	6.667189	0.39	3	95	0	50	17.87453	-2.113701	31.75144	
10:27:43	-6.733629	38.95374	94.21	0.054913	5.981106	0.26	3	95	0	50	17.88244	-2.14253	31.86342	
10:27:43	-6.73363	38.95374	94.613	0.1010265	8.141701	0.38	3	95	0	50	17.88227	-2.145616	31.89452	
10:27:43	-6.733632	38.95374	94.998	0.1469914	9.624304	0.19	3	95	0	50	17.88561	-2.094715	31.80984	
10:27:43	-6.733634	38.95375	95.427	0.1561839	9.133459	0.39	3	95	0	50	17.88209	-2.084078	31.8522	
10:27:44	-6.733638	38.95375	97.105	0.1630644	8.835685	0.72	3	95	0	50	17.89292	-2.046176	31.76969	
10:27:44	-6.733644	38.95374	98.916	0.1369432	6.36843	0.42	3	95	0	50	17.88808	-2.033692	31.75868	
10:27:44	-6.73365	38.95374	100.912	0.111583	4.397677	0.84	3	95	0	50	17.90269	-2.023471	31.74333	
10:27:44	-6.733656	38.95374	102.991	0.08071739	2.611367	0.59	3	95	0	50	17.90321	-2.014463	31.77103	
10:27:44	-6.733664	38.95374	105.245	0.05027671	1.285418	0.52	3	95	0	50	17.90708	-1.985341	31.69242	
10:27:44	-6.733671	38.95374	107.582	0.02595951	-0.3296958	0.5	3	95	0	50	17.91941	-2.017081	31.76266	
10:27:44	-6.733677	38.95374	110.045	0.004320509	-1.045415	0.96	3	95	0	50	17.91998	-2.02136	31.70613	
10:27:45	-6.733684	38.95374	112.461	0.004070683	-1.499724	0.22	3	95	0	50	17.92622	-2.009683	31.67052	
10:27:45	-6.733685	38.95374	112.834	0.003654143	-1.337183	0.66	3	95	0	50	17.91569	-2.001765	31.61443	
10:27:45	-6.733685	38.95374	112.882	0.08763573	3.154825	0.45	3	95	0	50	17.9023	-2.030902	31.69925	
10:27:45	-6.733685	38.95374	112.796	0.1504806	6.042828	0.85	3	95	0	50	17.89318	-2.035865	31.68261	
10:27:45	-6.733685	38.95374	112.724	0.2110481	8.514052	0.7	3	95	0	50	17.9124	-2.034225	31.65484	
10:27:46	-6.733683	38.95374	112.742	0.2635581	9.838961	0.37	3	95	0	50	17.9183	-2.053101	31.71872	
10:27:46	-6.733685	38.95374	112.968	0.2731731	9.341426	0.97	3	95	0	50	17.91368	-2.022976	31.58079	
10:27:46	-6.733685	38.95374	113.152	0.2784018	8.707118	0.68	3	95	0	50	17.90008	-2.01652	31.56322	
10:27:46	-6.733685	38.95375	113.419	0.280191	7.615076	0.33	3	96	0	50	17.89103	-2.003019	31.5197	
10:27:46	-6.733685	38.95375	113.661	0.280407	7.495374	0.29	3	96	0	50	17.88523	-2.001508	31.44981	
10:27:47	-6.733685	38.95375	113.892	0.2704583	6.127159	0.56	3	96	0	50	17.91424	-1.975287	31.4403	
10:27:47	-6.733686	38.95375	114.104	0.2600009	5.018795	0.19	3	96	0	50	17.90936	-2.022881	31.57263	
10:27:47	-6.733685	38.95375	114.269	0.249036	4.061036	0.47	3	96	0	50	17.91109	-1.986991	31.52205	
10:27:47	-6.733685	38.95375	114.157	0.239705	3.280461	0.26	3	96	0	50	17.89755	-2.000645	31.59689	
10:27:48	-6.733685	38.95375	113.988	0.2292569	2.156366	0.18	3	96	0	50	17.88932	-1.992071	31.61427	
10:27:48	-6.733684	38.95375	113.716	0.21921	1.57674	0.19	3	96	0	50	17.88405	-1.967624	31.57204	
10:27:48	-6.733685	38.95375	113.854	0.2145219	1.401653	0.52	3	96	0	50	17.87273	-1.999128	31.69083	
10:27:49	-6.733684	38.95375	113.691	0.2163034	1.372686	0.29	3	96	0	50	17.86834	-2.015625	31.79758	
10:27:49	-6.733683	38.95375	113.39	0.2256186	1.190726	0.45	3	96	0	50	17.8716	-2.044252	31.80906	
10:27:49	-6.733683	38.95375	113.612	0.2400785	1.712393	0.58	3	96	0	50	17.86969	-2.054409	31.80513	
10:27:49	-6.733683	38.95375	113.546	0.2547655	2.199691	0.52	3	96	0	50	17.85827	-2.106722	31.90361	
10:27:49	-6.733683	38.95375	113.728	0.2685163	2.736894	0.24	3	96	0	50	17.85818	-2.102342	31.83736	
10:27:49	-6.73368	38.95375	113.031	0.2874506	2.853393	0.47	3	96	0	50	17.87155	-2.073867	31.73922	
10:27:49	-6.73368	38.95375	112.958	0.3088671	4.046464	0.47	3	96	0	50	17.86958	-2.086792	31.81298	
10:27:50	-6.733677	38.95375	112.432	0.3080137	3.738608	0.26	3	96	0	50	17.85439	-2.058854	31.76698	
10:27:50	-6.733676	38.95375	111.955	0.2835799	1.971121	0.22	3	96	0	50	17.85859	-2.00908	31.60612	
10:27:50	-6.733675	38.95375	111.576	0.2471475	0.01367328	0.61	3	96	0	50	17.85704	-2.01091	31.62125	
10:27:50	-6.733674	38.95375	110.963	0.1981177	-2.560226	0.29	3	96	0	50	17.87151	-1.971899	31.54414	
10:27:50	-6.733672	38.95375	110.897	0.1648704	-3.85198	0.71	3	96	0	50	17.87081	-1.982394	31.55609	
10:27:50	-6.733669	38.95375	110.283	0.1542893	-3.526313	0.11	3	96	0	50	17.87719	-1.999724	31.56123	
10:27:51	-6.733665	38.95375	109.605	0.08794205	-6.682538	0.26	3	96	0	50	17.88724	-1.965031	31.43318	
10:27:51	-6.733663	38.95375	108.799	-0.0106488	-11.70139	0.34	3	96	0	50	17.90322	-1.941	31.34757	
10:27:51	-6.733659	38.95375	108.157	-0.08025515	-14.11261	0.14	3	96	0	50	17.9085	-1.95681	31.41156	
10:27:51	-6.733654	38.95375	107.226	-0.1399702	-15.73961	0.29	3	96	0	50	17.9191	-1.884594	31.2764	
10:27:51	-6.73365	38.95375	106.332	-0.1789649	-16.34829	0.14	3	96	0	50	17.92335	-1.890334	31.27874	
10:27:51	-6.733647	38.95375	105.889	-0.1953889	-15.9425	0.33	3	96	0	50	17.91809	-1.868128	31.25573	
10:27:52	-6.733643	38.95375	104.868	-0.1991597	-14.16	0.44	3	96	0	50	17.92156	-1.852289	31.17245	
10:27:52	-6.733637	38.95375	103.323	-0.187494	-12.0487	0.64	3	96	0	50	17.91277	-1.867922	31.24156	
10:27:52	-6.733634	38.95375	102.803	-0.1746594	-9.711792	0.21	3	96	0	50	17.92142	-1.912105	31.33519	
10:27:52	-6.733629	38.95375	101.501	-0.1929635	-10.12463	0.56	3	96	0	50	17.92599	-1.88791	31.28399	
10:27:53	-6.733623	38.95375	99.791	-0.2076215	-9.64513	0.33	3	96	0	50	17.93534	-1.887041	31.28319	
10:27:53	-6.733618	38.95375	98.745	-0.2217178	-8.959936	0.14	3	97	0	50	17.94394	-1.937698	31.34243	
10:27:53	-6.733612	38.95375	96.891	-0.232097	-8.82057	0.41	3	97	0	50	17.94362	-1.931324	31.31251	
10:27:53	-6.733603	38.95375	94.639	-0.2073314	-6.989297	0.87	3	97	0	50	17.93048	-1.934625	31.26082	
10:27:53	-6.733598	38.95375	93.526	-0.181171	-5.265212	0.51	3	97	0	50	17.92265	-1.984545	31.37627	
10:27:53	-6.733597	38.95375	93.343	-0.1536828	-3.195883	0.95	3	97	0	50	17.93505	-1.941788	31.26308	
10:27:54	-6.733593	38.95375	92.66	-0.1275914	-1.593154	0.25	3	97	0	50	17.94716	-1.963085	31.29816	
10:27:54	-6.733591	38.95375	91.957	-0.09252684	0.2126146	0.79	3	97	0	50	17.95751	-2.026171	31.44128	
10:27:54	-6.733588	38.95375	91.212	-0.05887028	1.217609	0.26	3	97	0	50	17.96591	-1.988712	31.40299	
10:27:54	-6.733585	38.95375	90.32	-0.0602898	1.214733	0.19	3	97	0	50	17.97724	-1.910132	31.20071	
10:27:54	-6.733583	38.95375	90.376	-0.0614799	1.060391	0.45	3	97	0	50	17.98479	-1.907997	31.23277	
10:27:55	-6.733581	38.95375	90.172	-0.08927385	-1.013441	0.42	3	97	0	50	17.99337	-1.84986	31.04552	
10:27:55	-6.733581	38.95375	90.513	-0.1149394	-2.202083	0.31	3	97	0	50	18.0047	-1.845183	30.99507	
10:27:55	-6.733575	38.95375	89.06	-0.08888248	-0.4868777	0.13	3	97	0	50	18.00357	-1.828433	31.03841	
10:27:55	-6.733572	38.95375	88.603	-0.06184066	1.374614	0.42	3	97	0	50	18.00664	-1.851034	31.06384	
10:27:55	-6.733568	38.95375	87.563	-0.06997518	0.9272395	0.36	3	97	0	50	18.00447	-1.874492	31.09066	
10:27:56	-6.733566	38.95375	87.324	-0.07694422	0.8513047	0.28	3	97	0	50	18.0002	-1.915024	31.1671	
10:27:56	-6.733563	38.95375	87.198	-0.05503551	1.485805	0.44	3	97	0	50	17.98554	-1.891537	31.09702	
