Date	Latitude(deg) 	Longitude(deg)	hamsl(m)	hafl(m)	climbrate(cm/s)	GroundSpeed(m/s)	Airspeed(m/s)	Mav_Link(%)	Rssi_Link(%)	Throttle	Roll(deg)	Pitch(deg)	Yaw(deg)
15:00:10	-6.728793	38.94638	171.993	0	0	0.39	0	100	0	0	0	0	0	
15:00:10	-6.72877	38.94637	169.612	-0.03716004	-0.7473096	0.26	3	100	0	6546	0.4763803	-2.897664	-9.552612	
15:00:11	-6.728769	38.94637	169.48	-0.04121538	-3.361243	0.08	3	100	0	6544	0.475613	-2.8813	-9.602653	
15:00:11	-6.72877	38.94637	169.72	-0.04950627	-6.570484	0.51	3	100	0	6546	0.4788617	-2.882695	-9.664917	
15:00:11	-6.72877	38.94637	169.798	-0.1574825	-14.45935	0.36	3	100	0	6546	0.4892475	-2.872676	-9.739367	
15:00:11	-6.728769	38.94637	169.54	-0.2595711	-21.08644	0.57	3	100	0	6546	0.5006126	-2.877059	-9.863805	
15:00:11	-6.728768	38.94637	169.249	-0.05891571	-11.00389	0.56	3	100	0	6546	0.5109991	-2.881786	-10.01693	
15:00:11	-6.728767	38.94636	169.169	0.1029063	-4.047627	0.29	3	100	0	6546	0.5178962	-2.91919	-10.12875	
15:00:12	-6.728768	38.94636	169.153	0.3929068	8.624977	0.08	3	100	0	6546	0.5222413	-2.926544	-10.23122	
15:00:12	-6.728766	38.94636	168.929	0.6046358	16.51262	0.42	3	100	0	6546	0.5281957	-2.925886	-10.3456	
15:00:12	-6.728765	38.94636	168.755	0.4934221	7.068367	0.17	3	100	0	6547	0.5387692	-2.922351	-10.41043	
15:00:12	-6.728765	38.94636	168.632	0.3866721	-1.581295	0.12	3	100	0	6546	0.5422888	-2.920562	-10.52639	
15:00:13	-6.728764	38.94636	168.515	0.3004711	-8.82177	0.95	3	100	0	6546	0.5449583	-2.930138	-10.58656	
15:00:13	-6.728763	38.94635	168.324	0.2247189	-14.49804	1.02	3	100	0	6546	0.5379499	-2.950105	-10.59632	
15:00:13	-6.728762	38.94635	167.961	0.088638	-22.47449	0.21	3	100	0	6546	0.5322322	-2.98065	-10.67187	
15:00:13	-6.728759	38.94635	167.357	-0.03648191	-28.88334	0.39	3	100	0	6546	0.5348155	-2.98404	-10.68242	
15:00:13	-6.72876	38.94635	167.544	-0.190735	-36.70966	0.22	3	100	0	6546	0.5205241	-2.994291	-10.75609	
15:00:13	-6.72876	38.94635	167.678	-0.3159359	-42.15611	0.45	3	100	0	6546	0.5252679	-2.974823	-10.77077	
15:00:14	-6.728761	38.94635	168.186	-0.3985432	-45.37813	0.24	3	100	0	6546	0.5202315	-3.00632	-10.85987	
15:00:14	-6.72876	38.94635	167.88	-0.4711498	-47.21564	0.28	3	100	0	6546	0.5342026	-3.028162	-10.95934	
15:00:14	-6.72876	38.94635	167.693	-0.5436389	-48.70363	0.41	3	100	0	6546	0.5388558	-3.040849	-11.02596	
15:00:14	-6.728758	38.94635	167.238	-0.6039768	-49.44806	0.24	3	100	0	6546	0.53716	-3.044811	-11.05562	
15:00:15	-6.728758	38.94635	167.255	-0.5839202	-46.12281	0.66	3	100	0	6546	0.5350218	-3.04752	-11.09923	
15:00:15	-6.728757	38.94635	167.002	-0.5628969	-42.84387	0.26	3	100	0	6546	0.5345075	-3.031917	-11.05467	
15:00:15	-6.728758	38.94635	167.288	-0.5828597	-41.73373	0.39	3	100	0	6546	0.5358607	-3.03985	-11.07858	
15:00:15	-6.728758	38.94635	167.301	-0.597109	-40.51264	0.56	3	100	0	6546	0.534609	-3.061992	-11.10139	
15:00:15	-6.728758	38.94635	167	-0.6404746	-41.23486	1.18	3	100	0	6546	0.5439695	-3.070446	-11.17597	
15:00:16	-6.728758	38.94635	167.115	-0.6731943	-41.01468	0.22	3	100	0	6546	0.5504182	-3.056496	-11.2097	
15:00:16	-6.728757	38.94635	166.757	-0.6837797	-39.37002	0.7	3	100	0	6546	0.5442686	-3.044867	-11.17544	
15:00:16	-6.728757	38.94635	166.605	-0.6690304	-37.41434	0.03	3	100	0	6546	0.5514756	-3.046711	-11.19257	
15:00:16	-6.728757	38.94635	166.647	-0.6476835	-34.35985	0.33	3	100	0	6546	0.5486445	-3.067274	-11.19405	
15:00:16	-6.728757	38.94635	166.675	-0.6210535	-31.5747	0.58	3	100	0	6546	0.5469751	-3.069355	-11.2247	
15:00:17	-6.728757	38.94635	166.865	-0.5514106	-26.13869	0.12	3	100	0	6546	0.5501685	-3.070014	-11.26024	
15:00:17	-6.728757	38.94635	166.978	-0.4628841	-21.00594	0.18	3	100	0	6546	0.5428699	-3.068211	-11.30645	
15:00:17	-6.728755	38.94635	166.527	-0.4686071	-21.7323	0.61	3	100	0	6546	0.5516389	-3.057109	-11.40636	
15:00:17	-6.728755	38.94635	166.486	-0.5298826	-24.99856	0.64	3	100	0	6546	0.5592098	-3.05981	-11.47576	
15:00:17	-6.728755	38.94634	166.373	-0.566898	-26.2587	0.22	3	100	0	6546	0.5519755	-3.03804	-11.52147	
15:00:18	-6.728755	38.94634	166.277	-0.5807052	-26.14599	0.32	3	100	0	6546	0.5590627	-3.023579	-11.54612	
15:00:18	-6.728754	38.94634	166.227	-0.5932097	-25.93936	0.12	3	100	0	6546	0.5470613	-3.022053	-11.58104	
15:00:18	-6.728755	38.94634	166.402	-0.6037984	-25.66042	0.42	3	100	0	6546	0.5398112	-3.035952	-11.56669	
15:00:18	-6.728755	38.94634	166.232	-0.5967711	-24.6	0.42	3	100	0	6546	0.5206607	-3.052145	-11.58981	
15:00:18	-6.728754	38.94634	166.244	-0.5679163	-22.39175	0.35	3	100	0	6546	0.4957229	-3.061097	-11.56307	
15:00:19	-6.728753	38.94634	165.862	-0.5423279	-20.50401	0.42	3	100	0	6546	0.477406	-3.066325	-11.53028	
15:00:19	-6.72875	38.94633	165.108	-0.5231372	-18.83747	0.53	3	100	0	6546	0.4705322	-3.069211	-11.59857	
15:00:19	-6.728749	38.94633	164.809	-0.5320667	-19.00539	0.08	3	100	0	6546	0.4556775	-3.055045	-11.63097	
15:00:19	-6.72875	38.94633	164.94	-0.5572492	-20.10067	0.13	3	100	0	6546	0.4494123	-3.069883	-11.65698	
15:00:19	-6.728749	38.94633	164.844	-0.5640365	-19.68078	0.37	3	100	0	6546	0.4382399	-3.050354	-11.64943	
15:00:20	-6.728747	38.94633	164.675	-0.5595218	-19.53988	0.45	3	100	0	6546	0.4390092	-3.045458	-11.66315	
15:00:20	-6.728747	38.94633	164.783	-0.5505971	-18.65659	0.18	3	100	0	6546	0.4319195	-3.062816	-11.64674	
15:00:20	-6.728748	38.94633	164.959	-0.5356457	-18.15659	0.26	3	100	0	6546	0.4418391	-3.04758	-11.67472	
15:00:20	-6.728749	38.94633	165.086	-0.5294454	-17.84278	0.22	3	100	0	6546	0.4374321	-3.050294	-11.70545	
15:00:21	-6.728745	38.94633	164.313	-0.5346662	-18.19499	0.18	3	100	0	6546	0.4312933	-3.065208	-11.69419	
15:00:21	-6.728745	38.94633	164.432	-0.5388016	-18.10149	0.26	3	100	0	6546	0.4369494	-3.066949	-11.716	
15:00:21	-6.728745	38.94633	164.379	-0.5203112	-16.77932	0.14	3	100	0	6546	0.4307973	-3.029072	-11.77563	
15:00:21	-6.728744	38.94633	164.16	-0.5033406	-16.15924	0.33	3	100	0	6546	0.4251783	-3.022039	-11.78868	
15:00:21	-6.728743	38.94632	164.017	-0.4611326	-13.80043	0.26	3	100	0	6546	0.429176	-3.033351	-11.86119	
15:00:21	-6.728743	38.94632	164.164	-0.4228007	-11.52235	0.42	3	100	0	6546	0.4394712	-3.037182	-11.82357	
15:00:22	-6.728743	38.94632	164.096	-0.3871982	-9.609548	0.25	3	100	0	6546	0.4400762	-3.027676	-11.84962	
15:00:22	-6.728742	38.94632	163.802	-0.3515705	-8.196611	0.09	3	100	0	6546	0.4394698	-3.031214	-11.91491	
15:00:22	-6.728741	38.94632	163.652	-0.4393725	-13.32915	0.61	3	100	0	6546	0.44517	-3.024872	-11.96497	
15:00:22	-6.728738	38.94632	163.19	-0.5060658	-16.95038	0.29	3	100	0	6546	0.4499885	-3.025701	-11.92409	
15:00:22	-6.728738	38.94632	163.055	-0.5405508	-18.34666	1.04	3	100	0	6546	0.4469418	-3.010548	-11.93002	
15:00:23	-6.728736	38.94632	162.638	-0.5683751	-19.25745	0.29	3	100	0	6546	0.4332526	-2.985586	-11.9871	
15:00:23	-6.728736	38.94632	162.784	-0.5876247	-19.84156	0.22	3	100	0	6546	0.4373466	-3.010589	-12.02026	
15:00:23	-6.728737	38.94632	163.031	-0.6037838	-20.01775	0.64	3	100	0	6546	0.4330282	-3.024326	-12.07331	
15:00:23	-6.728738	38.94632	163.066	-0.5963544	-18.87158	0.87	3	100	0	6546	0.417829	-3.036636	-12.04592	
15:00:24	-6.728738	38.94632	162.975	-0.5893747	-18.30319	0.39	3	100	0	6546	0.4102985	-3.019434	-11.99378	
15:00:24	-6.728735	38.94631	162.441	-0.578505	-17.03373	0.45	3	100	0	6546	0.3972329	-3.000609	-11.96307	
15:00:24	-6.728734	38.94631	162.345	-0.5664768	-15.94919	0.52	3	100	0	6546	0.3966196	-2.983883	-11.94881	
15:00:24	-6.728733	38.94631	161.981	-0.5855485	-16.55378	0.41	3	100	0	6546	0.381259	-2.972501	-11.9069	
15:00:24	-6.728732	38.94631	161.857	-0.6019199	-16.96872	0.12	3	100	0	6546	0.3769515	-2.957733	-11.96896	
15:00:24	-6.728733	38.94631	161.847	-0.5937738	-16.41585	0.57	3	100	0	6546	0.3753074	-2.938091	-11.94894	
15:00:25	-6.728733	38.94631	161.669	-0.5865003	-15.46356	0.31	3	100	0	6546	0.3685969	-2.925248	-11.96129	
15:00:25	-6.728731	38.9463	161.21	-0.6085545	-15.87873	0.38	3	100	0	6546	0.3602925	-2.914535	-11.9233	
15:00:25	-6.72873	38.9463	161	-0.6250601	-15.85004	0.42	3	100	0	6546	0.3500045	-2.91996	-11.92035	
15:00:25	-6.72873	38.9463	160.74	-0.5796463	-13.42661	0.11	3	100	0	6546	0.3406148	-2.907645	-11.87508	
15:00:25	-6.728729	38.9463	160.709	-0.541427	-10.83928	0.39	3	100	0	6546	0.3324401	-2.91099	-11.94113	
15:00:26	-6.728728	38.9463	160.648	-0.5152892	-9.782616	0.58	3	100	0	6546	0.320495	-2.924548	-11.89108	
15:00:26	-6.72873	38.9463	160.822	-0.5090308	-9.501806	0.31	3	100	0	6546	0.3147964	-2.920151	-11.93798	
15:00:26	-6.728728	38.9463	160.31	-0.5211211	-10.59573	0.18	3	100	0	6546	0.3266339	-2.912072	-11.97428	
15:00:26	-6.728727	38.9463	159.984	-0.547819	-11.96699	0.21	3	100	0	6546	0.3269056	-2.907678	-12.02469	
15:00:26	-6.728725	38.9463	159.533	-0.5764702	-13.22422	0.25	3	100	0	6546	0.3399681	-2.89976	-12.05023	
15:00:27	-6.728724	38.9463	159.202	-0.5989702	-14.23649	0.18	3	100	0	6546	0.3341945	-2.902547	-12.01363	
15:00:27	-6.728724	38.9463	159.154	-0.6083315	-13.5907	0.52	3	100	0	6546	0.3327823	-2.877813	-11.97426	
15:00:27	-6.728724	38.9463	159.198	-0.6055608	-13.28458	0.17	3	100	0	6548	0.3360159	-2.87858	-11.98068	
15:00:27	-6.728722	38.94629	158.668	-0.5749348	-11.68167	0.28	3	100	0	6546	0.3378668	-2.881556	-11.98564	
15:00:27	-6.728723	38.9463	158.92	-0.5254275	-8.990741	0.62	3	100	0	6546	0.339171	-2.886401	-11.97371	
15:00:28	-6.728722	38.94629	158.529	-0.5066895	-8.013076	0.24	3	100	0	6546	0.3408363	-2.900493	-11.99512	
15:00:28	-6.728722	38.94629	158.532	-0.5344537	-10.22311	0.47	3	100	0	6546	0.330043	-2.896525	-11.99049	
15:00:28	-6.728723	38.94629	158.648	-0.5546833	-11.33205	0.19	3	100	0	6546	0.3297328	-2.876817	-12.00306	
15:00:28	-6.728722	38.94629	158.327	-0.5673454	-11.64457	0.26	3	100	0	6546	0.326158	-2.860584	-11.99274	
15:00:29	-6.728723	38.94629	158.307	-0.5571034	-11.08108	0.83	3	100	0	6546	0.3145326	-2.860174	-11.98182	
15:00:29	-6.728721	38.94629	157.922	-0.5314631	-9.605553	0.26	3	100	0	6546	0.3077972	-2.871701	-11.97664	
15:00:29	-6.72872	38.94629	157.989	-0.5045552	-8.45192	0.77	3	100	0	6546	0.2940595	-2.879392	-11.91416	
15:00:30	-6.728721	38.94629	158.24	-0.4766831	-7.484464	1.13	3	100	0	6548	0.2928093	-2.86206	-11.93716	
15:00:30	-6.72872	38.94629	158.067	-0.4526215	-7.023027	0.66	3	100	0	6546	0.2846326	-2.874755	-11.90876	
15:00:30	-6.72872	38.94629	158.134	-0.4336819	-5.85865	0.34	3	100	0	6546	0.2751273	-2.879012	-11.86578	
15:00:30	-6.728719	38.94629	157.928	-0.4149218	-4.938375	0.14	3	100	0	6546	0.2613708	-2.866677	-11.84679	
15:00:30	-6.728715	38.94628	157.175	-0.3985291	-4.35691	0.58	3	100	0	6546	0.2588931	-2.882479	-11.81603	
15:00:31	-6.728716	38.94628	157.424	-0.3813153	-3.629639	0.25	3	100	0	6546	0.2498797	-2.867169	-11.82547	
15:00:31	-6.728717	38.94628	157.721	-0.3604097	-3.389943	0.35	3	100	0	6546	0.2502141	-2.871066	-11.87716	
15:00:31	-6.728719	38.94629	158.165	-0.3444838	-3.089884	0.48	3	100	0	6546	0.2462974	-2.866411	-11.85159	
15:00:31	-6.72872	38.94629	158.104	-0.3474712	-3.66462	0.78	3	100	0	6546	0.2326831	-2.868202	-11.81211	
15:00:32	-6.728616	38.94616	133.206	-0.3510782	-4.155398	0.42	3	100	0	6546	0.237844	-2.878813	-11.77658	
15:00:32	-6.728612	38.94616	131.854	-0.3265595	-3.610829	0.18	3	100	0	6546	-0.7473136	-2.916365	-11.72853	
15:00:32	-6.72861	38.94616	131.198	-0.3051952	-2.620589	0.13	3	100	0	6546	-0.2601346	-3.117466	-11.67151	
15:00:32	-6.728609	38.94616	130.721	-0.2309532	1.691895	0.29	3	100	0	6546	-0.5807711	-3.093729	-11.56246	
15:00:32	-6.728608	38.94616	130.396	-0.1704815	3.882385	0.25	3	100	0	6546	-0.7172415	-2.989141	-11.5027	
15:00:33	-6.728607	38.94616	130.128	-0.2543791	-1.759519	0.26	3	100	0	6546	-0.5704435	-3.00316	-11.43937	
15:00:33	-6.728606	38.94616	129.972	-0.3320374	-6.385947	0.32	3	100	0	6546	-0.05449058	-3.286896	-11.51445	
15:00:33	-6.728606	38.94616	129.814	-0.4211168	-10.57905	0.04	3	100	0	6546	-0.001765651	-3.11538	-11.46915	
15:00:33	-6.728606	38.94616	129.714	-0.4940434	-14.53681	0.26	3	100	0	6546	-0.3928565	-3.122337	-11.39727	
15:00:34	-6.728606	38.94616	129.559	-0.5989617	-19.62141	0.06	3	100	0	6546	-0.4847034	-2.963518	-11.36152	
15:00:34	-6.728606	38.94616	129.427	-0.6934752	-23.62777	0.08	3	100	0	6546	-0.2364524	-3.213438	-11.34185	
15:00:34	-6.728606	38.94616	129.353	-0.7120078	-23.20651	0.01	3	100	0	6546	-0.295122	-3.13182	-11.26515	
15:00:34	-6.728605	38.94616	129.265	-0.7265838	-22.79657	0.32	3	100	0	6546	-0.2255036	-3.182346	-11.18888	
15:00:34	-6.728605	38.94616	129.213	-0.7170542	-21.47115	0.22	3	100	0	6546	0.09633386	-3.167434	-11.21934	
15:00:34	-6.728605	38.94616	129.184	-0.7055593	-19.77214	0.14	3	100	0	6544	-0.03312963	-3.267321	-11.22037	
15:00:35	-6.728605	38.94616	129.182	-0.6550068	-13.87658	0.18	3	100	0	6546	-0.1454341	-3.089017	-11.21802	
15:00:35	-6.728605	38.94616	129.124	-0.6060501	-10.68073	0.11	3	100	0	6546	-0.1180386	-3.3925	-11.18954	
15:00:35	-6.728605	38.94616	129.033	-0.535288	-6.639626	0.13	3	100	0	6546	-0.2988076	-3.197158	-11.21857	
15:00:35	-6.728605	38.94616	128.921	-0.4652594	-3.191251	0.06	3	100	0	6546	-0.04543861	-3.169635	-11.20047	
15:00:35	-6.728605	38.94616	128.834	-0.3809169	0.7782624	0.48	3	100	0	6546	-0.310432	-3.194421	-11.20376	
15:00:36	-6.728605	38.94616	128.776	-0.3060227	3.830539	0.09	3	100	0	6546	-0.7554124	-3.030765	-11.11709	
15:00:36	-6.728605	38.94616	128.732	-0.2350872	6.179629	0.06	3	100	0	6545	-0.3496371	-3.118537	-11.13089	
15:00:36	-6.728605	38.94616	128.63	-0.1797474	7.908038	0.09	3	100	0	6546	-0.4333009	-2.991968	-11.07323	
15:00:37	-6.728605	38.94616	128.61	-0.1324499	9.022929	0.38	3	100	0	6547	-0.3727878	-3.047093	-11.05777	
15:00:37	-6.728605	38.94616	128.558	-0.1027535	9.449796	0.08	3	100	0	6546	-0.8560612	-3.119414	-10.98034	
15:00:37	-6.728605	38.94616	128.549	-0.09237814	8.35146	0.18	3	100	0	6546	-0.5520629	-3.013455	-10.9881	
15:00:37	-6.728605	38.94616	128.517	-0.1056465	6.303275	0.25	3	100	0	6546	-0.6038179	-2.919224	-10.91632	
15:00:38	-6.728605	38.94616	128.427	-0.0998549	5.230548	0.06	3	100	0	6546	-0.6582722	-3.002243	-10.87209	
15:00:38	-6.728606	38.94616	128.398	-0.07381968	5.939097	0.31	3	100	0	6546	-0.3417122	-2.940262	-10.83846	
15:00:38	-6.728606	38.94616	128.385	-0.06099704	5.451382	0.16	3	100	0	6546	-0.5517536	-2.965834	-10.84361	
15:00:38	-6.728605	38.94616	128.467	-0.0569654	4.631058	0.32	3	100	0	6546	-0.2572098	-2.996137	-10.86468	
15:00:38	-6.728605	38.94616	128.496	-0.04385279	4.215881	0.07	3	100	0	6546	-0.05166684	-3.314431	-10.86925	
15:00:38	-6.728605	38.94616	128.529	-0.02653889	3.887363	0.36	3	100	0	6546	-0.1043876	-3.100545	-10.85815	
15:00:39	-6.728605	38.94616	128.577	-0.02653889	3.887363	0.09	3	98	0	6546	-0.3173712	-2.86588	-10.79293	
15:00:39	-6.728605	38.94616	128.458	-0.1700421	-5.416425	0.08	3	95	0	6546	-0.1197511	-3.169684	-10.71705	
15:00:39	-6.728605	38.94616	128.466	-0.3759594	-16.08297	0.17	3	95	0	6546	-0.1031516	-3.047489	-10.75106	
15:00:39	-6.728605	38.94616	128.456	-0.4350212	-18.30698	0.09	3	95	0	6546	-0.1529067	-2.923696	-10.7383	
15:00:39	-6.728606	38.94616	128.402	-0.4843949	-19.37123	0.14	3	95	0	6546	0.03848371	-2.929445	-10.72239	
15:00:40	-6.728606	38.94616	128.326	-0.503244	-18.8503	0.13	3	95	0	6546	0.02672768	-2.863851	-10.76251	
15:00:40	-6.728606	38.94616	128.318	-0.5026333	-17.67563	0.42	3	95	0	6546	-0.1612117	-2.979883	-10.80938	
15:00:40	-6.728606	38.94616	128.269	-0.5102897	-16.54366	0.34	3	96	0	6546	-0.3194465	-2.663161	-10.83716	
15:00:40	-6.728606	38.94616	128.245	-0.5300552	-16.25987	0.04	3	96	0	6546	-0.3186443	-2.903574	-10.79119	
15:00:41	-6.728606	38.94616	128.196	-0.5279197	-14.82711	0.12	3	96	0	6546	0.01689789	-3.031257	-10.8484	
15:00:41	-6.728606	38.94616	128.177	-0.495566	-11.97081	0.08	3	96	0	6546	0.1321312	-3.024178	-10.92799	
15:00:41	-6.728606	38.94616	128.161	-0.4667466	-9.719673	0.09	3	96	0	6546	0.04994088	-3.038273	-10.92871	
15:00:41	-6.728606	38.94616	128.149	-0.4314907	-7.482388	0.14	3	96	0	6546	0.09860544	-2.914882	-10.9175	
15:00:41	-6.728606	38.94616	128.158	-0.3986219	-5.537076	0.12	3	96	0	6546	0.005926371	-2.878811	-10.88103	
15:00:42	-6.728606	38.94616	128.148	-0.4171561	-6.499105	0.08	3	96	0	6546	0.1351021	-3.009334	-10.85583	
15:00:42	-6.728606	38.94616	128.08	-0.4341078	-6.997188	0.24	3	96	0	6546	0.08000439	-3.023857	-10.87001	
15:00:42	-6.728606	38.94616	128.055	-0.4352519	-7.295165	0.04	3	96	0	6546	0.1182441	-3.126437	-10.83112	
09:30:15	-6.728606	38.94616	128.013	-0.4362143	-6.858631	0.07	3	96	0	6546	-0.006199758	-2.955495	-10.84867	
15:00:42	-6.728606	38.94616	127.993	-0.4210047	-6.067674	0.09	3	96	0	6546	-0.0980998	-3.008478	-10.83516	
15:00:43	-6.728606	38.94616	128.027	-0.4072871	-5.200685	0.52	3	96	0	6546	0.08947884	-3.019968	-10.84089	
15:00:43	-6.728606	38.94616	128.014	-0.3622842	-2.404638	0.21	3	96	0	6546	0.2828122	-3.057751	-10.88454	
15:00:43	-6.728606	38.94616	128.004	-0.3254276	-0.7441994	0.12	3	96	0	6546	-0.295052	-2.944075	-10.85654	
15:00:43	-6.728606	38.94616	127.989	-0.3421585	-1.9482	0.08	3	96	0	6546	-0.01853838	-3.044549	-10.89696	
15:00:43	-6.728606	38.94616	128.001	-0.3573876	-2.833838	0.19	3	96	0	6546	-0.108637	-3.080997	-10.80824	
15:00:44	-6.728606	38.94616	128.036	-0.3503544	-2.88159	0.09	3	96	0	6546	-0.05319299	-3.14164	-10.82023	
09:30:18	-6.728606	38.94616	128.068	-0.3454281	-3.232098	0.08	3	96	0	6546	-0.22646	-3.02996	-10.80627	
15:00:44	-6.728606	38.94616	128.072	-0.3641631	-4.714865	0.09	3	96	0	6546	-0.2951589	-2.999317	-10.77038	
15:00:44	-6.728606	38.94616	128.008	-0.3819697	-6.079632	0.34	3	96	0	6546	-0.1147483	-2.962472	-10.7701	
15:00:44	-6.728606	38.94616	127.986	-0.4536237	-9.815201	0.19	3	96	0	6546	0.0630072	-2.839848	-10.86845	
15:00:45	-6.728606	38.94616	127.961	-0.505959	-11.72156	0.39	3	96	0	6546	-0.2599241	-2.820702	-10.81907	
15:00:45	-6.728606	38.94616	127.985	-0.5437896	-12.55624	0.09	3	96	0	6546	0.03916544	-2.95131	-10.86956	
17:30:17	-6.728606	38.94616	127.928	-0.5717319	-12.37545	0.28	3	97	0	6546	-0.1800974	-2.951828	-10.80196	
15:00:45	-6.728606	38.94616	127.88	-0.610318	-13.59218	0.44	3	97	0	6547	-0.1403493	-2.934517	-10.84396	
15:00:45	-6.728606	38.94616	127.907	-0.6440033	-14.95024	0.26	3	97	0	6546	-0.3939053	-2.822244	-10.87072	
15:00:46	-6.728606	38.94616	127.867	-0.6530468	-14.64334	0.09	3	97	0	6546	0.1467646	-3.06582	-10.8661	
15:00:46	-6.728606	38.94616	127.804	-0.6584892	-13.6724	0.13	3	97	0	6546	-0.03622461	-2.927821	-10.8387	
17:30:25	-6.728606	38.94616	127.743	-0.6562285	-12.66446	0.14	3	97	0	6546	-0.08130381	-2.99772	-10.80054	
15:00:46	-6.728606	38.94616	127.706	-0.6450744	-11.21813	0.14	3	97	0	6546	-0.03855358	-3.08755	-10.71234	
15:00:46	-6.728606	38.94616	127.682	-0.6363289	-9.621812	0.19	3	97	0	6546	-0.06576636	-2.964508	-10.69554	
15:00:47	-6.728606	38.94616	127.66	-0.6321638	-8.777722	0.21	3	97	0	6546	0.1070127	-3.120097	-10.78772	
15:00:47	-6.728606	38.94616	127.623	-0.6308312	-8.368902	0.14	3	97	0	6546	0.1016091	-3.025247	-10.83196	
15:00:47	-6.728606	38.94616	127.589	-0.6328268	-7.840799	0.04	3	97	0	6546	0.01877191	-2.829197	-10.88269	
15:00:47	-6.728605	38.94616	127.631	-0.6513141	-8.666745	0.39	3	97	0	6546	0.2126	-2.997364	-10.89886	
09:36:46	-6.728605	38.94616	127.571	-0.6848215	-9.6372	0.13	3	97	0	6546	0.2327955	-3.024508	-10.87433	
15:00:48	-6.728605	38.94616	127.574	-0.684837	-9.07008	0.29	3	97	0	6546	-0.08529446	-2.922799	-10.83148	
15:00:48	-6.728604	38.94616	127.553	-0.6590146	-7.762486	0.11	3	97	0	6546	0.08599226	-3.026791	-10.78524	
15:00:48	-6.728604	38.94616	127.548	-0.6578963	-7.61693	0.42	3	97	0	6546	0.01992025	-2.948559	-10.82795	
15:00:48	-6.728604	38.94616	127.525	-0.6939988	-9.736265	0.02	3	97	0	6546	0.1764847	-2.924825	-10.8532	
15:00:49	-6.728604	38.94616	127.473	-0.742588	-11.27317	0.14	3	97	0	6546	-0.1555944	-2.797403	-10.84574	
16:03:52	-6.728605	38.94616	127.421	-0.8149837	-14.71896	0.11	3	97	0	6546	-0.2602795	-2.743871	-10.82586	
15:00:49	-6.728604	38.94616	127.455	-0.8350772	-14.94788	0.24	3	97	0	6546	-0.1442669	-2.779601	-10.85405	
15:00:49	-6.728604	38.94616	127.471	-0.8136052	-12.47301	0.14	3	97	0	6546	0.03883096	-2.761779	-10.82458	
15:00:49	-6.728604	38.94616	127.542	-0.7714264	-9.262717	0.11	3	97	0	6546	-0.09413921	-2.646279	-10.80062	
15:00:49	-6.728604	38.94616	127.505	-0.7134004	-5.759135	0.09	3	97	0	6546	-0.1766077	-2.69866	-10.77586	
15:00:50	-6.728604	38.94616	127.521	-0.6538611	-2.479518	0.19	3	97	0	6546	-0.200905	-2.558861	-10.80492	
15:00:50	-6.728605	38.94616	127.479	-0.5776697	1.67339	0.22	3	97	0	6546	-0.01136749	-2.654891	-10.79847	
11:48:47	-6.728604	38.94616	127.504	-0.5295845	3.501572	0.06	3	97	0	6546	0.03755299	-2.836493	-10.83092	
15:00:50	-6.728604	38.94616	127.551	-0.5184767	3.104767	0.11	3	97	0	6546	-0.2428157	-2.83061	-10.78658	
15:00:50	-6.728604	38.94616	127.563	-0.5046391	3.880133	0.02	3	97	0	6546	-0.2110096	-2.807998	-10.8108	
15:00:51	-6.728604	38.94616	127.684	-0.4841256	4.268155	0.28	3	97	0	6546	-0.090952	-2.675581	-10.78194	
15:00:51	-6.728604	38.94616	127.721	-0.4701109	4.321012	0.09	3	97	0	6546	-0.03661142	-2.640387	-10.75365	
15:00:51	-6.728604	38.94616	127.709	-0.4167867	5.732207	0.32	3	97	0	6546	-0.2890288	-2.857228	-10.74412	
07:08:49	-6.728603	38.94616	127.725	-0.3744466	7.178135	0.32	3	97	0	6546	-0.06051573	-2.981047	-10.72397	
15:00:51	-6.728603	38.94616	127.737	-0.3217927	9.283985	0.16	3	97	0	6546	-0.349261	-2.862878	-10.79097	
15:00:52	-6.728603	38.94616	127.704	-0.2800821	10.55563	0.24	3	97	0	6546	-0.5933555	-2.733732	-10.79873	
15:00:52	-6.728603	38.94616	127.687	-0.2259584	12.56344	0.09	3	97	0	6546	-0.5230573	-2.809922	-10.77517	
15:00:52	-6.728603	38.94616	127.715	-0.1799328	13.07241	0.33	3	97	0	6546	-0.4644133	-2.726416	-10.73194	
15:00:52	-6.728603	38.94616	127.773	-0.2073541	10.03101	0.18	3	97	0	6546	-0.4489666	-2.757465	-10.71771	
16:02:04	-6.728603	38.94616	127.849	-0.2355629	6.959272	0.09	3	97	0	6547	-0.5000333	-2.609979	-10.71323	
15:00:53	-6.728603	38.94616	127.929	-0.2661895	4.647149	0.19	3	98	0	6546	-0.3170424	-2.641454	-10.71794	
15:00:53	-6.728603	38.94616	127.937	-0.2924449	2.408436	0.31	3	98	0	6546	-0.5123439	-2.674564	-10.68099	
15:00:53	-6.728604	38.94616	127.935	-0.3316655	-0.2696575	0.22	3	98	0	6546	-0.6825548	-2.559154	-10.64623	
15:00:54	-6.728605	38.94616	127.883	-0.3682274	-2.517718	0.14	3	98	0	6546	-0.5655962	-2.588068	-10.63807	
15:00:54	-6.728605	38.94616	127.864	-0.3826648	-3.255856	0.12	3	98	0	6546	-0.5125216	-2.611188	-10.57548	
15:00:54	-6.728606	38.94616	127.775	-0.3941084	-3.450593	0.07	3	98	0	6546	-0.4632191	-2.696471	-10.60338	
20:07:04	-6.728605	38.94616	127.739	-0.4225612	-4.880153	0.25	3	98	0	6546	-0.2740487	-2.811575	-10.57082	
15:00:54	-6.728605	38.94616	127.714	-0.4485703	-6.146721	0.35	3	98	0	6546	-0.293865	-2.800691	-10.5248	
15:00:54	-6.728606	38.94616	127.744	-0.5229189	-9.688582	0.19	3	98	0	6548	-0.5393881	-2.632872	-10.48024	
15:00:55	-6.728606	38.94616	127.782	-0.5898347	-13.4494	0.28	3	98	0	6546	-0.4181521	-2.575923	-10.4521	
15:00:55	-6.728606	38.94616	127.806	-0.6373938	-14.77691	0.29	3	97	0	6546	-0.2001624	-2.68433	-10.40087	
15:00:55	-6.728606	38.94616	127.774	-0.6733202	-14.86378	0.07	3	97	0	6546	-0.0569231	-2.896713	-10.48503	
15:00:55	-6.728606	38.94616	127.735	-0.7318183	-16.96994	0.29	3	97	0	6546	-0.1484204	-2.87013	-10.5267	
15:00:55	-6.728606	38.94616	127.705	-0.7833093	-18.54022	0.25	3	97	0	6546	-0.1423324	-2.924558	-10.59215	
15:00:55	-6.728606	38.94616	127.702	-0.8207355	-18.86757	0.14	3	97	0	6546	-0.3396333	-2.805653	-10.61055	
15:00:56	-6.728606	38.94616	127.651	-0.8484905	-18.82018	0.39	3	97	0	6546	-0.3436759	-2.602396	-10.59272	
15:00:56	-6.728606	38.94616	127.603	-0.8583881	-17.6447	0.12	3	97	0	6546	-0.3368374	-2.596482	-10.57002	
15:00:56	-6.728606	38.94616	127.649	-0.8490903	-16.13395	0.18	3	97	0	6546	-0.009738841	-2.72348	-10.57471	
15:00:56	-6.728606	38.94616	127.677	-0.8292627	-14.22637	0.41	3	97	0	6546	-0.1173341	-2.653594	-10.62022	
15:00:56	-6.728606	38.94616	127.738	-0.7970694	-12.1187	0.07	3	97	0	6546	-0.260863	-2.632505	-10.61329	
15:00:57	-6.728606	38.94616	127.824	-0.7374766	-7.7771	0.18	3	97	0	6546	-0.0478106	-2.860479	-10.64965	
15:00:57	-6.728606	38.94616	127.786	-0.6616124	-3.447039	0.38	3	97	0	6546	0.2011176	-2.984897	-10.59256	
15:00:57	-6.728606	38.94616	127.762	-0.6247092	-1.632132	0.19	3	97	0	6546	-0.2727976	-2.811062	-10.62147	
15:00:57	-6.728606	38.94616	127.759	-0.6115932	-0.5047899	0.14	3	97	0	6546	-0.4818308	-2.694046	-10.60252	
15:00:57	-6.728606	38.94616	127.704	-0.5562057	1.964329	0.07	3	98	0	6546	-0.2195692	-2.752051	-10.66972	
15:00:58	-6.728606	38.94616	127.712	-0.4748827	5.551191	0.01	3	98	0	6546	-0.1135226	-2.750781	-10.62159	
15:00:58	-6.728606	38.94616	127.632	-0.3904986	9.403181	0.33	3	98	0	6546	-0.2762705	-2.635307	-10.63161	
15:00:58	-6.728606	38.94616	127.543	-0.3107971	12.76073	0.04	3	98	0	6546	-0.431146	-2.62878	-10.62114	
15:00:58	-6.728606	38.94616	127.537	-0.200792	16.94012	0.45	3	98	0	6546	-0.5580275	-2.625283	-10.61029	
15:00:58	-6.728606	38.94616	127.497	-0.06805882	22.03724	0.17	3	98	0	6546	-0.6726843	-2.550438	-10.57098	
15:00:58	-6.728606	38.94616	127.496	0.03253083	24.75248	0.18	3	98	0	6546	-0.5969258	-2.578432	-10.557	
15:00:59	-6.728606	38.94616	127.529	0.09077433	25.60786	0.26	3	98	0	6546	-0.747009	-2.446881	-10.52575	
15:00:59	-6.728607	38.94616	127.5	0.1116286	23.83822	0.19	3	98	0	6546	-0.7189402	-2.416064	-10.50123	
15:00:59	-6.728607	38.94616	127.49	0.09951031	20.73634	0.16	3	98	0	6546	-0.6409785	-2.599606	-10.54525	
15:00:59	-6.728607	38.94616	127.46	0.1017385	18.96965	0.02	3	98	0	6546	-0.281481	-2.656239	-10.51308	
15:01:00	-6.728607	38.94616	127.437	0.1158773	19.18839	0.41	3	98	0	6546	-0.590161	-2.443342	-10.54964	
15:01:00	-6.728607	38.94616	127.453	0.1149603	16.95447	0.42	3	98	0	6546	-0.3164959	-2.542799	-10.57493	
15:01:00	-6.728607	38.94616	127.421	0.09224758	14.28627	0.11	3	98	0	6546	-0.1781193	-2.742927	-10.67311	
15:01:00	-6.728606	38.94616	127.423	0.07939869	11.78441	0.21	3	98	0	6546	-0.2489429	-2.759254	-10.67376	
15:01:00	-6.728606	38.94616	127.489	0.08035235	10.33625	0.16	3	98	0	6546	-0.1861646	-2.793734	-10.60529	
15:01:00	-6.728606	38.94616	127.541	0.0793354	9.786839	0.14	3	98	0	6546	-0.2699885	-2.590358	-10.62194	
15:01:01	-6.728606	38.94616	127.487	0.009005176	4.978584	0.12	3	98	0	6546	-0.2406388	-2.554526	-10.65187	
15:01:01	-6.728606	38.94616	127.467	-0.05696622	1.149123	0.14	3	98	0	6548	-0.3033978	-2.538211	-10.69474	
15:01:01	-6.728606	38.94616	127.425	-0.2376633	-8.380658	0.22	3	98	0	6546	-0.2980596	-2.462947	-10.69617	
15:01:01	-6.728606	38.94616	127.363	-0.3849319	-15.64522	0.26	3	98	0	6546	-0.1168703	-2.574341	-10.70465	
15:01:01	-6.728606	38.94616	127.277	-0.4536348	-17.83361	0.03	3	98	0	6546	-0.2836583	-2.533427	-10.66334	
15:01:01	-6.728606	38.94616	127.3	-0.5128068	-19.25892	0.17	3	98	0	6546	-0.287784	-2.488883	-10.66244	
15:01:02	-6.728606	38.94616	127.258	-0.6117632	-22.684	0.02	3	98	0	6546	-0.3245474	-2.445796	-10.73468	
15:01:02	-6.728606	38.94616	127.227	-0.6984012	-25.52538	0.09	3	98	0	6546	-0.3564734	-2.45104	-10.73854	
15:01:02	-6.728606	38.94616	127.145	-0.7485721	-25.65356	0.19	3	98	0	6546	-0.4237593	-2.355909	-10.68308	
15:01:02	-6.728606	38.94616	127.124	-0.7847468	-24.65845	0.16	3	98	0	6546	-0.5182423	-2.297292	-10.62957	
15:01:02	-6.728606	38.94616	127.16	-0.8173003	-23.76613	0.22	3	98	0	6546	-0.5286589	-2.314454	-10.59375	
15:01:02	-6.728606	38.94616	127.132	-0.8420016	-22.81551	0.16	3	98	0	6546	-0.2238291	-2.428146	-10.57001	
15:01:03	-6.728607	38.94616	127.086	-0.8296767	-20.46056	0.19	3	98	0	6546	-0.2147417	-2.457658	-10.6625	
15:01:03	-6.728607	38.94616	127.019	-0.8148071	-17.35497	0.07	3	98	0	6546	-0.2622249	-2.431	-10.65121	
15:01:03	-6.728607	38.94616	127.075	-0.811668	-16.06643	0.26	3	98	0	6546	-0.3281595	-2.377457	-10.61885	
15:01:03	-6.728607	38.94616	127.042	-0.8058336	-14.12436	0.04	3	98	0	6546	-0.2016181	-2.477931	-10.60419	
15:01:03	-6.728607	38.94616	127.022	-0.8249359	-13.15915	0.04	3	98	0	6546	-0.0578405	-2.523193	-10.61942	
15:01:03	-6.728607	38.94616	127.048	-0.8400261	-12.46435	0.19	3	98	0	6546	-0.2275	-2.488576	-10.62131	
15:01:04	-6.728607	38.94616	127.04	-0.8296585	-11.09462	0.06	3	98	0	6546	-0.23453	-2.53753	-10.6813	
15:01:04	-6.728607	38.94616	127.029	-0.8183712	-9.778682	0.03	3	98	0	6546	-0.09260604	-2.57863	-10.71943	
15:01:04	-6.728607	38.94616	126.979	-0.8318436	-9.99348	0.16	3	98	0	6546	0.06362426	-2.575322	-10.72282	
15:01:04	-6.728607	38.94616	126.975	-0.8435488	-10.28232	0.17	3	98	0	6546	0.07462409	-2.666187	-10.73688	
15:01:04	-6.728607	38.94616	127.015	-0.8441303	-9.97535	0.38	3	98	0	6546	-0.2793091	-2.534845	-10.76646	
15:01:05	-6.728607	38.94616	127.043	-0.8438387	-9.369695	0.14	3	98	0	6546	-0.2656732	-2.553284	-10.74607	
15:01:05	-6.728608	38.94616	127.031	-0.8365158	-8.683907	0.08	3	98	0	6546	-0.09192552	-2.541788	-10.77621	
15:01:05	-6.728608	38.94616	127.101	-0.8203863	-7.07634	0.22	3	98	0	6546	-0.1191514	-2.486163	-10.77145	
15:01:05	-6.728608	38.94616	127.153	-0.8119308	-5.847075	0.07	3	98	0	6546	-0.02532872	-2.532733	-10.82419	
15:01:05	-6.728608	38.94616	127.122	-0.8142667	-5.779709	0.08	3	98	0	6546	-0.002179095	-2.659012	-10.86715	
15:01:06	-6.728608	38.94616	127.123	-0.7946286	-4.926178	0.22	3	98	0	6546	-0.08303452	-2.570683	-10.85563	
15:01:06	-6.728609	38.94616	127.136	-0.7624452	-3.042283	0.34	3	98	0	6546	-0.2277551	-2.511646	-10.81347	
15:01:06	-6.728608	38.94616	127.217	-0.7719132	-3.470824	0.07	3	98	0	6546	-0.1064737	-2.647989	-10.84752	
15:01:06	-6.728609	38.94616	127.188	-0.8051796	-4.922457	0.04	3	98	0	6546	0.01470844	-2.717614	-10.90096	
15:01:07	-6.728609	38.94616	127.181	-0.8246641	-5.431046	0.13	3	98	0	6546	-0.04600031	-2.691598	-10.90438	
15:01:07	-6.728609	38.94616	127.235	-0.8339593	-5.017735	0.09	3	98	0	6546	-0.03825192	-2.663788	-10.92648	
15:01:07	-6.728609	38.94616	127.215	-0.8374528	-4.802733	0.24	3	98	0	6546	0.254337	-2.790061	-10.9503	
15:01:07	-6.728609	38.94616	127.233	-0.835407	-4.204948	0.31	3	98	0	6546	0.05422281	-2.637351	-10.97221	
15:01:07	-6.72861	38.94616	127.252	-0.8196636	-3.316714	0.26	3	98	0	6546	-0.1092478	-2.595649	-10.94207	
15:01:07	-6.72861	38.94616	127.258	-0.785442	-1.129598	0.19	3	98	0	6546	0.1227164	-2.566647	-10.92392	
15:01:08	-6.72861	38.94616	127.262	-0.7501146	0.2710951	0.14	3	98	0	6546	0.1331306	-2.589797	-10.95338	
15:01:08	-6.72861	38.94616	127.247	-0.7197921	1.829607	0.29	3	98	0	6547	-0.01102752	-2.56109	-10.91842	
15:01:08	-6.728611	38.94616	127.265	-0.6645622	4.373149	0.37	3	98	0	6546	-0.1465388	-2.520037	-10.94633	
15:01:08	-6.728611	38.94616	127.234	-0.5967418	7.90809	0.14	3	98	0	6546	0.1680961	-2.713357	-10.9534	
15:01:09	-6.72861	38.94616	127.251	-0.5384408	9.760078	0.26	3	98	0	6546	0.3743625	-2.890687	-10.96619	
15:01:09	-6.72861	38.94616	127.249	-0.4930781	11.22307	0.14	3	98	0	6546	0.1377172	-2.727092	-10.96772	
15:01:09	-6.728611	38.94616	127.226	-0.4715554	10.74518	0.08	3	98	0	6546	0.1488374	-2.716247	-10.95014	
15:01:09	-6.728611	38.94616	127.153	-0.4864736	9.311768	0.04	3	98	0	6546	0.1569975	-2.719915	-10.95824	
15:01:09	-6.728611	38.94616	127.152	-0.4922804	7.585207	0.19	3	98	0	6546	-0.03258541	-2.696908	-10.96478	
15:01:10	-6.728611	38.94616	127.178	-0.4862411	6.728701	0.17	3	98	0	6546	-0.05796696	-2.65147	-10.97007	
15:01:10	-6.728611	38.94616	127.216	-0.4825692	6.821805	0.08	3	98	0	6546	0.09137911	-2.758316	-10.99517	
15:01:10	-6.728611	38.94616	127.216	-0.478503	6.537838	0.08	3	98	0	6546	0.1553349	-2.777041	-11.06455	
15:01:10	-6.728611	38.94616	127.252	-0.4760848	6.104722	0.12	3	98	0	6546	0.002534035	-2.723994	-11.00561	
15:01:11	-6.72861	38.94616	127.234	-0.5357519	2.567098	0.38	3	98	0	6546	0.1485291	-2.905764	-11.04659	
15:01:11	-6.72861	38.94616	127.234	-0.5905599	-0.7210833	0.38	3	98	0	6546	0.4846678	-3.04302	-11.04408	
15:01:11	-6.72861	38.94616	127.166	-0.6165963	-1.733948	0.22	3	98	0	6546	0.2258806	-2.855994	-11.0689	
15:01:11	-6.72861	38.94616	127.163	-0.6427406	-2.794237	0.09	3	99	0	6546	0.278593	-2.829663	-11.12584	
15:01:11	-6.728611	38.94616	127.284	-0.677879	-4.166029	0.16	3	99	0	6546	0.002892459	-2.841838	-11.18074	
15:01:11	-6.728611	38.94615	127.342	-0.7124145	-5.821224	0.12	3	99	0	6546	0.2069243	-2.81465	-11.18916	
15:01:12	-6.728611	38.94615	127.342	-0.7319438	-6.31704	0.12	3	99	0	6546	0.3101188	-2.840647	-11.23522	
15:01:12	-6.728611	38.94615	127.384	-0.7477021	-6.132476	0.19	3	99	0	6546	0.2893667	-2.79426	-11.26919	
15:01:12	-6.728611	38.94615	127.437	-0.7230851	-4.76804	0.21	3	99	0	6548	0.2163238	-2.825236	-11.21907	
15:01:12	-6.728611	38.94615	127.448	-0.7003122	-3.316171	0.24	3	99	0	6546	0.2724806	-2.76389	-11.28346	
15:01:12	-6.728611	38.94615	127.469	-0.6744849	-1.343834	0.01	3	99	0	6546	0.6410186	-2.951763	-11.31664	
15:01:13	-6.728611	38.94615	127.433	-0.6504933	-0.02147746	0.17	3	99	0	6546	0.5037174	-2.914488	-11.36638	
15:01:13	-6.728611	38.94615	127.388	-0.6242241	1.823828	0.18	3	99	0	6546	0.5328231	-2.779599	-11.34842	
15:01:13	-6.728611	38.94615	127.359	-0.5996683	3.052947	0.26	3	99	0	6546	0.6029961	-2.843183	-11.36737	
15:01:13	-6.728611	38.94615	127.323	-0.6539919	0.2509795	0.06	3	99	0	6546	0.170798	-2.810719	-11.35055	
15:01:13	-6.728611	38.94615	127.366	-0.7024643	-1.7208	0.34	3	99	0	6546	0.2662115	-2.788346	-11.41338	
15:01:13	-6.728611	38.94615	127.366	-0.6442715	1.836009	0.19	3	99	0	6546	-0.008429813	-2.799624	-11.38055	
15:01:14	-6.728611	38.94615	127.362	-0.5924008	3.861855	0.33	3	99	0	6546	0.03606953	-2.887155	-11.33803	
15:01:14	-6.728611	38.94615	127.318	-0.6246418	2.704026	0.31	3	99	0	6546	0.4898438	-3.022768	-11.35655	
15:01:14	-6.728611	38.94615	127.296	-0.653277	0.96468	0.09	3	99	0	6546	0.1483494	-2.725759	-11.38564	
15:01:14	-6.728611	38.94615	127.271	-0.6886359	-1.038818	0.22	3	99	0	6546	0.2951875	-2.892551	-11.38721	
15:01:15	-6.728611	38.94615	127.311	-0.7206907	-2.577003	0.14	3	99	0	6546	0.1419146	-2.868161	-11.4413	
15:01:15	-6.728611	38.94615	127.328	-0.7712252	-5.288333	0.17	3	99	0	6546	0.162111	-2.896721	-11.43624	
15:01:15	-6.728611	38.94615	127.369	-0.8365049	-8.355934	0.28	3	99	0	6546	0.3535487	-3.008601	-11.44601	
15:01:15	-6.728611	38.94615	127.369	-0.8788483	-9.943652	0.28	3	99	0	6546	0.1267616	-2.751035	-11.43474	
15:01:15	-6.728611	38.94615	127.382	-0.8981325	-10.31641	0.09	3	99	0	6546	0.2490389	-2.749481	-11.41455	
15:01:16	-6.728611	38.94615	127.378	-0.9146614	-10.35472	0.04	3	99	0	6546	0.2897664	-2.826999	-11.46227	
15:01:16	-6.728611	38.94615	127.398	-0.9235471	-10.12174	0.13	3	99	0	6546	0.2244501	-2.754568	-11.47607	
15:01:16	-6.728611	38.94615	127.406	-0.9147031	-9.41072	0.19	3	99	0	6546	0.0976261	-2.716475	-11.47984	
15:01:16	-6.728611	38.94615	127.452	-0.8952988	-7.762933	0.21	3	99	0	6546	0.3600253	-2.831879	-11.4382	
15:01:16	-6.728611	38.94615	127.467	-0.863746	-5.466751	0.09	3	99	0	6546	0.4208305	-2.906649	-11.43479	
15:01:16	-6.728611	38.94615	127.471	-0.8265133	-3.2707	0.06	3	99	0	6546	0.1533002	-2.869875	-11.44354	
15:01:17	-6.728611	38.94615	127.498	-0.7984996	-1.851566	0.22	3	99	0	6546	0.09745055	-2.841714	-11.43041	
15:01:17	-6.728611	38.94615	127.546	-0.7792319	-0.5555214	0.33	3	99	0	6546	-0.03181433	-2.831738	-11.45352	
15:01:17	-6.728611	38.94615	127.473	-0.7467966	0.9471117	0.09	3	99	0	6546	-0.1734749	-2.757221	-11.48495	
15:01:17	-6.728612	38.94615	127.441	-0.7051684	2.628947	0.29	3	99	0	6546	0.02883475	-2.835778	-11.46751	
15:01:18	-6.728612	38.94615	127.472	-0.6909901	3.389867	0.33	3	99	0	6546	-0.01454723	-2.582947	-11.46959	
15:01:18	-6.728613	38.94614	127.445	-0.6931732	2.987325	0.29	3	99	0	6546	-0.1592991	-2.628741	-11.43229	
15:01:18	-6.728613	38.94614	127.446	-0.6958564	2.259493	0.44	3	99	0	6546	-0.171103	-2.693805	-11.397	
15:01:18	-6.728613	38.94614	127.436	-0.6992766	2.107024	0.14	3	99	0	6546	-0.1878425	-2.52721	-11.3742	
15:01:19	-6.728613	38.94614	127.436	-0.6937603	1.795897	0.14	3	99	0	6546	0.3013389	-2.754867	-11.36954	
15:01:19	-6.728613	38.94614	127.405	-0.6818348	2.174721	0.09	3	99	0	6546	0.4182916	-2.877417	-11.4342	
15:01:19	-6.728613	38.94614	127.399	-0.6968252	1.54609	0.08	3	99	0	6546	0.4794082	-2.864192	-11.42981	
15:01:19	-6.728613	38.94614	127.329	-0.7367565	-1.023763	0.19	3	99	0	6546	0.5122373	-2.915677	-11.50109	
15:01:19	-6.728613	38.94614	127.321	-0.7633612	-2.496101	0.06	3	99	0	6546	0.4091424	-3.140746	-11.53118	
15:01:19	-6.728613	38.94614	127.251	-0.778492	-2.614756	0.22	3	99	0	6546	0.2724278	-3.002861	-11.54604	
15:01:20	-6.728613	38.94614	127.253	-0.7913496	-3.151748	0.17	3	99	0	6546	0.4920572	-2.939287	-11.50067	
15:01:20	-6.728613	38.94614	127.214	-0.8169891	-4.095879	0.06	3	99	0	6546	0.1832134	-2.860719	-11.48767	
15:01:20	-6.728613	38.94614	127.214	-0.8389582	-4.565665	0.06	3	99	0	6546	0.2621555	-2.918807	-11.48695	
15:01:20	-6.728613	38.94614	127.147	-0.8810176	-6.262994	0.04	3	99	0	6546	0.251974	-2.88365	-11.51829	
15:01:20	-6.728613	38.94614	127.179	-0.9183341	-7.163627	0.06	3	99	0	6546	0.2243784	-2.97893	-11.49535	
15:01:21	-6.728613	38.94614	127.171	-0.897931	-5.820869	0.04	3	99	0	6546	0.1829116	-3.000475	-11.4693	
15:01:21	-6.728613	38.94614	127.158	-0.8792527	-4.571638	0.26	3	99	0	6547	0.230042	-3.075811	-11.42141	
15:01:21	-6.728613	38.94614	127.187	-0.894134	-4.706333	0.04	3	99	0	6546	0.0121695	-3.009411	-11.38079	
15:01:21	-6.728613	38.94614	127.167	-0.9068204	-5.004849	0.04	3	99	0	6546	0.1099337	-3.063557	-11.42688	
15:01:21	-6.728613	38.94614	127.158	-0.8940626	-3.640282	0.17	3	99	0	6546	0.24947	-3.015166	-11.44265	
15:01:22	-6.728613	38.94614	127.098	-0.882467	-3.096302	0.17	3	99	0	6546	0.3814778	-2.958061	-11.4101	
15:01:22	-6.728613	38.94614	127.137	-0.8867087	-3.15352	0.19	3	99	0	6546	0.3135174	-3.106315	-11.37988	
15:01:22	-6.728613	38.94614	127.114	-0.8898959	-3.627371	0.12	3	99	0	6546	0.08608215	-2.824402	-11.3691	
15:01:22	-6.728613	38.94614	127.155	-0.9452657	-6.271954	0.04	3	99	0	6546	0.2073808	-2.804703	-11.39203	
15:01:23	-6.728613	38.94614	127.138	-0.9862838	-8.362177	0.19	3	99	0	6546	0.08932364	-2.902628	-11.41648	
15:01:23	-6.728613	38.94614	127.103	-1.04685	-10.32928	0.18	3	99	0	6546	0.198874	-3.099861	-11.39958	
15:01:23	-6.728613	38.94614	127.185	-1.099914	-11.72123	0.09	3	99	0	6546	-0.02009412	-2.907047	-11.37238	
15:01:23	-6.728613	38.94614	127.206	-1.073306	-9.59341	0.09	3	99	0	6546	-0.00543025	-2.926076	-11.34253	
15:01:23	-6.728613	38.94614	127.209	-1.052623	-8.103828	0.03	3	99	0	6546	0.1307383	-2.942623	-11.34357	
15:01:24	-6.728613	38.94614	127.197	-0.9976085	-4.721318	0.06	3	99	0	6546	0.07846503	-2.875172	-11.37094	
15:01:24	-6.728613	38.94614	127.232	-0.946712	-1.441316	0.09	3	99	0	6546	0.035715	-2.909487	-11.33933	
15:01:24	-6.728612	38.94614	127.232	-0.9222848	0.1543298	0.16	3	99	0	6546	0.01940513	-2.952005	-11.35912	
15:01:24	-6.728612	38.94614	127.239	-0.899074	1.910912	0.09	3	99	0	6546	0.1837399	-2.937478	-11.34539	
15:01:24	-6.728612	38.94614	127.252	-0.8462054	4.868322	0.31	3	99	0	6546	0.1162245	-2.957548	-11.41529	
15:01:25	-6.728612	38.94614	127.275	-0.8031403	6.804626	0.03	3	99	0	6546	-0.1873863	-2.75711	-11.3941	
15:01:25	-6.728612	38.94614	127.301	-0.770918	7.917859	0.24	3	99	0	6546	-0.05281359	-2.857053	-11.3538	
15:01:25	-6.728612	38.94614	127.234	-0.7511092	7.997326	0.25	3	99	0	6546	0.2240964	-2.763091	-11.39893	
15:01:25	-6.728612	38.94614	127.221	-0.7598532	6.368795	0.08	3	99	0	6546	-0.2433887	-2.758556	-11.36497	
15:01:25	-6.728612	38.94614	127.207	-0.8096176	3.558865	0.02	3	99	0	6546	-0.1851249	-2.775618	-11.29695	
15:01:26	-6.728612	38.94614	127.178	-0.8327351	2.188943	0.25	3	99	0	6546	-0.1157248	-2.838001	-11.35533	
15:01:26	-6.728612	38.94614	127.17	-0.8419293	1.307325	0.22	3	99	0	6546	-0.4403321	-2.794569	-11.29459	
15:01:26	-6.728611	38.94614	127.139	-0.8450679	1.24877	0.04	3	99	0	6546	-0.07915242	-2.988799	-11.27666	
15:01:26	-6.728611	38.94614	127.132	-0.8416258	1.649256	0.11	3	99	0	6546	-0.1489566	-2.876541	-11.2857	
15:01:27	-6.728611	38.94614	127.111	-0.8157615	3.271271	0.14	3	99	0	6546	-0.1997181	-2.937783	-11.19309	
15:01:27	-6.728611	38.94614	127.063	-0.7721081	5.32957	0.16	3	99	0	6546	-0.3439263	-2.786603	-11.21137	
15:01:27	-6.728611	38.94614	127.027	-0.7415728	6.475926	0.26	3	99	0	6546	-0.2069443	-2.915866	-11.23153	
15:01:27	-6.728611	38.94614	126.975	-0.7261132	6.446122	0.06	3	99	0	6546	0.06293295	-2.87383	-11.19326	
15:01:27	-6.728611	38.94614	126.92	-0.7245985	6.129257	0.29	3	99	0	6546	-0.2229306	-2.69353	-11.13355	
15:01:27	-6.72861	38.94614	126.857	-0.7352962	5.589075	0.11	3	99	0	6546	0.07086042	-2.888996	-11.14993	
15:01:28	-6.72861	38.94614	126.844	-0.7217796	5.751522	0.17	3	99	0	6546	-0.09891444	-2.724113	-11.14332	
15:01:28	-6.72861	38.94614	126.77	-0.6944777	6.083632	0.41	3	99	0	6546	-0.0663316	-2.896345	-11.11433	
15:01:28	-6.72861	38.94614	126.739	-0.682482	6.330816	0.22	3	99	0	6546	-0.6712824	-2.911374	-11.12615	
15:01:28	-6.72861	38.94614	126.742	-0.6801008	5.745473	0.07	3	99	0	6546	-0.1695299	-2.913969	-11.10415	
15:01:28	-6.72861	38.94614	126.716	-0.6697229	5.587316	0.14	3	99	0	6546	-0.1728071	-2.809798	-11.06991	
15:01:29	-6.728609	38.94614	126.679	-0.6521066	6.160638	0.04	3	99	0	6546	-0.2212787	-2.878103	-11.04462	
15:01:29	-6.728609	38.94614	126.709	-0.6546237	5.539056	0.04	3	99	0	6548	-0.2358153	-2.768045	-11.03575	
15:01:29	-6.728608	38.94614	126.729	-0.680863	4.217536	0.35	3	99	0	6546	-0.2340813	-2.677118	-10.94912	
15:01:29	-6.728608	38.94614	126.723	-0.7041709	2.716719	0.09	3	99	0	6546	0.200397	-3.191103	-11.00025	
15:01:30	-6.728608	38.94614	126.78	-0.7205435	1.636586	0.21	3	99	0	6547	-0.07612476	-2.873109	-11.0198	
15:01:30	-6.728608	38.94614	126.762	-0.7356705	0.5695512	0.09	3	99	0	6546	0.2511206	-2.89269	-11.00393	
15:01:30	-6.728608	38.94614	126.79	-0.7116285	1.869671	0.09	3	99	0	6546	-0.1185392	-2.909285	-10.95441	
15:01:30	-6.728608	38.94614	126.759	-0.6895187	3.312446	0.09	3	99	0	6546	-0.1036215	-3.006274	-10.97448	
15:01:30	-6.728607	38.94614	126.72	-0.6672984	4.004738	0.22	3	99	0	6546	-0.0009024922	-3.052894	-11.03165	
15:01:30	-6.728606	38.94614	126.729	-0.6476616	5.018345	0.14	3	99	0	6547	-0.04644197	-3.199845	-11.06224	
15:01:30	-6.728606	38.94614	126.732	-0.6130289	5.642716	0.04	3	99	0	6546	0.04704398	-3.091118	-11.11121	
15:01:31	-6.728606	38.94614	126.778	-0.5824713	7.233725	0.09	3	99	0	6546	-0.0839448	-2.932652	-11.07692	
15:01:31	-6.728606	38.94614	126.763	-0.5851797	6.263001	0.14	3	99	0	6546	0.07291238	-2.976892	-11.0957	
15:01:31	-6.728606	38.94614	126.729	-0.5894114	5.231402	0.19	3	99	0	6546	0.01682025	-3.052053	-11.04995	
15:01:31	-6.728606	38.94614	126.678	-0.5935201	3.980572	0.09	3	99	0	6546	-0.2641672	-2.931913	-11.04273	
15:01:31	-6.728606	38.94614	126.638	-0.5980403	3.638602	0.08	3	99	0	6546	-0.007270746	-3.090749	-11.03022	
15:01:32	-6.728606	38.94614	126.728	-0.633377	1.525212	0.06	3	99	0	6546	-0.03618817	-2.926409	-11.06837	
15:01:32	-6.728606	38.94614	126.694	-0.6622602	0.2519647	0.19	3	99	0	6547	-0.1228838	-3.014118	-11.05626	
15:01:32	-6.728606	38.94614	126.776	-0.6771517	-0.3905984	0.06	3	99	0	6546	-0.2278126	-2.943923	-11.07283	
15:01:32	-6.728606	38.94614	126.794	-0.6882408	-1.433068	0.19	3	99	0	6546	-0.01939219	-2.932952	-11.10673	
15:01:32	-6.728606	38.94614	126.783	-0.6689709	-0.08422448	0.19	3	99	0	6546	-0.1890884	-3.071566	-11.10427	
15:01:32	-6.728606	38.94614	126.78	-0.6509443	0.952049	0.04	3	99	0	6546	0.1834996	-3.126592	-11.19209	
15:01:33	-6.728606	38.94614	126.779	-0.6312694	1.683307	0.25	3	99	0	6546	0.06554885	-2.945674	-11.20536	
15:01:33	-6.728606	38.94614	126.785	-0.6153147	2.479065	0.13	3	99	0	6546	-0.2125058	-2.971808	-11.22247	
15:01:33	-6.728606	38.94614	126.841	-0.5727471	3.841522	0.09	3	99	0	6546	0.02221067	-3.103129	-11.16656	
15:01:33	-6.728606	38.94614	126.843	-0.5351411	5.713726	0.03	3	99	0	6546	0.1790363	-2.899514	-11.16129	
15:01:33	-6.728606	38.94614	126.78	-0.5664128	3.468216	0.06	3	99	0	6546	0.009092702	-2.946362	-11.13979	
15:01:34	-6.728606	38.94614	126.718	-0.6022114	1.137135	0.07	3	99	0	6546	-0.01065057	-2.925869	-11.17838	
15:01:34	-6.728606	38.94614	126.719	-0.6884193	-3.644929	0.14	3	99	0	6546	0.01703381	-2.811632	-11.14689	
15:01:34	-6.728606	38.94614	126.703	-0.7656468	-7.504821	0.11	3	99	0	6546	-0.004440236	-3.019118	-11.13048	
15:01:34	-6.728606	38.94614	126.714	-0.8214419	-9.409254	0.11	3	99	0	6546	0.06466863	-2.779161	-11.15156	
15:01:35	-6.728606	38.94614	126.629	-0.8659468	-10.69469	0.09	3	99	0	6546	-0.07949863	-2.887325	-11.13234	
15:01:35	-6.728606	38.94614	126.606	-0.8796817	-10.58651	0.09	3	99	0	6546	0.1042223	-2.878821	-11.15377	
15:01:35	-6.728606	38.94614	126.539	-0.8556218	-8.544802	0.09	3	99	0	6546	-0.1229283	-2.853583	-11.1372	
15:01:35	-6.728606	38.94614	126.462	-0.8296536	-7.186898	0.22	3	99	0	6546	-0.1545916	-2.870061	-11.15603	
15:01:35	-6.728606	38.94614	126.425	-0.8055634	-4.891002	0.09	3	99	0	6546	-0.2376754	-2.83287	-11.09849	
15:01:35	-6.728606	38.94614	126.396	-0.7699395	-2.510101	0.14	3	99	0	6546	-0.01668263	-2.676323	-11.19388	
15:01:36	-6.728606	38.94614	126.317	-0.7295796	-0.2969994	0.07	3	99	0	6546	0.006047391	-2.62719	-11.21076	
15:01:36	-6.728606	38.94614	126.29	-0.6856716	1.658575	0.07	3	99	0	6546	0.00740197	-2.712082	-11.17543	
15:01:36	-6.728606	38.94614	126.257	-0.6459557	3.354543	0.14	3	99	0	6546	-0.09793367	-2.811241	-11.11753	
15:01:36	-6.728606	38.94614	126.251	-0.6404206	2.982836	0.12	3	99	0	6546	-0.1906866	-2.802967	-11.07666	
15:01:37	-6.728606	38.94614	126.263	-0.6857423	-0.006318674	0.26	3	99	0	6546	0.0122955	-2.883476	-11.03601	
15:01:37	-6.728606	38.94614	126.317	-0.7361287	-2.011075	0.09	3	99	0	6547	0.1120234	-2.904365	-11.09913	
15:01:37	-6.728606	38.94614	126.309	-0.7924886	-4.199828	0.17	3	99	0	6546	-0.1446629	-2.842847	-10.99485	
15:01:37	-6.728606	38.94614	126.282	-0.8454798	-6.312828	0.09	3	99	0	6546	-0.007525437	-2.872452	-11.03232	
15:01:37	-6.728606	38.94614	126.241	-0.8864844	-7.219982	0.11	3	99	0	6546	-0.115799	-2.822086	-11.04761	
15:01:38	-6.728606	38.94614	126.186	-0.9060248	-7.680908	0.12	3	99	0	6546	-0.2276022	-2.730046	-11.09591	
15:01:38	-6.728606	38.94614	126.133	-0.912407	-6.960863	0.04	3	99	0	6546	0.01311839	-2.700334	-11.06282	
15:01:38	-6.728606	38.94614	126.125	-0.9091792	-5.959488	0.14	3	99	0	6546	-0.2570396	-2.705218	-11.0551	
15:01:38	-6.728606	38.94614	126.129	-0.9013921	-4.897159	0.32	3	99	0	6547	-0.2713318	-2.577849	-11.04658	
15:01:38	-6.728606	38.94614	126.11	-0.8897697	-4.059511	0.06	3	99	0	6546	-0.5192398	-2.715822	-10.99662	
15:01:38	-6.728606	38.94614	126.071	-0.8744657	-3.139463	0.04	3	99	0	6548	-0.2914899	-2.740159	-10.98438	
15:01:39	-6.728606	38.94614	126.011	-0.8463385	-1.144391	0.19	3	99	0	6546	-0.2402319	-2.703157	-10.9403	
15:01:39	-6.728606	38.94614	125.952	-0.80946	0.6685762	0.16	3	99	0	6546	-0.4929143	-2.616382	-10.95645	
15:01:39	-6.728606	38.94614	125.858	-0.7770343	1.909089	0.11	3	99	0	6546	-0.5402493	-2.781704	-10.98819	
15:01:39	-6.728606	38.94614	125.789	-0.7372094	3.949561	0.02	3	99	0	6546	-0.4372373	-2.801413	-11.01497	
15:01:40	-6.728606	38.94614	125.696	-0.7012569	5.844575	0.22	3	99	0	6546	-0.5546141	-2.774639	-11.00348	
15:01:40	-6.728606	38.94614	125.671	-0.7162121	3.483625	0.13	3	99	0	6546	0.06635057	-2.672598	-10.92277	
15:01:40	-6.728606	38.94614	125.622	-0.7304748	2.423609	0.11	3	99	0	6546	-0.1676486	-2.849198	-10.96936	
15:01:40	-6.728606	38.94614	125.588	-0.7446857	1.280346	0.06	3	99	0	6547	-0.2026417	-2.885807	-10.96675	
15:01:40	-6.728606	38.94614	125.569	-0.7559629	0.2054087	0.09	3	99	0	6546	-0.2583767	-2.743697	-10.97068	
15:01:41	-6.728606	38.94614	125.559	-0.7595201	0.01094189	0.02	3	99	0	6546	-0.3262594	-2.800299	-10.96443	
15:01:41	-6.728606	38.94614	125.6	-0.7623364	0.2272461	0.26	3	99	0	6546	-0.2848143	-2.76331	-10.97871	
15:01:41	-6.728606	38.94614	125.606	-0.7513692	0.8020995	0.14	3	99	0	6546	-0.4721551	-2.75799	-10.9262	
15:01:41	-6.728606	38.94614	125.602	-0.7415019	0.4389466	0.22	3	99	0	6546	-0.3351866	-2.848028	-10.94107	
15:01:41	-6.728606	38.94614	125.585	-0.7562165	-0.5649492	0.19	3	99	0	6546	-0.3777234	-2.551628	-10.91374	
15:01:42	-6.728606	38.94614	125.586	-0.7694491	-1.059303	0.33	3	99	0	6547	-0.1277539	-2.590361	-10.909	
15:01:42	-6.728606	38.94614	125.531	-0.8000396	-1.822419	0.14	3	99	0	6546	0.09467098	-2.764359	-10.93666	
15:01:42	-6.728606	38.94614	125.515	-0.824591	-3.096527	0.13	3	99	0	6546	-0.2652646	-2.707324	-10.8868	
15:01:42	-6.728606	38.94614	125.473	-0.8270643	-2.464446	0.08	3	99	0	6546	-0.0995615	-2.780707	-10.89121	
15:01:42	-6.728606	38.94614	125.48	-0.8275257	-1.852687	0.11	3	99	0	6546	-0.04153747	-2.831147	-10.87357	
15:01:43	-6.728606	38.94614	125.493	-0.8580158	-3.199199	0.14	3	99	0	6546	-0.1213374	-2.726247	-10.86513	
15:01:43	-6.728606	38.94614	125.465	-0.88577	-4.69033	0.14	3	99	0	6546	-0.1365147	-2.757749	-10.84982	
15:01:43	-6.728607	38.94614	125.5	-0.8503785	-2.908855	0.13	3	99	0	6546	-0.02001717	-2.732236	-10.89689	
15:01:43	-6.728607	38.94614	125.516	-0.8210614	-1.13681	0.09	3	99	0	6546	-0.03988685	-2.891596	-10.86338	
15:01:44	-6.728607	38.94614	125.488	-0.8581779	-3.466374	0.08	3	99	0	6546	-0.08507296	-2.847767	-10.86229	
15:01:44	-6.728607	38.94614	125.464	-0.8917118	-4.408192	0.26	3	99	0	6546	-0.05728612	-2.788329	-10.77568	
15:01:44	-6.728607	38.94614	125.477	-0.9306287	-6.105898	0.14	3	99	0	6546	0.06934945	-2.755314	-10.86493	
15:01:44	-6.728607	38.94614	125.499	-0.9639676	-6.901773	0.12	3	99	0	6546	-0.1643973	-2.7143	-10.79796	
15:01:45	-6.728607	38.94614	125.526	-0.9814554	-7.27532	0.09	3	99	0	6546	0.0179812	-2.832117	-10.80817	
15:01:45	-6.728607	38.94614	125.521	-0.9857722	-6.658913	0.04	3	99	0	6546	-0.06459907	-2.834302	-10.78259	
15:01:45	-6.728607	38.94614	125.549	-0.9752793	-5.574346	0.14	3	99	0	6546	-0.0942748	-2.798099	-10.79888	
15:01:45	-6.728607	38.94614	125.532	-0.9452916	-3.600153	0.13	3	99	0	6546	0.06060391	-2.829991	-10.76315	
15:01:45	-6.728607	38.94614	125.59	-0.9037376	-1.096258	0.14	3	99	0	6546	-0.05126797	-2.787628	-10.72822	
15:01:45	-6.728607	38.94614	125.613	-0.8583061	0.9635003	0.26	3	99	0	6546	-0.1052195	-2.702877	-10.76475	
15:01:46	-6.728607	38.94614	125.635	-0.8511896	1.220378	0.17	3	99	0	6546	0.03754406	-2.89079	-10.85779	
15:01:46	-6.728606	38.94614	125.689	-0.8784183	0.2337654	0.08	3	99	0	6546	-0.1767597	-2.855269	-10.88643	
15:01:46	-6.728606	38.94614	125.791	-0.8752861	0.5622656	0.11	3	99	0	6546	-0.04547052	-2.834717	-10.82233	
15:01:46	-6.728606	38.94614	125.79	-0.848046	2.124258	0.14	3	99	0	6546	0.005442389	-2.74673	-10.86071	
15:01:46	-6.728607	38.94614	125.771	-0.838333	2.266066	0.14	3	99	0	6546	0.07050709	-2.626664	-10.89155	
15:01:47	-6.728607	38.94614	125.833	-0.8543929	2.164259	0.22	3	99	0	6546	-0.03730644	-2.682245	-10.89959	
15:01:47	-6.728607	38.94614	125.827	-0.8673024	0.9609109	0.07	3	99	0	6546	-0.3249919	-2.755997	-10.80263	
15:01:47	-6.728607	38.94614	125.775	-0.8776809	0.5929158	0.09	3	99	0	6546	-0.1410263	-2.740318	-10.88406	
15:01:47	-6.728607	38.94614	125.759	-0.8794472	-0.3373105	0.04	3	99	0	6546	-0.1106404	-2.703062	-10.91835	
15:01:47	-6.728608	38.94614	125.698	-0.8717878	-0.1677807	0.17	3	99	0	6546	-0.1639145	-2.759266	-10.9826	
15:01:48	-6.728608	38.94614	125.623	-0.8598045	0.3386596	0.11	3	99	0	6546	-0.2513049	-2.8671	-10.97527	
15:01:48	-6.728607	38.94614	125.551	-0.8438106	1.151571	0.07	3	99	0	6546	-0.1769246	-2.917349	-10.92716	
15:01:48	-6.728607	38.94614	125.536	-0.8231392	2.254209	0.22	3	99	0	6546	-0.0662367	-2.908105	-10.92603	
15:01:48	-6.728607	38.94614	125.522	-0.7956522	3.476951	0.13	3	99	0	6546	0.01954046	-2.877959	-10.87785	
15:01:48	-6.728607	38.94614	125.487	-0.7742562	4.747917	0.11	3	99	0	6546	-0.08497669	-2.815836	-10.88352	
15:01:49	-6.728607	38.94614	125.504	-0.7607158	5.273126	0.18	3	99	0	6546	0.07791612	-2.829783	-10.89043	
15:01:49	-6.728607	38.94614	125.484	-0.7396362	6.144198	0.07	3	99	0	6546	0.03293061	-2.872667	-10.96365	
15:01:49	-6.728607	38.94614	125.501	-0.7041253	7.686995	0.04	3	99	0	6546	-0.06402946	-2.883319	-10.96859	
15:01:49	-6.728606	38.94614	125.532	-0.6773487	7.574003	0.11	3	99	0	6546	-0.09162248	-2.864939	-10.96714	
15:01:49	-6.728606	38.94614	125.56	-0.6867138	6.455442	0.06	3	99	0	6546	-0.1160541	-2.881031	-10.94814	
15:01:50	-6.728606	38.94614	125.542	-0.696066	5.661042	0.13	3	99	0	6546	-0.1081853	-2.817653	-10.90377	
15:01:50	-6.728606	38.94614	125.581	-0.7478609	2.347988	0.22	3	99	0	6546	-0.1455951	-2.907175	-10.90082	
15:01:50	-6.728606	38.94614	125.542	-0.7909041	-0.04985772	0.25	3	99	0	6546	-0.1586658	-2.939872	-10.88264	
15:01:50	-6.728606	38.94614	125.485	-0.8121406	-0.4379512	0.08	3	99	0	6546	0.08450071	-2.87185	-10.92527	
15:01:50	-6.728606	38.94614	125.44	-0.8308517	-1.595379	0.11	3	99	0	6546	-0.009636291	-2.752121	-10.95204	
15:01:50	-6.728606	38.94614	125.434	-0.840268	-2.405168	0.07	3	99	0	6546	0.004678104	-2.794059	-10.99538	
15:01:51	-6.728606	38.94614	125.483	-0.8494051	-3.155748	0.32	3	99	0	6546	0.08668493	-2.818461	-10.97889	
15:01:51	-6.728605	38.94615	125.458	-0.855082	-3.472246	0.19	3	99	0	6546	0.1114853	-2.926295	-11.04019	
15:01:51	-6.728605	38.94615	125.402	-0.8598008	-3.412878	0.12	3	99	0	6546	-0.08926404	-2.889639	-10.98304	
15:01:51	-6.728605	38.94615	125.396	-0.9046413	-5.452872	0.22	3	99	0	6546	-0.2550467	-2.76499	-11.04468	
15:01:52	-6.728605	38.94614	125.399	-0.9443298	-6.95059	0.17	3	99	0	6546	-0.3733481	-2.695292	-10.97241	
15:01:52	-6.728605	38.94614	125.425	-0.999806	-9.111201	0.19	3	99	0	6546	-0.1887106	-2.69716	-10.91419	
15:01:52	-6.728605	38.94614	125.402	-1.044237	-10.90719	0.09	3	99	0	6546	-0.1091272	-2.654662	-10.91097	
15:01:52	-6.728605	38.94614	125.369	-1.084826	-11.32421	0.14	3	99	0	6546	-0.3259676	-2.725388	-10.8909	
15:01:53	-6.728605	38.94614	125.328	-1.118934	-12.27191	0.14	3	99	0	6546	-0.3125279	-2.673055	-10.86954	
15:01:53	-6.728605	38.94614	125.333	-1.124622	-11.3075	0.12	3	99	0	6546	-0.1868953	-2.697537	-10.82868	
15:01:53	-6.728605	38.94615	125.418	-1.126638	-10.02464	0.53	3	99	0	6546	0.07484888	-2.927919	-10.80088	
15:01:53	-6.728604	38.94615	125.46	-1.141552	-10.14678	0.58	3	99	0	6546	0.3684684	-3.037048	-10.84318	
15:01:53	-6.728603	38.94615	125.535	-1.152196	-9.700413	0.24	3	99	0	6546	0.2424822	-2.932442	-10.84754	
15:01:54	-6.728603	38.94615	125.572	-1.176612	-10.25012	0.22	3	99	0	6546	0.04504969	-2.832032	-10.90707	
15:01:54	-6.728603	38.94615	125.577	-1.197105	-10.37766	0.16	3	99	0	6546	-0.1185687	-2.735336	-10.90331	
15:01:54	-6.728603	38.94615	125.56	-1.198128	-9.566243	0.09	3	99	0	6546	-0.2716464	-2.682428	-10.84325	
15:01:54	-6.728603	38.94615	125.525	-1.198254	-9.291578	0.16	3	99	0	6546	-0.1487546	-2.740902	-10.80854	
15:01:54	-6.728603	38.94615	125.518	-1.193151	-8.266902	0.07	3	99	0	6546	-0.1373682	-2.83715	-10.80364	
15:01:55	-6.728603	38.94615	125.498	-1.181267	-7.067504	0.03	3	99	0	6546	-0.1690152	-2.755028	-10.88417	
15:01:55	-6.728603	38.94615	125.517	-1.156497	-5.214534	0.11	3	99	0	6546	-0.1443027	-2.778793	-10.85407	
15:01:55	-6.728602	38.94615	125.506	-1.114628	-2.657941	0.09	3	99	0	6546	-0.08284526	-2.791451	-10.88993	
15:01:55	-6.728603	38.94615	125.512	-1.077041	-0.09774961	0.07	3	99	0	6546	-0.06220661	-2.688614	-10.92364	
15:01:55	-6.728603	38.94615	125.484	-1.051298	1.222372	0.09	3	99	0	6546	-0.05275657	-2.71721	-10.89938	
15:01:56	-6.728602	38.94615	125.537	-1.059505	1.342408	0.06	3	99	0	6546	-0.02389989	-2.771353	-10.89717	
15:01:56	-6.728602	38.94615	125.532	-1.093736	-0.344863	0.17	3	99	0	6546	0.02326491	-2.8232	-10.94356	
15:01:56	-6.728602	38.94615	125.655	-1.115366	-1.09803	0.07	3	99	0	6546	0.02394283	-2.859158	-10.9296	
15:01:56	-6.728602	38.94615	125.644	-1.125488	-1.662838	0.21	3	99	0	6546	0.03982519	-2.820836	-10.90809	
15:01:56	-6.728601	38.94615	125.622	-1.129635	-1.808072	0.14	3	99	0	6546	0.09351926	-2.951249	-10.97923	
15:01:57	-6.728601	38.94615	125.596	-1.12771	-2.16449	0.07	3	99	0	6546	-0.06318209	-2.954677	-10.96847	
15:01:57	-6.728601	38.94615	125.588	-1.125699	-1.790783	0.08	3	99	0	6546	-0.107851	-2.866512	-10.95933	
15:01:57	-6.728601	38.94615	125.572	-1.122043	-0.8540427	0.13	3	99	0	6547	-0.1175773	-2.898895	-10.93518	
15:01:57	-6.728601	38.94615	125.535	-1.11852	-0.5541655	0.03	3	99	0	6546	-0.09009629	-2.868089	-10.93677	
15:01:57	-6.728601	38.94615	125.477	-1.115692	-0.1309315	0.01	3	99	0	6546	-0.1489131	-2.766514	-10.94417	
15:01:58	-6.728601	38.94615	125.559	-1.142407	-1.427146	0.16	3	99	0	6546	-0.1698975	-2.848175	-10.89645	
15:01:58	-6.728601	38.94616	125.558	-1.194162	-4.18856	0.22	3	99	0	6546	-0.06926039	-2.901899	-10.89957	
15:01:58	-6.728601	38.94616	125.547	-1.230113	-6.294738	0.25	3	99	0	6546	0.0676262	-2.863357	-10.8916	
15:01:58	-6.728601	38.94616	125.457	-1.257654	-7.239049	0.12	3	99	0	6546	-0.05469639	-2.75925	-10.85909	
15:01:58	-6.728601	38.94616	125.399	-1.269084	-7.730741	0.13	3	99	0	6546	-0.2652371	-2.674525	-10.91029	
15:01:59	-6.728601	38.94616	125.409	-1.262688	-6.956792	0.14	3	99	0	6546	-0.2842792	-2.704474	-10.96575	
15:01:59	-6.728601	38.94616	125.426	-1.24572	-5.260546	0.09	3	99	0	6546	-0.2825599	-2.731322	-10.96711	
15:01:59	-6.728601	38.94616	125.416	-1.212544	-2.729636	0.38	3	99	0	6546	-0.0880241	-2.900096	-11.00378	
15:01:59	-6.728601	38.94616	125.366	-1.184201	-0.9123024	0.09	3	99	0	6545	-0.02778815	-2.879249	-10.94935	
15:02:00	-6.728601	38.94616	125.367	-1.150258	0.9960989	0.02	3	99	0	6546	-0.2216805	-2.809979	-10.96549	
15:02:00	-6.728601	38.94616	125.376	-1.12014	2.405892	0.17	3	99	0	6546	-0.2166344	-2.951962	-10.89066	
15:02:00	-6.7286	38.94616	125.376	-1.15063	0.5504823	0.26	3	99	0	6546	-0.17058	-3.084587	-10.89913	
15:02:00	-6.7286	38.94616	125.358	-1.17636	-1.062822	0.18	3	99	0	6546	-0.1097126	-2.990429	-10.92437	
15:02:00	-6.7286	38.94616	125.323	-1.223171	-3.636881	0.16	3	99	0	6546	-0.1966391	-3.030935	-10.88734	
15:02:00	-6.728599	38.94616	125.287	-1.265559	-5.752625	0.09	3	99	0	6546	-0.2691124	-3.092505	-10.85429	
15:02:01	-6.728599	38.94616	125.245	-1.383594	-11.28586	0.06	3	99	0	6546	-0.2593994	-2.999372	-10.89306	
15:02:01	-6.7286	38.94616	125.232	-1.489325	-15.75068	0.19	3	99	0	6546	-0.3621325	-2.901257	-10.81969	
15:02:01	-6.7286	38.94616	125.225	-1.522026	-16.25861	0.04	3	99	0	6546	-0.4480615	-2.928357	-10.84599	
15:02:01	-6.728599	38.94616	125.215	-1.545686	-15.76977	0.17	3	99	0	6546	-0.4568122	-3.10116	-10.85314	
15:02:02	-6.728599	38.94616	125.225	-1.600021	-17.30095	0.04	3	99	0	6546	-0.4409446	-3.11385	-10.81318	
15:02:02	-6.728599	38.94616	125.229	-1.623912	-14.43671	0.04	3	99	0	6546	-0.3514877	-2.941462	-10.66251	
15:02:02	-6.728599	38.94616	125.211	-1.601251	-11.81578	0.35	3	99	0	6546	-0.6064916	-2.78444	-10.67144	
15:02:02	-6.728599	38.94616	125.173	-1.588867	-9.328732	0.09	3	99	0	6546	-0.4833938	-2.862616	-10.60897	
15:02:03	-6.728599	38.94616	125.125	-1.574673	-7.814367	0.34	3	99	0	6546	-0.4387442	-2.783627	-10.56141	
15:02:03	-6.728599	38.94616	125.132	-1.573493	-6.902032	0.04	3	99	0	6546	-0.494481	-2.809857	-10.53942	
15:02:03	-6.728599	38.94616	125.094	-1.570618	-5.546874	0.13	3	99	0	6546	-0.2977234	-2.932642	-10.57754	
15:02:03	-6.728599	38.94616	125.108	-1.517116	-2.331208	0.17	3	99	0	6546	-0.2568205	-3.032586	-10.59466	
15:02:03	-6.728599	38.94616	125.051	-1.47369	-0.4782338	0.07	3	99	0	6546	-0.3463843	-2.920592	-10.54101	
15:02:03	-6.728599	38.94616	124.994	-1.451454	0.3382824	0.12	3	99	0	6546	-0.3280292	-2.858683	-10.59474	
15:02:04	-6.728599	38.94616	124.992	-1.431718	1.05424	0.24	3	99	0	6546	-0.2891363	-2.991202	-10.57975	
15:02:04	-6.728599	38.94616	124.961	-1.402241	2.042931	0.17	3	99	0	6546	-0.4887171	-2.892069	-10.57191	
15:02:04	-6.728599	38.94616	124.883	-1.376637	3.154945	0.11	3	99	0	6546	-0.3818438	-2.790175	-10.51287	
15:02:04	-6.728599	38.94616	124.83	-1.366549	2.99084	0.35	3	99	0	6546	-0.06319871	-2.810514	-10.54115	
15:02:04	-6.728599	38.94616	124.756	-1.371012	2.151838	0.08	3	99	0	6546	-0.1861429	-2.684114	-10.49783	
15:02:05	-6.7286	38.94616	124.732	-1.380372	1.207982	0.07	3	99	0	6546	-0.3447819	-2.652144	-10.57182	
15:02:05	-6.728599	38.94616	124.82	-1.391386	0.5095855	0.14	3	99	0	6546	-0.4622006	-2.751032	-10.51945	
15:02:05	-6.7286	38.94616	124.786	-1.403404	-0.4707479	0.09	3	99	0	6546	-0.4599942	-2.652361	-10.55715	
15:02:05	-6.7286	38.94616	124.793	-1.412932	-0.8936768	0.09	3	99	0	6546	-0.460593	-2.660508	-10.53735	
15:02:06	-6.728599	38.94616	124.77	-1.393502	0.1949621	0.19	3	99	0	6546	-0.3021815	-2.744	-10.49689	
