Date	Latitude(deg) 	Longitude(deg)	hamsl(m)	hafl(m)	climbrate(cm/s)	GroundSpeed(m/s)	Airspeed(m/s)	Mav_Link(%)	Rssi_Link(%)	Throttle	Roll(deg)	Pitch(deg)	Yaw(deg)
12:02:39	0	0	0	0	0	0	0	100	0	0	0	0	0	
12:02:39	0	0	0	0.145219	-0.5310856	0	3	100	0	50	1.043551	-1.371007	67.41292	
12:02:40	0	0	0	0.1418957	-3.080225	0	3	100	0	50	1.047178	-1.348189	67.45686	
12:02:40	0	0	0	0.02530075	-11.7872	0	3	100	0	50	1.062324	-1.367752	67.5034	
12:02:40	0	0	0	-0.08429503	-18.85016	0	3	100	0	50	1.057868	-1.390494	67.42243	
12:02:40	0	0	0	-0.2192279	-27.02811	0	3	100	0	50	1.057635	-1.400808	67.3838	
12:02:40	0	0	0	-0.3414382	-33.18327	0	3	100	0	50	1.05695	-1.409393	67.40729	
12:02:41	0	0	0	-0.3005651	-29.77756	0	3	100	0	50	1.050997	-1.43781	67.42989	
12:02:41	0	0	0	-0.2614683	-27.57913	0	3	100	0	50	1.059078	-1.442773	67.42094	
12:02:41	0	0	0	-0.1426276	-20.82648	0	3	100	0	50	1.056606	-1.468451	67.47067	
12:02:41	0	0	0	-0.04423964	-16.14145	0	3	100	0	50	1.044472	-1.473028	67.52636	
12:02:41	0	0	0	-0.02457195	-16.02595	0	3	100	0	50	1.042811	-1.48501	67.4473	
12:02:42	0	0	0	-0.00843352	-15.862	0	3	100	0	50	1.02744	-1.505309	67.49841	
12:02:42	0	0	0	0.03840628	-14.09663	0	3	100	0	50	1.024763	-1.518919	67.50572	
12:02:42	0	0	0	0.08328709	-12.79023	0	3	100	0	50	1.044417	-1.52115	67.50732	
12:02:42	0	0	0	0.09985421	-13.05364	0	3	100	0	50	1.030385	-1.548172	67.56863	
12:02:42	0	0	0	0.1125528	-13.63874	0	3	100	0	50	1.026155	-1.553122	67.63368	
12:02:43	0	0	0	0.07435594	-16.40103	0	3	100	0	50	1.024745	-1.538855	67.69528	
12:02:43	0	0	0	0.03814744	-18.5389	0	3	100	0	50	1.040748	-1.560113	67.62484	
12:02:43	0	0	0	0.05547997	-17.43338	0	3	100	0	50	1.049261	-1.577299	67.61279	
12:02:43	0	0	0	0.07330231	-16.77999	0	3	100	0	50	1.049344	-1.592431	67.61871	
12:02:44	0	0	0	0.05610714	-17.96213	0	3	100	0	50	1.054857	-1.568687	67.67514	
12:02:44	0	0	0	-0.005913081	-21.19377	0	3	100	0	50	1.055626	-1.54591	67.71219	
12:02:44	0	0	0	-0.03727015	-22.31535	0	3	100	0	50	1.054609	-1.532132	67.71923	
12:02:44	0	0	0	-0.02941073	-21.81395	0	3	100	0	50	1.056664	-1.52581	67.7522	
12:02:44	0	0	0	-0.02324339	-21.49354	0	3	100	0	50	1.061622	-1.522793	67.69112	
12:02:44	0	0	0	-0.01781516	-21.26431	0	3	100	0	50	1.060001	-1.534178	67.58257	
12:02:45	0	0	0	0.008444965	-19.99577	0	3	100	0	50	1.06659	-1.539931	67.61761	
12:02:45	0	0	0	0.04613207	-17.73219	0	3	100	0	50	1.068632	-1.555431	67.61583	
12:02:45	0	0	0	0.06680415	-16.79864	0	3	100	0	50	1.07236	-1.551112	67.58878	
12:02:45	0	0	0	0.073327	-16.69029	0	3	100	0	50	1.073505	-1.567452	67.61474	
12:02:45	0	0	0	0.04271311	-18.47368	0	3	100	0	50	1.072045	-1.550655	67.61457	
12:02:46	0	0	0	-0.03874081	-22.89863	0	3	100	0	50	1.071521	-1.555041	67.51006	
12:02:46	0	0	0	-0.1156463	-26.65541	0	3	100	0	50	1.080467	-1.549865	67.37658	
12:02:46	0	0	0	-0.1729858	-28.84289	0	3	100	0	50	1.086664	-1.550345	67.32936	
12:02:46	0	0	0	-0.208193	-29.71055	0	3	100	0	50	1.092243	-1.531057	67.33529	
12:02:46	0	0	0	-0.2232511	-29.31935	0	3	100	0	50	1.089691	-1.531695	67.34431	
12:02:47	0	0	0	-0.2132839	-27.66962	0	3	100	0	50	1.082692	-1.518736	67.39374	
12:02:47	0	0	0	-0.184892	-25.49498	0	3	100	0	50	1.08081	-1.504952	67.44576	
12:02:47	0	0	0	-0.161263	-23.22113	0	3	100	0	50	1.076761	-1.516033	67.44119	
12:02:47	0	0	0	-0.1482338	-21.44344	0	3	100	0	50	1.073994	-1.514148	67.36212	
12:02:47	0	0	0	-0.1295779	-20.28634	0	3	100	0	50	1.085225	-1.478699	67.29235	
12:02:48	0	0	0	-0.1038326	-18.30663	0	3	100	0	50	1.082283	-1.474769	67.33694	
12:02:48	0	0	0	-0.07500468	-16.724	0	3	100	0	50	1.077999	-1.477693	67.34153	
12:02:48	0	0	0	-0.04942781	-15.43125	0	3	100	0	50	1.07034	-1.466206	67.40319	
12:02:48	0	0	0	-0.02634368	-14.62417	0	3	100	0	50	1.061681	-1.472361	67.46692	
12:02:48	0	0	0	-0.07613726	-17.83648	0	3	100	0	50	1.064672	-1.479586	67.44315	
12:02:49	0	0	0	-0.131849	-21.11345	0	3	100	0	50	1.060897	-1.483188	67.40394	
12:02:49	0	0	0	-0.1622406	-22.58088	0	3	100	0	50	1.010982	-1.515191	67.44016	
12:02:49	0	0	0	-0.1923935	-23.47697	0	3	100	0	50	-4.286049	-1.87956	67.05219	
12:02:49	0	0	0	-0.1920117	-23.23488	0	3	100	0	50	0.5029297	-1.549685	67.06982	
12:02:49	0	0	0	-0.1930223	-22.75273	0	3	100	0	50	0.7090005	-1.499861	67.15707	
12:02:50	0	0	0	-0.2266998	-23.85631	0	3	100	0	50	1.304466	-1.481775	67.18287	
12:02:50	0	0	0	-0.2598154	-25.15593	0	3	100	0	50	1.08517	-1.487307	67.14864	
12:02:50	0	0	0	-0.2971424	-26.7058	0	3	100	0	50	0.9652725	-1.504238	67.07183	
12:02:50	0	0	0	-0.3298647	-27.81844	0	3	100	0	50	1.01984	-1.525799	67.0987	
12:02:50	0	0	0	-0.3575064	-27.92875	0	3	100	0	50	0.9894053	-1.532083	67.13515	
12:02:51	0	0	0	-0.3798696	-27.90784	0	3	100	0	50	1.008436	-1.540381	67.12562	
12:02:51	0	0	0	-0.3702306	-26.08335	0	3	100	0	50	0.9994297	-1.54427	67.09726	
12:02:51	0	0	0	-0.3579974	-23.89525	0	3	100	0	50	0.9938822	-1.550059	67.04319	
12:02:51	0	0	0	-0.3876906	-24.7956	0	3	100	0	50	1.007527	-1.554122	66.92161	
12:02:51	0	0	0	-0.4130662	-25.30931	0	3	100	0	50	1.01255	-1.539662	66.85161	
12:02:52	0	0	0	-0.4046054	-23.96042	0	3	100	0	50	1.011265	-1.547902	66.86176	
12:02:52	0	0	0	-0.3948469	-22.44922	0	3	100	0	50	1.005268	-1.536538	66.89304	
12:02:52	0	0	0	-0.3949896	-20.75858	0	3	100	0	50	1.001588	-1.528264	66.93244	
12:02:52	0	0	0	-0.3929754	-20.07169	0	3	100	0	50	0.9881196	-1.514154	66.98624	
12:02:52	0	0	0	-0.4156311	-20.38511	0	3	100	0	50	0.9824211	-1.551418	66.96104	
12:02:53	0	0	0	-0.4341701	-20.33613	0	3	100	0	50	0.9830126	-1.549916	66.88437	
12:02:53	0	0	0	-0.430941	-19.08699	0	3	100	0	50	0.9806741	-1.556205	66.84306	
12:02:53	0	0	0	-0.4249184	-17.47125	0	3	100	0	50	0.9814373	-1.542775	66.8821	
12:02:53	0	0	0	-0.4307583	-17.52365	0	3	100	0	50	0.9799265	-1.550369	66.87174	
12:02:53	0	0	0	-0.4532977	-18.10906	0	3	100	0	50	0.9718077	-1.561089	66.89352	
12:02:54	0	0	0	-0.4587518	-17.1114	0	3	100	0	50	0.9639983	-1.579073	66.94228	
12:02:54	0	0	0	-0.4421928	-15.43008	0	3	100	0	50	0.9715437	-1.575713	66.86217	
12:02:54	0	0	0	-0.4236501	-14.09508	0	3	100	0	50	0.9844212	-1.586431	66.74282	
12:02:54	0	0	0	-0.4075469	-13.04078	0	3	100	0	50	0.9819664	-1.598263	66.69126	
12:02:54	0	0	0	-0.3842889	-11.59105	0	3	100	0	50	0.9840593	-1.617535	66.70457	
12:02:55	0	0	0	-0.352243	-9.471243	0	3	100	0	50	0.982945	-1.61506	66.72028	
12:02:55	0	0	0	-0.296517	-6.222202	0	3	100	0	50	0.9764093	-1.610883	66.75414	
12:02:55	0	0	0	-0.2334681	-3.441209	0	3	100	0	50	0.9842888	-1.629193	66.78917	
12:02:55	0	0	0	-0.2031899	-2.335486	0	3	100	0	50	0.9954478	-1.649256	66.6588	
12:02:55	0	0	0	-0.2194926	-3.966554	0	3	100	0	50	1.847743	-1.647493	66.80994	
12:02:56	0	0	0	-0.2224614	-4.354898	0	3	100	0	50	7.908961	-1.93108	66.93145	
12:02:56	0	0	0	-0.2145091	-5.30735	0	3	100	0	50	0.9492313	-1.630436	66.58249	
12:02:56	0	0	0	-0.2166582	-5.640786	0	3	100	0	50	-2.102359	-1.906854	65.99044	
12:02:56	0	0	0	-0.2229634	-6.895773	0	3	100	0	50	-1.083377	-1.854613	66.04214	
12:02:56	0	0	0	-0.2329735	-9.222908	0	3	100	0	50	2.84063	-1.745818	66.42639	
12:02:57	0	0	0	-0.2456488	-10.31765	0	3	100	0	50	-0.3592825	-1.759357	66.16877	
12:02:57	0	0	0	-0.2550506	-10.78963	0	3	100	0	50	-2.499214	-2.011191	65.89377	
12:02:57	0	0	0	-0.2644574	-13.47037	0	3	100	0	50	4.623676	-1.834503	66.31166	
12:02:57	0	0	0	-0.2854966	-13.11392	0	3	100	0	50	-5.306819	-2.142784	65.46984	
12:02:57	0	0	0	-0.3224934	-14.381	0	3	100	0	50	3.106899	-1.733817	66.19167	
12:02:58	0	0	0	-0.3556557	-16.0439	0	3	100	0	50	-2.807292	-2.030361	65.66671	
12:02:58	0	0	0	-0.3788632	-18.68282	0	3	100	0	50	-1.324408	-1.977352	65.56222	
12:02:58	0	0	0	-0.4010158	-17.90812	0	3	100	0	50	3.758237	-1.875142	66.50904	
12:02:58	0	0	0	-0.4422666	-18.95021	0	3	100	0	50	-2.959573	-2.144361	65.76235	
12:02:58	0	0	0	-0.4763309	-19.96071	0	3	100	0	50	0.7900512	-1.775365	65.97396	
12:02:59	0	0	0	-0.4419908	-17.44397	0	3	100	0	50	0.867092	-1.783592	65.99159	
12:02:59	0	0	0	-0.4061982	-15.28694	0	3	100	0	50	0.6599936	-1.798853	66.00059	
12:02:59	0	0	0	-0.3488581	-11.54676	0	3	100	0	50	0.767878	-1.799679	66.04809	
12:02:59	0	0	0	-0.2966653	-8.628917	0	3	100	0	50	3.513058	-1.932801	66.78183	
12:03:00	0	0	0	-0.2155568	-4.751976	0	3	100	0	50	-3.245058	-2.220403	65.55991	
12:03:00	0	0	0	-0.1367235	-1.261003	0	3	100	0	50	1.149583	-1.869471	65.69837	
12:03:00	0	0	0	-0.1060814	-1.709214	0	3	100	0	50	-1.232997	-2.029281	65.72569	
12:03:00	0	0	0	-0.08070017	-1.62308	0	3	100	0	50	0.5803713	-1.900387	65.71323	
12:03:00	0	0	0	-0.1214839	-3.641038	0	3	100	0	50	0.890951	-1.818881	66.2261	
12:03:01	0	0	0	-0.1562827	-4.180758	0	3	100	0	50	1.007961	-1.837756	66.21007	
12:03:01	0	0	0	-0.1401093	-5.142988	0	3	100	0	50	0.9401487	-1.839615	66.06774	
12:03:01	0	0	0	-0.1260913	-5.961476	0	3	100	0	50	1.367603	-1.765987	65.95403	
12:03:01	0	0	0	-0.1412964	-7.116934	0	3	100	0	50	1.551595	-1.735752	65.91482	
12:03:01	0	0	0	-0.1557626	-8.164676	0	3	100	0	50	1.590462	-1.70024	65.90363	
12:03:02	0	0	0	-0.1224539	-6.701963	0	3	100	0	50	3.561433	-1.79221	66.37243	
12:03:02	0	0	0	-0.09069277	-5.128814	0	3	100	0	50	11.08095	-2.119061	66.46036	
12:03:02	0	0	0	-0.04638294	-3.000717	0	3	100	0	50	12.53154	-2.088113	66.05741	
12:03:02	0	0	0	-0.005088373	-0.1585835	0	3	100	0	50	12.59927	-1.937375	65.3557	
12:03:02	0	0	0	-0.000183785	-0.2956323	0	3	100	0	50	12.51891	-1.792439	64.78799	
12:03:03	0	0	0	0.00474688	0.9068188	0	3	100	0	50	13.74624	-1.727332	64.46784	
12:03:03	0	0	0	0.05561804	3.592256	0	3	100	0	50	13.38754	-1.6264	64.0078	
12:03:03	0	0	0	0.1109262	5.841569	0	3	100	0	50	2.394546	-1.041088	63.52197	
12:03:03	0	0	0	0.08489648	4.330045	0	3	100	0	50	1.01213	-1.183275	63.49344	
12:03:03	0	0	0	-0.006564594	-2.038543	0	3	100	0	50	-1.01839	-1.481854	63.3588	
12:03:04	0	0	0	-0.05591607	-3.772628	0	3	100	0	50	-1.131383	-2.132257	63.15166	
12:03:04	0	0	0	-0.06926467	-5.600152	0	3	100	0	50	-0.820775	-2.214725	63.30711	
12:03:04	0	0	0	-0.06672549	-6.74231	0	3	100	0	50	-0.808426	-2.29197	63.42628	
12:03:04	0	0	0	-0.05705482	-7.460398	0	3	100	0	50	-1.433236	-2.0219	63.53978	
12:03:04	0	0	0	-0.03420251	-8.647349	0	3	100	0	50	1.793752	-0.6983921	63.04847	
12:03:05	0	0	0	-0.004698944	-7.242389	0	3	100	0	50	1.400968	-1.154872	63.40372	
12:03:05	0	0	0	0.02395738	-5.523996	0	3	100	0	50	0.3921987	-1.39564	63.68316	
12:03:05	0	0	0	0.06219948	-3.005117	0	3	100	0	50	-1.162526	-2.09274	63.84988	
12:03:05	0	0	0	0.07242951	-5.311219	0	3	100	0	50	1.647876	-1.22037	63.95934	
12:03:05	0	0	0	0.04606409	-5.055467	0	3	100	0	50	7.948639	-1.533529	64.5453	
12:03:05	0	0	0	0.02735796	-6.284611	0	3	100	0	50	1.234307	-1.145838	63.81537	
12:03:06	0	0	0	0.01834575	-3.173271	0	3	100	0	50	-1.373617	-1.443296	63.36171	
12:03:06	0	0	0	-0.003616067	-6.532188	0	3	100	0	50	2.354193	-1.167667	63.7267	
12:03:06	0	0	0	-0.03597807	-9.225421	0	3	100	0	50	-2.036464	-1.48239	63.25582	
12:03:06	0	0	0	-0.06874038	-12.18395	0	3	100	0	50	2.597363	-1.214576	64.3061	
12:03:06	0	0	0	-0.09706245	-14.90791	0	3	100	0	50	-0.4353304	-1.426375	64.01003	
12:03:07	0	0	0	-0.1321581	-17.33741	0	3	100	0	50	0.20805	-1.408394	64.11126	
12:03:07	0	0	0	-0.1705412	-18.28507	0	3	100	0	50	0.7434806	-1.375522	64.21344	
12:03:07	0	0	0	-0.2227116	-20.01587	0	3	100	0	50	0.8905343	-1.34806	64.30512	
12:03:07	0	0	0	-0.2945881	-22.90745	0	3	100	0	50	0.9303439	-1.373256	64.3627	
12:03:08	0	0	0	-0.3547604	-23.77902	0	3	100	0	50	0.9111745	-1.399287	64.46255	
12:03:08	0	0	0	-0.3922917	-24.44799	0	3	100	0	50	0.9127409	-1.396071	64.4761	
12:03:08	0	0	0	-0.4230117	-24.04449	0	3	100	0	50	0.9182908	-1.390585	64.43721	
12:03:08	0	0	0	-0.3922482	-20.84812	0	3	100	0	50	0.9123611	-1.392979	64.42154	
12:03:08	0	0	0	-0.3608246	-17.4053	0	3	100	0	50	0.9135287	-1.406783	64.45467	
12:03:08	0	0	0	-0.2979653	-12.60171	0	3	100	0	50	0.913507	-1.409488	64.51348	
12:03:09	0	0	0	-0.2323222	-8.507509	0	3	100	0	50	0.9084305	-1.399873	64.62103	
12:03:09	0	0	0	-0.2226335	-7.419183	0	3	100	0	50	0.9095616	-1.395523	64.73045	
12:03:09	0	0	0	-0.2133007	-6.595045	0	3	100	0	50	0.9033712	-1.423995	64.76875	
12:03:09	0	0	0	-0.2030506	-5.761328	0	3	100	0	50	0.8930808	-1.430896	64.74831	
12:03:09	0	0	0	-0.194546	-5.574895	0	3	100	0	50	0.8816202	-1.443953	64.7606	
12:03:10	0	0	0	-0.1687009	-4.21922	0	3	100	0	50	0.8747693	-1.446191	64.75135	
12:03:10	0	0	0	-0.1449805	-2.919344	0	3	100	0	50	0.8643274	-1.450974	64.81257	
12:03:10	0	0	0	-0.1306026	-2.017525	0	3	100	0	50	0.8523391	-1.453311	64.878	
12:03:10	0	0	0	-0.1171464	-1.107261	0	3	100	0	50	0.8483071	-1.455508	64.9575	
12:03:11	0	0	0	-0.1183131	-1.498024	0	3	100	0	50	0.8422164	-1.451551	64.92578	
12:03:11	0	0	0	-0.11995	-1.798613	0	3	100	0	50	0.8507388	-1.45487	64.93623	
12:03:11	0	0	0	-0.1268754	-2.253983	0	3	100	0	50	0.8392193	-1.456248	65.02151	
12:03:11	0	0	0	-0.1332943	-2.50566	0	3	100	0	50	0.8403605	-1.468621	65.08829	
12:03:11	0	0	0	-0.1204574	-1.661131	0	3	100	0	50	0.8282114	-1.485785	65.16468	
12:03:12	0	0	0	-0.1078847	-1.292308	0	3	100	0	50	0.8252429	-1.490819	65.23544	
12:03:12	0	0	0	-0.09245332	-0.645382	0	3	100	0	50	0.8117413	-1.480162	65.30431	
12:03:12	0	0	0	-0.07845011	0.3534797	0	3	100	0	50	0.8114603	-1.486603	65.2934	
12:03:12	0	0	0	-0.08553138	-0.4396655	0	3	100	0	50	0.794175	-1.497927	65.2948	
12:03:12	0	0	0	-0.09299269	-1.50157	0	3	100	0	50	0.7916349	-1.494374	65.3699	
12:03:13	0	0	0	-0.08435884	-1.446407	0	3	100	0	50	0.7840632	-1.488004	65.45718	
12:03:13	0	0	0	-0.07564721	-0.9771182	0	3	100	0	50	0.7727406	-1.504201	65.53569	
12:03:13	0	0	0	-0.0681093	-0.09626956	0	3	100	0	50	0.7662677	-1.52198	65.5443	
12:03:13	0	0	0	-0.061204	-0.1664809	0	3	100	0	50	0.7672834	-1.53992	65.61112	
12:03:13	0	0	0	-0.05203903	-0.3501079	0	3	100	0	50	0.7704555	-1.532945	65.6608	
12:03:14	0	0	0	-0.03679041	0.5168991	0	3	100	0	50	0.7654671	-1.518315	65.59499	
12:03:14	0	0	0	-0.04723398	-0.2567578	0	3	100	0	50	0.7694387	-1.499517	65.64182	
12:03:14	0	0	0	-0.07153033	-2.04563	0	3	100	0	50	0.7771652	-1.499857	65.65768	
12:03:14	0	0	0	-0.07996532	-2.836802	0	3	100	0	50	0.7804406	-1.501904	65.61823	
12:03:14	0	0	0	-0.0783977	-2.910249	0	3	100	0	50	0.7779486	-1.518384	65.63874	
12:03:15	-6.733582	38.95338	116.271	-0.06864489	-1.863866	0.5	3	100	0	50	0.7675336	-1.536117	65.70528	
12:03:15	-6.733576	38.95338	116.523	-0.05322219	-1.044473	0.09	3	100	0	50	0.7595352	-1.543624	65.70796	
12:03:15	-6.733584	38.95338	116.814	-0.05874426	-1.651761	0.68	3	100	0	50	0.7571224	-1.535789	65.63458	
12:03:15	-6.733591	38.95339	117.454	-0.09270436	-3.413651	0.16	3	100	0	50	0.761962	-1.527418	65.67841	
12:03:15	-6.733597	38.95339	117.97	-0.1121373	-4.08201	0.29	3	100	0	50	0.7572892	-1.520856	65.70567	
12:03:16	-6.733597	38.95339	118.344	-0.1133571	-3.772814	0.24	3	100	0	50	0.7579052	-1.523295	65.7119	
12:03:16	-6.733593	38.95339	118.637	-0.1206014	-3.944075	0.06	3	100	0	50	0.7622021	-1.528576	65.75815	
12:03:16	-6.733591	38.95338	118.859	-0.1317697	-4.590943	0.32	3	100	0	50	0.7650949	-1.533744	65.79377	
12:03:16	-6.733595	38.95339	119.205	-0.1708861	-6.959508	0.02	3	100	0	50	0.767764	-1.552647	65.73178	
12:03:16	-6.733598	38.95339	119.298	-0.2236817	-9.197312	0.09	3	100	0	50	0.7569673	-1.566069	65.67416	
12:03:17	-6.733599	38.95339	119.486	-0.2554789	-10.15232	0.16	3	100	0	50	0.762333	-1.571124	65.68981	
12:03:17	-6.7336	38.95339	119.66	-0.2688165	-9.92982	0.48	3	100	0	50	0.7501322	-1.585095	65.68866	
12:03:17	-6.733599	38.95339	119.716	-0.2684913	-9.549069	0.18	3	100	0	50	0.7478678	-1.606033	65.74109	
12:03:17	-6.733598	38.95339	119.678	-0.2568556	-8.405145	0.66	3	100	0	50	0.7447523	-1.615072	65.76699	
12:03:17	-6.733598	38.95339	119.598	-0.240186	-7.212676	0.22	3	100	0	50	0.7409775	-1.612771	65.78678	
12:03:18	-6.733598	38.95339	119.553	-0.219038	-5.545129	0.18	3	100	0	50	0.7358827	-1.628691	65.82449	
12:03:18	-6.733595	38.95338	119.342	-0.1997613	-4.477886	0.17	3	100	0	50	0.7361278	-1.659892	65.75338	
12:03:18	-6.733594	38.95338	119.273	-0.1918233	-3.797169	0.48	3	100	0	50	0.7417893	-1.650961	65.70972	
12:03:18	-6.733594	38.95338	119.367	-0.1847038	-3.442434	0.34	3	100	0	50	0.74911	-1.64693	65.69532	
12:03:18	-6.733596	38.95338	119.385	-0.175754	-2.900604	0.57	3	100	0	50	0.7460358	-1.652443	65.73161	
12:03:19	-6.733598	38.95339	119.457	-0.1664287	-1.963227	1.1	3	100	0	50	0.7484512	-1.636423	65.74847	
12:03:19	-6.733598	38.95339	119.473	-0.1509545	-0.8853098	0.29	3	100	0	50	0.7468535	-1.645072	65.80188	
12:03:19	-6.733598	38.95339	119.278	-0.1365635	-0.1203068	0.21	3	100	0	50	0.7486076	-1.645955	65.7727	
12:03:19	-6.733598	38.95339	119.199	-0.1478176	-0.3038452	0.24	3	100	0	50	0.743885	-1.660241	65.71973	
12:03:19	-6.733598	38.95339	119.113	-0.1588138	-0.9061912	0.26	3	100	0	50	0.7481323	-1.631668	65.73428	
12:03:20	-6.733597	38.95339	119.11	-0.1662423	-1.607723	0.69	3	100	0	50	0.7407632	-1.614028	65.75938	
12:03:20	-6.733597	38.95339	119.185	-0.1749328	-2.171643	0.5	3	100	0	50	0.7472762	-1.617396	65.80933	
12:03:20	-6.733599	38.95339	119.332	-0.2089305	-4.453217	0.11	3	100	0	50	0.7411668	-1.602909	65.83414	
12:03:20	-6.733602	38.95339	119.626	-0.2395748	-6.14441	0.24	3	100	0	50	0.7487803	-1.594798	65.85642	
12:03:20	-6.73365	38.95343	124.028	-0.2676404	-7.387048	0.28	3	100	0	50	0.7456567	-1.592699	65.80639	
12:03:21	-6.733676	38.95345	126.365	-0.2954277	-8.393387	0.24	3	100	0	50	0.7292067	-1.610685	65.79668	
12:03:21	-6.733696	38.95346	128.088	-0.3139459	-8.408782	0.13	3	100	0	50	0.7218269	-1.630287	65.81794	
12:03:21	-6.733709	38.95347	129.253	-0.3293183	-8.732491	0.37	3	100	0	50	0.7259159	-1.622893	65.7984	
12:03:21	-6.733717	38.95348	129.915	-0.3068462	-7.289707	0.13	3	100	0	50	0.7412429	-1.617317	65.84389	
12:03:21	-6.733724	38.95348	130.518	-0.2838659	-5.770326	0.33	3	100	0	50	0.7414369	-1.617797	65.88549	
12:03:22	-6.733729	38.95348	131.061	-0.2407389	-3.499522	0.63	3	100	0	50	0.7438571	-1.628033	65.91197	
12:03:22	-6.733732	38.95348	131.478	-0.2018666	-1.359082	0.17	3	100	0	50	1.004084	-1.629244	65.97176	
12:03:22	-6.733735	38.95348	131.66	-0.198161	-1.164603	0.52	3	100	0	50	9.805303	-1.990917	66.12148	
12:03:22	-6.733736	38.95349	131.74	-0.1955266	-2.747102	0.41	3	100	0	50	-2.609404	-2.04291	65.00223	
12:03:22	-6.733737	38.95349	131.859	-0.2138008	-4.294086	0.59	3	100	0	50	2.824363	-1.622492	65.16688	
12:03:23	-6.733738	38.95349	131.846	-0.2334699	-3.968006	0.37	3	100	0	50	0.9047429	-1.706957	65.05948	
12:03:23	-6.733739	38.95349	131.783	-0.2271022	-6.081923	0.33	3	100	0	50	-0.260339	-1.828518	64.85204	
12:03:23	-6.733742	38.95349	131.926	-0.2042744	-5.347762	0.04	3	100	0	50	-0.01264346	-1.700011	65.45343	
12:03:23	-6.733743	38.95349	132.137	-0.1774444	-5.050376	0.83	3	100	0	50	-0.4465981	-1.729571	65.12161	
12:03:23	-6.733747	38.95349	132.243	-0.1529644	-4.851115	0.19	3	100	0	50	-1.148846	-1.842325	65.10278	
12:03:24	-6.733749	38.9535	132.276	-0.153846	-6.113011	0.26	3	100	0	50	-0.2519938	-1.755009	65.15182	
12:03:24	-6.733751	38.9535	132.404	-0.1692902	-6.919421	0.45	3	100	0	50	-0.1021046	-1.746917	65.19202	
12:03:24	-6.733754	38.9535	132.561	-0.1915938	-7.775527	0.14	3	100	0	50	-0.02211489	-1.755467	65.22001	
12:03:24	-6.733755	38.9535	132.707	-0.215889	-8.826963	0.14	3	100	0	50	0.002942592	-1.764384	65.30909	
12:03:24	-6.733757	38.9535	132.836	-0.2232192	-8.554989	0.13	3	100	0	50	0.04422189	-1.766408	65.33544	
12:03:25	-6.733758	38.9535	132.988	-0.2022	-6.899517	0.19	3	100	0	50	0.0779801	-1.767693	65.36572	
12:03:25	-6.733759	38.9535	133.307	-0.205409	-6.754901	0.16	3	100	0	50	0.1037166	-1.744543	65.45418	
12:03:25	-6.733761	38.9535	133.414	-0.2345232	-7.799572	0.12	3	100	0	50	0.1226854	-1.743122	65.50526	
12:03:25	-6.733763	38.95351	133.04	-0.265712	-8.4001	0.28	3	100	0	50	0.1601758	-1.719233	65.56645	
12:03:25	-6.733766	38.95351	132.975	-0.2928788	-8.734708	0.57	3	100	0	50	0.1883415	-1.696352	65.62465	
12:03:26	-6.733767	38.95351	133.036	-0.314784	-8.823371	0.09	3	100	0	50	0.2273614	-1.660449	65.69842	
12:03:26	-6.733768	38.95351	132.599	-0.3331573	-9.403687	0.16	3	100	0	50	0.2425118	-1.654838	65.70743	
12:03:26	-6.733769	38.95351	132.703	-0.3260911	-8.212592	0.31	3	100	0	50	0.2807364	-1.676309	65.66104	
12:03:26	-6.733769	38.95351	133.014	-0.3057015	-6.3747	0.19	3	100	0	50	0.3068075	-1.654416	65.64915	
12:03:26	-6.733764	38.95351	132.176	-0.301769	-5.816648	0.16	3	100	0	50	0.3385181	-1.635631	65.71306	
12:03:27	-6.733759	38.95351	131.46	-0.3246714	-6.824224	0.17	3	100	0	50	0.3709032	-1.62661	65.73418	
12:03:27	-6.733755	38.9535	130.708	-0.3854694	-9.642594	0.18	3	100	0	50	0.3831197	-1.639655	65.80025	
12:03:27	-6.733752	38.9535	130.246	-0.4714672	-13.75676	0.09	3	100	0	50	0.4022493	-1.625389	65.87402	
12:03:27	-6.733749	38.9535	129.871	-0.5415211	-16.50309	0.14	3	100	0	50	0.4211247	-1.618271	65.89534	
12:03:27	-6.733748	38.9535	129.646	-0.5735539	-17.74379	0.21	3	100	0	50	0.4353821	-1.617947	65.84984	
12:03:28	-6.733747	38.9535	129.395	-0.6011485	-17.5109	0.16	3	100	0	50	0.447495	-1.592979	65.83162	
12:03:28	-6.733745	38.9535	129.156	-0.6568398	-19.08446	0.12	3	100	0	50	0.4562654	-1.588549	65.89038	
12:03:28	-6.733744	38.9535	129.125	-0.7045386	-20.11893	0.02	3	100	0	50	0.4682385	-1.573222	65.91925	
12:03:28	-6.733742	38.9535	128.908	-0.7437953	-20.08722	0.37	3	100	0	50	0.4839913	-1.575204	65.96781	
12:03:28	-6.733742	38.9535	128.78	-0.7791317	-19.87628	0.11	3	100	0	50	0.4925064	-1.581849	66.003	
12:03:29	-6.733742	38.9535	128.582	-0.7494692	-15.53605	0.16	3	100	0	50	0.5054223	-1.552433	66.03462	
12:03:29	-6.733741	38.9535	128.519	-0.7237191	-12.76659	0.19	3	100	0	50	0.5276563	-1.538453	65.97701	
12:03:29	-6.73374	38.9535	128.359	-0.6562163	-7.920036	0.32	3	100	0	50	0.5426432	-1.531954	65.88262	
12:03:29	-6.73374	38.9535	128.191	-0.5987963	-4.085735	0.04	3	100	0	50	0.557888	-1.523621	65.87537	
12:03:29	-6.73374	38.9535	128.082	-0.5641555	-1.912121	0.19	3	100	0	50	0.5778602	-1.507191	65.82526	
12:03:30	-6.733739	38.9535	128.262	-0.5317281	0.2248805	0.14	3	100	0	50	0.5907729	-1.510387	65.86663	
12:03:30	-6.733738	38.9535	128.381	-0.5196057	0.4943235	0.04	3	100	0	50	0.5945291	-1.519315	65.92664	
12:03:30	-6.733737	38.9535	128.433	-0.5093542	0.5372235	0.19	3	100	0	50	0.6024656	-1.503384	65.96069	
12:03:30	-6.733737	38.9535	128.563	-0.5167446	0.1938035	0.26	3	100	0	50	0.6174461	-1.502108	65.90108	
12:03:30	-6.733737	38.9535	128.672	-0.5231878	0.3532085	0.33	3	100	0	50	0.6339292	-1.476747	65.92284	
12:03:31	-6.733737	38.9535	128.428	-0.5102042	0.7108935	0.12	3	100	0	50	0.6423388	-1.469827	65.91525	
12:03:31	-6.733737	38.9535	128.256	-0.4991058	1.173186	0.48	3	100	0	50	0.6502742	-1.456977	65.95708	
12:03:31	-6.733737	38.9535	128.177	-0.465896	2.746514	0.32	3	100	0	50	0.655103	-1.491082	65.9886	
12:03:31	-6.733737	38.9535	128.021	-0.4324058	4.703232	0.24	3	100	0	50	0.6774536	-1.499694	65.98166	
12:03:31	-6.733737	38.9535	128.09	-0.3952256	5.989734	0.56	3	100	0	50	0.6926165	-1.501378	66.01556	
12:03:32	-6.733736	38.9535	128.187	-0.3626516	7.340585	0.12	3	100	0	50	0.7080948	-1.480155	65.92146	
12:03:32	-6.733735	38.9535	128.26	-0.3019257	10.52693	0.16	3	100	0	50	0.7285914	-1.471707	65.86409	
12:03:32	-6.733734	38.9535	128.442	-0.2486191	12.33269	0.52	3	100	0	50	0.7378953	-1.463623	65.88561	
12:03:32	-6.733733	38.9535	128.37	-0.2071134	13.787	0.51	3	100	0	50	0.7387746	-1.470348	65.91211	
12:03:32	-6.733733	38.9535	128.06	-0.1665968	14.99396	0.22	3	100	0	50	0.7411959	-1.480539	65.93136	
12:03:33	-6.733733	38.9535	127.811	-0.150617	14.26203	0.31	3	100	0	50	0.7569533	-1.478861	65.9557	
12:03:33	-6.733732	38.9535	127.752	-0.1648734	12.2148	0.14	3	100	0	50	0.7696242	-1.477497	65.99881	
12:03:33	-6.733731	38.9535	127.625	-0.1769708	10.60677	0.37	3	100	0	50	0.7727242	-1.463183	66.00958	
12:03:33	-6.73373	38.9535	127.639	-0.1861629	8.443269	0.18	3	100	0	50	0.790558	-1.464419	65.91724	
12:03:33	-6.733729	38.9535	127.511	-0.1829121	7.393333	0.09	3	100	0	50	0.8022423	-1.463556	65.85141	
12:03:34	-6.733728	38.9535	127.49	-0.1676049	7.543209	0.26	3	100	0	50	0.8028184	-1.446751	65.91073	
12:03:34	-6.733728	38.9535	127.228	-0.1520667	8.159166	0.34	3	100	0	50	0.8116795	-1.451934	65.93053	
12:03:34	-6.733727	38.9535	127.352	-0.1356529	8.742817	0.26	3	100	0	50	0.8197673	-1.454933	65.95652	
12:03:34	-6.733727	38.95351	127.123	-0.118924	8.809744	0.26	3	100	0	50	0.8224545	-1.463311	66.00751	
12:03:34	-6.733726	38.95351	127.182	-0.09859193	8.460748	0.31	3	100	0	50	0.8413973	-1.45766	65.92976	
12:03:35	-6.733725	38.95351	127.213	-0.1033482	7.20571	0.29	3	100	0	50	0.847948	-1.456723	65.83954	
12:03:35	-6.733723	38.95351	127.378	-0.1385538	4.791099	0.39	3	100	0	50	0.8626412	-1.461086	65.86127	
12:03:35	-6.733722	38.95351	127.394	-0.1779736	2.28772	0.37	3	100	0	50	0.8642277	-1.455639	65.84895	
12:03:35	-6.733722	38.95351	127.242	-0.213585	1.046789	0.24	3	100	0	50	0.8648438	-1.455606	65.90755	
12:03:36	-6.73372	38.95351	127.26	-0.2340294	-0.1466787	0.09	3	100	0	50	0.8599193	-1.448591	65.97144	
12:03:36	-6.733719	38.95351	127.325	-0.2423996	-0.7195677	0.28	3	100	0	50	0.8687757	-1.445681	66.02642	
12:03:36	-6.73372	38.95351	126.28	-0.2293447	-0.0778232	0.85	3	100	0	50	0.8830936	-1.443435	65.96199	
12:03:36	-6.733719	38.95351	126.245	-0.2046078	0.9987282	0.22	3	100	0	50	0.8887937	-1.450968	65.91096	
12:03:36	-6.733718	38.95351	126.293	-0.1859268	2.301428	0.26	3	100	0	50	0.8841521	-1.473108	65.9341	
12:03:36	-6.733718	38.95351	126.305	-0.1668167	3.507331	0.34	3	100	0	50	0.8956674	-1.474038	65.90721	
12:03:37	-6.733717	38.95351	126.241	-0.1678773	2.997259	0.24	3	100	0	50	0.9072653	-1.503366	65.90591	
12:03:37	-6.733717	38.95351	126.197	-0.1846402	2.400336	0.21	3	100	0	50	0.923161	-1.496991	65.89182	
12:03:37	-6.733717	38.95351	126.334	-0.1939476	0.7623367	0.42	3	100	0	50	0.9358529	-1.494144	65.92192	
12:03:37	-6.733717	38.95351	126.251	-0.196651	0.572831	0.33	3	100	0	50	0.9361485	-1.482813	65.8848	
12:03:37	-6.733716	38.95351	126.3	-0.1997688	0.1653894	0.26	3	100	0	50	0.9489195	-1.483832	65.8558	
12:03:38	-6.733715	38.95351	126.335	-0.2842354	-4.261778	0.08	3	100	0	50	0.9436285	-1.477538	65.85543	
12:03:38	-6.733715	38.95351	126.393	-0.3610323	-7.986745	0.13	3	100	0	50	0.9455574	-1.486264	65.84237	
12:03:38	-6.733715	38.95351	126.387	-0.4135973	-10.1951	0.16	3	100	0	50	0.9531724	-1.49263	65.87114	
12:03:38	-6.733715	38.95351	126.405	-0.4600089	-11.60185	0.22	3	100	0	50	0.9521402	-1.496704	65.92298	
12:03:38	-6.733714	38.95352	126.568	-0.5036594	-13.41216	0.38	3	100	0	50	0.9456281	-1.510809	65.96636	
12:03:39	-6.733715	38.95352	126.419	-0.5468502	-14.68808	0.56	3	100	0	50	0.9668664	-1.514865	65.98005	
12:03:39	-6.733714	38.95352	126.471	-0.6360051	-17.7219	0.19	3	100	0	50	0.9715326	-1.531587	65.92192	
12:03:39	-6.733714	38.95352	126.475	-0.7206501	-20.0752	0.26	3	100	0	50	0.9719585	-1.532706	65.90324	
12:03:39	-6.733714	38.95352	126.434	-0.7732284	-20.59639	0.14	3	100	0	50	0.9737318	-1.511434	65.93935	
12:03:40	-6.733714	38.95352	126.506	-0.8168071	-20.708	0.79	3	100	0	50	0.9697821	-1.509962	65.98374	
12:03:40	-6.733715	38.95353	126.312	-0.7836786	-16.94963	0.35	3	100	0	50	0.9606072	-1.523334	66.02617	
12:03:40	-6.733715	38.95353	126.298	-0.7502573	-13.86788	0.19	3	100	0	50	0.9603601	-1.526621	66.06253	
12:03:40	-6.733714	38.95353	126.192	-0.7018027	-10.19673	0.19	3	100	0	50	0.964821	-1.536593	65.98772	
12:03:40	-6.733714	38.95353	126.179	-0.6515717	-7.015648	0.14	3	100	0	50	0.9649048	-1.522637	65.93201	
12:03:40	-6.733714	38.95353	126.134	-0.679178	-7.940908	0.14	3	100	0	50	0.9573228	-1.539001	65.9054	
12:03:41	-6.733715	38.95353	126.043	-0.7031465	-9.028546	0.14	3	100	0	50	0.9670395	-1.549672	65.87701	
12:03:41	-6.733715	38.95353	125.952	-0.6641328	-6.065541	0.12	3	100	0	50	0.9712563	-1.55243	65.85861	
12:03:41	-6.733715	38.95353	125.975	-0.6237183	-3.279168	0.21	3	100	0	50	0.9802502	-1.536324	65.84902	
12:03:41	-6.733714	38.95353	125.911	-0.6006153	-1.646967	0.03	3	100	0	50	0.9764199	-1.523567	65.88015	
12:03:41	-6.733714	38.95353	125.999	-0.5791867	-0.4816656	0.37	3	100	0	50	0.9881922	-1.528114	65.85693	
12:03:42	-6.733714	38.95353	125.961	-0.5480561	1.53871	0.14	3	100	0	50	1.012951	-1.538546	65.82411	
12:03:42	-6.733714	38.95354	126.107	-0.5192395	3.158244	0.26	3	100	0	50	1.023403	-1.519799	65.86016	
12:03:42	-6.733714	38.95354	126.418	-0.482778	4.459486	0.19	3	100	0	50	1.025697	-1.523684	65.8522	
12:03:42	-6.733714	38.95354	126.762	-0.4465151	5.867341	0.16	3	100	0	50	1.024286	-1.539568	65.87955	
12:03:42	-6.733714	38.95354	126.677	-0.4035518	7.753335	0.18	3	100	0	50	1.02296	-1.531401	65.89523	
12:03:43	-6.733715	38.95354	126.58	-0.3542984	10.01116	0.16	3	100	0	50	1.023217	-1.528058	65.9314	
12:03:43	-6.733715	38.95354	126.749	-0.296848	11.91528	0.04	3	100	0	50	1.03817	-1.509802	65.86346	
12:03:43	-6.733716	38.95354	126.75	-0.2194747	14.95695	0.29	3	100	0	50	1.033949	-1.504102	65.7689	
12:03:43	-6.733717	38.95354	126.749	-0.1575742	16.76927	0.21	3	100	0	50	1.035149	-1.510275	65.80173	
12:03:43	-6.733717	38.95354	126.901	-0.1032901	18.01516	0.16	3	100	0	50	1.039618	-1.50315	65.77306	
12:03:44	-6.733717	38.95354	127.071	-0.05642899	18.72896	0.29	3	100	0	50	1.038734	-1.497697	65.70786	
12:03:44	-6.733718	38.95354	126.986	-0.01656526	19.30989	0.06	3	100	0	50	1.055487	-1.5076	65.69639	
12:03:44	-6.733718	38.95354	126.966	0.009338242	18.49198	0.09	3	100	0	50	1.050828	-1.495685	65.72	
12:03:44	-6.733719	38.95354	126.978	0.02871429	18.49516	0.09	3	100	0	50	1.049226	-1.480795	65.69264	
12:03:45	-6.733721	38.95354	126.993	0.0306324	16.89739	0.09	3	100	0	50	1.067437	-1.477212	65.65266	
12:03:45	-6.733722	38.95354	126.937	0.01078467	13.62059	0.11	3	100	0	50	1.018445	-1.40724	65.70307	
12:03:45	-6.733722	38.95355	126.698	-0.01941575	10.84884	0.08	3	100	0	50	0.882452	-1.330081	65.68977	
12:03:45	-6.733723	38.95355	126.43	-0.04620824	10.57855	0.14	3	100	0	50	1.001453	-1.309598	65.74691	
12:03:45	-6.733724	38.95355	126.232	-0.04883109	9.705158	0.26	3	100	0	50	1.204043	-1.351541	65.74232	
12:03:45	-6.733725	38.95355	126.045	-0.03072547	9.604156	0.13	3	100	0	50	1.176442	-1.398007	65.74623	
12:03:46	-6.733725	38.95355	125.861	-0.01032488	9.802428	0.09	3	100	0	50	0.9298354	-1.275831	65.6916	
12:03:46	-6.733726	38.95356	125.474	0.01036598	10.35641	0.25	3	100	0	50	5.893226	-1.563708	66.23183	
12:03:46	-6.733727	38.95356	125.321	0.01714672	9.261678	0.26	3	100	0	50	4.713895	-1.515241	65.91089	
12:03:46	-6.733727	38.95356	125.32	0.002442145	7.481916	0.12	3	100	0	50	-1.874376	-1.488207	65.16374	
12:03:46	-6.733727	38.95356	125.335	-0.04908459	4.315297	0.42	3	100	0	50	-1.391076	-1.722661	65.17364	
12:03:47	-6.733726	38.95356	125.404	-0.1133152	-0.6212726	0.22	3	100	0	50	7.198835	-1.834223	65.89321	
12:03:47	-6.733726	38.95356	125.377	-0.1786326	-4.694246	0.26	3	100	0	50	-2.125059	-1.72662	65.3627	
12:03:47	-6.733727	38.95356	125.036	-0.221267	-3.71955	0.12	3	100	0	50	-0.3866246	-1.383096	65.05164	
12:03:47	-6.733727	38.95356	125.099	-0.2591066	-7.281713	0.25	3	100	0	50	2.592121	-1.143596	65.48737	
12:03:47	-6.733727	38.95356	125.085	-0.2895366	-8.322522	0.22	3	100	0	50	-3.293974	-1.545166	64.94328	
12:03:48	-6.733727	38.95356	125.069	-0.3171024	-10.85813	0.48	3	100	0	50	2.86174	-1.145739	65.4625	
12:03:48	-6.733727	38.95356	124.696	-0.3288122	-7.175855	0.38	3	100	0	50	-3.441959	-1.396478	64.77272	
12:03:48	-6.733727	38.95356	124.457	-0.3368586	-7.337031	0.12	3	100	0	50	2.806454	-1.178879	65.33624	
12:03:48	-6.733728	38.95356	124.246	-0.332614	-5.432472	0.06	3	100	0	50	-3.63836	-1.734152	64.76653	
12:03:48	-6.733728	38.95356	124.079	-0.325673	-5.092732	0.17	3	100	0	50	1.547378	-1.264004	64.96086	
12:03:49	-6.733729	38.95356	124.01	-0.3078392	-4.351935	0.33	3	100	0	50	-0.5828798	-1.391572	64.87112	
12:03:49	-6.733729	38.95357	124.019	-0.2900261	-4.013419	0.31	3	100	0	50	0.4233467	-1.27609	64.90242	
12:03:49	-6.733729	38.95357	123.958	-0.2635645	-2.416893	0.06	3	100	0	50	0.6711108	-1.212448	65.00658	
12:03:49	-6.733729	38.95357	123.936	-0.2397083	-1.379135	0.14	3	100	0	50	0.5271657	-1.376686	65.09173	
12:03:50	-6.733729	38.95357	124.165	-0.2060993	0.02704221	0.11	3	100	0	50	0.4372318	-1.401216	65.16495	
12:03:50	-6.733729	38.95357	124.382	-0.174826	2.101105	0.39	3	100	0	50	0.398118	-1.171462	65.19716	
12:03:50	-6.733729	38.95357	124.329	-0.167714	2.25353	0.32	3	100	0	50	0.5294778	-1.157819	65.14146	
12:03:50	-6.733729	38.95357	124.374	-0.1617186	1.425745	0.09	3	100	0	50	0.7839963	-1.415848	65.15018	
12:03:50	-6.733729	38.95357	124.384	-0.2418831	-3.087009	0.22	3	100	0	50	0.5429366	-1.339521	65.12453	
12:03:50	-6.733729	38.95357	124.347	-0.3146669	-6.646319	0.31	3	100	0	50	0.5080838	-1.524764	65.17032	
12:03:51	-6.733729	38.95357	124.257	-0.3595014	-8.228139	0.28	3	100	0	50	0.7171245	-1.853689	65.14888	
12:03:51	-6.733729	38.95357	124.138	-0.4014573	-9.56094	0.21	3	100	0	50	0.8253691	-1.78438	65.16171	
12:03:51	-6.733729	38.95357	124.063	-0.4223956	-9.827844	0.26	3	100	0	50	0.7154076	-1.563045	65.1858	
12:03:51	-6.733729	38.95357	124.252	-0.4396407	-9.732885	0.31	3	100	0	50	0.8625401	-1.399763	65.0995	
12:03:51	-6.733729	38.95357	124.261	-0.4381582	-8.998612	0.19	3	100	0	50	0.8970397	-1.671368	65.0358	
12:03:52	-6.733729	38.95358	124.269	-0.4357419	-8.274796	0.35	3	100	0	50	0.6408785	-1.753974	64.963	
12:03:52	-6.733729	38.95358	124.263	-0.4391713	-7.962748	0.22	3	100	0	50	0.7251081	-1.732448	64.97793	
12:03:52	-6.73373	38.95358	124.231	-0.4417927	-7.576703	0.33	3	100	0	50	1.007652	-1.597884	64.97871	
12:03:52	-6.73373	38.95358	124.172	-0.4934857	-9.699573	0.38	3	100	0	50	1.139062	-1.562665	64.9963	
12:03:52	-6.733731	38.95358	123.975	-0.5876532	-13.55432	0.26	3	100	0	50	1.126728	-1.544184	64.93977	
12:03:53	-6.733732	38.95358	123.597	-0.6381583	-14.13225	0.22	3	100	0	50	0.9901739	-1.562779	64.85432	
12:03:53	-6.733732	38.95358	123.413	-0.6500394	-13.32107	0.13	3	100	0	50	0.8860819	-1.392001	64.8107	
12:03:53	-6.733733	38.95358	123.204	-0.6373102	-11.85196	0.13	3	100	0	50	0.7170545	-1.235113	64.89742	
12:03:53	-6.733733	38.95358	122.923	-0.6104926	-9.736289	0.14	3	100	0	50	0.7079346	-1.253323	64.94997	
12:03:54	-6.733733	38.95358	122.57	-0.5405668	-4.824997	0.17	3	100	0	50	0.735211	-1.274619	65.02592	
12:03:54	-6.733734	38.95358	122.324	-0.4472861	0.2326849	0.12	3	100	0	50	0.8701506	-1.234054	65.09174	
12:03:54	-6.733734	38.95358	122.038	-0.3904797	3.0878	0.09	3	100	0	50	0.8738786	-1.317503	65.07964	
12:03:54	-6.733735	38.95358	121.791	-0.3495855	5.207411	0.08	3	100	0	50	0.8643765	-1.35272	65.05606	
12:03:54	-6.733735	38.95358	121.545	-0.3177276	6.50097	0.14	3	100	0	50	0.8580215	-1.408462	65.07016	
12:03:54	-6.733735	38.95358	121.341	-0.2957811	7.514834	0.19	3	100	0	50	1.007795	-1.483861	65.10733	
12:03:55	-6.733736	38.95358	121.144	-0.2632953	8.348726	0.06	3	100	0	50	0.9530401	-1.368822	65.10592	
12:03:55	-6.733736	38.95359	121.029	-0.2116139	10.27018	0.17	3	100	0	50	0.7638619	-1.213274	65.14286	
12:03:55	-6.733736	38.95359	120.884	-0.1953202	10.19715	0.12	3	100	0	50	0.8053262	-1.195799	65.21733	
12:03:55	-6.733737	38.95359	120.703	-0.2050798	8.765855	0.09	3	100	0	50	0.7886627	-1.2835	65.15046	
12:03:55	-6.733737	38.95359	120.736	-0.2055957	7.7264	0.11	3	100	0	50	0.6618079	-1.32246	65.16221	
12:03:56	-6.733737	38.95359	120.636	-0.1977893	7.25846	0.03	3	100	0	50	0.6707298	-1.308259	65.15299	
12:03:56	-6.733737	38.95359	120.538	-0.1904629	6.878748	0.11	3	100	0	50	3.573265	-1.329895	65.45547	
12:03:56	-6.733737	38.95359	120.409	-0.1796688	7.912438	0.07	3	100	0	50	10.78482	-1.637669	65.56702	
12:03:56	-6.733737	38.95359	120.246	-0.1759296	3.58137	0.14	3	100	0	50	-1.258152	-1.211288	65.25034	
12:03:56	-6.733739	38.95359	119.454	-0.1768722	3.63935	0.17	3	100	0	50	-0.1978377	-1.195264	65.41112	
12:03:57	-6.733742	38.9536	118.679	-0.1458094	4.07825	0.14	3	100	0	50	9.304781	-1.631286	65.60149	
12:03:57	-6.733744	38.9536	118.131	-0.08466402	6.644972	0.14	3	100	0	50	-2.162868	-1.564635	65.18209	
12:03:57	-6.733746	38.9536	117.4	-0.0305165	8.996222	0.35	3	100	0	50	0.6435457	-1.283427	65.32909	
12:03:57	-6.733747	38.9536	116.94	-0.085972	5.005374	0.09	3	100	0	50	10.0909	-1.630009	65.55988	
12:03:58	-6.733748	38.9536	116.568	-0.1356761	2.5748	0.26	3	100	0	50	3.465752	-1.216917	65.01928	
12:03:58	-6.733749	38.9536	116.268	-0.1540268	-0.2251261	0.19	3	100	0	50	-4.02632	-1.434764	64.17078	
12:03:58	-6.73375	38.95361	116.113	-0.1794719	-6.221779	0.11	3	100	0	50	7.364754	-1.154431	64.25194	
12:03:58	-6.733751	38.95361	116.026	-0.2040055	-5.991359	0.13	3	100	0	50	9.117565	-1.127183	63.68132	
12:03:58	-6.733752	38.95361	115.756	-0.229997	-10.52337	0.19	3	100	0	50	-4.97308	-1.856714	63.29258	
12:03:58	-6.733753	38.95361	115.507	-0.2456039	-13.12882	0.29	3	100	0	50	1.219603	-1.323841	63.48127	
12:03:59	-6.733754	38.95361	115.267	-0.2625255	-12.27383	0.14	3	100	0	50	11.99074	-1.604841	64.12772	
12:03:59	-6.733755	38.95361	114.983	-0.2583518	-11.54843	0.06	3	100	0	50	6.045244	-1.504502	63.65559	
12:03:59	-6.733756	38.95361	114.807	-0.2534363	-9.768317	0.22	3	100	0	50	-4.010203	-1.774096	63.05377	
12:03:59	-6.733757	38.95361	114.661	-0.2742652	-9.313684	0.19	3	100	0	50	-1.444079	-1.583563	62.82095	
12:03:59	-6.733757	38.95361	114.439	-0.2940075	-10.96391	0.14	3	100	0	50	11.60031	-1.593746	63.53908	
12:04:00	-6.733758	38.95361	114.43	-0.2490544	-7.142948	0.09	3	100	0	50	6.301813	-1.626301	63.06118	
12:04:00	-6.733759	38.95361	114.503	-0.201628	-5.10401	0.32	3	100	0	50	-4.511162	-1.927468	62.39515	
12:04:00	-6.733759	38.95362	114.6	-0.2103894	-5.358294	0.14	3	100	0	50	9.09387	-1.630371	63.06158	
12:04:00	-6.733759	38.95362	114.745	-0.2218798	-7.505515	0.14	3	100	0	50	11.2136	-1.797874	62.65811	
12:04:00	-6.733759	38.95362	114.946	-0.2416956	-6.746336	0.39	3	100	0	50	-3.828695	-2.146545	61.9545	
12:04:01	-6.73376	38.95362	115.105	-0.2555104	-3.718405	0.45	3	100	0	50	6.373083	-1.961963	62.7314	
12:04:01	-6.73376	38.95362	115.344	-0.3066438	-7.812615	0.16	3	100	0	50	15.27182	-1.68051	62.58113	
12:04:01	-6.73376	38.95362	115.478	-0.3534275	-8.605285	0.24	3	100	0	50	0.04002043	-0.5198238	62.09093	
12:04:01	-6.733761	38.95362	115.679	-0.3832877	-3.647198	0.32	3	100	0	50	0.06159459	-0.4739845	61.80059	
12:04:02	-6.733762	38.95362	115.89	-0.4028506	-6.586639	0.18	3	100	0	50	12.41589	-1.216589	62.4809	
12:04:02	-6.733762	38.95362	115.981	-0.3671003	-5.624348	0.21	3	100	0	50	10.80209	-1.221988	62.0666	
12:04:02	-6.733762	38.95362	115.915	-0.3322281	-3.291894	0.29	3	100	0	50	-0.3002477	-0.5107544	61.88533	
12:04:02	-6.733763	38.95362	116.112	-0.3117688	-0.03554732	0.07	3	100	0	50	3.550325	-0.8193321	62.31264	
12:04:02	-6.733764	38.95362	116.304	-0.3088555	0.3208853	0.14	3	100	0	50	14.12851	-1.412264	62.22123	
12:04:02	-6.733764	38.95362	116.35	-0.2826953	1.968373	0.14	3	100	0	50	4.163293	-1.142462	61.74936	
12:04:03	-6.733765	38.95362	116.447	-0.237691	4.576952	0.28	3	100	0	50	-1.253623	-0.6626053	61.53356	
12:04:03	-6.733767	38.95362	116.638	-0.1821447	9.242097	0.21	3	100	0	50	9.821835	-1.132883	62.12122	
12:04:03	-6.733767	38.95363	116.768	-0.1265651	10.77788	0.16	3	100	0	50	12.2948	-1.249063	62.04648	
12:04:03	-6.733767	38.95363	116.686	-0.08111747	12.01903	0.39	3	100	0	50	14.30016	-1.006096	61.791	
12:04:04	-6.733768	38.95363	116.709	-0.04731034	13.18486	0.12	3	100	0	50	-0.2362121	-0.6247965	61.67854	
12:04:04	-6.733769	38.95363	116.836	-0.024421	10.97252	0.08	3	100	0	50	1.734408	-0.807461	61.79822	
12:04:04	-6.733769	38.95363	116.914	-0.02325458	8.117952	0.08	3	100	0	50	18.79684	-1.477474	61.80046	
12:04:04	-6.733769	38.95363	116.922	-0.03011473	5.407421	0.28	3	100	0	50	5.577987	-0.7915189	60.59174	
12:04:04	-6.733771	38.95363	116.963	-0.04458358	2.755992	0.18	3	100	0	50	-3.717187	-1.033711	59.82217	
12:04:05	-6.733771	38.95363	117.147	-0.05166781	2.852158	0.42	3	100	0	50	0.7488027	-0.9107904	60.12882	
12:04:05	-6.733771	38.95363	117.052	-0.05454925	2.418212	0.19	3	100	0	50	16.07495	-1.501379	60.68502	
12:04:05	-6.733771	38.95363	117.011	-0.06686794	1.655619	0.14	3	100	0	50	14.25536	-1.238418	59.94233	
12:04:05	-6.733772	38.95363	117.04	-0.08360013	-0.2775305	0.33	3	100	0	50	-2.857602	-0.8405455	59.46081	
12:04:05	-6.733773	38.95364	117.164	-0.1077961	-2.401801	0.08	3	100	0	50	5.37164	-0.3365017	59.77798	
12:04:05	-6.733773	38.95364	117.254	-0.1310059	-1.168849	0.37	3	100	0	50	12.16814	-0.9179711	59.94095	
12:04:06	-6.733773	38.95364	117.274	-0.1566395	-1.411885	0.11	3	100	0	50	0.03880636	-0.5911351	60.11545	
12:04:06	-6.733773	38.95364	117.339	-0.1921341	-2.690322	0.04	3	100	0	50	-2.788461	-0.9792678	59.77013	
12:04:06	-6.733773	38.95364	117.423	-0.2169514	-5.979243	0.44	3	100	0	50	12.76951	-1.456383	60.4315	
12:04:06	-6.733773	38.95364	117.423	-0.2217852	0.5820438	0.14	3	100	0	50	1.631974	-1.144663	60.19883	
12:04:06	-6.733774	38.95364	117.466	-0.2165875	-0.8218699	0.41	3	100	0	50	-3.154004	-1.181036	60.19854	
12:04:07	-6.733774	38.95364	117.608	-0.2125484	-1.135963	0.18	3	100	0	50	14.56419	-1.795774	60.86297	
12:04:07	-6.733774	38.95364	117.528	-0.2046399	0.003663171	0.24	3	100	0	50	6.287424	-1.539493	60.48597	
12:04:07	-6.733775	38.95364	117.517	-0.1604304	0.9048035	0.57	3	100	0	50	-4.789691	-1.157594	60.23679	
12:04:07	-6.733776	38.95364	117.514	-0.126594	-1.115618	0.09	3	100	0	50	6.641229	-1.56068	61.55222	
12:04:07	-6.733776	38.95364	117.598	-0.1234868	-0.2059209	0.28	3	100	0	50	11.29858	-1.504353	61.60172	
12:04:08	-6.733777	38.95364	117.677	-0.1229278	-1.710902	0.08	3	100	0	50	-6.548313	-1.590395	60.69995	
12:04:08	-6.733777	38.95364	117.88	-0.09121647	-2.178659	0.11	3	100	0	50	1.234259	-1.112489	61.09497	
12:04:08	-6.733776	38.95364	118.118	-0.07325193	-2.821438	0.39	3	100	0	50	15.95256	-1.873738	61.96436	
12:04:08	-6.733776	38.95364	118.144	-0.0620103	-2.892693	0.48	3	100	0	50	6.680292	-1.56502	61.36339	
12:04:08	-6.733777	38.95364	118.06	-0.05001682	-3.301723	0.21	3	100	0	50	-8.713041	-1.920769	60.52837	
12:04:09	-6.733777	38.95364	117.968	-0.02365959	-0.9250939	0.29	3	100	0	50	2.305531	-1.206927	61.39089	
12:04:09	-6.733777	38.95364	118.151	-0.0017936	2.938385	0.34	3	100	0	50	12.24536	-1.793744	62.06447	
12:04:09	-6.733777	38.95364	118.091	-0.008645209	2.44481	0.16	3	100	0	50	0.06442866	-1.143897	61.72018	
12:04:09	-6.733778	38.95364	118.174	-0.01430062	6.091671	0.18	3	100	0	50	-4.887197	-1.681862	61.39758	
12:04:10	-6.733778	38.95364	118.201	-0.02817637	0.723969	0.26	3	100	0	50	12.96107	-1.519636	62.43293	
12:04:10	-6.733778	38.95364	118.188	-0.04304437	1.18286	0.09	3	100	0	50	5.121956	-1.262501	61.89626	
12:04:10	-6.733778	38.95364	118.119	-0.09404924	-3.276291	0.04	3	100	0	50	-7.102015	-1.675161	61.80891	
12:04:10	-6.733778	38.95364	118.193	-0.13914	-6.65763	0.47	3	100	0	50	4.472899	-1.497156	62.57917	
12:04:10	-6.733778	38.95364	118.162	-0.156813	-10.94567	0.06	3	100	0	50	13.77639	-1.601831	62.73296	
12:04:10	-6.733778	38.95365	118.166	-0.1777216	-9.192984	0.21	3	100	0	50	2.831186	-1.616727	62.36972	
12:04:11	-6.733779	38.95365	118.168	-0.2048448	-8.045321	0.38	3	100	0	50	-6.150036	-1.627377	61.94555	
12:04:11	-6.73378	38.95365	118.161	-0.2135293	-1.751693	0.21	3	100	0	50	2.382821	-1.075568	61.88184	
12:04:11	-6.73378	38.95365	118.143	-0.2289462	-3.070582	0.11	3	100	0	50	11.15971	-1.619644	62.91168	
12:04:11	-6.733781	38.95365	118.09	-0.2419891	-3.173707	0.08	3	100	0	50	6.444341	-1.338241	62.38212	
12:04:11	-6.733781	38.95365	118.073	-0.1972034	-0.5991721	0.21	3	100	0	50	-6.79814	-1.86665	61.92282	
12:04:12	-6.733782	38.95365	118.016	-0.1526519	-5.874937	0.14	3	100	0	50	2.414921	-2.001815	62.47377	
12:04:12	-6.733782	38.95365	117.703	-0.1436367	-5.058202	0.16	3	100	0	50	4.474296	-1.919317	62.91109	
12:04:12	-6.733783	38.95365	117.382	-0.1541667	-3.52495	0.52	3	100	0	50	-7.050288	-2.274079	62.20182	
12:04:12	-6.733784	38.95365	116.937	-0.1566271	2.219654	0.19	3	100	0	50	3.257547	-2.082181	62.67407	
12:04:13	-6.733784	38.95365	116.931	-0.1712584	1.05144	0.42	3	100	0	50	8.544881	-1.57066	62.8657	
12:04:13	-6.733785	38.95365	116.822	-0.1518966	4.987399	0.18	3	100	0	50	-8.846852	-2.746617	62.32396	
12:04:13	-6.733786	38.95365	116.705	-0.1004272	17.54785	0.17	3	100	0	50	1.828652	-2.900302	62.8556	
12:04:13	-6.733786	38.95365	116.684	-0.004699692	18.34973	0.31	3	100	0	50	11.17582	-2.940223	62.85986	
12:04:13	-6.733786	38.95365	116.566	0.10564	20.77054	0.09	3	100	0	50	-5.753931	-3.139252	62.32125	
12:04:14	-6.733787	38.95365	116.572	0.1788636	15.21946	0.19	3	100	0	50	-2.756221	-3.011737	62.38662	
12:04:14	-6.733787	38.95365	116.677	0.2212898	12.19044	0.34	3	100	0	50	9.388273	-2.450224	62.6829	
12:04:14	-6.733787	38.95365	116.663	0.2188985	15.82353	0.12	3	100	0	50	1.084704	-2.490856	62.227	
12:04:14	-6.733788	38.95365	116.688	0.1738704	19.28165	0.22	3	100	0	50	-3.335485	-2.722002	62.34146	
12:04:14	-6.733788	38.95365	116.662	0.1238392	3.291735	0.24	3	100	0	50	7.172118	-2.849239	62.78333	
12:04:15	-6.733789	38.95365	116.627	0.08178543	2.388132	0.13	3	100	0	50	12.7693	-2.827302	62.47526	
12:04:15	-6.73379	38.95365	116.426	0.01195555	0.09677797	0.45	3	100	0	50	-3.421176	-2.911875	61.90668	
12:04:15	-6.733791	38.95365	116.374	-0.0789153	-11.71497	0.09	3	100	0	50	-3.36744	-3.008255	61.84308	
12:04:15	-6.733792	38.95365	116.385	-0.1468027	-18.6202	0.08	3	100	0	50	9.433544	-2.759637	62.31413	
12:04:15	-6.733793	38.95365	116.166	-0.1911648	-17.62331	0.09	3	100	0	50	1.816737	-2.543457	61.61755	
12:04:16	-6.733793	38.95365	116.131	-0.1945327	-17.31407	0.19	3	100	0	50	-6.176441	-2.686095	60.27721	
12:04:16	-6.733794	38.95365	115.969	-0.1668416	-19.0419	0.07	3	100	0	50	3.31059	-2.205451	61.17345	
12:04:16	-6.733794	38.95365	115.51	-0.1350678	-11.6782	0.25	3	100	0	50	1.948045	-2.049417	61.46	
12:04:16	-6.733794	38.95365	115.51	-0.09292857	-6.809124	0.25	3	100	0	50	-9.089853	-2.803689	61.00809	
12:04:16	-6.733795	38.95365	115.021	-0.03887016	-5.838703	0.22	3	100	0	50	2.528182	-2.099413	61.92002	
12:04:17	-6.733795	38.95365	114.632	0.01885252	-0.4343154	0.45	3	100	0	50	3.063643	-2.307341	62.29059	
12:04:17	-6.733797	38.95365	114.167	0.07372822	5.251003	0.37	3	100	0	50	-9.302756	-3.07681	61.65836	
12:04:17	-6.733797	38.95365	114.309	0.02959393	-5.17715	0.57	3	100	0	50	3.551598	-1.766814	62.54537	
12:04:17	-6.733798	38.95365	113.95	-0.01888008	-4.562549	0.44	3	100	0	50	10.02706	-1.542002	63.62067	
12:04:17	-6.733798	38.95365	113.796	-0.05815303	-6.986419	0.31	3	100	0	50	-5.073783	-1.774823	62.64478	
12:04:18	-6.733799	38.95365	113.71	-0.08548473	-0.1606278	0.09	3	100	0	50	-3.422694	-1.851513	62.74229	
12:04:18	-6.733799	38.95365	113.548	-0.0675012	-2.709624	0.35	3	100	0	50	10.64114	-2.224632	63.26825	
12:04:18	-6.733799	38.95365	113.229	-0.050794	0.3323781	0.16	3	100	0	50	2.89817	-2.367083	62.667	
12:04:18	-6.733799	38.95365	113.216	0.003018077	3.931212	0.04	3	100	0	50	-8.019905	-2.455001	62.3536	
12:04:18	-6.733799	38.95365	113.064	0.05408179	4.994781	0.33	3	100	0	50	8.539826	-2.315564	63.13008	
12:04:19	-6.7338	38.95365	112.822	0.1033613	8.031938	0.24	3	100	0	50	8.695253	-1.896896	62.85906	
12:04:19	-6.7338	38.95365	112.643	0.1461995	9.53686	0.25	3	100	0	50	-8.613939	-2.316763	62.35365	
12:04:19	-6.7338	38.95365	112.631	0.16357	10.36089	0.28	3	100	0	50	0.8552047	-2.217996	62.99276	
12:04:19	-6.733801	38.95365	112.525	0.1726748	9.619834	0.04	3	100	0	50	11.27651	-1.682446	63.71422	
12:04:19	-6.733801	38.95365	112.59	0.2063075	10.92942	0.19	3	100	0	50	-6.128858	-2.106747	62.83583	
12:04:20	-6.733801	38.95365	112.37	0.242083	22.69806	0.39	3	100	0	50	-3.599557	-2.039139	62.87297	
12:04:20	-6.733801	38.95365	112.16	0.2535846	21.38985	0.42	3	100	0	50	8.107899	-1.779942	64.09712	
12:04:20	-6.733801	38.95365	112.013	0.2599601	19.78222	0.36	3	100	0	50	3.792132	-1.190995	63.70787	
12:04:20	-6.733802	38.95365	111.688	0.2885539	17.89155	0.08	3	100	0	50	-7.208014	-1.734567	63.03186	
12:04:20	-6.733802	38.95365	111.66	0.3012964	10.14641	0.06	3	100	0	50	4.013362	-1.738732	63.89639	
12:04:21	-6.733802	38.95365	111.499	0.2936997	7.96189	0.19	3	100	0	50	11.30939	-1.747375	64.17178	
12:04:21	-6.733803	38.95365	111.254	0.284984	8.099814	0.21	3	100	0	50	-3.400053	-2.209235	63.39502	
12:04:21	-6.733804	38.95365	111.131	0.2531771	7.038086	0.06	3	100	0	50	-1.082558	-1.668877	63.29919	
12:04:21	-6.733804	38.95365	111.162	0.1932013	-9.21247	0.28	3	100	0	50	11.15741	-1.507442	64.41566	
12:04:21	-6.733805	38.95365	110.963	0.1538743	-10.3744	0.06	3	100	0	50	5.361303	-1.113926	63.90698	
12:04:22	-6.733805	38.95365	110.727	0.111616	-15.70641	0.29	3	100	0	50	-7.133105	-1.612403	63.59048	
12:04:22	-6.733806	38.95365	110.731	0.05208228	-26.72734	0.26	3	100	0	50	3.81324	-1.400211	64.39176	
12:04:22	-6.733805	38.95365	110.673	-0.002998631	-27.5746	0.22	3	100	0	50	8.915469	-1.695914	64.41666	
12:04:22	-6.733805	38.95365	110.588	-0.02595916	-26.51232	0.06	3	100	0	50	-6.986474	-1.970856	63.62014	
12:04:22	-6.733805	38.95365	110.584	-0.01633359	-22.22194	0.18	3	100	0	50	0.3212668	-1.829139	63.99836	
12:04:23	-6.733805	38.95365	110.443	-0.009408571	-22.08495	0.18	3	100	0	50	11.35537	-1.789869	64.83302	
12:04:23	-6.733805	38.95365	110.224	0.002780843	-16.16583	0.04	3	100	0	50	0.4856689	-1.668104	64.37594	
12:04:23	-6.733806	38.95365	110.134	0.01634801	-12.38162	0.14	3	100	0	50	-4.153024	-1.996263	64.15463	
12:04:23	-6.733806	38.95365	110.06	0.03369531	-11.11001	0.09	3	100	0	50	8.464025	-1.871396	65.01518	
12:04:23	-6.733806	38.95365	109.903	0.03721609	-10.96024	0.34	3	100	0	50	7.727942	-1.781981	64.60421	
12:04:24	-6.733807	38.95365	109.836	0.02385222	-11.93529	0.09	3	100	0	50	-8.710354	-1.657136	63.65813	
12:04:24	-6.733807	38.95365	109.762	-0.005126686	-30.64823	0.19	3	100	0	50	4.440548	-1.364662	64.64599	
12:04:24	-6.733807	38.95365	109.647	-0.02314153	-25.78592	0.21	3	100	0	50	13.3506	-1.275519	64.81861	
12:04:24	-6.733807	38.95365	109.459	-0.01413579	-21.45555	0.11	3	100	0	50	-7.146056	-1.695826	63.92276	
12:04:24	-6.733807	38.95365	109.436	0.02010845	-20.31406	0.19	3	100	0	50	2.045031	-1.649187	64.55058	
12:04:25	-6.733807	38.95365	109.147	0.02194184	-19.54957	0.12	3	100	0	50	13.47985	-1.886993	64.93708	
12:04:25	-6.733807	38.95365	109.141	0.002278229	-21.73903	0.16	3	100	0	50	-3.474805	-2.012806	63.88728	
12:04:25	-6.733807	38.95365	109.088	0.002805186	-4.970852	0.24	3	100	0	50	-5.660808	-1.704854	64.00217	
12:04:25	-6.733807	38.95365	109.1	0.02259759	-13.35935	0.34	3	100	0	50	6.935477	-1.789154	64.59471	
12:04:25	-6.733807	38.95365	108.894	0.04337985	-13.45386	0.09	3	100	0	50	-8.428807	-2.386725	63.57182	
12:04:26	-6.733807	38.95365	108.857	0.08711535	-7.670921	0.09	3	100	0	50	2.465339	-1.851128	64.30822	
12:04:26	-6.733807	38.95365	108.658	0.1242049	-10.12604	0.16	3	100	0	50	0.86142	-1.761955	64.17944	
12:04:26	-6.733806	38.95365	108.497	0.1607539	-8.751919	0.12	3	100	0	50	-6.432943	-1.770965	63.71079	
12:04:26	-6.733806	38.95365	108.417	0.2036459	-12.46692	0.14	3	100	0	50	4.080517	-1.558599	64.54375	
12:04:26	-6.733806	38.95365	108.262	0.2375849	-14.31602	0.21	3	100	0	50	-0.851995	-1.598072	64.44882	
12:04:27	-6.733806	38.95365	108.039	0.2723159	-9.173824	0.25	3	100	0	50	-7.604672	-1.424267	63.50739	
12:04:27	-6.733806	38.95365	107.978	0.1818626	-18.18175	0.14	3	100	0	50	2.789219	-1.39327	64.35904	
12:04:27	-6.733806	38.95365	107.895	0.10152	-19.79084	0.16	3	100	0	50	3.047477	-1.438092	64.85928	
12:04:27	-6.733806	38.95365	107.813	0.09421142	-16.61296	0.25	3	100	0	50	-9.42126	-1.874815	63.62489	
12:04:27	-6.733806	38.95365	107.709	0.09215964	-17.31016	0.29	3	100	0	50	2.213794	-1.482001	64.53827	
12:04:28	-6.733805	38.95365	107.575	0.104344	-13.42443	0.14	3	100	0	50	-0.2148852	-1.657931	65.03313	
12:04:28	-6.733805	38.95365	107.385	0.1195199	-10.64735	0.11	3	100	0	50	-11.11351	-2.307267	64.09383	
12:04:28	-6.733805	38.95365	107.228	0.1580522	-12.08632	0.21	3	100	0	50	3.798541	-1.886021	65.03931	
12:04:28	-6.733804	38.95365	107.05	0.1918264	-4.728621	0.26	3	100	0	50	1.07426	-2.248619	64.82842	
12:04:28	-6.733804	38.95365	106.959	0.2115445	4.764313	0.19	3	100	0	50	-7.413519	-1.361629	63.68516	
12:04:29	-6.733804	38.95365	106.844	0.2332906	0.06958614	0.34	3	100	0	50	2.798836	-1.143754	63.90599	
12:04:29	-6.733804	38.95365	106.56	0.2776841	-5.352253	0.26	3	100	0	50	0.3128788	-1.128899	64.13554	
12:04:29	-6.733804	38.95365	106.37	0.3113841	3.225479	0.09	3	100	0	50	-6.273359	-1.37689	63.79972	
12:04:29	-6.733804	38.95365	106.188	0.3640398	4.155054	0.16	3	100	0	50	7.178825	-1.691099	65.51627	
12:04:29	-6.733803	38.95365	105.966	0.4132574	6.341651	0.42	3	100	0	50	5.006299	-2.347407	65.83625	
12:04:30	-6.733803	38.95365	105.949	0.3989057	13.43451	0.25	3	100	0	50	-7.58578	-3.24525	64.91758	
12:04:30	-6.733803	38.95365	105.88	0.4070432	16.15649	0.16	3	100	0	50	3.543405	-1.466609	63.93444	
12:04:30	-6.733803	38.95365	105.73	0.4123681	19.98404	0.45	3	100	0	50	-1.33178	-2.899261	60.67328	
12:04:30	-6.733803	38.95365	105.54	0.420271	16.37874	0.19	3	100	0	50	1.133028	-1.638943	62.14984	
12:04:30	-6.733803	38.95365	105.383	0.4493796	22.68795	0.07	3	100	0	50	2.19314	-2.487545	65.94197	
12:04:31	-6.733803	38.95365	105.163	0.4842194	20.89362	0.18	3	100	0	50	-10.03461	-2.970614	65.57365	
12:04:31	-6.733803	38.95365	105.003	0.5165083	13.28995	0.33	3	100	0	50	1.166304	-1.917309	66.29706	
12:04:31	-6.733802	38.95365	104.857	0.5266624	9.011734	0.17	3	100	0	50	-4.073962	-2.049557	67.08366	
12:04:31	-6.733802	38.95365	104.721	0.5410765	14.84389	0.04	3	100	0	50	-6.756592	-2.232704	66.86016	
12:04:31	-6.733802	38.95365	104.596	0.5553085	10.54961	0.22	3	100	0	50	2.104683	-2.169482	67.244	
12:04:32	-6.733802	38.95365	104.477	0.5275605	8.52486	0.26	3	100	0	50	5.328972	-2.772028	62.73051	
12:04:32	-6.733802	38.95365	104.506	0.4531873	2.866295	0.5	3	100	0	50	-8.982701	-1.739568	61.51851	
12:04:32	-6.733802	38.95365	104.506	0.3861735	0.4709626	0.09	3	100	0	50	-5.427718	-2.905549	61.98967	
12:04:32	-6.733802	38.95365	104.369	0.3453364	-1.086793	0.08	3	100	0	50	0.5073823	-2.16185	63.9018	
12:04:32	-6.733802	38.95365	104.333	0.3059881	-3.926373	0.08	3	100	0	50	-6.264025	-2.087882	63.54417	
12:04:33	-6.733802	38.95365	104.196	0.268939	-5.869457	0.13	3	100	0	50	-6.787179	-1.887029	63.61121	
12:04:33	-6.733802	38.95365	104.144	0.2498884	-8.124914	0.34	3	100	0	50	4.530539	-1.780714	64.67976	
12:04:33	-6.733802	38.95365	104.133	0.2480949	-6.433348	0.18	3	100	0	50	-1.586336	-2.4255	63.61623	
12:04:33	-6.733803	38.95365	104.14	0.2440388	-3.864027	0.19	3	100	0	50	-9.869737	-1.986874	63.20068	
12:04:33	-6.733803	38.95365	104.003	0.2390256	-6.325586	0.16	3	100	0	50	-5.340631	-1.81059	63.53525	
12:04:34	-6.733803	38.95365	103.964	0.2347517	-8.195188	0.12	3	100	0	50	-3.229108	-1.995954	63.71569	
12:04:34	-6.733803	38.95365	103.836	0.2356132	-5.820432	0.24	3	100	0	50	-3.202811	-1.850706	63.88545	
12:04:34	-6.733803	38.95365	103.601	0.2463186	-7.46613	0.35	3	100	0	50	-4.504957	-1.550466	63.92742	
12:04:34	-6.733803	38.95365	103.476	0.267446	-6.475606	0.22	3	100	0	50	-11.33255	-1.535414	63.06692	
12:04:34	-6.733803	38.95365	103.358	0.2378617	-4.509263	0.14	3	100	0	50	-8.358805	-2.079376	63.50319	
12:04:35	-6.733803	38.95364	103.192	0.1729641	-14.69391	0.28	3	100	0	50	-2.431414	-1.884082	64.07863	
12:04:35	-6.733804	38.95364	102.986	0.130057	-10.67871	0.37	3	100	0	50	5.006943	-1.091892	65.36779	
12:04:35	-6.733804	38.95364	102.783	0.1038906	-10.37872	0.36	3	100	0	50	-5.249488	-1.998841	64.26044	
12:04:35	-6.733803	38.95364	102.726	0.08746473	-4.648482	0.38	3	100	0	50	-7.442711	-2.30616	64.04832	
12:04:35	-6.733803	38.95364	102.686	0.107995	5.023615	0.02	3	100	0	50	-0.4648281	-2.369176	64.53347	
12:04:36	-6.733803	38.95364	102.61	0.12926	0.9407029	0.16	3	100	0	50	5.126355	-1.465987	65.21938	
12:04:36	-6.733803	38.95364	102.497	0.1267804	-13.18018	0.22	3	100	0	50	-13.14882	-1.976549	64.31525	
12:04:36	-6.733804	38.95364	102.479	0.1218641	-21.0532	0.06	3	100	0	50	-5.64702	-1.414784	64.73624	
12:04:36	-6.733804	38.95364	102.387	0.1237506	-20.26616	0.31	3	100	0	50	-1.457505	-1.998458	64.66763	
12:04:36	-6.733804	38.95364	102.335	0.1365249	-13.78282	0.17	3	100	0	50	-4.634758	-1.5652	64.61971	
12:04:37	-6.733804	38.95364	102.289	0.03279093	-19.48322	0.24	3	100	0	50	-4.765821	-1.68331	64.73	
12:04:37	-6.733805	38.95364	102.112	-0.05711098	-21.41477	0.22	3	100	0	50	6.50243	-1.021324	66.42789	
12:04:37	-6.733805	38.95364	101.921	-0.136685	-34.93672	0.17	3	100	0	50	10.57154	-1.898882	65.78339	
12:04:37	-6.733805	38.95364	101.751	-0.2295259	-43.33062	0.17	3	100	0	50	-7.922122	-1.509515	64.38981	
12:04:37	-6.733806	38.95364	101.749	-0.2756165	-41.7892	0.14	3	100	0	50	-0.251045	-1.385598	64.44308	
12:04:38	-6.733806	38.95364	101.727	-0.2998286	-27.17344	0.07	3	100	0	50	12.32392	-1.395565	66.76527	
12:04:38	-6.733806	38.95364	101.666	-0.2733801	-19.37899	0.14	3	100	0	50	10.10877	-2.742282	65.37215	
12:04:38	-6.733806	38.95364	101.75	-0.2357358	-17.34281	0.26	3	100	0	50	-9.764547	-1.815488	63.75256	
12:04:38	-6.733806	38.95364	101.647	-0.1729346	15.72746	0.31	3	100	0	50	-1.035381	-1.823857	64.32267	
12:04:38	-6.733806	38.95364	101.64	-0.1006272	19.91453	0.17	3	100	0	50	2.869761	-0.6332968	65.35352	
12:04:39	-6.733806	38.95364	101.632	-0.08609735	16.26729	0.14	3	100	0	50	1.988977	-0.988537	64.60123	
12:04:39	-6.733806	38.95364	101.602	-0.0809934	7.157351	0.22	3	100	0	50	-8.543656	-1.383211	64.32362	
12:04:39	-6.733805	38.95364	101.536	-0.05254523	9.658403	0.41	3	100	0	50	1.512507	-0.7513024	64.89638	
12:04:39	-6.733805	38.95364	101.346	-0.03369156	8.072635	0.14	3	99	0	50	0.2972438	-1.531587	65.02475	
12:04:40	-6.733805	38.95364	101.359	0.08474983	14.85911	0.09	3	99	0	50	-3.974817	-1.408298	65.06911	
12:04:40	-6.733805	38.95364	101.326	0.1408986	18.87054	0.26	3	99	0	50	-5.325841	-1.476308	64.98899	
12:04:40	-6.733805	38.95364	101.353	0.1949003	18.7619	0.17	3	99	0	50	-0.2104743	-0.8595761	65.44708	
12:04:40	-6.733806	38.95364	101.141	0.2190499	20.55986	0.22	3	99	0	50	-7.790007	-1.40647	64.82691	
12:04:40	-6.733806	38.95364	100.969	0.2462845	21.58219	0.16	3	99	0	50	2.203428	-0.8921041	65.92867	
12:04:41	-6.733806	38.95364	100.751	0.2713951	22.17926	0.06	3	99	0	50	5.077201	-1.028811	66.12313	
12:04:41	-6.733806	38.95364	100.74	0.2904181	17.29824	0.18	3	99	0	50	-8.767743	-1.549086	65.23245	
12:04:41	-6.733806	38.95364	100.766	0.2745027	-8.857991	0.33	3	99	0	50	2.397345	-1.151697	66.38358	
12:04:41	-6.733805	38.95364	100.846	0.2603531	8.04688	0.25	3	99	0	50	6.805915	-1.624321	66.37212	
12:04:41	-6.733805	38.95364	100.771	0.2647058	6.011482	0.08	3	99	0	50	-8.68295	-1.775452	64.65951	
12:04:42	-6.733804	38.95364	101.026	0.2611755	-4.590679	0.07	3	99	0	50	-1.659382	-1.947479	66.0631	
12:04:42	-6.733804	38.95364	101.181	0.2234481	-12.94858	0.06	3	99	0	50	-1.801617	-1.663962	65.49646	
12:04:42	-6.733804	38.95364	101.174	0.1633048	-13.6431	0.09	3	99	0	50	4.647543	-1.318776	67.94196	
12:04:42	-6.733805	38.95364	101.041	0.08793093	-15.6468	0.22	3	99	0	50	4.116624	-1.316665	67.27242	
12:04:43	-6.733805	38.95364	100.958	0.01006136	-6.213054	0.04	3	99	0	50	-6.707873	-2.183498	65.94765	
12:04:43	-6.733805	38.95364	100.879	-0.03396585	-8.142169	0.09	3	99	0	50	3.570786	-1.665419	66.48222	
12:04:43	-6.733805	38.95364	100.85	-0.07576185	-4.214703	0.12	3	99	0	50	4.370706	-1.71966	65.71192	
12:04:43	-6.733806	38.95364	100.645	-0.1256122	-9.7775	0.24	3	99	0	50	-4.888485	-1.954023	64.98862	
12:04:43	-6.733806	38.95364	100.594	-0.1456386	-18.3873	0.11	3	99	0	50	6.106143	-1.337668	65.58284	
12:04:44	-6.733807	38.95364	100.518	-0.1308481	-9.042817	0.53	3	99	0	50	16.01908	-2.172564	64.80712	
12:04:44	-6.733807	38.95363	100.548	-0.11306	-16.70841	0.29	3	99	0	50	16.01908	-2.172564	64.80712	
12:04:44	-6.733807	38.95363	100.666	-0.09680914	-11.93989	0.08	3	98	0	50	-2.205782	-2.073727	63.38592	
12:04:44	-6.733807	38.95363	100.774	-0.1511261	-32.48895	0.55	3	98	0	50	15.28805	-2.601499	63.17322	
12:04:44	-6.733806	38.95364	101.411	-0.23862	-31.41901	0.13	3	98	0	50	13.65355	-3.248376	61.73701	
12:04:45	-6.733804	38.95364	101.83	-0.3182889	-33.56522	0.39	3	98	0	50	-10.79112	-3.155254	60.87032	
12:04:45	-6.733802	38.95364	102.357	-0.3768565	-33.42949	0.24	3	98	0	50	0.9355802	-3.603481	61.66083	
12:04:45	-6.733801	38.95364	102.857	-0.4308434	-39.5805	0.14	3	98	0	50	3.450659	-2.175253	61.6839	
12:04:45	-6.7338	38.95364	103.084	-0.4514807	-21.7149	0.34	3	98	0	50	-11.25814	-1.976045	61.39559	
12:04:45	-6.733799	38.95364	103.398	-0.42959	-18.6603	0.21	3	98	0	50	5.721799	-1.966071	62.05235	
12:04:46	-6.733799	38.95364	103.864	-0.3994517	-10.45386	0.22	3	98	0	50	-5.093135	-2.096772	61.60313	
12:04:46	-6.733798	38.95364	104.272	-0.3379665	0.1154982	0.14	3	98	0	50	-3.334822	-1.366382	61.53324	
