Date	Latitude(deg) 	Longitude(deg)	hamsl(m)	hafl(m)	climbrate(cm/s)	GroundSpeed(m/s)	Airspeed(m/s)	Mav_Link(%)	Rssi_Link(%)	Throttle	Roll(deg)	Pitch(deg)	Yaw(deg)
17:37:50	-6.795904	38.98536	130.52	0	0	0.14	0	100	0	0	1.798406	-15.5432	58.17311	
17:37:50	-6.795908	38.98536	131.57	-0.4612127	-1.649205	0.24	3	100	0	99	1.905418	-15.85391	58.11184	
17:37:50	-6.795907	38.98536	131.731	-0.45993	-3.310131	0.31	3	100	0	100	1.745043	-15.73007	58.11568	
17:37:50	-6.795907	38.98536	132.222	-0.4571228	-4.653475	0.32	3	100	0	100	1.777129	-15.90248	58.08979	
17:37:51	-6.795907	38.98536	132.222	-0.3072452	2.855386	0.22	3	100	0	100	2.02402	-15.81999	57.97914	
17:37:51	-6.795908	38.98536	132.595	0.03922317	19.78565	0.22	3	100	0	100	2.124426	-15.67092	57.9225	
17:37:51	-6.795908	38.98536	132.64	0.437668	37.00942	0.19	3	100	0	100	2.100926	-15.67237	57.88831	
17:37:51	-6.795908	38.98536	132.64	0.8211393	52.71317	0.09	3	100	0	100	1.872354	-15.67107	57.92595	
17:37:51	-6.795908	38.98536	132.64	0.918398	50.9636	0.09	3	100	0	100	1.761207	-15.64656	57.94418	
17:37:52	-6.795909	38.98536	132.732	0.8409707	41.11781	0.09	3	100	0	100	1.737861	-15.63917	57.92513	
17:37:52	-6.795909	38.98536	132.816	0.7972816	33.25929	0.13	3	100	0	100	1.857189	-15.58418	57.8637	
17:37:52	-6.795909	38.98536	132.816	0.7718923	27.19093	0.19	3	100	0	100	1.611815	-15.53524	57.90864	
17:37:52	-6.795908	38.98536	132.914	0.7237496	21.43555	0.58	3	100	0	100	1.203855	-15.42496	58.04183	
17:37:52	-6.795907	38.98536	132.938	0.6439555	13.42351	0.22	3	100	0	100	1.467795	-15.3763	58.00948	
17:37:53	-6.795907	38.98536	132.988	0.5464572	5.184795	0.39	3	100	0	100	2.025944	-15.6315	57.88185	
17:37:53	-6.795907	38.98536	132.988	0.4608285	-0.8741797	0.39	3	100	0	100	2.217841	-15.75039	57.79418	
17:37:53	-6.795908	38.98536	134.154	0.3619726	-7.384739	0.42	3	100	0	100	2.269836	-15.52245	57.73701	
17:37:53	-6.795909	38.98536	134.181	0.2947981	-11.31332	0.26	3	100	0	100	2.024478	-15.73063	57.77155	
17:37:53	-6.795909	38.98536	134.168	0.2335328	-14.55626	0.29	3	100	0	100	1.941214	-15.83623	57.74755	
17:37:54	-6.795909	38.98536	134.168	0.170457	-17.86409	0.29	3	100	0	100	1.943272	-15.82923	57.71015	
17:37:54	-6.795909	38.98536	134.168	0.1134146	-20.64243	0.29	3	100	0	100	1.93683	-15.79997	57.6808	
17:37:54	-6.795908	38.98536	133.808	0.08789174	-22.08036	0.07	3	100	0	100	1.761665	-15.53357	57.69607	
17:37:54	-6.795908	38.98536	133.808	0.06157628	-23.25801	0.13	3	100	0	100	1.524724	-15.34466	57.7703	
17:37:54	-6.795908	38.98536	133.942	0.02671808	-23.90378	0.14	3	100	0	100	1.407585	-15.38413	57.82004	
17:37:55	-6.795909	38.98536	134.017	-0.003199283	-24.82795	0.33	3	100	0	100	1.772453	-15.31729	57.74805	
17:37:55	-6.795909	38.98536	134.017	-0.009763952	-24.64408	0.36	3	100	0	100	1.936661	-15.43273	57.70544	
17:37:55	-6.795909	38.98536	134.193	-0.01341803	-24.08981	0.16	3	100	0	100	1.716862	-15.52703	57.75028	
17:37:55	-6.795909	38.98536	134.394	-0.07920848	-26.62768	0.14	3	100	0	100	1.540849	-15.34609	57.80627	
17:37:55	-6.795909	38.98536	134.394	-0.1310397	-27.86969	0.14	3	100	0	100	1.488029	-15.25073	57.85766	
17:37:56	-6.795909	38.98536	134.365	-0.2301496	-31.32933	0.14	3	100	0	100	1.463874	-15.29471	57.89969	
17:37:56	-6.795909	38.98536	134.675	-0.3168516	-33.90438	0.14	3	100	0	100	1.453829	-15.31854	57.93134	
17:37:56	-6.795909	38.98536	134.675	-0.3136574	-31.46398	0.14	3	100	0	100	1.4368	-15.32087	57.95913	
17:37:56	-6.795909	38.98536	134.554	-0.3073894	-29.58062	0.37	3	100	0	100	1.105807	-15.33391	58.07666	
17:37:56	-6.795909	38.98536	134.408	-0.2556196	-25.43884	0.08	3	100	0	100	0.9478247	-15.34473	58.16473	
17:37:57	-6.795908	38.98536	134.406	-0.201846	-21.81004	0.08	3	100	0	100	1.206309	-15.56312	58.12843	
17:37:57	-6.795907	38.98536	134.251	-0.1968011	-20.56262	0.09	3	100	0	100	1.273146	-15.62617	58.11986	
17:37:57	-6.795907	38.98536	134.178	-0.1913881	-20.31139	0.14	3	100	0	100	1.319346	-15.66342	58.11206	
17:37:57	-6.795907	38.98536	134.632	-0.2515733	-22.27496	0.37	3	100	0	100	1.496503	-15.58599	58.05416	
17:37:57	-6.795907	38.98536	134.632	-0.3029252	-23.18534	0.37	3	100	0	100	1.248016	-15.34579	58.13213	
17:37:58	-6.795907	38.98536	134.893	-0.3386279	-23.96373	0.19	3	100	0	100	1.123057	-15.27169	58.20316	
17:37:58	-6.795908	38.98536	135.174	-0.3746583	-23.87261	0.19	3	100	0	100	1.487431	-15.67395	58.11723	
17:37:58	-6.795908	38.98536	135.357	-0.3836565	-23.19489	0.09	3	100	0	100	1.594837	-15.78263	58.05396	
17:37:58	-6.795908	38.98535	135.421	-0.372029	-21.03597	0.03	3	100	0	100	1.526545	-15.72381	58.04028	
17:37:58	-6.795908	38.98535	135.421	-0.3597749	-19.34356	0.13	3	100	0	100	1.441416	-15.65398	58.03716	
17:37:59	-6.795908	38.98535	135.427	-0.3487966	-18.28392	0.22	3	100	0	100	1.318528	-15.55741	58.06805	
17:37:59	-6.795908	38.98535	135.328	-0.3324232	-16.222	0.11	3	100	0	100	1.590506	-15.67789	57.99611	
17:37:59	-6.795908	38.98535	135.459	-0.3124318	-14.5781	0.02	3	100	0	100	1.5534	-15.7092	57.9851	
17:37:59	-6.795908	38.98535	135.331	-0.3496455	-16.34617	0.14	3	100	0	100	1.442238	-15.63743	58.0025	
17:37:59	-6.795908	38.98535	135.473	-0.4187971	-19.84289	0.13	3	100	0	100	1.23574	-15.57837	58.05829	
17:38:00	-6.795908	38.98535	135.473	-0.4821343	-21.9794	0.19	3	100	0	100	1.188208	-15.58176	58.09629	
17:38:00	-6.795907	38.98535	135.578	-0.5381733	-23.2	0.13	3	100	0	100	1.400508	-15.7253	58.05283	
17:38:00	-6.795907	38.98535	135.578	-0.5992661	-25.34686	0.22	3	100	0	100	1.223188	-15.50437	58.10094	
17:38:00	-6.795907	38.98535	136.077	-0.6639482	-27.48033	0.19	3	100	0	100	1.135517	-15.68986	58.14156	
17:38:00	-6.795907	38.98535	136.077	-0.7215243	-29.16256	0.17	3	100	0	100	1.059101	-15.69998	58.17252	
17:38:01	-6.795907	38.98535	136.366	-0.7722849	-30.45811	0.35	3	100	0	100	1.272821	-15.68476	58.11032	
17:38:01	-6.795908	38.98535	136.557	-0.7880263	-29.5539	0.14	3	100	0	100	1.557474	-15.36335	58.02021	
17:38:01	-6.795908	38.98535	136.557	-0.7818657	-27.22351	0.14	3	100	0	100	1.439796	-15.49607	58.07027	
17:38:01	-6.795908	38.98535	136.557	-0.7694839	-24.81397	0.14	3	100	0	100	1.222996	-15.75276	58.1364	
17:38:01	-6.795908	38.98535	136.703	-0.7526091	-22.21336	0.24	3	100	0	100	0.9964247	-16.03219	58.19411	
17:38:02	-6.795908	38.98535	137.218	-0.742381	-20.64485	0.24	3	100	0	100	0.9613819	-15.93988	58.18783	
17:38:02	-6.795908	38.98535	137.535	-0.7344127	-18.78306	0.06	3	100	0	100	0.9310651	-15.89588	58.18742	
17:38:02	-6.795909	38.98535	137.699	-0.721304	-17.2741	0.28	3	100	0	100	0.8479532	-16.08231	58.22366	
17:38:02	-6.795909	38.98535	137.829	-0.7063774	-15.66325	0.32	3	100	0	100	1.186619	-16.03232	58.119	
17:38:02	-6.795909	38.98535	137.829	-0.6875524	-14.45934	0.28	3	100	0	100	1.334401	-16.12499	58.04625	
17:38:03	-6.795909	38.98535	138.257	-0.6677797	-13.03183	0.22	3	100	0	100	1.282328	-16.16491	58.02945	
17:38:03	-6.795909	38.98535	138.257	-0.6458712	-12.07751	0.04	3	100	0	100	0.8767508	-15.93461	58.12135	
17:38:03	-6.795908	38.98535	138.493	-0.6198686	-9.670251	0.16	3	100	0	100	1.016515	-15.9885	58.10213	
17:38:03	-6.795908	38.98535	138.254	-0.5948538	-8.086402	0.34	3	100	0	100	0.9244568	-16.06096	58.12781	
17:38:03	-6.795908	38.98535	138.254	-0.6169266	-8.785364	0.12	3	100	0	100	1.394296	-16.02624	57.98386	
17:38:04	-6.795908	38.98535	138.136	-0.6364052	-9.801147	0.12	3	100	0	100	1.220747	-16.06323	57.98833	
17:38:04	-6.795908	38.98535	137.936	-0.6364046	-9.633465	0.12	3	100	0	100	1.201439	-16.04124	57.97445	
17:38:04	-6.795908	38.98535	137.957	-0.6352425	-8.84883	0.03	3	100	0	100	1.20357	-15.99934	57.95525	
17:38:04	-6.795908	38.98535	137.787	-0.5586398	-4.948352	0.14	3	100	0	100	1.25571	-15.80615	57.92112	
17:38:04	-6.795908	38.98535	137.773	-0.4900085	-1.828764	0.14	3	100	0	100	1.35718	-15.82238	57.89191	
17:38:05	-6.795908	38.98535	137.909	-0.3919044	2.81622	0.32	3	100	0	100	1.074832	-15.70711	57.96614	
17:38:05	-6.795908	38.98535	137.909	-0.3051919	5.959539	0.32	3	100	0	100	0.8593792	-15.64219	58.06194	
17:38:05	-6.795907	38.98535	138.112	-0.2654546	7.263678	0.28	3	100	0	100	0.6374612	-15.57278	58.15167	
17:38:05	-6.795907	38.98535	138.518	-0.2305396	7.895957	0.28	3	100	0	100	0.6260133	-15.53336	58.20581	
17:38:05	-6.795907	38.98535	138.538	-0.252116	5.193895	0.19	3	100	0	100	0.6315855	-15.5161	58.2586	
17:38:06	-6.795907	38.98535	138.296	-0.274216	3.187737	0.24	3	100	0	100	1.212394	-15.60896	58.15429	
17:38:06	-6.795907	38.98535	138.369	-0.3021	0.7819191	0.5	3	100	0	100	0.8628364	-15.58777	58.26722	
17:38:06	-6.795907	38.98535	138.365	-0.328505	-0.9854196	0.34	3	100	0	100	0.6251255	-15.22602	58.36892	
17:38:06	-6.795907	38.98535	138.065	-0.3689104	-3.548256	0.14	3	100	0	100	0.7120917	-15.31279	58.41704	
17:38:06	-6.795907	38.98535	138.065	-0.4063459	-6.08267	0.14	3	100	0	100	0.9750365	-15.70142	58.38287	
17:38:07	-6.795907	38.98535	138.272	-0.4362432	-7.86165	0.25	3	100	0	100	1.280666	-16.11724	58.28192	
17:38:07	-6.795907	38.98535	138.61	-0.4594544	-9.515576	0.25	3	100	0	100	1.299139	-16.17674	58.2335	
17:38:07	-6.795907	38.98535	138.669	-0.4559521	-8.764565	0.14	3	100	0	100	1.317996	-16.16386	58.17183	
17:38:07	-6.795907	38.98535	138.669	-0.4516743	-8.412014	0.14	3	100	0	100	1.385687	-15.76684	58.11563	
17:38:07	-6.795906	38.98535	138.844	-0.5010015	-10.74511	0.11	3	100	0	100	1.436263	-15.32984	58.09218	
17:38:08	-6.795906	38.98535	138.872	-0.5374403	-12.33279	0.17	3	100	0	100	1.50385	-15.3247	58.09262	
17:38:08	-6.795906	38.98535	138.896	-0.5521897	-11.8469	0.09	3	100	0	100	1.30869	-15.11418	58.17219	
17:38:08	-6.795906	38.98535	138.896	-0.5381052	-10.48233	0.09	3	100	0	100	1.276526	-15.21125	58.23245	
17:38:08	-6.795906	38.98535	138.807	-0.5153111	-8.540676	0.19	3	100	0	100	1.332025	-15.06039	58.25154	
17:38:08	-6.795906	38.98535	138.753	-0.4784587	-5.980945	0.19	3	100	0	100	1.620474	-15.08171	58.20828	
17:38:09	-6.795906	38.98535	138.776	-0.4527215	-4.619187	0.12	3	100	0	100	1.65085	-15.11453	58.21194	
17:38:09	-6.795906	38.98535	138.776	-0.4405779	-4.134676	0.12	3	100	0	100	1.568564	-15.13839	58.24994	
17:38:09	-6.795906	38.98535	138.916	-0.4596179	-4.450259	0.06	3	100	0	100	1.471645	-15.1703	58.28991	
17:38:09	-6.795906	38.98535	139.265	-0.4937775	-6.63234	0.06	3	100	0	100	1.349162	-15.19777	58.33752	
17:38:09	-6.795906	38.98535	139.51	-0.5243391	-8.557716	0.21	3	100	0	100	1.388557	-15.30072	58.36392	
17:38:10	-6.795906	38.98535	139.792	-0.545755	-9.476398	0.13	3	100	0	100	1.108489	-15.23268	58.44888	
17:38:10	-6.795905	38.98536	139.948	-0.5536508	-9.444999	0.09	3	100	0	100	1.341506	-15.41411	58.41325	
17:38:10	-6.795905	38.98535	140.032	-0.5450884	-8.641163	0.28	3	100	0	100	1.274227	-15.23541	58.43055	
17:38:10	-6.795905	38.98535	140.032	-0.5592763	-9.091987	0.28	3	100	0	100	1.338661	-15.01809	58.44194	
17:38:10	-6.795905	38.98535	140.097	-0.60342	-11.19063	0.19	3	100	0	100	1.414135	-14.81892	58.46677	
17:38:11	-6.795905	38.98535	140.097	-0.6342999	-12.17935	0.19	3	100	0	100	1.492871	-14.92496	58.49919	
17:38:11	-6.795904	38.98535	140.044	-0.6527636	-12.45487	0.19	3	100	0	100	1.490068	-14.96291	58.533	
17:38:11	-6.795905	38.98535	139.963	-0.6633655	-12.06055	0.29	3	100	0	100	1.477606	-14.99037	58.57318	
17:38:11	-6.795905	38.98535	140.152	-0.6669115	-11.47711	0.22	3	100	0	100	1.542244	-14.97441	58.58275	
17:38:11	-6.795905	38.98536	140.362	-0.6588806	-10.63804	0.25	3	100	0	100	1.474706	-15.15508	58.62384	
17:38:12	-6.795905	38.98536	140.715	-0.6361753	-8.987885	0.29	3	100	0	100	1.066117	-15.25384	58.75681	
17:38:12	-6.795905	38.98536	140.868	-0.6030918	-6.713742	0.17	3	100	0	100	1.476768	-15.29488	58.68055	
17:38:12	-6.795905	38.98536	141.039	-0.5560073	-4.027368	0.12	3	100	0	100	1.384549	-15.28781	58.71131	
17:38:12	-6.795905	38.98536	140.9	-0.507498	-1.239178	0.12	3	100	0	100	1.206101	-15.38874	58.75227	
17:38:12	-6.795905	38.98536	140.809	-0.4556474	1.21507	0.07	3	100	0	100	1.178526	-15.41191	58.76246	
17:38:13	-6.795905	38.98536	140.748	-0.4086069	3.822987	0.07	3	100	0	100	1.083143	-15.2602	58.7996	
17:38:13	-6.795905	38.98536	140.868	-0.3779165	4.781248	0.07	3	100	0	100	1.146049	-15.39095	58.8051	
17:38:13	-6.795905	38.98536	140.868	-0.3514497	5.530859	0.07	3	100	0	100	1.107699	-15.27983	58.84176	
17:38:13	-6.795905	38.98536	141.407	-0.3210071	6.043101	0.18	3	100	0	100	1.104702	-15.27642	58.86241	
17:38:13	-6.795905	38.98536	141.534	-0.2949299	6.330772	0.11	3	100	0	100	1.294502	-15.24147	58.82148	
17:38:14	-6.795905	38.98536	141.807	-0.2428067	8.043976	0.32	3	100	0	100	1.097918	-15.46848	58.8727	
17:38:14	-6.795905	38.98536	142.009	-0.1974809	9.219512	0.34	3	100	0	100	1.375863	-15.5129	58.80201	
17:38:14	-6.795904	38.98536	142.106	-0.1881529	8.999298	0.24	3	100	0	100	1.240139	-15.71559	58.82418	
17:38:14	-6.795904	38.98536	142.335	-0.181713	8.036572	0.42	3	100	0	100	0.8146413	-15.4933	58.92497	
17:38:14	-6.795904	38.98536	142.335	-0.1943938	6.661452	0.76	3	100	0	100	0.6035385	-15.46358	58.99433	
17:38:15	-6.795904	38.98536	142.494	-0.2065182	5.68228	0.07	3	100	0	100	1.747368	-15.352	58.70588	
17:38:15	-6.795904	38.98536	142.523	-0.2158341	4.178167	0.12	3	100	0	100	1.063129	-15.48078	58.87239	
17:38:15	-6.795904	38.98536	142.523	-0.226772	2.38184	0.12	3	100	0	100	1.046769	-15.42715	58.8866	
17:38:15	-6.795903	38.98536	142.701	-0.2221739	1.761843	0.09	3	100	0	100	1.066668	-15.41279	58.8946	
17:38:15	-6.795903	38.98536	142.658	-0.2192704	1.2677	0.22	3	100	0	100	0.899596	-15.48357	58.95162	
17:38:16	-6.795902	38.98536	142.716	-0.1985289	1.727561	0.26	3	100	0	100	0.7322679	-15.60425	59.00001	
17:38:16	-6.795902	38.98536	142.867	-0.1801737	2.493448	0.09	3	100	0	100	0.7492868	-15.70174	58.99811	
17:38:16	-6.795902	38.98536	142.86	-0.2397527	-1.303309	0.11	3	100	0	100	0.9464179	-15.42472	58.94789	
17:38:16	-6.795902	38.98536	142.95	-0.2941665	-3.753114	0.29	3	100	0	100	0.9005916	-15.62348	58.98059	
17:38:16	-6.795902	38.98536	142.95	-0.3215408	-5.130092	0.29	3	100	0	100	0.5697428	-15.70045	59.06548	
17:38:17	-6.7959	38.98536	142.991	-0.3465025	-6.884935	0.38	3	100	0	100	0.5401242	-15.70964	59.08789	
17:38:17	-6.7959	38.98536	142.991	-0.3998602	-9.395072	0.31	3	100	0	100	0.4878151	-15.75878	59.11275	
17:38:17	-6.7959	38.98535	142.849	-0.4480606	-11.54022	0.35	3	100	0	100	0.6836157	-15.81755	59.07017	
17:38:17	-6.7959	38.98535	142.681	-0.4833926	-12.1727	0.08	3	100	0	100	1.043684	-15.48669	58.97514	
17:38:17	-6.795899	38.98535	142.675	-0.5137417	-12.55694	0.29	3	100	0	100	0.8184695	-15.78631	59.03115	
17:38:18	-6.795898	38.98535	142.794	-0.5514759	-13.52564	0.29	3	100	0	100	0.4693212	-16.05262	59.11325	
17:38:18	-6.795898	38.98535	142.794	-0.6019363	-15.46532	0.29	3	100	0	100	0.3424913	-15.88055	59.14212	
17:38:18	-6.795898	38.98535	142.689	-0.626761	-15.26727	0.21	3	100	0	100	0.2419522	-15.69238	59.174	
17:38:18	-6.795899	38.98535	142.789	-0.6216027	-13.78062	0.31	3	100	0	100	0.4776183	-15.57909	59.12314	
17:38:18	-6.795899	38.98535	143.151	-0.6040946	-11.53783	0.31	3	100	0	100	0.6870716	-15.66421	59.08533	
17:38:19	-6.795899	38.98535	143.343	-0.5773436	-9.114506	0.31	3	100	0	100	0.7174232	-15.66382	59.0915	
17:38:19	-6.795899	38.98535	143.461	-0.5897278	-8.874739	0.31	3	100	0	100	0.7436886	-15.65188	59.09813	
17:38:19	-6.795899	38.98535	143.319	-0.6241258	-9.823159	0.31	3	100	0	100	0.766746	-15.65504	59.09175	
17:38:19	-6.795899	38.98535	143.224	-0.6443427	-10.49378	0.14	3	100	0	100	0.7888393	-15.63418	59.07127	
17:38:19	-6.795897	38.98535	143.246	-0.658163	-10.68461	0.19	3	100	0	100	0.4918409	-15.74021	59.15232	
17:38:20	-6.795897	38.98535	143.251	-0.6459519	-9.410398	0.55	3	100	0	100	0.09296186	-15.8726	59.28154	
17:38:20	-6.795897	38.98535	143.251	-0.600068	-6.293417	0.22	3	100	0	100	-0.3586962	-15.97903	59.42231	
17:38:20	-6.795897	38.98535	143.17	-0.5611831	-3.706768	0.22	3	100	0	100	0.3527203	-15.96231	59.23865	
17:38:20	-6.795897	38.98535	143.186	-0.536781	-2.584857	0.29	3	100	0	100	0.4213839	-15.95206	59.21983	
17:38:20	-6.795897	38.98535	143.564	-0.5095521	-2.001267	0.29	3	100	0	100	0.5899029	-15.70465	59.16287	
17:38:21	-6.795897	38.98535	143.564	-0.4829107	-0.5812978	0.09	3	100	0	100	0.629616	-15.66021	59.14904	
17:38:21	-6.795897	38.98535	143.688	-0.4570832	0.3880396	0.09	3	100	0	100	0.4115764	-15.75581	59.22878	
17:38:21	-6.795897	38.98535	143.688	-0.4399142	1.061729	0.34	3	100	0	100	0.3890399	-15.7644	59.25315	
17:38:21	-6.795896	38.98535	143.526	-0.4219491	1.933776	0.21	3	100	0	100	-0.07039414	-16.24805	59.3783	
17:38:21	-6.795896	38.98535	143.362	-0.4072682	2.301927	0.29	3	100	0	100	0.3881913	-16.0331	59.23509	
17:38:22	-6.795896	38.98535	143.362	-0.3870244	2.641999	0.29	3	100	0	100	0.2214384	-16.3233	59.25651	
17:38:22	-6.795896	38.98535	143.112	-0.3642677	3.031526	0.12	3	100	0	100	0.07905665	-16.59467	59.27151	
17:38:22	-6.795896	38.98535	143.153	-0.3441909	3.703017	0.14	3	100	0	100	0.05630299	-16.39836	59.24459	
17:38:22	-6.795895	38.98535	143.119	-0.3327081	3.476561	0.22	3	100	0	100	0.137118	-16.33394	59.20655	
17:38:22	-6.795895	38.98535	142.916	-0.3236983	3.185924	0.07	3	100	0	100	-0.08974026	-16.38278	59.26565	
17:38:23	-6.795895	38.98535	142.981	-0.331419	2.101681	0.47	3	100	0	100	0.2327669	-16.56486	59.16499	
17:38:23	-6.795895	38.98535	143.019	-0.339413	1.120219	0.32	3	100	0	100	0.4694522	-17.11045	59.03802	
17:38:23	-6.795894	38.98535	143.121	-0.36632	-0.8979471	0.09	3	100	0	100	0.04574629	-16.66787	59.08769	
17:38:23	-6.795894	38.98535	143.223	-0.3914106	-2.481037	0.24	3	100	0	100	0.6267522	-16.58126	58.8784	
17:38:23	-6.795894	38.98535	143.046	-0.3843046	-2.347663	0.17	3	100	0	100	0.5322868	-16.30241	58.85094	
17:38:24	-6.795894	38.98535	143.046	-0.3778853	-2.028064	0.17	3	100	0	100	0.4471208	-16.61187	58.83857	
17:38:24	-6.795894	38.98535	143.046	-0.3830686	-2.40435	0.17	3	100	0	100	0.4755546	-16.56585	58.78908	
17:38:24	-6.795893	38.98535	142.154	-0.3885885	-2.701549	0.21	3	100	0	100	0.5132488	-16.53901	58.73611	
17:38:24	-6.795893	38.98535	141.908	-0.367027	-0.8459374	0.07	3	100	0	100	0.8945156	-16.61859	58.57361	
17:38:25	-6.795893	38.98535	141.78	-0.3466672	0.1954361	0.24	3	100	0	100	0.6796536	-16.34414	58.57728	
17:38:25	-6.795892	38.98535	141.742	-0.3240809	1.364629	0.14	3	100	0	100	0.5037564	-16.34806	58.61085	
17:38:25	-6.795891	38.98535	141.605	-0.3031765	3.010599	0.39	3	100	0	100	0.6300763	-16.29139	58.54396	
17:38:25	-6.795891	38.98535	141.67	-0.2780843	3.534845	0.29	3	100	0	100	0.7276217	-16.8841	58.48806	
17:38:25	-6.795891	38.98535	141.898	-0.2568063	4.076679	0.26	3	100	0	100	0.5998629	-16.39979	58.47553	
17:38:26	-6.79589	38.98535	141.927	-0.2440041	3.691452	0.26	3	100	0	100	0.8886994	-16.20494	58.3662	
17:38:26	-6.79589	38.98535	141.927	-0.2342759	3.391979	0.29	3	100	0	100	0.8969955	-16.15716	58.33275	
17:38:26	-6.795891	38.98534	142.262	-0.2280115	3.335091	0.22	3	100	0	100	0.4917517	-16.54848	58.42648	
17:38:26	-6.795891	38.98534	142.028	-0.2229078	2.996802	0.21	3	100	0	100	0.895533	-16.36452	58.27359	
17:38:26	-6.795891	38.98534	142.028	-0.1957857	3.893275	0.21	3	100	0	100	0.9621066	-16.45069	58.20199	
17:38:27	-6.795891	38.98534	141.563	-0.1724283	4.472774	0.24	3	100	0	100	0.9963068	-16.44308	58.14068	
17:38:27	-6.795891	38.98534	141.563	-0.1438516	5.715313	0.24	3	100	0	100	0.7785295	-16.8378	58.14741	
17:38:27	-6.79589	38.98534	141.578	-0.1189889	6.289502	0.19	3	100	0	100	0.5710129	-17.25092	58.12932	
17:38:27	-6.79589	38.98534	141.728	-0.1118346	6.182815	0.21	3	100	0	100	0.5109584	-17.06613	58.0475	
17:38:27	-6.795889	38.98534	141.483	-0.1070402	5.728736	0.48	3	100	0	100	0.4970904	-17.20908	57.97233	
17:38:28	-6.795889	38.98534	141.427	-0.09481741	5.985656	0.06	3	100	0	100	0.2197661	-17.27585	57.98228	
17:38:28	-6.795889	38.98534	141.427	-0.07772035	6.188543	0.14	3	100	0	100	0.7161043	-17.10443	57.76686	
17:38:28	-6.795888	38.98534	141.417	-0.0642957	6.040912	0.14	3	100	0	100	0.5625624	-17.03666	57.74818	
17:38:28	-6.795889	38.98534	141.533	-0.05141363	5.851777	0.14	3	100	0	100	0.6056104	-16.98081	57.68594	
17:38:28	-6.795889	38.98534	141.533	-0.05308456	5.427483	0.25	3	100	0	100	0.6979142	-16.91485	57.6148	
17:38:29	-6.795889	38.98534	141.533	-0.06985068	3.754549	0.25	3	100	0	100	1.229887	-16.82564	57.40821	
17:38:29	-6.795889	38.98534	141.566	-0.06627437	3.512591	0.17	3	100	0	100	1.67701	-16.75072	57.20641	
17:38:29	-6.795889	38.98534	141.474	-0.05237384	3.921026	0.32	3	100	0	100	1.518586	-16.69175	57.17196	
17:38:29	-6.795889	38.98534	141.47	-0.02075729	5.153366	0.11	3	100	0	100	1.954058	-16.7349	56.95934	
17:38:29	-6.795889	38.98534	141.368	0.02407669	6.898549	0.16	3	100	0	100	1.591509	-16.53238	56.98425	
17:38:30	-6.795889	38.98534	141.194	0.04021753	6.402153	0.16	3	100	0	100	1.497021	-16.65873	56.96015	
17:38:30	-6.795888	38.98534	141.384	0.02009979	4.275917	0.19	3	100	0	100	1.493043	-16.63158	56.90012	
17:38:30	-6.795888	38.98534	141.283	-0.006236621	2.275311	0.09	3	100	0	100	1.483169	-16.62725	56.84423	
17:38:30	-6.795888	38.98534	141.601	-0.03989283	0.3645728	0.26	3	100	0	100	1.704285	-16.47989	56.71374	
17:38:30	-6.795889	38.98534	141.714	-0.07576472	-1.787781	0.31	3	100	0	100	1.841586	-16.33179	56.60997	
17:38:31	-6.795889	38.98534	141.789	-0.1080879	-3.930727	0.17	3	100	0	100	1.94368	-16.61685	56.51281	
17:38:31	-6.795889	38.98534	142.129	-0.1134888	-3.866414	0.28	3	100	0	100	1.716945	-16.33695	56.51824	
17:38:31	-6.795889	38.98534	142.129	-0.1028018	-2.905766	0.28	3	100	0	100	1.756281	-16.20985	56.47228	
17:38:31	-6.795889	38.98534	142.495	-0.1027883	-2.567963	0.09	3	100	0	100	1.7217	-16.18907	56.45885	
17:38:31	-6.795889	38.98534	142.582	-0.1095506	-3.411316	0.09	3	100	0	100	1.487033	-16.35967	56.51507	
17:38:32	-6.795889	38.98534	142.21	-0.1199662	-4.225246	0.09	3	100	0	100	1.43126	-16.36756	56.49457	
17:38:32	-6.795888	38.98534	142.043	-0.1351435	-4.502733	0.18	3	100	0	100	1.391407	-16.34392	56.46898	
17:38:32	-6.795888	38.98534	142.139	-0.150694	-4.641172	0.14	3	100	0	100	1.251643	-16.37221	56.49501	
17:38:32	-6.795888	38.98534	142.055	-0.1679307	-5.031973	0.37	3	100	0	100	1.362856	-16.3337	56.45643	
17:38:32	-6.795889	38.98534	141.945	-0.1843853	-5.515834	0.11	3	100	0	100	1.851395	-16.27007	56.29899	
17:38:33	-6.795889	38.98534	142.057	-0.1877488	-5.410977	0.31	3	100	0	100	1.65806	-16.2282	56.3321	
17:38:33	-6.795889	38.98534	142.146	-0.1903496	-5.409204	0.22	3	100	0	100	1.813205	-16.08604	56.24399	
17:38:33	-6.795888	38.98534	142.366	-0.1522124	-2.725413	0.29	3	100	0	100	1.335157	-16.21153	56.36435	
17:38:33	-6.795888	38.98534	142.405	-0.1168137	-0.5191651	0.29	3	100	0	100	1.243975	-16.2501	56.37928	
17:38:33	-6.795888	38.98534	142.405	-0.1398005	-1.596266	0.56	3	100	0	100	1.317524	-16.25183	56.36098	
17:38:34	-6.795888	38.98534	142.227	-0.1635609	-3.139518	0.06	3	100	0	100	2.098555	-16.42771	56.10138	
17:38:34	-6.795888	38.98534	141.876	-0.2239828	-5.378573	0.06	3	100	0	100	1.639023	-16.03044	56.18334	
17:38:34	-6.795888	38.98534	141.637	-0.2774967	-7.396065	0.04	3	100	0	100	1.583228	-16.00211	56.1977	
17:38:34	-6.795888	38.98534	141.637	-0.3237412	-8.948766	0.08	3	100	0	100	1.461033	-16.01634	56.22818	
17:38:34	-6.795889	38.98534	141.607	-0.3563036	-10.47215	0.29	3	100	0	100	1.583555	-15.94816	56.19658	
17:38:35	-6.795889	38.98534	141.751	-0.3408104	-8.465011	0.18	3	100	0	100	1.650943	-15.74556	56.18641	
17:38:35	-6.795889	38.98534	141.751	-0.3270016	-7.492157	0.14	3	100	0	100	1.52537	-15.83232	56.24662	
17:38:35	-6.795889	38.98534	141.777	-0.3174328	-6.263068	0.14	3	100	0	100	1.573115	-16.02115	56.24799	
17:38:35	-6.795889	38.98534	141.826	-0.3075602	-5.409292	0.14	3	100	0	100	1.549871	-16.01168	56.24093	
17:38:35	-6.795889	38.98534	141.822	-0.3247749	-5.879184	0.19	3	100	0	100	1.509171	-16.00353	56.25992	
17:38:36	-6.795889	38.98534	141.822	-0.3409009	-5.589479	0.19	3	100	0	100	1.176574	-15.86989	56.36942	
17:38:36	-6.795889	38.98534	141.822	-0.3609698	-6.293252	0.13	3	100	0	100	0.8690186	-15.7623	56.49052	
17:38:36	-6.795888	38.98534	141.437	-0.3793307	-7.582821	0.29	3	100	0	100	0.8173527	-15.77725	56.54882	
17:38:36	-6.795887	38.98534	141.489	-0.3698684	-6.367563	0.32	3	100	0	100	0.4181976	-15.54689	56.73085	
17:38:36	-6.795887	38.98534	141.489	-0.3598114	-4.853927	0.12	3	100	0	100	0.4434136	-15.68272	56.82284	
17:38:37	-6.795887	38.98534	141.401	-0.3191604	-2.46602	0.12	3	100	0	100	0.6969287	-15.69138	56.81697	
17:38:37	-6.795887	38.98534	141.528	-0.2852953	-0.6251438	0.12	3	100	0	100	0.698777	-15.68936	56.87273	
17:38:37	-6.795887	38.98534	142.093	-0.249263	1.518349	0.12	3	100	0	100	0.6934631	-15.69257	56.93101	
17:38:37	-6.795887	38.98534	142.093	-0.2199946	2.350649	0.12	3	100	0	100	0.6907991	-15.68239	56.99488	
17:38:37	-6.795887	38.98535	142.527	-0.190312	3.186159	0.51	3	100	0	100	0.7061512	-15.67483	57.03891	
17:38:38	-6.795887	38.98535	142.527	-0.1615176	4.346475	0.52	3	100	0	100	0.9111006	-15.6518	57.0166	
17:38:38	-6.795888	38.98535	142.605	-0.1334358	5.428328	0.52	3	100	0	100	0.9330204	-15.45324	57.05737	
17:38:38	-6.795887	38.98535	142.647	-0.1046577	6.507727	0.29	3	100	0	100	0.7356203	-15.50317	57.16816	
17:38:38	-6.795887	38.98535	142.599	-0.07664272	7.633005	0.42	3	100	0	100	-0.07664045	-15.69096	57.45202	
17:38:38	-6.795886	38.98534	142.47	-0.04586645	8.604403	0.42	3	100	0	100	-0.2052005	-15.77074	57.56729	
17:38:39	-6.795885	38.98534	142.59	-0.04894301	7.300134	0.14	3	100	0	100	-0.1516143	-15.71726	57.63141	
17:38:39	-6.795885	38.98534	142.393	-0.07025416	5.597898	0.14	3	100	0	100	0.06339338	-15.4995	57.66691	
17:38:39	-6.795884	38.98534	142.474	-0.06565288	5.385519	0.13	3	100	0	100	0.09276811	-15.54482	57.737	
17:38:39	-6.795884	38.98534	142.563	-0.04228437	6.185042	0.14	3	100	0	100	0.1480623	-15.68147	57.7889	
17:38:39	-6.795884	38.98534	142.563	-0.03476865	6.17923	0.14	3	100	0	100	0.2851544	-15.49648	57.82105	
17:38:40	-6.795885	38.98534	142.869	-0.04456023	5.015691	0.14	3	100	0	100	0.2845947	-15.47955	57.88858	
17:38:40	-6.795885	38.98534	143.001	-0.04535064	4.240243	0.42	3	100	0	100	0.3292821	-15.48171	57.94061	
17:38:40	-6.795886	38.98534	143.095	-0.03359849	3.793291	0.56	3	100	0	100	0.7324498	-15.5284	57.89347	
17:38:40	-6.795886	38.98534	142.768	-0.007347587	3.972485	0.28	3	100	0	100	0.6383778	-15.50191	57.96027	
17:38:40	-6.795886	38.98534	142.467	0.02375807	4.169759	0.09	3	100	0	100	-0.1571727	-15.5492	58.2393	
17:38:41	-6.795886	38.98534	142.467	-0.006385777	1.482687	0.19	3	100	0	100	0.1535105	-15.68179	58.23084	
17:38:41	-6.795886	38.98534	142.413	-0.07067291	-2.550129	0.02	3	100	0	100	0.302318	-15.73223	58.24363	
17:38:41	-6.795886	38.98534	142.413	-0.1118659	-4.864855	0.14	3	100	0	100	0.2086508	-15.59254	58.30931	
17:38:41	-6.795886	38.98534	142.943	-0.1357188	-6.03187	0.04	3	100	0	100	0.1547725	-15.51155	58.38552	
17:38:41	-6.795886	38.98534	142.943	-0.1678399	-6.981067	0.34	3	100	0	100	0.3327353	-15.67156	58.39259	
17:38:42	-6.795886	38.98534	142.943	-0.2076354	-8.245312	0.34	3	100	0	100	0.5477997	-15.84864	58.36178	
17:38:42	-6.795885	38.98534	143.168	-0.2238996	-8.916646	0.48	3	100	0	100	0.3949694	-15.79248	58.4329	
17:38:42	-6.795884	38.98534	143.258	-0.2114347	-7.688888	0.29	3	100	0	100	-0.2178678	-15.55394	58.6596	
17:38:42	-6.795884	38.98534	142.784	-0.1980229	-6.588593	0.04	3	100	0	100	0.07856245	-15.64786	58.64776	
17:38:42	-6.795883	38.98534	142.876	-0.1960979	-6.625822	0.26	3	100	0	100	0.3681606	-15.44088	58.64034	
17:38:43	-6.795883	38.98534	142.876	-0.1943276	-6.271996	0.32	3	100	0	100	0.3796312	-15.7372	58.68177	
17:38:43	-6.795883	38.98534	142.8	-0.2555268	-9.165473	0.33	3	100	0	100	0.1071458	-15.58931	58.80519	
17:38:43	-6.795882	38.98534	142.891	-0.3109155	-11.84519	0.28	3	100	0	100	0.1678181	-15.55483	58.83838	
17:38:43	-6.795883	38.98534	143.358	-0.3246191	-11.63777	0.06	3	100	0	100	0.4103756	-15.34001	58.82609	
17:38:43	-6.795883	38.98534	143.358	-0.3362458	-11.01693	0.26	3	100	0	100	0.4122305	-15.50466	58.88955	
17:38:44	-6.795883	38.98534	143.61	-0.3191274	-9.265739	0.14	3	100	0	100	0.4132676	-15.3387	58.94348	
17:38:44	-6.795883	38.98534	143.454	-0.3018	-7.203824	0.14	3	100	0	100	0.4384434	-15.44353	58.97824	
17:38:44	0	0	0	-0.3218526	-7.563995	0	3	100	0	100	0.1317908	-15.44435	60.26789	
17:38:44	47.46363	-122.3078	0.02	-0.3128951	-11.75633	0	3	100	0	100	-0.2638156	-15.57005	61.8884	
17:38:44	47.46363	-122.3078	0.02	-0.2909999	-14.54193	0	3	100	0	100	-0.6745489	-15.09521	63.56536	
17:38:45	47.46363	-122.3078	0.02	-0.2620045	-16.42463	0	3	100	0	100	-1.034308	-14.46296	65.15414	
17:38:45	47.46363	-122.3078	0.02	-0.2436706	-17.86779	0	3	100	0	100	-1.308903	-13.7931	66.50056	
17:38:45	47.46363	-122.3078	0.02	-0.2280492	-19.23934	0	3	100	0	100	-1.616869	-13.12724	68.13927	
17:38:45	47.46363	-122.3078	0.02	-0.2185607	-20.0424	0	3	100	0	100	-1.915741	-12.47611	69.86597	
17:38:45	47.46363	-122.3078	0.02	-0.2120005	-20.44087	0	3	100	0	100	-2.179054	-11.85154	71.58392	
17:38:46	47.46363	-122.3078	0.02	-0.2074552	-20.46632	0	3	100	0	100	-2.423314	-11.2326	73.34496	
17:38:46	47.46363	-122.3078	0.02	-0.2025365	-20.08061	0	3	100	0	100	-2.653026	-10.62776	75.19262	
17:38:46	47.46363	-122.3078	0.02	-0.1983798	-19.44644	0	3	100	0	100	-2.853863	-10.0464	77.0403	
17:38:46	47.46363	-122.3078	0.02	-0.1924781	-18.34031	0	3	100	0	100	-3.035448	-9.483287	78.92218	
17:38:46	47.46363	-122.3078	0.02	-0.1859951	-17.07081	0	3	100	0	100	-3.187407	-8.9356	80.79181	
17:38:47	47.46363	-122.3078	0.02	-0.178893	-15.71655	0	3	100	0	100	-3.32989	-8.400599	82.7662	
17:38:47	47.46363	-122.3078	0.02	-0.1697199	-14.0596	0	3	100	0	100	-3.449639	-7.868834	84.76145	
17:38:47	47.46363	-122.3078	0.02	-0.1588552	-12.22344	0	3	100	0	100	-3.558037	-7.299495	86.92212	
17:38:47	47.46363	-122.3078	0.02	-0.1453883	-10.08602	0	3	100	0	100	-3.585641	-6.75812	88.59035	
17:38:47	47.46363	-122.3078	0.02	-0.131523	-8.019617	0	3	100	0	100	-3.555385	-6.240169	89.88161	
17:38:48	47.46363	-122.3078	0.02	-0.1163576	-5.8867	0	3	100	0	100	-3.484883	-5.740318	90.89565	
17:38:48	47.46363	-122.3078	0.02	-0.1000329	-3.715511	0	3	100	0	100	-3.422468	-5.236706	92.20304	
17:38:48	47.46363	-122.3078	0.02	-0.08258004	-1.520014	0	3	100	0	100	-3.424177	-4.715214	94.58426	
17:38:48	47.46363	-122.3078	0.02	-0.0644664	0.6347038	0	3	100	0	100	-3.412036	-4.237349	96.9113	
17:38:48	47.46363	-122.3078	0.02	-0.04577562	2.731655	0	3	100	0	100	-3.387065	-3.803176	99.20641	
17:38:49	47.46363	-122.3078	0.02	-0.02866102	4.548135	0	3	100	0	100	-3.357007	-3.396856	101.5931	
17:38:49	47.46363	-122.3078	0.02	-0.00952076	6.466117	0	3	100	0	100	-3.311235	-3.016452	103.9262	
17:38:49	47.46363	-122.3078	0.02	0.01153691	8.447614	0	3	100	0	100	-3.255714	-2.649692	106.3406	
17:38:49	47.46363	-122.3078	0.02	0.03031687	10.10734	0	3	100	0	100	-3.187253	-2.306226	108.7079	
17:38:49	47.46363	-122.3078	0.02	0.04689882	11.49195	0	3	100	0	100	-3.107117	-1.975242	111.0958	
17:38:50	47.46363	-122.3078	0.02	0.06636342	13.02297	0	3	100	0	100	-3.015363	-1.664259	113.466	
17:38:50	47.46363	-122.3078	0.02	0.08282725	14.23758	0	3	100	0	100	-2.915246	-1.371004	115.8497	
17:38:50	47.46363	-122.3078	0.02	0.09875085	15.33784	0	3	100	0	100	-2.80908	-1.097874	118.2115	
17:38:50	47.46363	-122.3078	0.02	0.1135963	16.29354	0	3	100	0	100	-2.697268	-0.8501788	120.4355	
17:38:50	47.46363	-122.3078	0.02	0.1269468	17.09186	0	3	100	0	100	-2.576962	-0.610417	122.69	
17:38:51	47.46363	-122.3078	0.02	0.13831	17.71878	0	3	100	0	100	-2.451308	-0.3899522	124.862	
17:38:51	47.46363	-122.3078	0.02	0.1507697	18.34371	0	3	100	0	100	-2.323188	-0.1809185	127.1185	
17:38:51	47.46363	-122.3078	0.02	0.1609368	18.7958	0	3	100	0	100	-2.192116	0.008642326	129.2197	
17:38:51	47.46363	-122.3078	0.02	0.1699553	19.14553	0	3	100	0	100	-2.059681	0.184445	131.3032	
17:38:51	47.46363	-122.3078	0.02	0.1778504	19.39972	0	3	100	0	100	-1.927384	0.3431462	133.2428	
17:38:52	47.46363	-122.3078	0.02	0.1847012	19.56702	0	3	100	0	100	-1.793281	0.4830369	134.7418	
17:38:52	47.46363	-122.3078	0.02	0.1904947	19.65619	0	3	100	0	100	-1.658833	0.6096333	135.9162	
17:38:52	47.46363	-122.3078	0.02	0.1948944	19.67664	0	3	100	0	100	-1.524706	0.7268282	136.851	
17:38:52	47.46363	-122.3078	0.02	0.1992618	19.63675	0	3	100	0	100	-1.391147	0.8373492	137.6093	
17:38:52	47.46363	-122.3078	0.02	0.2023284	19.54291	0	3	100	0	100	-1.25819	0.9430991	138.2374	
17:38:53	47.46363	-122.3078	0.02	0.2033812	19.49077	0	3	100	0	100	-1.074531	1.087533	140.4749	
17:38:53	47.46363	-122.3078	0.02	0.2055042	19.32463	0	3	100	0	100	-0.8864643	1.223187	142.5573	
17:38:53	47.46363	-122.3078	0.02	0.2067495	19.13082	0	3	100	0	100	-0.7010896	1.347531	144.3112	
17:38:53	47.46363	-122.3078	0.02	0.2073438	18.92864	0	3	100	0	100	-0.518005	1.463679	145.823	
17:38:53	47.46363	-122.3078	0.02	0.2074519	18.65288	0	3	100	0	100	-0.3366873	1.573703	147.1564	
17:38:54	47.46363	-122.3078	0.02	0.2070208	18.37647	0	3	100	0	100	-0.1566122	1.678969	148.3582	
17:38:54	47.46363	-122.3078	0.02	0.2064484	18.17113	0	3	100	0	100	0.02389537	1.763924	150.1126	
17:38:54	47.46363	-122.3078	0.02	0.2051501	17.83056	0	3	100	0	100	0.200539	1.834106	152.0542	
17:38:54	47.46363	-122.3078	0.02	0.2035633	17.49863	0	3	100	0	100	0.3424391	1.881327	153.9849	
17:38:54	47.46363	-122.3078	0.02	0.2018773	17.19327	0	3	100	0	100	0.4664904	1.917223	155.8162	
17:38:55	47.46363	-122.3078	0.02	0.1997011	16.84106	0	3	100	0	100	0.5740588	1.943546	157.5788	
17:38:55	47.46363	-122.3078	0.02	0.197025	16.45311	0	3	100	0	100	0.6728691	1.965218	159.2652	
17:38:55	47.46363	-122.3078	0.02	0.19441	16.10692	0	3	100	0	100	0.7651233	1.984321	160.8506	
17:38:55	47.46363	-122.3078	0.02	0.1918487	15.78955	0	3	100	0	100	0.8518542	2.000797	162.4021	
17:38:55	47.46363	-122.3078	0.02	0.1886881	15.42157	0	3	100	0	100	0.9330905	2.014892	163.9029	
17:38:56	47.46363	-122.3078	0.02	0.1860076	15.12499	0	3	100	0	100	1.009314	2.0271	165.3508	
17:38:56	47.46363	-122.3078	0.02	0.183	14.80381	0	3	100	0	100	1.079461	2.038282	166.7182	
17:38:56	47.46363	-122.3078	0.02	0.1799141	14.48792	0	3	100	0	100	1.145842	2.048034	168.0522	
17:38:56	47.46363	-122.3078	0.02	0.1765712	14.15686	0	3	100	0	100	1.206366	2.0581	169.2844	
17:38:56	47.46363	-122.3078	0.02	0.1738299	13.89265	0	3	100	0	100	1.263277	2.067569	170.4841	
17:38:57	47.46363	-122.3078	0.02	0.1708128	13.61039	0	3	100	0	100	1.316534	2.075717	171.6624	
17:38:57	47.46363	-122.3078	0.02	0.1675495	13.31224	0	3	100	0	100	1.365684	2.083112	172.7938	
17:38:57	47.46363	-122.3078	0.02	0.1649081	13.07292	0	3	100	0	100	1.411153	2.090377	173.877	
17:38:57	47.46363	-122.3078	0.02	0.1617857	12.79433	0	3	100	0	100	1.453228	2.097697	174.9161	
17:38:57	47.46363	-122.3078	0.02	0.1590072	12.5492	0	3	100	0	100	1.49198	2.105184	175.9096	
17:38:58	47.46363	-122.3078	0.02	0.156278	12.31295	0	3	100	0	4	1.528858	2.10879	176.9042	
17:38:58	47.46363	-122.3078	0.02	0.1536578	12.08721	0	3	100	0	4	1.566076	2.096192	178.0169	
17:38:58	47.46363	-122.3078	0.02	0.1510769	11.86783	0	3	100	0	4	1.599731	2.083959	179.0853	
17:38:58	47.46363	-122.3078	0.02	0.1486009	11.65895	0	3	100	0	5	1.629935	2.07262	-179.8901	
17:38:58	47.46363	-122.3078	0.02	0.1461846	11.45612	0	3	100	0	5	1.657688	2.062085	-178.8881	
17:38:59	47.46363	-122.3078	0.02	0.143846	11.26103	0	3	100	0	4	1.682214	2.052922	-177.9431	
17:38:59	47.46363	-122.3078	0.02	0.1418076	11.09411	0	3	100	0	4	1.70449	2.044812	-177.0229	
17:38:59	47.46363	-122.3078	0.02	0.1393929	10.89874	0	3	100	0	4	1.724112	2.037916	-176.1483	
17:38:59	47.46363	-122.3078	0.02	0.1373199	10.73342	0	3	100	0	4	1.741523	2.032034	-175.3082	
17:38:59	47.46363	-122.3078	0.02	0.1355032	10.58736	0	3	100	0	4	1.757039	2.027069	-174.4975	
17:39:00	47.46363	-122.3078	0.02	0.1335637	10.4299	0	3	100	0	4	1.770937	2.022817	-173.717	
17:39:00	47.46363	-122.3078	0.02	0.1315289	10.26486	0	3	100	0	4	1.78296	2.01972	-172.9684	
17:39:00	47.46363	-122.3078	0.02	0.1297433	10.11998	0	3	100	0	4	1.793228	2.017699	-172.2498	
17:39:00	47.46363	-122.3078	0.02	0.1280021	9.977618	0	3	100	0	4	1.802344	2.01629	-171.5506	
17:39:00	47.46363	-122.3078	0.02	0.1263523	9.841462	0	3	100	0	4	1.809871	2.015922	-170.8808	
17:39:01	47.46363	-122.3078	0.02	0.1247334	9.707016	0	3	100	0	4	1.815912	2.016433	-170.2522	
17:39:01	47.46363	-122.3078	0.02	0.1232137	9.578125	0	3	100	0	4	1.821311	2.017271	-169.6332	
17:39:01	47.46363	-122.3078	0.02	0.121725	9.450892	0	3	100	0	4	1.825295	2.019142	-169.0411	
17:39:01	47.46363	-122.3078	0.02	0.1202577	9.323049	0	3	100	0	4	1.828544	2.021355	-168.4721	
17:39:01	47.46363	-122.3078	0.02	0.1188362	9.198704	0	3	100	0	4	1.830587	2.024483	-167.9293	
17:39:02	47.46363	-122.3078	0.02	0.1174245	9.074127	0	3	100	0	6	1.831994	2.027967	-167.4044	
17:39:02	47.46363	-122.3078	0.02	0.1160686	8.954037	0	3	100	0	4	1.832867	2.031705	-166.8965	
17:39:02	47.46363	-122.3078	0.02	0.1148808	8.847466	0	3	100	0	4	1.832966	2.036014	-166.4068	
17:39:02	47.46363	-122.3078	0.02	0.1134518	8.716868	0	3	100	0	4	1.832176	2.040919	-165.9493	
17:39:02	47.46363	-122.3078	0.02	0.112179	8.599953	0	3	100	0	5	1.830871	2.046218	-165.5	
17:39:03	47.46363	-122.3078	0.02	0.1109126	8.483146	0	3	100	0	5	1.829159	2.051754	-165.0625	
17:39:03	47.46363	-122.3078	0.02	0.1097689	8.377761	0	3	100	0	4	1.809942	2.043983	-164.727	
17:39:03	47.46363	-122.3078	0.02	0.1084614	8.259435	0	3	100	0	4	1.788649	2.034817	-164.4067	
17:39:03	47.46363	-122.3078	0.02	0.1073945	8.16653	0	3	100	0	4	1.767372	2.026049	-164.1	
17:39:03	47.46363	-122.3078	0.02	0.1061356	8.059424	0	3	100	0	5	1.74653	2.017744	-163.799	
17:39:04	47.46363	-122.3078	0.02	0.1050168	7.966212	0	3	100	0	4	1.725671	2.010247	-163.5096	
17:39:04	47.46363	-122.3078	0.02	0.1039168	7.875685	0	3	100	0	5	1.706145	2.003188	-163.2205	
17:39:04	47.46363	-122.3078	0.02	0.1029912	7.799579	0	3	100	0	4	1.680882	1.995963	-162.9387	
17:39:04	47.46363	-122.3078	0.02	0.1018754	7.708991	0	3	100	0	5	1.656351	1.99109	-162.6749	
17:39:04	47.46363	-122.3078	0.02	0.1008229	7.494153	0	3	100	0	4	1.635817	1.987833	-162.4175	
17:39:05	47.46363	-122.3078	0.02	0.09963246	7.253333	0	3	100	0	5	1.616084	1.987774	-162.1688	
17:39:05	47.46363	-122.3078	0.02	0.09789336	6.964289	0	3	100	0	4	1.597411	1.995026	-161.9223	
17:39:05	47.46363	-122.3078	0.02	0.09631222	6.73737	0	3	100	0	4	1.58011	2.005418	-161.6732	
17:39:05	47.46363	-122.3078	0.02	0.09407137	6.354528	0	3	100	0	4	1.563136	2.011054	-161.4529	
17:39:05	47.46363	-122.3078	0.02	0.09197588	5.975143	0	3	100	0	5	1.54714	2.011912	-161.2305	
17:39:06	47.46363	-122.3078	0.02	0.08930606	5.569131	0	3	100	0	4	1.532369	2.017537	-161.0095	
17:39:06	47.46363	-122.3078	0.02	0.08639211	5.185223	0	3	100	0	4	1.517775	2.023086	-160.8015	
17:39:06	47.46363	-122.3078	0.02	0.08332806	4.825448	0	3	100	0	4	1.504799	2.026571	-160.5724	
17:39:06	47.46363	-122.3078	0.02	0.07988353	4.387547	0	3	100	0	5	1.490832	2.043249	-160.3716	
17:39:06	47.46363	-122.3078	0.02	0.07639211	3.830134	0	3	100	0	5	1.478475	2.075946	-160.1775	
17:39:07	47.46363	-122.3078	0.02	0.07256726	3.368457	0	3	100	0	4	1.466199	2.096044	-159.9957	
17:39:07	47.46363	-122.3078	0.02	0.06905522	2.997063	0	3	100	0	4	1.454343	2.095012	-159.8199	
17:39:07	47.46363	-122.3078	0.02	0.0647694	2.564213	0	3	100	0	5	1.44309	2.089034	-159.6459	
17:39:07	47.46363	-122.3078	0.02	0.06088176	2.187112	0	3	100	0	5	1.432345	2.082679	-159.4665	
17:39:07	47.46363	-122.3078	0.02	0.05697282	1.797483	0	3	100	0	4	1.42072	2.078326	-159.3031	
17:39:08	47.46363	-122.3078	0.02	0.05347777	1.541292	0	3	100	0	4	1.409291	2.074363	-159.1459	
17:39:08	47.46363	-122.3078	0.02	0.04955799	1.277833	0	3	100	0	4	1.387931	2.066804	-159.0918	
17:39:08	47.46363	-122.3078	0.02	0.04659083	1.095703	0	3	100	0	4	1.356394	2.050113	-159.1339	
17:39:08	47.46363	-122.3078	0.02	0.0432243	0.910813	0	3	100	0	5	1.327033	2.03802	-159.1601	
17:39:08	47.46363	-122.3078	0.02	0.04050735	0.7798691	0	3	100	0	4	1.297912	2.02529	-159.1852	
17:39:09	47.46363	-122.3078	0.02	0.03825263	0.685017	0	3	100	0	4	1.26946	2.009583	-159.2066	
17:39:09	47.46363	-122.3078	0.02	0.03585925	0.6017988	0	3	100	0	5	1.241815	1.993424	-159.2247	
17:39:09	47.46363	-122.3078	0.02	0.03400181	0.5525196	0	3	100	0	4	1.21798	1.978729	-159.2467	
17:39:09	47.46363	-122.3078	0.02	0.03239891	0.5238667	0	3	100	0	4	1.194146	1.964437	-159.2653	
17:39:09	47.46363	-122.3078	0.02	0.03105801	0.5135377	0	3	100	0	4	1.172315	1.94983	-159.2595	
17:39:10	47.46363	-122.3078	0.02	0.02997656	0.5185712	0	3	100	0	4	1.150711	1.937494	-159.2737	
17:39:10	47.46363	-122.3078	0.02	0.02900301	0.4397623	0	3	100	0	5	1.130546	1.926422	-159.2853	
17:39:10	47.46363	-122.3078	0.02	0.0282552	0.4656639	0	3	100	0	4	1.11118	1.914125	-159.2947	
17:39:10	47.46363	-122.3078	0.02	0.02757392	0.5084458	0	3	100	0	4	1.09231	1.901764	-159.3019	
17:39:10	47.46363	-122.3078	0.02	0.02716118	0.5550517	0	3	100	0	4	1.073401	1.889254	-159.2875	
17:39:11	47.46363	-122.3078	0.02	0.02693004	0.6024444	0	3	100	0	3	1.055826	1.878432	-159.2874	
17:39:11	47.46363	-122.3078	0.02	0.02681494	0.6582155	0	3	100	0	5	1.03896	1.868392	-159.2855	
17:39:11	47.46363	-122.3078	0.02	0.02683328	0.7210451	0	3	100	0	4	1.02375	1.857781	-159.2799	
17:39:11	47.46363	-122.3078	0.02	0.02695663	0.7784736	0	3	100	0	4	1.009281	1.846894	-159.2798	
17:39:11	47.46363	-122.3078	0.02	0.02714727	0.8319086	0	3	100	0	4	0.9953546	1.837221	-159.2763	
17:39:12	47.46363	-122.3078	0.02	0.02744463	0.8931146	0	3	100	0	4	0.9813462	1.828612	-159.2602	
17:39:12	47.46363	-122.3078	0.02	0.02777372	0.9470351	0	3	100	0	4	0.9679686	1.819072	-159.2524	
17:39:12	47.46363	-122.3078	0.02	0.02810362	0.993382	0	3	100	0	4	0.9551443	1.810536	-159.2436	
17:39:12	47.46363	-122.3078	0.02	0.02852776	1.045449	0	3	100	0	4	0.9429497	1.801801	-159.2406	
17:39:12	47.46363	-122.3078	0.02	0.02892705	1.088818	0	3	100	0	4	0.9312806	1.793677	-159.2345	
17:39:13	47.46363	-122.3078	0.02	0.02929147	1.124552	0	3	100	0	3	0.9202577	1.785672	-159.2139	
17:39:13	47.46363	-122.3078	0.02	0.02969133	1.160336	0	3	100	0	4	0.9067044	1.776158	-159.2279	
17:39:13	47.46363	-122.3078	0.02	0.03011131	1.194779	0	3	100	0	4	0.8801255	1.755988	-159.4177	
17:39:13	47.46363	-122.3078	0.02	0.03048037	1.2241	0	3	100	0	4	0.8563926	1.734747	-159.5973	
17:39:13	47.46363	-122.3078	0.02	0.03083784	1.251955	0	3	100	0	4	0.8319107	1.714416	-159.7702	
17:39:14	47.46363	-122.3078	0.02	0.03115044	1.275596	0	3	100	0	4	0.8094566	1.694588	-159.9304	
17:39:14	47.46363	-122.3078	0.02	0.0314973	1.301216	0	3	100	0	4	0.7881892	1.675427	-160.0725	
17:39:14	47.46363	-122.3078	0.02	0.03180119	1.322892	0	3	100	0	5	0.7680114	1.656933	-160.2162	
17:39:14	47.46363	-122.3078	0.02	0.03208351	1.342307	0	3	100	0	4	0.7488959	1.639146	-160.3528	
17:39:14	47.46363	-122.3078	0.02	0.03234918	1.35993	0	3	100	0	4	0.7315786	1.621005	-160.4771	
17:39:15	47.46363	-122.3078	0.02	0.03245576	1.277333	0	3	100	0	4	0.7143337	1.609185	-160.6036	
17:39:15	47.46363	-122.3078	0.02	0.0325215	1.291515	0	3	100	0	4	0.6988116	1.594201	-160.7212	
17:39:15	47.46363	-122.3078	0.02	0.03261795	1.308088	0	3	100	0	4	0.6831883	1.578379	-160.824	
17:39:15	47.46363	-122.3078	0.02	0.03270725	1.321281	0	3	100	0	4	0.6685529	1.564038	-160.9325	
17:39:15	47.46363	-122.3078	0.02	0.03282402	1.336295	0	3	100	0	5	0.6548711	1.54939	-161.0324	
17:39:16	47.46363	-122.3078	0.02	0.03293682	1.349161	0	3	100	0	4	0.641436	1.535467	-161.1309	
17:39:16	47.46363	-122.3078	0.02	0.03305023	1.36073	0	3	100	0	4	0.629638	1.522225	-161.2173	
17:39:16	47.46363	-122.3078	0.02	0.03316279	1.371031	0	3	100	0	5	0.6195394	1.509117	-161.2969	
17:39:16	47.46363	-122.3078	0.02	0.03327383	1.379955	0	3	100	0	5	0.60895	1.49654	-161.3784	
17:39:16	47.46363	-122.3078	0.02	0.0333779	1.387237	0	3	100	0	4	0.5983357	1.485848	-161.4627	
17:39:17	47.46363	-122.3078	0.02	0.03346443	1.392425	0	3	100	0	4	0.5888683	1.474513	-161.541	
17:39:17	47.46363	-122.3078	0.02	0.03356142	1.39715	0	3	100	0	4	0.5796185	1.463324	-161.6137	
17:39:17	47.46363	-122.3078	0.02	0.0336331	1.399911	0	3	100	0	4	0.5713304	1.454224	-161.6761	
17:39:17	47.46363	-122.3078	0.02	0.03370951	1.401891	0	3	100	0	4	0.5633672	1.443991	-161.7296	
17:39:18	47.46363	-122.3078	0.02	0.03376684	1.402448	0	3	100	0	4	0.5559732	1.435187	-161.7792	
17:39:18	47.46363	-122.3078	0.02	0.03381478	1.401884	0	3	100	0	4	0.5481505	1.425936	-161.8327	
17:39:18	47.46363	-122.3078	0.02	0.03385042	1.39987	0	3	100	0	4	0.540054	1.41528	-161.9126	
17:39:18	47.46363	-122.3078	0.02	0.03387333	1.396986	0	3	100	0	4	0.5234528	1.393523	-162.1301	
17:39:18	47.46363	-122.3078	0.02	0.03369784	1.257551	0	3	100	0	5	0.5072708	1.372471	-162.3469	
17:39:19	47.46363	-122.3078	0.02	0.03348986	1.257879	0	3	100	0	5	0.491846	1.351974	-162.5479	
17:39:19	47.46363	-122.3078	0.02	0.03332335	1.260672	0	3	100	0	5	0.4771277	1.333218	-162.7422	
17:39:19	47.46363	-122.3078	0.02	0.03319455	1.265159	0	3	100	0	4	0.4627644	1.314441	-162.9384	
17:39:19	47.46363	-122.3078	0.02	0.03309901	1.270997	0	3	100	0	4	0.451054	1.295851	-163.1143	
17:39:19	47.46363	-122.3078	0.02	0.03303417	1.277595	0	3	100	0	4	0.4390978	1.277394	-163.2889	
17:39:20	47.46363	-122.3078	0.02	0.03299594	1.284102	0	3	100	0	5	0.4272949	1.262673	-163.454	
17:39:20	47.46363	-122.3078	0.02	0.03297307	1.291917	0	3	100	0	4	0.4170299	1.252646	-163.6012	
17:39:20	47.46363	-122.3078	0.02	0.03296935	1.298095	0	3	100	0	4	0.4069872	1.236182	-163.753	
17:39:20	47.46363	-122.3078	0.02	0.03293113	1.207356	0	3	100	0	5	0.3968793	1.220588	-163.8981	
17:39:20	47.46363	-122.3078	0.02	0.03274409	1.194681	0	3	100	0	4	0.3879569	1.205297	-164.0417	
17:39:21	47.46363	-122.3078	0.02	0.0326145	1.202949	0	3	100	0	4	0.380039	1.1905	-164.1717	
17:39:21	47.46363	-122.3078	0.02	0.03251499	1.213174	0	3	100	0	4	0.3728215	1.175467	-164.2855	
17:39:21	47.46363	-122.3078	0.02	0.03245002	1.225227	0	3	100	0	4	0.3666838	1.157271	-164.4015	
17:39:21	47.46363	-122.3078	0.02	0.03242412	1.236495	0	3	100	0	2	0.3600673	1.145066	-164.5228	
17:39:21	47.46363	-122.3078	0.02	0.03242392	1.24765	0	3	100	0	4	0.354451	1.138104	-164.6342	
17:39:22	47.46363	-122.3078	0.02	0.03244344	1.25769	0	3	100	0	4	0.3481614	1.127117	-164.7444	
17:39:22	47.46363	-122.3078	0.02	0.03247695	1.26665	0	3	100	0	4	0.3427323	1.116306	-164.8396	
17:39:22	47.46363	-122.3078	0.02	0.03251484	1.273649	0	3	100	0	4	0.3377046	1.105154	-164.9277	
17:39:22	47.46363	-122.3078	0.02	0.03256713	1.280594	0	3	100	0	4	0.3325807	1.095155	-165.0207	
17:39:22	47.46363	-122.3078	0.02	0.0326162	1.285424	0	3	100	0	4	0.3282054	1.085014	-165.1081	
17:39:23	47.46363	-122.3078	0.02	0.03266432	1.289047	0	3	100	0	4	0.323932	1.074751	-165.1967	
17:39:23	47.46363	-122.3078	0.02	0.03270902	1.291299	0	3	100	0	4	0.3196646	1.064976	-165.2775	
17:39:23	47.46363	-122.3078	0.02	0.03274416	1.292034	0	3	100	0	4	0.3156461	1.055753	-165.3447	
17:39:23	47.46363	-122.3078	0.02	0.03277946	1.291465	0	3	100	0	4	0.3106697	1.04314	-165.4759	
17:39:23	47.46363	-122.3078	0.02	0.03280115	1.289741	0	3	100	0	4	0.3014568	1.024317	-165.6829	
17:39:24	47.46363	-122.3078	0.02	0.0328176	1.2869	0	3	100	0	4	0.2927792	1.006838	-165.8826	
17:39:24	47.46363	-122.3078	0.02	0.03282379	1.284038	0	3	100	0	5	0.2846829	0.9901394	-166.0721	
17:39:24	47.46363	-122.3078	0.02	0.03282303	1.280004	0	3	100	0	4	0.2767853	0.972869	-166.255	
17:39:24	47.46363	-122.3078	0.02	0.03281485	1.275905	0	3	100	0	5	0.2731877	0.9568841	-166.4245	
17:39:24	47.46363	-122.3078	0.02	0.0326994	1.06912	0	3	100	0	4	0.2791708	0.9411932	-166.5897	
17:39:25	47.46363	-122.3078	0.02	0.03270417	1.462493	0	3	100	0	5	0.2751254	0.925625	-166.7473	
17:39:25	47.46363	-122.3078	0.02	0.03293072	1.244308	0	3	100	0	4	0.2723846	0.9106227	-166.8992	
17:39:25	47.46363	-122.3078	0.02	0.03289292	1.115039	0	3	100	0	4	0.2698093	0.8963233	-167.0458	
17:39:25	47.46363	-122.3078	0.02	0.03258315	1.191011	0	3	100	0	4	0.2708458	0.9002203	-167.1674	
17:39:25	47.46363	-122.3078	0.02	0.03251767	1.223459	0	3	100	0	4	0.2655979	0.8859347	-167.3029	
17:39:26	47.46363	-122.3078	0.02	0.0324571	1.216009	0	3	100	0	5	0.2594193	0.8595386	-167.4288	
17:39:26	47.46363	-122.3078	0.02	0.03238885	1.208317	0	3	100	0	4	0.254302	0.8430631	-167.5509	
17:39:26	47.46363	-122.3078	0.02	0.03232625	1.201571	0	3	100	0	4	0.2486324	0.82785	-167.6696	
17:39:26	47.46363	-122.3078	0.02	0.03211694	1.038944	0	3	100	0	4	0.2438111	0.8161869	-167.7741	
17:39:26	47.46363	-122.3078	0.02	0.03176202	1.034591	0	3	100	0	4	0.2394275	0.8055183	-167.8774	
17:39:27	47.46363	-122.3078	0.02	0.03149513	1.033281	0	3	100	0	4	0.2353035	0.7947544	-167.9825	
17:39:27	47.46363	-122.3078	0.02	0.0312817	1.03368	0	3	100	0	4	0.2320952	0.7847626	-168.0782	
17:39:27	47.46363	-122.3078	0.02	0.03110852	1.035316	0	3	100	0	4	0.2282095	0.7740363	-168.1745	
17:39:27	47.46363	-122.3078	0.02	0.03098317	1.037512	0	3	100	0	4	0.2251836	0.7653391	-168.2643	
17:39:27	47.46363	-122.3078	0.02	0.03087278	1.040415	0	3	100	0	4	0.2216176	0.7557687	-168.3502	
17:39:28	47.46363	-122.3078	0.02	0.03078229	1.043753	0	3	100	0	4	0.2185351	0.7473906	-168.4314	
17:39:28	47.46363	-122.3078	0.02	0.03072071	1.046447	0	3	100	0	4	0.2152874	0.7407433	-168.5119	
17:39:28	47.46363	-122.3078	0.02	0.03067954	1.048412	0	3	100	0	4	0.2125515	0.7325915	-168.5818	
17:39:28	47.46363	-122.3078	0.02	0.03059368	0.9492472	0	3	100	0	4	0.2102143	0.7252342	-168.6532	
17:39:28	47.46363	-122.3078	0.02	0.03037456	0.9519724	0	3	100	0	5	0.2044929	0.7124491	-168.8012	
17:39:29	47.46363	-122.3078	0.02	0.03022073	0.9556972	0	3	100	0	4	0.1983721	0.6988783	-168.9546	
17:39:29	47.46363	-122.3078	0.02	0.03010228	0.9601782	0	3	100	0	4	0.192587	0.6855431	-169.1113	
17:39:29	47.46363	-122.3078	0.02	0.03001425	0.9649434	0	3	100	0	5	0.1886632	0.6798043	-169.2574	
17:39:29	47.46363	-122.3078	0.02	0.02995191	0.9693817	0	3	100	0	4	0.1841503	0.6741998	-169.3965	
17:39:29	47.46363	-122.3078	0.02	0.02990805	0.973354	0	3	100	0	4	0.1800302	0.6624479	-169.5364	
17:39:30	47.46363	-122.3078	0.02	0.02988114	0.9766784	0	3	100	0	4	0.1756407	0.6499769	-169.6637	
17:39:30	47.46363	-122.3078	0.02	0.02986187	0.980108	0	3	100	0	6	0.1716263	0.6378055	-169.7894	
17:39:30	47.46363	-122.3078	0.02	0.029851	0.9628181	0	3	100	0	4	0.1669653	0.6256951	-169.911	
17:39:30	47.46363	-122.3078	0.02	0.02971558	0.9048934	0	3	100	0	4	0.16335	0.614919	-170.0272	
17:39:30	47.46363	-122.3078	0.02	0.02960243	0.9075057	0	3	100	0	5	0.1600917	0.60433	-170.1379	
17:39:31	47.46363	-122.3078	0.02	0.02949768	0.8680546	0	3	100	0	4	0.1569347	0.5943961	-170.2434	
17:39:31	47.46363	-122.3078	0.02	0.02925712	0.7934684	0	3	100	0	4	0.1544598	0.5850518	-170.3373	
17:39:31	47.46363	-122.3078	0.02	0.02884683	0.7031161	0	3	100	0	4	0.1522712	0.5767592	-170.4332	
17:39:31	47.46363	-122.3078	0.02	0.02852159	0.7129794	0	3	100	0	4	0.1496171	0.5680942	-170.5272	
17:39:31	47.46363	-122.3078	0.02	0.02827536	0.7252593	0	3	100	0	4	0.1499317	0.5602881	-170.6132	
17:39:32	47.46363	-122.3078	0.02	0.02811499	0.7375525	0	3	100	0	4	0.147984	0.5513175	-170.6989	
17:39:32	47.46363	-122.3078	0.02	0.02798035	0.7542441	0	3	100	0	5	0.1448727	0.5452158	-170.7751	
17:39:32	47.46363	-122.3078	0.02	0.02791819	0.7679474	0	3	100	0	4	0.1427875	0.5381893	-170.8516	
17:39:32	47.46363	-122.3078	0.02	0.02788741	0.7842323	0	3	100	0	4	0.1408985	0.527283	-170.9229	
17:39:32	47.46363	-122.3078	0.02	0.02789289	0.7985734	0	3	100	0	4	0.139068	0.5162507	-170.9941	
17:39:33	47.46363	-122.3078	0.02	0.02791973	0.8109422	0	3	100	0	4	0.1373634	0.5104581	-171.0638	
17:39:33	47.46363	-122.3078	0.02	0.02796726	0.8232912	0	3	100	0	5	0.136294	0.5062084	-171.1297	
17:39:33	47.46363	-122.3078	0.02	0.0280325	0.834914	0	3	100	0	4	0.1336283	0.5038012	-171.1855	
17:39:33	47.46363	-122.3078	0.02	0.02809367	0.843235	0	3	100	0	4	0.1324421	0.4981884	-171.2464	
17:39:33	47.46363	-122.3078	0.02	0.02817215	0.8517237	0	3	100	0	4	0.1308485	0.4908423	-171.3329	
17:39:34	47.46363	-122.3078	0.02	0.0282431	0.8577286	0	3	100	0	4	0.1277237	0.4796314	-171.4532	
17:39:34	47.46363	-122.3078	0.02	0.02830905	0.8621449	0	3	100	0	4	0.1244387	0.4696718	-171.5673	
17:39:34	47.46363	-122.3078	0.02	0.02837004	0.8650636	0	3	100	0	4	0.1220708	0.4600072	-171.6761	
17:39:34	47.46363	-122.3078	0.02	0.02841797	0.866379	0	3	100	0	4	0.1196988	0.4528149	-171.7808	
17:39:34	47.46363	-122.3078	0.02	0.02846824	0.8665118	0	3	100	0	4	0.1176777	0.451712	-171.8832	
17:39:35	47.46363	-122.3078	0.02	0.02850415	0.8650057	0	3	100	0	4	0.1151206	0.443141	-171.9797	
17:39:35	47.46363	-122.3078	0.02	0.02852682	0.8626741	0	3	100	0	5	0.1136329	0.4352048	-172.0685	
17:39:35	47.46363	-122.3078	0.02	0.02854279	0.8586453	0	3	100	0	4	0.1122028	0.4273299	-172.1569	
17:39:35	47.46363	-122.3078	0.02	0.02854626	0.8537127	0	3	100	0	4	0.1104053	0.4189247	-172.2364	
17:39:35	47.46363	-122.3078	0.02	0.02853924	0.8480245	0	3	100	0	4	0.1084271	0.4105466	-172.3172	
17:39:36	47.46363	-122.3078	0.02	0.0285224	0.8416366	0	3	100	0	4	0.1065773	0.402766	-172.3925	
17:39:36	47.46363	-122.3078	0.02	0.02849622	0.8345205	0	3	100	0	4	0.1049023	0.3950513	-172.4354	
17:39:36	47.46363	-122.3078	0.02	0.02846137	0.8268992	0	3	100	0	4	0.1034411	0.3872391	-172.4469	
17:39:36	47.46363	-122.3078	0.02	0.02842253	0.8193188	0	3	100	0	4	0.1021502	0.3794208	-172.4347	
17:39:36	47.46363	-122.3078	0.02	0.02836522	0.8095006	0	3	100	0	5	0.1003328	0.3722191	-172.5012	
17:39:37	47.46363	-122.3078	0.02	0.02830736	0.8004714	0	3	100	0	4	0.09875567	0.3650082	-172.5304	
17:39:37	47.46363	-122.3078	0.02	0.02824909	0.7920182	0	3	100	0	4	0.09773585	0.3585413	-172.5608	
17:39:37	47.46363	-122.3078	0.02	0.02817953	0.7825004	0	3	100	0	4	0.09724209	0.3529193	-172.6008	
17:39:37	47.46363	-122.3078	0.02	0.02809702	0.7718411	0	3	100	0	4	0.09694262	0.3472727	-172.6098	
17:39:37	47.46363	-122.3078	0.02	0.02802523	0.763077	0	3	100	0	4	0.09598847	0.3419068	-172.6683	
17:39:38	47.46363	-122.3078	0.02	0.02794264	0.7533834	0	3	100	0	5	0.09541611	0.3362715	-172.7307	
17:39:38	47.46363	-122.3078	0.02	0.02776828	0.6450011	0	3	100	0	4	0.09462493	0.33203	-172.7902	
17:39:38	47.46363	-122.3078	0.02	0.02751481	0.6372383	0	3	100	0	4	0.09338032	0.3282212	-172.8473	
17:39:38	47.46363	-122.3078	0.02	0.02729696	0.6311678	0	3	100	0	5	0.09236123	0.3233686	-172.904	
17:39:38	47.46363	-122.3078	0.02	0.02696588	0.5044974	0	3	100	0	4	0.0919268	0.318678	-172.9585	
17:39:39	47.46363	-122.3078	0.02	0.02654392	0.4055694	0	3	100	0	4	0.09058935	0.3128971	-173.0316	
17:39:39	47.46363	-122.3078	0.02	0.02608638	0.4088331	0	3	100	0	4	0.08857062	0.3060242	-173.1198	
17:39:39	47.46363	-122.3078	0.02	0.02575059	0.4153387	0	3	100	0	4	0.08582534	0.299248	-173.2054	
17:39:39	47.46363	-122.3078	0.02	0.02544087	0.4265217	0	3	100	0	5	0.08493628	0.2927977	-173.2853	
17:39:39	47.46363	-122.3078	0.02	0.02523464	0.4390164	0	3	100	0	4	0.08288762	0.2891844	-173.3642	
17:39:40	47.46363	-122.3078	0.02	0.0250906	0.4530351	0	3	100	0	5	0.0812072	0.2835521	-173.4392	
17:39:40	47.46363	-122.3078	0.02	0.02500773	0.4661956	0	3	100	0	4	0.07989432	0.2771736	-173.5105	
17:39:40	47.46363	-122.3078	0.02	0.02493948	0.4204687	0	3	100	0	4	0.0792252	0.2715263	-173.5794	
17:39:40	47.46363	-122.3078	0.02	0.02475802	0.3998804	0	3	100	0	5	0.07831272	0.2666606	-173.6468	
17:39:41	47.46363	-122.3078	0.02	0.02463154	0.4171587	0	3	100	0	4	0.07709897	0.2613004	-173.7111	
17:39:41	47.46363	-122.3078	0.02	0.02439846	0.338135	0	3	100	0	4	0.07633746	0.2563088	-173.7704	
17:39:41	47.46363	-122.3078	0.02	0.02423223	0.3576798	0	3	100	0	4	0.07555264	0.251747	-173.8288	
17:39:41	47.46363	-122.3078	0.02	0.02413081	0.3787235	0	3	100	0	4	0.07441346	0.2474163	-173.8841	
17:39:41	47.46363	-122.3078	0.02	0.02408776	0.3998638	0	3	100	0	4	0.07343027	0.2430442	-173.9355	
17:39:42	47.46363	-122.3078	0.02	0.02409148	0.4209415	0	3	100	0	4	0.07270053	0.2389421	-173.9863	
17:39:42	47.46363	-122.3078	0.02	0.02413356	0.4416384	0	3	100	0	4	0.0716987	0.2352293	-174.0349	
17:39:42	47.46363	-122.3078	0.02	0.02420465	0.4610987	0	3	100	0	4	0.07097177	0.2313951	-174.0835	
17:39:42	47.46363	-122.3078	0.02	0.02429082	0.4781571	0	3	100	0	4	0.07009584	0.2277546	-174.1283	
17:39:42	47.46363	-122.3078	0.02	0.02440882	0.496384	0	3	100	0	5	0.06976268	0.2242622	-174.1708	
17:39:43	47.46363	-122.3078	0.02	0.02452725	0.5112938	0	3	100	0	4	0.06905533	0.2211649	-174.2112	
17:39:43	47.46363	-122.3078	0.02	0.02464803	0.5240446	0	3	100	0	4	0.0684636	0.2180621	-174.2513	
17:39:43	47.46363	-122.3078	0.02	0.02475627	0.5338734	0	3	100	0	4	0.06836868	0.2145917	-174.2899	
17:39:43	47.46363	-122.3078	0.02	0.02488409	0.5438355	0	3	100	0	4	0.06714229	0.2116119	-174.326	
17:39:43	47.46363	-122.3078	0.02	0.02499373	0.5510478	0	3	100	0	4	0.06664369	0.2077453	-174.3604	
17:39:44	47.46363	-122.3078	0.02	0.0250946	0.5564923	0	3	100	0	4	0.0675497	0.2040266	-174.3942	
17:39:44	47.46363	-122.3078	0.02	0.02509278	0.5011667	0	3	100	0	4	0.06498251	0.200959	-174.4342	
17:39:44	47.46363	-122.3078	0.02	0.02508124	0.5048906	0	3	100	0	4	0.0641569	0.1955926	-174.4888	
17:39:44	47.46363	-122.3078	0.02	0.02507844	0.5083225	0	3	100	0	4	0.06283767	0.1914929	-174.5405	
17:39:44	47.46363	-122.3078	0.02	0.02508171	0.5107753	0	3	100	0	4	0.06134392	0.1876872	-174.592	
17:39:45	47.46363	-122.3078	0.02	0.02508771	0.5124502	0	3	100	0	4	0.06027867	0.1837858	-174.6389	
17:39:45	47.46363	-122.3078	0.02	0.02509666	0.5137159	0	3	100	0	4	0.05929248	0.1795024	-174.6846	
17:39:45	47.46363	-122.3078	0.02	0.02510458	0.5141036	0	3	100	0	4	0.05810033	0.1756106	-174.7291	
17:39:45	47.46363	-122.3078	0.02	0.02508084	0.4553322	0	3	100	0	4	0.05690223	0.1716777	-174.7715	
17:39:45	47.46363	-122.3078	0.02	0.02499305	0.4551655	0	3	100	0	4	0.05679155	0.1675389	-174.8123	
17:39:46	47.46363	-122.3078	0.02	0.02490485	0.4553541	0	3	100	0	4	0.0554093	0.1643563	-174.8518	
17:39:46	47.46363	-122.3078	0.02	0.0248394	0.455753	0	3	100	0	4	0.05471545	0.1617501	-174.8885	
17:39:46	47.46363	-122.3078	0.02	0.02479255	0.4561495	0	3	100	0	4	0.05441875	0.1584412	-174.9236	
17:39:46	47.46363	-122.3078	0.02	0.0247465	0.4566672	0	3	100	0	4	0.05411374	0.1554212	-174.9583	
17:39:46	47.46363	-122.3078	0.02	0.02471651	0.4569139	0	3	100	0	4	0.05294659	0.1525276	-174.9915	
17:39:47	47.46363	-122.3078	0.02	0.0246891	0.4569476	0	3	100	0	4	0.05223024	0.149788	-175.0232	
17:39:47	47.46363	-122.3078	0.02	0.02466481	0.4566355	0	3	100	0	4	0.05181455	0.1473458	-175.0535	
17:39:47	47.46363	-122.3078	0.02	0.02464588	0.4559134	0	3	100	0	5	0.05145574	0.144613	-175.0813	
17:39:47	47.46363	-122.3078	0.02	0.02463046	0.4548841	0	3	100	0	4	0.0510091	0.1416527	-175.1088	
17:39:47	47.46363	-122.3078	0.02	0.02461399	0.4534582	0	3	100	0	4	0.05036808	0.1391678	-175.1353	
17:39:48	47.46363	-122.3078	0.02	0.02459757	0.451685	0	3	100	0	4	0.04991255	0.1364232	-175.161	
17:39:48	47.46363	-122.3078	0.02	0.02457857	0.4492586	0	3	100	0	4	0.0493305	0.1351171	-175.1859	
17:39:48	47.46363	-122.3078	0.02	0.02455985	0.4466791	0	3	100	0	4	0.04930109	0.1335523	-175.209	
17:39:48	47.46363	-122.3078	0.02	0.02453971	0.4437724	0	3	100	0	4	0.04870788	0.1316994	-175.2305	
17:39:48	47.46363	-122.3078	0.02	0.02450076	0.3821219	0	3	100	0	4	0.04852258	0.1291241	-175.2522	
17:39:49	47.46363	-122.3078	0.02	0.02433453	0.3581298	0	3	100	0	4	0.04817643	0.1277886	-175.2729	
17:39:49	47.46363	-122.3078	0.02	0.02420697	0.3565762	0	3	100	0	4	0.04802806	0.1274794	-175.2946	
17:39:49	47.46363	-122.3078	0.02	0.02407731	0.355734	0	3	100	0	4	0.04651651	0.1244463	-175.3255	
17:39:49	47.46363	-122.3078	0.02	0.02398968	0.3556098	0	3	100	0	4	0.04614376	0.1214022	-175.355	
17:39:49	47.46363	-122.3078	0.02	0.02390218	0.3559715	0	3	100	0	4	0.04448943	0.118656	-175.383	
17:39:50	47.46363	-122.3078	0.02	0.02383747	0.3360462	0	3	100	0	4	0.04375293	0.1162797	-175.4097	
17:39:50	47.46363	-122.3078	0.02	0.02371504	0.3172695	0	3	100	0	5	0.04304525	0.1130117	-175.4356	
17:39:50	47.46363	-122.3078	0.02	0.02361672	0.3191999	0	3	100	0	4	0.04250051	0.1108501	-175.4601	
17:39:50	47.46363	-122.3078	0.02	0.0235413	0.3216562	0	3	100	0	4	0.04145506	0.1086061	-175.4837	
17:39:50	47.46363	-122.3078	0.02	0.02348871	0.3241491	0	3	100	0	4	0.03951066	0.1066881	-175.5065	
17:39:51	47.46363	-122.3078	0.02	0.02344216	0.327292	0	3	100	0	5	0.03886988	0.1046826	-175.5271	
17:39:51	47.46363	-122.3078	0.02	0.02341362	0.3301342	0	3	100	0	4	0.03927154	0.1066149	-175.5481	
17:39:51	47.46363	-122.3078	0.02	0.02339539	0.3328425	0	3	100	0	5	0.03808645	0.1042182	-175.568	
17:39:51	47.46363	-122.3078	0.02	0.0233853	0.3353055	0	3	100	0	3	0.03685452	0.1021543	-175.5872	
17:39:51	47.46363	-122.3078	0.02	0.02338135	0.3373576	0	3	100	0	4	0.03741653	0.09916326	-175.6055	
17:39:52	47.46363	-122.3078	0.02	0.02328933	0.2025158	0	3	100	0	4	0.03814965	0.0967065	-175.6227	
