Date	Latitude(deg) 	Longitude(deg)	hamsl(m)	hafl(m)	climbrate(cm/s)	GroundSpeed(m/s)	Airspeed(m/s)	Mav_Link(%)	Rssi_Link(%)	Throttle	Roll(deg)	Pitch(deg)	Yaw(deg)
10:40:16	-6.733814	38.95364	121.309	0	0	0.03	0	100	0	0	17.12015	-1.645992	45.29959	
10:40:16	-6.733824	38.95364	120.25	0.2690694	-1.198416	0.22	3	100	0	50	17.28863	-1.790331	45.37217	
10:40:16	-6.733824	38.95364	120.355	0.2363923	-3.603236	0.18	3	100	0	50	17.45212	-1.710186	45.39854	
10:40:16	-6.733824	38.95364	120.417	0.008626584	-16.4072	0.09	3	100	0	50	17.14779	-1.819134	45.45946	
10:40:17	-6.733824	38.95364	120.469	-0.3826463	-35.72863	0.18	3	100	0	50	17.42004	-2.056211	45.47223	
10:40:17	-6.733825	38.95364	120.526	-0.4880185	-38.14048	0.19	3	100	0	50	17.4912	-2.122801	45.47176	
10:40:17	-6.733825	38.95364	120.563	-0.4195887	-32.1902	0.26	3	100	0	50	17.33984	-1.821389	45.49921	
10:40:17	-6.733825	38.95364	120.602	-0.2501084	-20.54226	0.03	3	100	0	50	17.58292	-1.822625	45.52347	
10:40:17	-6.733825	38.95364	120.718	-0.04739213	-8.478065	0.12	3	100	0	50	17.5007	-2.102041	45.5125	
10:40:18	-6.733825	38.95364	120.746	0.1463204	1.558935	0.09	3	100	0	50	17.55269	-2.244663	45.47961	
10:40:18	-6.733825	38.95364	120.8	0.3049284	9.548005	0.56	3	100	0	50	17.48658	-2.210165	45.44903	
10:40:18	-6.733825	38.95364	120.895	0.3906238	12.34786	0.14	3	100	0	50	17.26326	-1.861045	45.45779	
10:40:18	-6.733825	38.95364	120.945	0.3861754	10.55571	0.14	3	100	0	50	17.88499	-2.571282	45.42707	
10:40:18	-6.733825	38.95364	120.99	0.3992464	9.33729	0.11	3	100	0	50	17.96548	-2.38223	45.33119	
10:40:19	-6.733825	38.95364	121.239	0.4410116	10.24062	0.13	3	100	0	50	17.97006	-2.465898	45.23955	
10:40:19	-6.733825	38.95364	121.524	0.4729267	10.12504	0.04	3	100	0	50	17.88161	-2.254687	45.16339	
10:40:19	-6.733825	38.95364	121.646	0.465999	8.62957	0.12	3	100	0	50	17.91499	-2.383735	45.10445	
10:40:19	-6.733825	38.95364	121.776	0.4578208	7.051136	0.29	3	100	0	50	17.76453	-2.401171	45.05633	
10:40:19	-6.733825	38.95364	121.908	0.463731	6.167863	0.22	3	100	0	50	18.05992	-2.641033	44.95071	
10:40:20	-6.733825	38.95364	122.038	0.4673491	4.896499	0.22	3	100	0	50	18.19019	-2.322075	44.83891	
10:40:20	-6.733825	38.95364	122.023	0.4626919	3.935586	0.19	3	100	0	50	18.07812	-2.182631	44.7667	
10:40:20	-6.733825	38.95364	122.107	0.4559493	2.160406	0.31	3	100	0	50	17.89513	-2.278221	44.72485	
10:40:20	-6.733826	38.95364	122.249	0.4880098	2.665508	0.22	3	100	0	50	18.27782	-2.353368	44.64687	
10:40:20	-6.733826	38.95364	122.354	0.5126809	3.829558	0.19	3	100	0	50	18.01973	-2.173326	44.61171	
10:40:21	-6.733826	38.95364	122.433	0.4825616	1.470292	0.13	3	100	0	50	18.29087	-2.279621	44.55712	
10:40:21	-6.733826	38.95364	122.582	0.4535744	-1.056801	0.13	3	100	0	50	18.22094	-2.324323	44.49648	
10:40:21	-6.733826	38.95364	122.776	0.3793435	-5.407748	0.41	3	100	0	50	18.25074	-2.541602	44.42109	
10:40:21	-6.733826	38.95364	122.952	0.3112328	-9.058201	0.22	3	100	0	50	18.35337	-2.660372	44.29473	
10:40:21	-6.733825	38.95364	123.006	0.2868531	-9.956048	0.12	3	100	0	50	18.1964	-2.424006	44.21244	
10:40:22	-6.733825	38.95364	123.135	0.2676996	-10.39343	0.19	3	100	0	50	18.24217	-2.175637	44.14609	
10:40:22	-6.733825	38.95364	123.253	0.2952144	-7.948041	0.22	3	100	0	50	18.19558	-2.182169	44.1071	
10:40:22	-6.733825	38.95364	123.502	0.3211153	-6.680988	0.19	3	100	0	50	17.95333	-1.825996	44.10642	
10:40:22	-6.733824	38.95365	123.713	0.3374829	-5.572318	0.18	3	100	0	50	17.9546	-2.103648	44.10197	
10:40:22	-6.733824	38.95365	123.771	0.3512421	-4.578058	0.06	3	100	0	50	17.92143	-1.87353	44.11272	
10:40:23	-6.733824	38.95365	123.889	0.3601371	-4.282146	0.07	3	100	0	50	18.11578	-1.923054	44.09589	
10:40:23	-6.733823	38.95365	123.999	0.3684339	-3.561433	0.04	3	100	0	50	18.07802	-2.034682	44.09285	
10:40:23	-6.733823	38.95365	124.176	0.3083079	-6.881408	0.13	3	100	0	50	18.13285	-1.980804	44.0578	
10:40:23	-6.733823	38.95365	124.223	0.2539821	-9.172785	0.39	3	100	0	50	18.13566	-1.849388	44.04029	
10:40:23	-6.733823	38.95365	124.219	0.2323858	-10.18951	0.25	3	100	0	50	18.2226	-1.73146	44.05421	
10:40:24	-6.733823	38.95365	124.201	0.2114731	-10.31303	0.33	3	100	0	50	18.38818	-2.100897	44.02091	
10:40:24	-6.733823	38.95365	124.371	0.1943619	-10.54689	0.11	3	100	0	50	18.38751	-1.961646	43.97811	
10:40:24	-6.733823	38.95365	124.49	0.1800701	-10.77944	0.13	3	100	0	50	18.1401	-2.225662	43.93357	
10:40:24	-6.733823	38.95365	124.739	0.1800182	-9.98335	0.04	3	100	0	50	18.13203	-2.081257	43.91964	
10:40:24	-6.733822	38.95366	124.986	0.1996429	-8.090354	0.26	3	100	0	50	18.16506	-2.280062	43.88452	
10:40:25	-6.733821	38.95366	125.124	0.2084776	-6.985806	0.06	3	100	0	50	18.13296	-2.384053	43.82436	
10:40:25	-6.733821	38.95366	125.315	0.2112725	-7.034622	0.12	3	100	0	50	18.23949	-2.189105	43.75643	
10:40:25	-6.733821	38.95366	125.402	0.2107248	-6.88813	0.09	3	100	0	50	18.24508	-2.163643	43.6944	
10:40:25	-6.733821	38.95366	125.529	0.2082236	-6.675216	0.13	3	100	0	50	18.26047	-2.042612	43.6543	
10:40:25	-6.73382	38.95366	125.687	0.2152269	-5.93109	0.17	3	100	0	50	18.13384	-2.219454	43.61357	
10:40:26	-6.733819	38.95366	125.899	0.2340339	-5.22724	0.04	3	100	0	50	18.16536	-2.263987	43.5561	
10:40:26	-6.733819	38.95366	126.016	0.2513094	-4.47471	0.12	3	100	0	50	18.27108	-2.209948	43.49238	
10:40:26	-6.733819	38.95366	126.229	0.2670842	-3.51722	0.25	3	100	0	50	18.21501	-2.173343	43.44071	
10:40:26	-6.733818	38.95366	126.427	0.2855579	-2.402697	0.22	3	100	0	50	18.09935	-2.09122	43.4101	
10:40:26	-6.733817	38.95366	126.565	0.301706	-1.527263	0.28	3	100	0	50	18.34701	-2.363089	43.36058	
10:40:27	-6.733816	38.95366	126.863	0.3309224	-0.3960761	0.31	3	100	0	50	18.37298	-2.399624	43.29348	
10:40:27	-6.733815	38.95366	127.02	0.3624587	0.847354	0.28	3	100	0	50	18.20472	-2.463393	43.20743	
10:40:27	-6.733814	38.95366	127.356	0.4024881	2.446534	0.45	3	100	0	50	18.24311	-2.477886	43.15456	
10:40:27	-6.733814	38.95366	127.482	0.442018	3.938619	0.28	3	100	0	50	18.55113	-2.576882	43.04958	
10:40:27	-6.733814	38.95366	127.561	0.4790116	5.483589	0.09	3	100	0	50	18.53024	-2.339711	42.9452	
10:40:28	-6.733813	38.95366	127.622	0.5091028	6.657368	0.39	3	100	0	50	18.53098	-2.285122	42.86406	
10:40:28	-6.733812	38.95366	127.778	0.4986805	5.007295	0.37	3	100	0	50	18.62271	-2.52136	42.7497	
10:40:28	-6.733812	38.95366	127.865	0.4340211	0.8955265	0.08	3	100	0	50	18.558	-2.372139	42.65143	
10:40:28	-6.733811	38.95367	128.063	0.3581802	-3.887405	0.38	3	100	0	50	18.50499	-2.176467	42.59852	
10:40:28	-6.73381	38.95367	128.275	0.2849042	-7.625855	0.29	3	100	0	50	18.47056	-2.458946	42.54303	
10:40:29	-6.733809	38.95367	128.439	0.2193999	-10.65917	0.22	3	100	0	50	18.3929	-2.382972	42.48484	
10:40:29	-6.733809	38.95367	128.588	0.1928921	-11.72524	0.19	3	100	0	50	18.36544	-2.159718	42.46006	
10:40:29	-6.733809	38.95367	128.803	0.1695676	-12.12296	0.29	3	100	0	50	18.35354	-1.790322	42.44161	
10:40:29	-6.733808	38.95367	129.044	0.1744866	-11.12445	0.11	3	100	0	50	18.38353	-1.801554	42.4518	
10:40:29	-6.733808	38.95367	129.192	0.181646	-9.527484	0.29	3	100	0	50	18.4321	-2.111875	42.44961	
10:40:30	-6.733807	38.95367	129.167	0.1658456	-9.564636	0.21	3	100	0	50	18.62781	-2.057797	42.39966	
10:40:30	-6.733807	38.95367	129.232	0.1532839	-9.53105	0.25	3	100	0	50	18.58478	-1.910189	42.35839	
10:40:30	-6.733807	38.95367	129.251	0.1185584	-11.06322	0.19	3	100	0	50	18.58692	-2.060048	42.31558	
10:40:30	-6.733807	38.95367	129.517	0.08600283	-11.76441	0.44	3	100	0	50	18.5388	-2.108684	42.25978	
10:40:30	-6.733806	38.95367	129.581	0.05987706	-12.31527	0.14	3	100	0	50	18.46739	-2.14874	42.19195	
10:40:31	-6.733805	38.95367	129.763	0.03793826	-12.61657	0.32	3	100	0	50	18.36253	-1.947123	42.18482	
10:40:31	-6.733805	38.95368	129.953	0.04397171	-11.1075	0.58	3	100	0	50	18.4232	-2.148891	42.17387	
10:40:31	-6.733803	38.95368	130.332	0.05112939	-9.672373	0.57	3	100	0	50	18.51673	-2.289624	42.12056	
10:40:31	-6.733803	38.95368	130.547	0.09824912	-6.923825	0.26	3	100	0	50	18.5541	-2.09201	42.05094	
10:40:31	-6.733802	38.95368	130.582	0.1460133	-4.364063	0.26	3	100	0	50	18.25804	-1.949183	42.02908	
10:40:32	-6.733801	38.95368	130.802	0.1050348	-6.287649	0.07	3	100	0	50	18.0394	-1.938822	42.05119	
10:40:32	-6.733801	38.95368	130.904	0.07446562	-7.728337	0.87	3	100	0	50	18.19109	-2.051295	42.07874	
10:40:32	-6.733801	38.95368	130.795	0.07983545	-6.864116	0.33	3	100	0	50	18.36523	-2.191021	42.01928	
10:40:32	-6.733801	38.95368	130.765	0.08638357	-6.092091	0.17	3	100	0	50	18.04518	-1.766834	42.02706	
10:40:32	-6.7338	38.95368	130.687	0.06699436	-6.802865	0.22	3	100	0	50	17.9217	-1.762078	42.08886	
10:40:33	-6.733799	38.95368	130.787	0.05026464	-7.142538	0.14	3	100	0	50	17.8787	-1.817579	42.14104	
10:40:33	-6.733799	38.95368	130.892	0.08051831	-5.01575	0.12	3	100	0	50	17.91624	-1.811634	42.1887	
10:40:33	-6.733799	38.95368	130.871	0.1084713	-3.385438	0.04	3	100	0	50	18.06225	-1.761143	42.21132	
10:40:33	-6.733798	38.95368	130.953	0.1458063	-1.482646	0.35	3	100	0	50	18.01853	-1.871203	42.26121	
10:40:33	-6.733797	38.95368	130.898	0.1835899	0.83614	0.18	3	100	0	50	18.09534	-2.059636	42.2649	
10:40:34	-6.733797	38.95368	130.834	0.2183237	2.18642	0.45	3	100	0	50	18.08716	-1.581488	42.26865	
10:40:34	-6.733797	38.95368	130.755	0.2500647	3.117036	0.11	3	100	0	50	17.99388	-1.266373	42.33566	
10:40:34	-6.733797	38.95368	130.801	0.2870152	4.304685	0.17	3	100	0	50	17.93053	-1.529413	42.40743	
10:40:34	-6.733796	38.95368	130.778	0.3328665	6.012045	0.37	3	100	0	50	18.12615	-1.707089	42.4574	
10:40:34	-6.733795	38.95368	130.929	0.3432318	5.42248	0.19	3	100	0	50	18.28077	-1.967975	42.45177	
10:40:35	-6.733795	38.95368	130.782	0.3334039	4.212111	0.26	3	100	0	50	18.14141	-1.676104	42.45281	
10:40:35	-6.733795	38.95368	130.88	0.2940743	1.595536	0.33	3	100	0	50	18.22444	-1.216338	42.49186	
10:40:35	-6.733794	38.95368	131.012	0.2385431	-1.69879	0.09	3	100	0	50	18.26358	-1.381786	42.55193	
10:40:35	-6.733794	38.95369	131.108	0.2014331	-4.230808	0	3	100	0	50	18.35931	-1.658051	42.55346	
10:40:35	-6.733794	38.95369	131.239	0.1751893	-5.763025	0.18	3	100	0	50	18.35848	-1.814972	42.55022	
10:40:36	-6.733793	38.95369	131.456	0.1423678	-6.818716	0.16	3	100	0	50	18.36515	-1.9424	42.53251	
10:40:36	-6.733792	38.95369	131.657	0.09837946	-8.837473	0.22	3	100	0	50	18.20691	-1.76179	42.51369	
10:40:36	-6.733792	38.95369	131.757	0.05467442	-10.49453	0.04	3	100	0	50	18.26622	-1.710314	42.53212	
10:40:36	-6.733791	38.95369	131.779	0.01783946	-11.65199	0.14	3	100	0	50	18.43778	-1.915155	42.49805	
10:40:36	-6.733791	38.95369	131.652	-0.008990461	-12.22655	0.21	3	100	0	50	18.34321	-1.759293	42.47332	
10:40:37	-6.73379	38.95369	131.582	-0.02695338	-12.44678	0.45	3	100	0	50	18.11392	-1.472786	42.45644	
10:40:37	-6.73379	38.95369	131.588	-0.04381816	-12.32004	0.14	3	100	0	50	18.16498	-1.525227	42.49805	
10:40:37	-6.733789	38.95369	131.738	-0.05836444	-12.6835	0.56	3	100	0	50	18.49367	-1.848682	42.49908	
10:40:37	-6.733789	38.95369	132.118	-0.0629947	-12.08062	0.09	3	100	0	50	18.40772	-1.918697	42.46512	
10:40:37	-6.733789	38.95369	132.19	-0.05211987	-10.301	0.21	3	100	0	50	18.24935	-1.806185	42.46478	
10:40:38	-6.733789	38.95369	132.324	-0.02993366	-7.765006	0.21	3	100	0	50	18.35811	-1.733434	42.45181	
10:40:38	-6.733788	38.9537	132.448	0.005904074	-5.666844	0.07	3	100	0	50	18.26861	-1.677469	42.44558	
10:40:38	-6.733788	38.9537	132.517	0.05017899	-3.255314	0.09	3	100	0	50	18.12008	-1.655327	42.47247	
10:40:38	-6.733787	38.9537	132.701	0.09620882	-0.7853146	0.09	3	100	0	50	18.03165	-1.665933	42.52702	
10:40:38	-6.733787	38.9537	132.885	0.1375024	0.9824084	0.19	3	100	0	50	18.09187	-1.606716	42.57502	
10:40:39	-6.733787	38.9537	133.039	0.1989593	4.042788	0.26	3	100	0	50	18.01762	-1.55893	42.63645	
10:40:39	-6.733786	38.9537	132.864	0.2539703	6.116932	0.44	3	100	0	50	17.92195	-1.49027	42.68114	
10:40:39	-6.733786	38.9537	132.912	0.294405	7.301759	0.18	3	100	0	50	18.12127	-1.706294	42.74493	
10:40:39	-6.733785	38.9537	133.054	0.3338693	8.556796	0.42	3	100	0	50	18.05038	-1.80678	42.74916	
10:40:40	-6.733785	38.9537	133.127	0.3537416	8.784192	0.12	3	100	0	50	17.95251	-1.68302	42.80084	
10:40:40	-6.733784	38.9537	133.299	0.3700692	8.889854	0.25	3	100	0	50	18.21044	-1.93806	42.80584	
10:40:40	-6.733784	38.9537	133.391	0.3937919	9.13339	0.18	3	100	0	50	18.32129	-2.052888	42.76591	
10:40:40	-6.733783	38.9537	133.416	0.4148085	9.170753	0.28	3	100	0	50	18.35021	-2.064766	42.73353	
10:40:40	-6.733783	38.9537	133.654	0.4001845	7.330787	0.07	3	100	0	50	18.21729	-2.033329	42.67918	
10:40:41	-6.733782	38.9537	134.08	0.3850477	5.767315	0.38	3	100	0	50	18.21864	-2.131931	42.67154	
10:40:41	-6.733782	38.9537	134.076	0.353226	3.499398	0.25	3	100	0	50	18.26078	-2.271905	42.62458	
10:40:41	-6.733781	38.9537	134.261	0.322851	1.513581	0.06	3	100	0	50	18.13918	-2.135312	42.59889	
10:40:41	-6.733781	38.9537	134.351	0.3158555	0.7625138	0.21	3	100	0	50	18.14801	-2.188493	42.57946	
10:40:41	-6.73378	38.9537	134.529	0.3081737	0.3026572	0.24	3	100	0	50	18.19299	-2.33377	42.5283	
10:40:42	-6.733779	38.9537	134.803	0.2650044	-1.646086	0.21	3	100	0	50	18.24168	-2.303397	42.47619	
10:40:42	-6.733779	38.9537	134.966	0.226193	-3.668104	0.06	3	100	0	50	18.13975	-2.155861	42.43808	
10:40:42	-6.733778	38.9537	135.101	0.184055	-5.48011	0.04	3	100	0	50	18.07112	-2.012601	42.44215	
10:40:42	-6.733778	38.9537	135.145	0.1434653	-6.933308	0.11	3	100	0	50	18.09215	-2.122045	42.42101	
10:40:42	-6.733778	38.9537	135.24	0.151232	-5.708459	0.21	3	100	0	50	18.20302	-2.123801	42.40614	
10:40:43	-6.733778	38.9537	135.112	0.1587978	-5.039392	0.14	3	100	0	50	18.2704	-2.089521	42.36003	
10:40:43	-6.733777	38.9537	135.18	0.1744369	-3.901422	0.09	3	100	0	50	18.15788	-2.148676	42.34457	
10:40:43	-6.733777	38.9537	135.17	0.1890993	-3.147637	0.16	3	100	0	50	18.13624	-2.212345	42.33509	
10:40:43	-6.733776	38.9537	135.263	0.1545241	-5.046397	0.37	3	100	0	50	18.21148	-2.370422	42.31859	
10:40:43	-6.733775	38.95371	135.313	0.1193777	-6.580471	0.17	3	100	0	50	18.06233	-2.239402	42.30206	
10:40:44	-6.733774	38.95371	135.448	0.07296598	-7.829187	0.24	3	100	0	50	18.15048	-2.226167	42.29184	
10:40:44	-6.733774	38.95371	135.543	0.009729786	-10.47561	0.26	3	100	0	50	18.40883	-2.207836	42.2472	
10:40:44	-6.733774	38.95371	135.603	-0.03353013	-12.01258	0.32	3	100	0	50	18.39946	-2.313396	42.20028	
10:40:44	-6.733774	38.95371	135.741	-0.05434546	-12.22803	0.24	3	100	0	50	18.32322	-2.432598	42.14499	
10:40:44	-6.733773	38.95371	135.833	-0.05947928	-11.66488	0.42	3	100	0	50	18.45412	-2.390743	42.08603	
10:40:45	-6.733773	38.95371	135.984	-0.05265822	-10.33889	0.25	3	100	0	50	18.39063	-2.375683	42.02802	
10:40:45	-6.733772	38.95371	136.094	-0.01272386	-7.55953	0.28	3	100	0	50	18.34779	-2.34655	41.98694	
10:40:45	-6.733771	38.95372	136.445	0.04624422	-3.615928	0.35	3	100	0	50	18.41459	-2.376224	41.93946	
10:40:45	-6.733771	38.95372	136.491	0.09685896	-0.4955533	0.19	3	100	0	50	18.30529	-2.288387	41.90543	
10:40:45	-6.73377	38.95372	136.627	0.1516292	2.482004	0.29	3	100	0	50	18.34184	-2.236996	41.86742	
10:40:46	-6.733769	38.95372	136.685	0.1692215	2.584674	0.14	3	100	0	50	18.3309	-2.163498	41.83352	
10:40:46	-6.733769	38.95372	136.717	0.1398375	0.5825425	0.03	3	100	0	50	18.19326	-2.030638	41.8316	
10:40:46	-6.733769	38.95372	136.62	0.124758	0.03130565	0.16	3	100	0	50	18.21321	-2.039926	41.82908	
10:40:46	-6.733769	38.95372	136.643	0.1276704	0.07850526	0	3	100	0	50	18.20334	-1.999904	41.82928	
10:40:46	-6.733769	38.95372	136.741	0.1560211	1.468836	0.08	3	100	0	50	18.1953	-1.97661	41.84673	
10:40:47	-6.733768	38.95372	136.828	0.1975328	3.446445	0.22	3	100	0	50	18.10808	-1.831724	41.87698	
10:40:47	-6.733768	38.95372	136.921	0.25389	6.356586	0.06	3	100	0	50	18.07321	-1.906759	41.92213	
10:40:47	-6.733768	38.95372	136.849	0.3166962	9.160926	0.22	3	100	0	50	18.18548	-2.14242	41.93568	
10:40:47	-6.733768	38.95372	136.859	0.3535177	10.40319	0.24	3	100	0	50	18.26176	-2.222807	41.92343	
10:40:47	-6.733767	38.95372	136.962	0.3714839	10.54196	0.13	3	100	0	50	18.21042	-2.039484	41.90538	
10:40:48	-6.733767	38.95372	136.913	0.3531305	8.121446	0.02	3	100	0	50	18.16612	-1.992751	41.92468	
10:40:48	-6.733767	38.95372	136.949	0.305668	5.113169	0.11	3	100	0	50	18.14864	-2.138494	41.94551	
10:40:48	-6.733767	38.95372	136.816	0.2780516	2.646479	0.17	3	100	0	50	18.27709	-2.178515	41.93401	
10:40:48	-6.733767	38.95372	136.767	0.2810632	1.912717	0.18	3	100	0	50	18.23881	-1.966348	41.90884	
10:40:48	-6.733768	38.95372	136.686	0.2823732	1.313897	0.07	3	100	0	50	18.22645	-1.962193	41.9123	
10:40:49	-6.733768	38.95372	136.649	0.2722331	0.3672721	0.16	3	100	0	50	18.19899	-1.917522	41.92306	
10:40:49	-6.733768	38.95372	136.602	0.2627175	-0.06014394	0.28	3	100	0	50	18.05481	-1.789219	41.96066	
10:40:49	-6.733768	38.95372	136.248	0.2724208	0.6975549	0.33	3	100	0	50	17.90543	-1.837027	42.01302	
10:40:49	-6.733768	38.95372	136.071	0.2819449	1.43241	0.13	3	100	0	50	17.94342	-2.00018	42.05643	
10:40:49	-6.733767	38.95372	136.009	0.2209722	-2.334116	0.14	3	100	0	50	18.02815	-2.02001	42.06743	
10:40:50	-6.733767	38.95372	135.935	0.1580506	-6.258004	0.31	3	100	0	50	17.94148	-1.931324	42.09733	
10:40:50	-6.733768	38.95372	135.806	0.06209785	-10.57689	0.12	3	100	0	50	18.12002	-1.951932	42.14996	
10:40:50	-6.733768	38.95372	135.714	-0.03115197	-14.22917	0.04	3	100	0	50	18.22426	-2.060088	42.1382	
10:40:50	-6.733768	38.95372	135.493	-0.1023118	-16.21131	0.19	3	100	0	50	17.96741	-2.048069	42.1417	
10:40:50	-6.733767	38.95372	135.433	-0.1640743	-17.94396	0.21	3	100	0	50	17.87465	-2.001716	42.17341	
10:40:51	-6.733767	38.95372	135.479	-0.2097434	-18.63776	0.32	3	100	0	50	17.95174	-2.264273	42.20907	
10:40:51	-6.733767	38.95372	135.496	-0.2474261	-18.66437	0.21	3	100	0	50	18.14608	-2.088801	42.1782	
10:40:51	-6.733767	38.95372	135.399	-0.2587022	-16.83782	0.08	3	100	0	50	18.14597	-2.057797	42.15983	
10:40:51	-6.733767	38.95372	135.182	-0.2661609	-15.28067	0.18	3	100	0	50	17.88885	-2.021834	42.17972	
10:40:51	-6.733767	38.95372	135.142	-0.2228685	-11.41089	0.18	3	100	0	50	18.05854	-2.07284	42.19933	
10:40:52	-6.733767	38.95372	135.097	-0.1813059	-8.359591	0.11	3	100	0	50	18.1359	-2.045411	42.19379	
10:40:52	-6.733767	38.95372	134.973	-0.08988293	-2.795533	0.01	3	100	0	50	18.03516	-2.026876	42.19223	
10:40:52	-6.733768	38.95372	134.777	0.001917579	2.578894	0.22	3	100	0	50	17.8329	-1.997979	42.22763	
10:40:52	-6.733768	38.95372	134.665	0.06620321	5.772573	0.18	3	100	0	50	17.83308	-1.905976	42.28963	
10:40:52	-6.733768	38.95372	134.438	0.125047	8.793642	0.25	3	100	0	50	17.96979	-1.77421	42.3306	
10:40:53	-6.733769	38.95372	134.267	0.1273686	8.123209	0.16	3	100	0	50	17.98708	-1.806636	42.36447	
10:40:53	-6.733769	38.95372	134.233	0.127552	7.069878	0.03	3	100	0	50	17.99931	-1.964078	42.38708	
10:40:53	-6.733769	38.95372	134.08	0.1404276	6.74432	0.41	3	100	0	50	17.75941	-1.87616	42.41151	
10:40:53	-6.733769	38.95371	133.854	0.1516756	6.947625	0.08	3	100	0	50	17.96655	-1.971218	42.45043	
10:40:53	-6.733769	38.95371	133.694	0.1601125	6.649077	0.17	3	100	0	50	18.14245	-1.962272	42.44876	
10:40:54	-6.733769	38.95371	133.72	0.1650357	6.247983	0.31	3	100	0	50	18.32756	-2.288724	42.4332	
10:40:54	-6.733769	38.95372	133.797	0.1558462	5.175828	0.07	3	100	0	50	18.2456	-2.279055	42.3562	
10:40:54	-6.733769	38.95372	133.516	0.1266935	3.203727	0.35	3	100	0	50	18.05984	-1.88274	42.34516	
10:40:54	-6.73377	38.95371	133.424	0.103641	1.734332	0.07	3	100	0	50	17.85688	-1.770883	42.38868	
10:40:54	-6.73377	38.95371	133.424	0.08339375	0.7321888	0.07	3	100	0	50	18.06545	-2.009158	42.41594	
10:40:55	-6.73377	38.95371	133.29	0.07891891	0.4649957	0.13	3	100	0	50	18.17379	-2.05781	42.38576	
10:40:55	-6.73377	38.95371	133.465	0.08370417	1.074074	0.13	3	100	0	50	18.29925	-2.149774	42.36895	
10:40:55	-6.733771	38.95372	133.425	0.08797565	1.480511	0.19	3	100	0	50	18.41768	-2.469249	42.31326	
10:40:55	-6.733771	38.95372	133.351	0.0911705	1.276184	0.21	3	100	0	50	18.13327	-1.883388	42.27207	
10:40:55	-6.733771	38.95372	133.353	0.07936374	0.0580981	0.13	3	100	0	50	18.00264	-1.707833	42.29897	
10:40:56	-6.733771	38.95372	133.353	0.05580974	-1.249314	0.13	3	100	0	50	17.97605	-1.852549	42.32473	
10:40:56	-6.733771	38.95372	133.385	0.03331012	-2.465628	0.45	3	100	0	50	17.76388	-1.71402	42.35879	
10:40:56	-6.733771	38.95371	133.324	0.01216156	-3.052018	0.51	3	100	0	50	17.6435	-1.603944	42.44767	
10:40:56	-6.733772	38.95371	133.142	-0.02325199	-5.066328	0.19	3	100	0	50	18.07895	-1.640268	42.50513	
10:40:56	-6.733772	38.95371	133.142	-0.06642959	-6.574803	0.19	3	100	0	50	18.32165	-1.846663	42.50748	
10:40:57	-6.733773	38.95371	132.968	-0.08324953	-7.278625	0.19	3	100	0	50	18.27266	-2.132406	42.48386	
10:40:57	-6.733773	38.95371	132.667	-0.08571509	-6.851114	0.22	3	100	0	50	18.08233	-1.985148	42.45949	
10:40:57	-6.733773	38.95371	132.667	-0.08231368	-6.029584	0.22	3	100	0	50	18.39586	-2.038508	42.43364	
10:40:57	-6.733774	38.95371	132.528	-0.07426573	-5.086573	0.09	3	100	0	50	18.42872	-2.042908	42.37547	
10:40:57	-6.733774	38.95371	132.334	-0.07109389	-4.47759	0.14	3	100	0	50	18.22703	-1.991504	42.34535	
10:40:58	-6.733774	38.95371	132.334	-0.07630895	-4.456441	0.14	3	100	0	50	18.1775	-1.979443	42.33394	
10:40:58	-6.733774	38.95371	132.194	-0.05043794	-2.933358	0.14	3	100	0	50	18.27645	-1.843531	42.31285	
10:40:58	-6.733774	38.95371	132.194	-0.00690214	-0.1344904	0.14	3	100	0	50	18.22947	-1.901314	42.31579	
10:40:58	-6.733775	38.95371	132.125	0.03259064	2.058817	0.26	3	100	0	50	18.43919	-2.110189	42.31859	
10:40:58	-6.733775	38.95371	131.815	0.03926853	1.598365	0.04	3	100	0	50	18.29797	-2.035075	42.27548	
10:40:59	-6.733775	38.95371	131.731	0.04410661	1.556688	0.17	3	100	0	50	18.21712	-2.036701	42.26911	
10:40:59	-6.733776	38.95371	131.631	0.0691224	3.026797	0.29	3	100	0	50	18.41513	-1.981646	42.24169	
10:40:59	-6.733776	38.95371	131.573	0.09163559	3.913538	0.16	3	100	0	50	18.5846	-1.975215	42.19206	
10:40:59	-6.733776	38.95371	131.573	0.05256981	1.385552	0.16	3	100	0	50	18.40926	-1.890761	42.16205	
10:40:59	-6.733776	38.95371	131.744	0.02002681	-0.2171921	0.31	3	100	0	50	18.13808	-1.757	42.18597	
10:41:00	-6.733777	38.95371	131.721	-0.06473533	-5.109842	0.16	3	100	0	50	18.01051	-1.801261	42.21492	
10:41:00	-6.733777	38.95371	131.588	-0.1500537	-9.207622	0.19	3	100	0	50	18.14771	-1.853099	42.24286	
10:41:00	-6.733777	38.95371	131.712	-0.1620365	-9.546986	0.11	3	100	0	50	18.25321	-1.804495	42.26748	
10:41:00	-6.733777	38.95371	131.774	-0.1717333	-9.076817	0.09	3	100	0	50	18.37911	-1.977347	42.26725	
10:41:00	-6.733777	38.95371	131.733	-0.1419764	-6.809695	0.17	3	100	0	50	18.36785	-2.0491	42.25119	
10:41:01	-6.733777	38.95371	131.661	-0.113883	-4.90671	0.01	3	100	0	50	18.45041	-1.998219	42.22942	
10:41:01	-6.733777	38.95371	131.647	-0.08061057	-2.610958	0.33	3	100	0	50	18.33955	-1.94365	42.19566	
10:41:01	-6.733777	38.95371	131.651	-0.04947144	-0.9850194	0.19	3	100	0	50	18.60488	-1.978551	42.16937	
10:41:01	-6.733777	38.95371	131.677	-0.08102071	-2.908741	0.16	3	100	0	50	18.26585	-1.869167	42.15002	
10:41:01	-6.733777	38.95371	131.587	-0.109779	-4.185715	0.11	3	100	0	50	18.18399	-1.89308	42.15957	
10:41:02	-6.733776	38.95371	131.604	-0.1370564	-5.244804	0.09	3	100	0	50	18.22935	-1.907773	42.16603	
10:41:02	-6.733776	38.95371	131.593	-0.1616444	-6.001352	0.22	3	100	0	50	18.37782	-1.863642	42.15923	
10:41:02	-6.733776	38.95371	131.616	-0.1935101	-7.195971	0.14	3	100	0	50	18.24577	-1.822752	42.17273	
10:41:02	-6.733776	38.95371	131.683	-0.2220124	-8.13031	0.14	3	100	0	50	18.44705	-1.967615	42.15882	
10:41:02	-6.733776	38.95371	131.623	-0.198048	-5.989709	0.16	3	100	0	50	18.22271	-1.998219	42.15948	
10:41:03	-6.733776	38.95371	131.582	-0.1739766	-3.583204	0.33	3	100	0	50	18.3788	-1.834299	42.1566	
10:41:03	-6.733776	38.95371	131.543	-0.1348022	-1.245934	0.29	3	100	0	50	18.07176	-1.717094	42.18292	
10:41:03	-6.733776	38.95371	131.538	-0.1000181	2.327142E-05	0.19	3	100	0	50	18.08479	-1.640097	42.23164	
10:41:03	-6.733776	38.95371	131.461	-0.06786824	1.635962	0.16	3	100	0	50	18.46492	-1.947452	42.24232	
10:41:03	-6.733776	38.95371	131.375	-0.03093606	3.325662	0.19	3	100	0	50	18.19588	-2.049189	42.2248	
10:41:04	-6.733775	38.95371	131.339	0.02331803	5.258215	0.25	3	100	0	50	18.30271	-2.145478	42.19401	
10:41:04	-6.733775	38.95371	131.276	0.08563951	7.848687	0.07	3	100	0	50	18.07763	-1.846462	42.18925	
10:41:04	-6.733774	38.95371	131.173	0.1102053	8.196403	0.39	3	100	0	50	18.21012	-1.923401	42.20816	
10:41:04	-6.733774	38.95371	131.145	0.1132077	7.384257	0.19	3	100	0	50	17.91086	-2.101622	42.22567	
10:41:04	-6.733774	38.95371	131.126	0.1171605	6.994678	0.14	3	100	0	50	18.46678	-1.726294	42.21835	
10:41:05	-6.733774	38.95371	131.088	0.1224784	6.551999	0.04	3	100	0	50	18.61403	-1.687487	42.19261	
10:41:05	-6.733774	38.95371	131.041	0.140157	6.964543	0.16	3	100	0	50	18.5031	-1.746737	42.17564	
10:41:05	-6.733774	38.95371	131.052	0.165143	7.136114	0.06	3	100	0	50	18.30086	-1.780556	42.18105	
10:41:05	-6.733774	38.95371	131.122	0.169115	6.369832	0.22	3	100	0	50	18.50853	-1.783971	42.18759	
10:41:05	-6.733774	38.95371	131.222	0.1418997	4.6005	0.29	3	100	0	50	18.68093	-1.861914	42.15767	
10:41:06	-6.733774	38.95371	131.283	0.1423748	3.807764	0.22	3	100	0	50	18.2739	-1.463564	42.13569	
10:41:06	-6.733774	38.95371	131.222	0.1698909	4.876863	0.08	3	100	0	50	18.12496	-1.675148	42.18152	
10:41:06	-6.733774	38.95371	131.243	0.1846643	5.554891	0.19	3	100	0	50	18.27787	-1.678509	42.20425	
10:41:06	-6.733774	38.95371	131.272	0.1879858	4.930233	0.14	3	100	0	50	18.53834	-1.836307	42.21056	
10:41:06	-6.733773	38.95371	131.268	0.2007352	4.890933	0.21	3	100	0	50	18.32039	-1.5971	42.20269	
10:41:07	-6.733773	38.95371	131.288	0.2207569	5.135127	0.14	3	100	0	50	18.18342	-1.578514	42.22276	
10:41:07	-6.733773	38.95371	131.348	0.2313379	4.951952	0.09	3	100	0	50	18.33562	-1.869589	42.243	
10:41:07	-6.733773	38.95371	131.306	0.2317324	4.660459	0.02	3	100	0	50	18.37761	-1.645937	42.24055	
10:41:07	-6.733773	38.95371	131.339	0.2278437	4.347826	0.16	3	100	0	50	18.35953	-1.72642	42.24215	
10:41:07	-6.733773	38.95371	131.381	0.2192059	3.764911	0.19	3	100	0	50	18.26645	-1.594815	42.27178	
10:41:08	-6.733772	38.95372	131.446	0.212697	2.944447	0.13	3	100	0	50	18.10466	-1.714418	42.29977	
10:41:08	-6.733772	38.95372	131.397	0.2099187	2.195378	0.07	3	100	0	50	18.43013	-1.659747	42.30679	
10:41:08	-6.733772	38.95372	131.37	0.2060179	1.784136	0.33	3	100	0	50	18.27255	-1.751881	42.30004	
10:41:08	-6.733771	38.95372	131.388	0.2372373	3.64373	0.34	3	100	0	50	18.01883	-1.911245	42.31145	
10:41:08	-6.733771	38.95372	131.306	0.2654951	4.870983	0.13	3	100	0	50	18.78747	-1.917805	42.27791	
10:41:09	-6.733771	38.95372	131.201	0.3083428	6.503374	0.09	3	100	0	50	18.49769	-1.604063	42.25286	
10:41:09	-6.733771	38.95372	131.115	0.3511658	8.835095	0.04	3	100	0	50	18.32623	-1.736443	42.25043	
10:41:09	-6.733771	38.95372	130.993	0.3698633	8.628202	0.12	3	100	0	50	18.48075	-1.691914	42.24784	
10:41:09	-6.73377	38.95372	130.977	0.3834192	8.677716	0.09	3	100	0	50	18.4403	-1.911104	42.23448	
10:41:09	-6.73377	38.95372	130.95	0.4169005	9.342093	0.17	3	100	0	50	18.40766	-1.674195	42.2361	
10:41:10	-6.73377	38.95372	130.842	0.4453552	9.367558	0.13	3	100	0	50	18.62298	-1.704965	42.21181	
10:41:10	-6.73377	38.95372	130.771	0.4637425	9.466011	0.14	3	100	0	50	18.51204	-1.856424	42.18285	
10:41:10	-6.73377	38.95372	130.698	0.4813685	8.874118	0.19	3	100	0	50	18.46898	-1.538375	42.16263	
10:41:10	-6.733769	38.95372	130.606	0.4670914	7.020473	0.08	3	100	0	50	18.60633	-1.817905	42.14579	
10:41:10	-6.733769	38.95372	130.511	0.452802	5.816413	0.19	3	100	0	50	18.3157	-1.669782	42.14085	
10:41:11	-6.733769	38.95372	130.479	0.4272479	3.757804	0.45	3	100	0	50	18.40208	-1.479551	42.15375	
10:41:11	-6.733769	38.95372	130.432	0.4032605	2.110924	0.21	3	100	0	50	17.97864	-1.335268	42.21136	
10:41:11	-6.733769	38.95372	130.435	0.3648487	-0.2335799	0.04	3	100	0	50	18.33846	-1.470875	42.28522	
10:41:11	-6.733769	38.95372	130.391	0.3328331	-2.191136	0.17	3	100	0	50	18.36538	-1.697031	42.29943	
10:41:11	-6.733769	38.95372	130.326	0.322138	-2.93543	0.09	3	100	0	50	18.3001	-1.894721	42.30497	
10:41:12	-6.733769	38.95372	130.257	0.3117496	-3.076354	0.09	3	100	0	50	18.34542	-1.538453	42.3051	
10:41:12	-6.733769	38.95372	130.3	0.2911289	-4.421787	0.25	3	100	0	50	18.24605	-1.60898	42.33448	
10:41:12	-6.733769	38.95372	130.128	0.2719597	-5.492947	0.09	3	100	0	50	18.05622	-1.756755	42.37318	
10:41:12	-6.733769	38.95372	130.113	0.2767132	-5.559025	0.24	3	100	0	50	18.23034	-1.763453	42.39851	
10:41:12	-6.733769	38.95372	130.117	0.2813329	-5.152718	0.04	3	100	0	50	18.56018	-1.744751	42.36906	
10:41:13	-6.733769	38.95372	130.017	0.2942585	-4.487306	0.09	3	100	0	50	18.22497	-1.628107	42.3506	
10:41:13	-6.733769	38.95372	129.952	0.3051293	-3.281084	0.26	3	100	0	50	18.13655	-1.628264	42.36535	
10:41:13	-6.733769	38.95372	129.841	0.2868978	-3.887108	0.03	3	100	0	50	18.17774	-1.445282	42.39367	
10:41:13	-6.733769	38.95372	129.763	0.2442768	-5.686458	0.25	3	100	0	50	18.18298	-1.743122	42.42673	
10:41:13	-6.733768	38.95372	129.792	0.2008623	-8.040576	0.37	3	100	0	50	17.91561	-1.683372	42.4631	
10:41:14	-6.733768	38.95372	129.783	0.1582281	-9.972189	0.12	3	100	0	50	17.89005	-1.417478	42.51067	
10:41:14	-6.733768	38.95372	129.824	0.1082578	-11.77039	0.22	3	100	0	50	18.09121	-1.752284	42.56805	
10:41:14	-6.733769	38.95372	129.849	0.05444132	-13.75414	0.17	3	100	0	50	18.08722	-1.428855	42.597	
10:41:14	-6.733769	38.95372	129.857	0.01467658	-14.73924	0.16	3	100	0	50	18.33535	-1.58003	42.6273	
10:41:14	-6.733768	38.95372	129.83	-0.01153616	-14.71445	0.26	3	100	0	50	18.21864	-1.815979	42.6512	
10:41:15	-6.733768	38.95372	129.705	-0.02815819	-14.12087	0.07	3	100	0	50	17.97858	-1.712888	42.6814	
10:41:15	-6.733768	38.95372	129.605	-0.03075686	-13.18251	0.19	3	100	0	50	18.25973	-1.610625	42.70453	
10:41:15	-6.733768	38.95372	129.461	-0.01741215	-11.40051	0.29	3	100	0	50	18.12027	-1.737211	42.71399	
10:41:15	-6.733769	38.95372	129.421	0.01514316	-9.265242	0.39	3	100	0	50	18.4918	-1.494819	42.70852	
10:41:15	-6.733769	38.95372	129.477	0.05006777	-6.846465	0.26	3	100	0	50	18.09287	-1.368703	42.73521	
10:41:16	-6.733769	38.95372	129.419	0.09288826	-4.224259	0.04	3	100	0	50	18.00193	-1.717899	42.77698	
10:41:16	-6.733769	38.95372	129.438	0.114883	-3.128675	0.19	3	100	0	50	18.25925	-1.770001	42.78498	
10:41:16	-6.733769	38.95372	129.547	0.1265731	-2.460723	0.33	3	100	0	50	18.16372	-1.663531	42.77287	
10:41:16	-6.733769	38.95372	129.606	0.1441738	-1.431916	0.07	3	100	0	50	17.94033	-1.831534	42.80781	
10:41:16	-6.733769	38.95372	129.695	0.1647686	-0.4382297	0.14	3	100	0	50	18.37221	-1.819381	42.78497	
10:41:17	-6.733769	38.95372	129.717	0.1707425	-0.1274829	0.06	3	100	0	50	18.3739	-1.966561	42.75287	
10:41:17	-6.733769	38.95372	129.799	0.1625638	-0.7287727	0.41	3	100	0	50	18.28722	-1.770826	42.71203	
10:41:17	-6.733769	38.95372	129.826	0.1497316	-1.214524	0.29	3	100	0	50	18.09568	-1.567972	42.73491	
10:41:17	-6.733769	38.95372	129.792	0.1300992	-2.553681	0.14	3	100	0	50	18.35126	-2.168775	42.7281	
10:41:17	-6.733769	38.95372	129.777	0.1243829	-2.268949	0.09	3	100	0	50	18.16267	-1.850868	42.69141	
10:41:18	-6.73377	38.95372	129.883	0.1348607	-1.554441	0.12	3	100	0	50	18.37745	-1.885456	42.68423	
10:41:18	-6.73377	38.95372	129.934	0.1452686	-0.294705	0.14	3	100	0	50	18.24507	-2.013417	42.6691	
10:41:18	-6.733769	38.95372	130.009	0.1224741	-1.635485	0.26	3	100	0	50	18.17582	-2.046896	42.65472	
10:41:18	-6.733769	38.95372	130.025	0.101873	-2.268385	0.09	3	100	0	50	18.20674	-2.086699	42.62959	
10:41:18	-6.733769	38.95372	130.04	0.06910899	-3.456699	0.31	3	100	0	50	18.09169	-1.774552	42.63272	
10:41:19	-6.733769	38.95372	130.084	0.04295967	-4.158885	0.44	3	100	0	50	18.10866	-2.121714	42.62875	
10:41:19	-6.733769	38.95372	130.037	0.01077694	-5.144285	0.24	3	100	0	50	18.53803	-2.08516	42.56129	
10:41:19	-6.733769	38.95372	130.118	-0.01729193	-5.981942	0.26	3	100	0	50	18.36436	-1.96371	42.52041	
10:41:19	-6.733769	38.95372	130.145	-0.01039592	-4.7242	0.16	3	100	0	50	18.29327	-1.991005	42.48981	
10:41:19	-6.733769	38.95372	130.223	-0.003151209	-3.783144	0.07	3	100	0	50	18.09164	-1.812052	42.49401	
10:41:20	-6.733769	38.95372	130.174	-0.006480183	-3.665956	0.19	3	100	0	50	18.14821	-1.836082	42.52119	
10:41:20	-6.733769	38.95372	130.284	-0.009193677	-3.60681	0.39	3	100	0	50	18.09329	-1.98764	42.54405	
10:41:20	-6.733769	38.95372	130.209	-0.009359588	-3.148566	0.22	3	100	0	50	18.28818	-2.322112	42.5139	
10:41:20	-6.733769	38.95372	130.129	-0.008724242	-2.787737	0.26	3	100	0	50	18.27732	-1.927854	42.4813	
10:41:20	-6.733769	38.95372	130.205	0.003291209	-1.85343	0.33	3	100	0	50	18.59941	-2.139189	42.44767	
10:41:21	-6.733769	38.95372	130.129	0.0156633	-1.09905	0.09	3	100	0	50	18.426	-2.355706	42.37581	
10:41:21	-6.733769	38.95372	129.998	0.0362598	-0.153638	0.19	3	100	0	50	18.34436	-2.057158	42.33187	
10:41:21	-6.73377	38.95372	129.845	0.05612854	0.8107098	0.16	3	100	0	50	18.12231	-1.894163	42.3404	
10:41:21	-6.73377	38.95372	129.629	0.09484673	2.869099	0.36	3	100	0	50	18.17882	-1.784734	42.35808	
10:41:21	-6.733771	38.95372	129.572	0.1369867	4.130656	0.09	3	100	0	50	18.25632	-1.604608	42.37878	
10:41:22	-6.733771	38.95372	129.503	0.1152855	2.437397	0.09	3	100	0	50	18.274	-1.877339	42.38279	
10:41:22	-6.733771	38.95372	129.598	0.09661274	2.386632	0.07	3	100	0	50	18.13662	-1.934597	42.38465	
10:41:22	-6.733771	38.95372	129.614	0.08467923	2.01769	0.08	3	100	0	50	18.22861	-1.876965	42.37876	
10:41:22	-6.733771	38.95372	129.562	0.07448342	1.824189	0.26	3	100	0	50	18.15374	-1.884348	42.38021	
10:41:22	-6.733771	38.95372	129.446	0.1056627	3.654037	0.21	3	100	0	50	17.90644	-1.917852	42.40875	
10:41:23	-6.733771	38.95372	129.365	0.1313313	4.638704	0.24	3	100	0	50	18.01228	-1.807425	42.43274	
10:41:23	-6.733771	38.95372	129.319	0.2032301	7.962618	0.11	3	100	0	50	18.10588	-1.803639	42.4462	
10:41:23	-6.733771	38.95372	129.277	0.3066947	12.82955	0.22	3	100	0	50	18.22404	-1.965878	42.43333	
10:41:23	-6.733772	38.95372	129.259	0.3957686	16.2774	0.08	3	100	0	50	18.01872	-1.850182	42.45979	
10:41:23	-6.733772	38.95372	129.225	0.4987225	19.88854	0.07	3	100	0	50	18.1658	-1.948261	42.48722	
10:41:24	-6.733772	38.95372	129.186	0.5168698	18.80221	0.14	3	100	0	50	18.12305	-1.974981	42.47271	
10:41:24	-6.733773	38.95372	129.132	0.4890357	15.33126	0.12	3	100	0	50	18.00986	-1.930509	42.47741	
10:41:24	-6.733773	38.95372	129.105	0.4512496	11.53262	0.09	3	100	0	50	18.13604	-1.864513	42.48881	
10:41:24	-6.733773	38.95372	129.007	0.4100468	8.515254	0.01	3	100	0	50	18.08464	-1.922827	42.48643	
10:41:24	-6.733773	38.95372	129.112	0.3659306	4.970369	0.09	3	100	0	50	18.07017	-2.010147	42.47849	
10:41:25	-6.733774	38.95372	129.081	0.3248386	2.632891	0.38	3	100	0	50	17.93338	-1.917867	42.48332	
10:41:25	-6.733774	38.95372	129.111	0.2855212	-0.02014106	0.11	3	100	0	50	17.87554	-1.760514	42.52852	
10:41:25	-6.733774	38.95372	129.077	0.2483662	-2.018099	0.14	3	100	0	50	18.12105	-1.895866	42.54132	
10:41:25	-6.733774	38.95372	128.989	0.2208841	-3.2867	0.18	3	100	0	50	18.10878	-1.945621	42.53739	
10:41:25	-6.733774	38.95372	129.079	0.2092496	-3.25814	0.14	3	100	0	50	18.06773	-2.140953	42.51381	
10:41:26	-6.733774	38.95372	129.089	0.2069372	-3.032413	0.09	3	100	0	50	17.94468	-2.102989	42.49869	
10:41:26	-6.733774	38.95372	129.024	0.2127493	-2.157437	0.07	3	100	0	50	18.03098	-2.018842	42.49639	
10:41:26	-6.733774	38.95372	128.926	0.2380199	-0.7912452	0.28	3	100	0	50	17.96376	-1.913853	42.50187	
10:41:26	-6.733774	38.95372	128.869	0.2703308	0.9402338	0.21	3	100	0	50	17.72403	-1.873611	42.54642	
10:41:26	-6.733775	38.95372	128.904	0.2851996	1.781169	0.21	3	100	0	50	17.99265	-1.852483	42.58432	
10:41:27	-6.733775	38.95372	128.897	0.2729479	1.192036	0.13	3	100	0	50	18.19438	-2.044275	42.56533	
10:41:27	-6.733775	38.95372	128.902	0.2424532	-0.6828465	0.24	3	100	0	50	17.97583	-1.983981	42.56372	
10:41:27	-6.733775	38.95372	128.82	0.1866534	-3.620282	0.19	3	100	0	50	17.83934	-2.053462	42.57302	
10:41:27	-6.733775	38.95372	128.772	0.1443446	-5.183404	0.17	3	100	0	50	17.90951	-1.898505	42.59574	
10:41:27	-6.733775	38.95372	128.768	0.1241754	-6.029845	0.06	3	100	0	50	17.92798	-2.005439	42.62358	
10:41:28	-6.733775	38.95372	128.779	0.1076882	-6.72519	0.24	3	100	0	50	17.9506	-2.033709	42.62291	
10:41:28	-6.733775	38.95372	128.764	0.06023402	-8.386873	0.18	3	100	0	50	17.90763	-1.97278	42.64934	
10:41:28	-6.733775	38.95372	128.73	0.02266099	-9.760557	0.19	3	100	0	50	18.1171	-1.93968	42.64651	
10:41:28	-6.733776	38.95372	128.728	0.03047851	-8.316849	0.19	3	100	0	50	18.10719	-2.085695	42.63575	
10:41:28	-6.733776	38.95372	128.816	0.04018879	-6.922866	0.18	3	100	0	50	18.30205	-1.951743	42.6105	
10:41:29	-6.733776	38.95372	129.04	0.08046971	-3.911866	0.09	3	100	0	50	18.13367	-2.053509	42.58295	
10:41:29	-6.733776	38.95372	129.075	0.118749	-0.9516203	0.33	3	100	0	50	18.10666	-2.006176	42.57553	
10:41:29	-6.733776	38.95372	129.138	0.1522708	0.8953177	0.14	3	100	0	50	18.1224	-1.995441	42.55655	
10:41:29	-6.733776	38.95372	129.234	0.1849375	2.499708	0.19	3	100	0	50	18.04826	-1.665408	42.5712	
10:41:29	-6.733777	38.95372	129.202	0.203387	3.399257	0.17	3	100	0	50	18.12143	-1.661304	42.59205	
10:41:30	-6.733777	38.95372	129.198	0.2214237	3.804664	0.08	3	100	0	50	17.95114	-1.651989	42.64173	
10:41:30	-6.733777	38.95372	129.216	0.1788155	1.786666	0.08	3	100	0	50	18.02147	-1.727771	42.67702	
10:41:30	-6.733778	38.95372	129.16	0.1442217	0.06601303	0.26	3	100	0	50	18.0202	-1.627858	42.71203	
10:41:30	-6.733778	38.95372	129.257	0.1376989	-0.06888258	0.22	3	100	0	50	17.93483	-1.54733	42.74849	
10:41:30	-6.733778	38.95372	129.107	0.1316918	0.005005707	0.14	3	100	0	50	17.79743	-1.783204	42.80358	
10:41:31	-6.733778	38.95372	129.187	0.09188034	-2.070606	0.24	3	100	0	50	18.01283	-2.045981	42.80331	
10:41:31	-6.733778	38.95372	129.165	0.05535134	-3.498265	0.09	3	100	0	50	18.06424	-2.014305	42.79708	
10:41:31	-6.733778	38.95372	129.336	0.04374272	-3.376089	0.07	3	100	0	50	18.01097	-1.901411	42.80242	
10:41:31	-6.733778	38.95372	129.468	0.03348788	-3.617643	0.21	3	100	0	50	17.87729	-2.009713	42.81955	
10:41:31	-6.733778	38.95372	129.494	-0.004437255	-5.234743	0.06	3	100	0	50	17.88284	-2.016529	42.83712	
10:41:32	-6.733778	38.95372	129.538	-0.03818607	-6.447137	0.07	3	100	0	50	18.00867	-1.940259	42.83486	
10:41:32	-6.733778	38.95372	129.603	-0.06232149	-7.123241	0.18	3	100	0	50	18.05604	-1.976913	42.83668	
10:41:32	-6.733778	38.95372	129.683	-0.08300115	-7.531942	0.28	3	100	0	50	18.01825	-2.022522	42.83496	
10:41:32	-6.733778	38.95372	129.625	-0.06959429	-6.484653	0.09	3	100	0	50	17.80768	-2.020314	42.85264	
10:41:32	-6.733779	38.95372	129.675	-0.05563777	-5.316929	0.18	3	100	0	50	18.01277	-1.925428	42.8666	
10:41:33	-6.733779	38.95373	129.817	-0.04971692	-4.519448	0.29	3	100	0	50	18.00425	-2.061156	42.85919	
10:41:33	-6.733779	38.95373	129.81	-0.05092487	-3.661787	0.22	3	100	0	50	17.88083	-1.881197	42.86824	
10:41:33	-6.733779	38.95373	129.804	-0.0380392	-2.519788	0.34	3	100	0	50	17.94481	-1.593422	42.90393	
10:41:33	-6.733779	38.95373	129.914	-0.01767323	-1.53526	0.07	3	100	0	50	17.97876	-1.739269	42.94673	
10:41:33	-6.733779	38.95373	130.018	-0.006531883	-0.8343772	0.18	3	100	0	50	18.13645	-2.000481	42.93564	
10:41:34	-6.73378	38.95373	129.945	-0.001411174	-0.6618965	0.06	3	100	0	50	18.09514	-1.961803	42.91095	
10:41:34	-6.73378	38.95373	129.912	0.005336412	-0.2687509	0.17	3	100	0	50	18.06815	-1.849121	42.9137	
10:41:34	-6.73378	38.95373	129.914	0.01264209	-0.09939007	0.14	3	100	0	50	17.98525	-1.866864	42.93008	
10:41:34	-6.733781	38.95373	129.831	0.004996003	-0.8068846	0.14	3	100	0	50	17.99768	-1.842615	42.94528	
10:41:34	-6.733781	38.95373	129.778	-0.0150832	-1.902377	0.04	3	100	0	50	18.05759	-1.851847	42.95669	
10:41:35	-6.733781	38.95373	129.829	-0.0246984	-2.210142	0.12	3	100	0	50	18.14224	-1.941563	42.95067	
10:41:35	-6.733781	38.95373	129.914	-0.02525152	-2.035218	0.09	3	100	0	50	18.19098	-2.016011	42.92569	
10:41:35	-6.733782	38.95373	129.875	-0.05594858	-3.454507	0.14	3	100	0	50	18.15445	-1.898849	42.89146	
10:41:35	-6.733782	38.95373	129.824	-0.1026848	-5.324183	0.18	3	100	0	50	18.10494	-1.765101	42.88208	
10:41:35	-6.733782	38.95373	129.801	-0.1569787	-7.271676	0.19	3	100	0	50	18.13015	-1.70621	42.88029	
10:41:36	-6.733783	38.95373	129.71	-0.2129217	-9.523835	0.17	3	100	0	50	17.98042	-1.688259	42.89891	
10:41:36	-6.733783	38.95373	129.739	-0.244863	-9.657121	0.06	3	100	0	50	17.99831	-1.854718	42.92843	
10:41:36	-6.733784	38.95373	129.697	-0.2587726	-9.376298	0.07	3	100	0	50	18.01497	-2.017759	42.93283	
10:41:36	-6.733784	38.95373	129.674	-0.2610301	-8.328937	0.04	3	100	0	50	17.97259	-2.003781	42.9365	
10:41:37	-6.733784	38.95373	129.787	-0.2476052	-7.030691	0.12	3	100	0	50	18.03982	-1.945177	42.94228	
10:41:37	-6.733785	38.95373	129.881	-0.2107841	-4.657376	0.14	3	100	0	50	18.01307	-2.039716	42.94189	
10:41:37	-6.733785	38.95373	129.85	-0.1420737	-0.4248263	0.04	3	100	0	50	17.94195	-2.028048	42.94401	
10:41:37	-6.733786	38.95373	129.82	-0.08287911	2.770108	0.24	3	100	0	50	18.06003	-2.039701	42.95001	
10:41:37	-6.733786	38.95373	129.803	-0.04565672	3.941735	0.09	3	100	0	50	18.09022	-1.984804	42.92955	
10:41:38	-6.733787	38.95373	129.68	-0.013199	5.378016	0.09	3	100	0	50	17.96298	-1.828281	42.93444	
10:41:38	-6.733787	38.95373	129.518	0.01675324	6.319227	0.18	3	100	0	50	17.85464	-1.807297	42.96291	
10:41:38	-6.733788	38.95373	129.512	0.04343013	7.537838	0.19	3	100	0	50	17.98764	-1.851998	42.9948	
10:41:38	-6.733789	38.95373	129.455	0.09781886	9.801277	0.06	3	100	0	50	18.02635	-1.898747	42.98311	
10:41:38	-6.733789	38.95373	129.451	0.1513081	11.58364	0.02	3	100	0	50	17.93872	-1.933231	43.00351	
10:41:39	-6.733789	38.95373	129.389	0.1567974	11.15521	0.09	3	100	0	50	17.95025	-1.919059	43.00819	
10:41:39	-6.73379	38.95373	129.344	0.1603959	10.25678	0.24	3	100	0	50	18.07576	-1.868851	43.01068	
10:41:39	-6.733791	38.95373	129.346	0.1306914	7.79642	0.28	3	100	0	50	18.03419	-1.764852	43.00655	
10:41:39	-6.733792	38.95373	129.281	0.09990623	5.71182	0.19	3	100	0	50	17.85472	-1.719943	43.05368	
10:41:39	-6.733792	38.95373	129.238	0.05948126	3.531508	0.06	3	100	0	50	17.91654	-1.925707	43.07397	
10:41:40	-6.733793	38.95373	129.111	0.02275743	1.644246	0.17	3	100	0	50	17.93075	-1.911026	43.07304	
10:41:40	-6.733794	38.95373	129.09	-0.009542392	-0.1172368	0.21	3	100	0	50	18.01611	-1.782174	43.08123	
10:41:40	-6.733794	38.95373	129.135	-0.03867141	-1.4948	0.04	3	100	0	50	18.09009	-1.90333	43.08279	
10:41:40	-6.733795	38.95373	129.041	-0.0281188	-0.7209904	0.13	3	100	0	50	17.98728	-2.070296	43.08876	
10:41:40	-6.733795	38.95373	129.034	-0.01750296	-0.3395056	0.09	3	100	0	50	17.92823	-2.042929	43.07754	
10:41:41	-6.733796	38.95373	129.037	0.04904484	3.710779	0.04	3	100	0	50	17.92929	-2.005636	43.08012	
10:41:41	-6.733796	38.95373	129.056	0.1100473	6.83574	0.11	3	100	0	50	17.98518	-1.981279	43.0705	
10:41:41	-6.733797	38.95373	128.954	0.2182769	11.36397	0.12	3	100	0	50	17.95519	-1.956773	43.07428	
10:41:41	-6.733798	38.95373	128.892	0.3231857	16.2283	0.18	3	100	0	50	18.09488	-1.97593	43.08485	
10:41:41	-6.733799	38.95373	128.811	0.3374943	15.52254	0.13	3	100	0	50	18.23193	-1.973013	43.05444	
10:41:42	-6.733799	38.95373	128.748	0.3475451	14.68381	0.19	3	100	0	50	18.03449	-2.09128	43.04051	
10:41:42	-6.733799	38.95373	128.712	0.3321673	12.76081	0.14	3	100	0	50	18.1043	-2.197687	43.01873	
10:41:42	-6.7338	38.95373	128.563	0.315639	10.75057	0.26	3	100	0	50	18.11543	-1.851941	42.98216	
10:41:42	-6.733801	38.95373	128.472	0.3093585	9.455711	0.17	3	100	0	50	18.01135	-1.71305	42.98723	
10:41:42	-6.733801	38.95373	128.356	0.3008259	7.942469	0.12	3	100	0	50	17.9682	-1.809014	43.00966	
10:41:43	-6.733801	38.95373	128.332	0.2934305	6.750917	0.19	3	100	0	50	17.9021	-1.921709	43.03278	
10:41:43	-6.733802	38.95373	128.145	0.2888744	6.175618	0.19	3	100	0	50	17.9571	-1.76572	43.0409	
10:41:43	-6.733803	38.95373	128.106	0.282746	5.674595	0.06	3	100	0	50	18.10112	-1.777817	43.06714	
10:41:43	-6.733804	38.95373	128.035	0.2708992	3.859154	0.12	3	100	0	50	18.1347	-1.79316	43.05159	
10:41:43	-6.733805	38.95373	128.11	0.2567643	3.21796	0.14	3	100	0	50	18.07086	-1.934177	43.03542	
10:41:44	-6.733805	38.95373	127.968	0.2410011	1.657208	0.07	3	100	0	50	18.11805	-2.003348	43.01589	
10:41:44	-6.733806	38.95373	127.828	0.2413423	1.678311	0.04	3	100	0	50	18.12531	-1.9662	42.97161	
10:41:44	-6.733807	38.95373	127.739	0.2506301	1.852556	0.18	3	100	0	50	18.21215	-1.991157	42.93436	
10:41:44	-6.733807	38.95373	127.608	0.2559383	1.451973	0.22	3	100	0	50	18.14394	-1.79494	42.91389	
10:41:44	-6.733808	38.95373	127.535	0.2573055	0.9737189	0.17	3	100	0	50	18.05303	-1.960082	42.92981	
10:41:45	-6.733808	38.95373	127.492	0.2831411	2.175982	0.22	3	100	0	50	17.95084	-1.954053	42.93676	
10:41:45	-6.733809	38.95373	127.519	0.3314722	4.646164	0.02	3	100	0	50	17.98749	-1.921019	42.95996	
10:41:45	-6.733809	38.95373	127.384	0.372919	6.237374	0.14	3	100	0	50	17.98207	-1.94903	42.96422	
10:41:45	-6.733809	38.95373	127.237	0.4078097	7.451929	0.26	3	100	0	50	17.90883	-1.808116	42.98061	
10:41:45	-6.73381	38.95373	127.085	0.4364542	8.232868	0.09	3	100	0	50	17.97431	-1.814367	43.01071	
10:41:46	-6.73381	38.95373	126.958	0.4591148	8.540223	0.08	3	100	0	50	18.1062	-1.968032	43.00627	
10:41:46	-6.733811	38.95372	126.863	0.4859483	9.167051	0.14	3	100	0	50	18.0511	-1.866365	42.98145	
10:41:46	-6.733812	38.95372	126.753	0.5137703	9.753084	0.09	3	100	0	50	18.05459	-1.832083	42.97385	
10:41:46	-6.733812	38.95372	126.626	0.5284798	9.876338	0.08	3	100	0	50	18.0456	-1.872733	42.97503	
10:41:46	-6.733813	38.95372	126.43	0.5340695	9.351167	0.11	3	100	0	50	18.12892	-1.92987	42.96692	
10:41:47	-6.733813	38.95372	126.433	0.5338069	8.526115	0.17	3	100	0	50	18.20699	-1.990083	42.94112	
10:41:47	-6.733814	38.95372	126.345	0.5260077	7.052072	0.17	3	100	0	50	18.11856	-1.828583	42.90802	
10:41:47	-6.733814	38.95372	126.318	0.5133823	5.448593	0.11	3	100	0	50	18.12143	-1.958763	42.90008	
10:41:47	-6.733814	38.95372	126.284	0.4984858	3.948452	0.06	3	100	0	50	18.01481	-1.963586	42.88927	
10:41:47	-6.733815	38.95372	126.316	0.4839785	3.061292	0.09	3	100	0	50	18.02596	-1.890675	42.8908	
10:41:48	-6.733815	38.95372	126.314	0.4054616	-1.350314	0.04	3	100	0	50	18.02375	-1.915449	42.88994	
10:41:48	-6.733816	38.95372	126.22	0.3337331	-5.141709	0.06	3	100	0	50	18.0006	-1.89558	42.88996	
10:41:48	-6.733816	38.95372	126.114	0.3011654	-6.44622	0.04	3	100	0	50	17.99793	-1.892956	42.8864	
10:41:48	-6.733817	38.95372	126.074	0.2692278	-7.657351	0.11	3	100	0	50	17.9269	-1.856725	42.90191	
