Date	Latitude(deg) 	Longitude(deg)	hamsl(m)	hafl(m)	climbrate(cm/s)	GroundSpeed(m/s)	Airspeed(m/s)	Mav_Link(%)	Rssi_Link(%)	Throttle	Roll(deg)	Pitch(deg)	Yaw(deg)
13:16:40	47.46515	-122.3103	97.953	0	0	31.38	0	100	0	0	0.04048058	0.2861195	0.2642993	
13:16:40	47.46515	-122.3103	97.953	97.953	0	31.38	30.99302	100	0	5	0.04048058	0.2861195	0.2642993	
13:16:41	47.46515	-122.3103	97.953	97.953	0	31.38	30.99302	100	0	5	0.04048058	0.2861195	0.2642993	
13:16:41	47.46515	-122.3103	97.953	97.953	0	31.38	30.99302	100	0	4	0.04048058	0.2861195	0.2642993	
13:16:41	47.46515	-122.3103	97.953	97.953	0	31.38	30.99302	100	0	5	0.04048058	0.2861195	0.2642993	
13:16:41	47.46515	-122.3103	97.953	97.953	0	31.38	30.99302	100	0	5	0.04048058	0.2861195	0.2642993	
13:16:41	47.46515	-122.3103	97.953	97.953	0	31.38	30.99302	100	0	4	0.04048058	0.2861195	0.2642993	
13:16:42	47.46515	-122.3103	97.953	97.953	0	31.38	30.99302	100	0	4	0.04048058	0.2861195	0.2642993	
13:16:42	47.46515	-122.3103	97.953	97.953	0	31.38	30.99302	100	0	4	0.04048058	0.2861195	0.2642993	
13:16:42	47.46515	-122.3103	97.953	97.953	0	31.38	30.99302	100	0	5	0.04048058	0.2861195	0.2642993	
13:16:42	47.46515	-122.3103	97.953	97.953	0	31.38	30.99302	100	0	4	0.04048058	0.2861195	0.2642993	
13:16:42	47.46515	-122.3103	97.953	97.953	0	31.38	30.99302	100	0	5	0.04048058	0.2861195	0.2642993	
13:16:43	47.46515	-122.3103	97.953	97.953	0	31.38	30.99302	100	0	4	0.04048058	0.2861195	0.2642993	
13:16:43	47.46515	-122.3103	97.953	97.953	0	31.38	30.99302	100	0	4	0.04048058	0.2861195	0.2642993	
13:16:43	47.46515	-122.3103	97.953	97.953	0	31.38	30.99302	100	0	5	0.04048058	0.2861195	0.2642993	
13:16:43	47.46515	-122.3103	97.953	97.953	0	31.38	30.99302	100	0	4	0.04048058	0.2861195	0.2642993	
13:16:43	47.46515	-122.3103	97.953	97.953	0	31.38	30.99302	100	0	4	0.04048058	0.2861195	0.2642993	
13:16:44	47.46515	-122.3103	97.953	97.953	0	31.38	30.99302	100	0	4	0.04048058	0.2861195	0.2642993	
13:16:44	47.46515	-122.3103	97.953	97.953	0	31.38	30.99302	100	0	4	0.04048058	0.2861195	0.2642993	
13:16:44	47.46515	-122.3103	97.953	97.953	0	31.38	30.99302	100	0	5	0.04048058	0.2861195	0.2642993	
13:16:44	47.46515	-122.3103	97.953	97.953	0	31.38	30.99302	100	0	4	0.04048058	0.2861195	0.2642993	
13:16:44	47.46515	-122.3103	97.953	97.953	0	31.38	30.99302	100	0	4	0.04048058	0.2861195	0.2642993	
13:16:45	47.46515	-122.3103	97.953	97.953	0	31.38	30.99302	100	0	5	0.04048058	0.2861195	0.2642993	
13:16:45	47.46515	-122.3103	97.953	97.953	0	31.38	30.99302	100	0	5	0.04048058	0.2861195	0.2642993	
13:16:45	47.46515	-122.3103	97.953	97.953	0	31.38	30.99302	100	0	5	0.04048058	0.2861195	0.2642993	
13:16:45	47.46515	-122.3103	97.953	97.953	0	31.38	30.99302	100	0	4	0.04048058	0.2861195	0.2642993	
13:16:45	47.46515	-122.3103	97.953	97.953	0	31.38	30.99302	100	0	4	0.04048058	0.2861195	0.2642993	
13:16:46	47.46515	-122.3103	97.953	97.953	0	31.38	30.99302	100	0	4	0.04048058	0.2861195	0.2642993	
13:16:46	47.46515	-122.3103	97.953	97.953	0	31.38	30.99302	100	0	5	0.04048058	0.2861195	0.2642993	
13:16:46	47.46515	-122.3103	97.953	97.953	0	31.38	30.99302	100	0	5	0.04048058	0.2861195	0.2642993	
13:16:46	47.46515	-122.3103	97.953	97.953	0	31.38	30.99302	100	0	4	0.04048058	0.2861195	0.2642993	
13:16:46	47.46515	-122.3103	97.953	97.953	0	31.38	30.99302	100	0	5	0.04048058	0.2861195	0.2642993	
13:16:47	47.46515	-122.3103	97.953	97.953	0	31.38	30.99302	100	0	5	0.04048058	0.2861195	0.2642993	
13:16:47	47.46515	-122.3103	97.953	97.953	0	31.38	30.99302	100	0	4	0.04048058	0.2861195	0.2642993	
13:16:47	47.46515	-122.3103	97.953	97.953	0	31.38	30.99302	100	0	3	0.04257382	0.3004151	0.2775196	
13:16:47	47.46515	-122.3103	97.953	97.953	0	31.38	30.99302	100	0	5	0.04048058	0.2861195	0.2642993	
13:16:47	47.46515	-122.3103	97.953	97.953	0	31.38	30.99302	100	0	4	0.04048058	0.2861195	0.2642993	
13:16:48	47.46515	-122.3103	97.953	97.953	0	31.38	30.99302	100	0	4	0.04048058	0.2861195	0.2642993	
13:16:48	47.46515	-122.3103	97.953	97.953	0	31.38	30.99302	100	0	4	0.04048058	0.2861195	0.2642993	
13:16:48	47.46515	-122.3103	97.953	97.953	0	31.38	30.99302	100	0	5	0.04048058	0.2861195	0.2642993	
13:16:48	47.46515	-122.3103	97.953	97.953	0	31.38	30.99302	100	0	4	0.04048058	0.2861195	0.2642993	
13:16:48	47.46515	-122.3103	97.953	97.953	0	31.38	30.99302	100	0	5	0.04048058	0.2861195	0.2642993	
13:16:49	47.46515	-122.3103	97.953	97.953	0	31.38	30.99302	100	0	5	0.04048058	0.2861195	0.2642993	
13:16:49	47.46515	-122.3103	97.953	97.953	0	31.38	30.99302	100	0	5	0.04048058	0.2861195	0.2642993	
13:16:49	47.46515	-122.3103	97.953	97.953	0	31.38	30.99302	100	0	5	0.04048058	0.2861195	0.2642993	
13:16:49	47.46515	-122.3103	97.953	97.953	0	31.38	30.99302	100	0	5	0.04048058	0.2861195	0.2642993	
13:16:49	47.46515	-122.3103	97.953	97.953	0	31.38	30.99302	100	0	5	0.04048058	0.2861195	0.2642993	
13:16:50	47.46515	-122.3103	97.953	97.953	0	31.38	30.99302	100	0	4	0.04257382	0.3004151	0.2775196	
13:16:50	47.46515	-122.3103	97.953	97.953	0	31.38	30.99302	100	0	4	0.04048058	0.2861195	0.2642993	
13:16:50	47.46515	-122.3103	97.953	97.953	0	31.38	30.99302	100	0	4	0.04048058	0.2861195	0.2642993	
13:16:50	47.46515	-122.3103	97.953	97.953	0	31.38	30.99302	100	0	4	0.04048058	0.2861195	0.2642993	
13:16:50	47.46515	-122.3103	97.953	97.953	0	31.38	30.99302	100	0	4	0.04048058	0.2861195	0.2642993	
13:16:51	47.46515	-122.3103	97.953	97.953	0	31.38	30.99302	100	0	5	0.04048058	0.2861195	0.2642993	
13:16:51	47.46515	-122.3103	97.953	97.953	0	31.38	30.99302	100	0	5	0.04048058	0.2861195	0.2642993	
13:16:51	47.46515	-122.3103	97.953	97.953	0	31.38	30.99302	100	0	4	0.04048058	0.2861195	0.2642993	
13:16:51	47.46515	-122.3103	97.953	97.953	0	31.38	30.99302	100	0	5	0.04048058	0.2861195	0.2642993	
13:16:51	47.46515	-122.3103	97.953	97.953	0	31.38	30.99302	100	0	4	0.04048058	0.2861195	0.2642993	
13:16:52	47.46515	-122.3103	97.953	97.953	0	31.38	30.99302	100	0	4	0.04048058	0.2861195	0.2642993	
13:16:52	47.46515	-122.3103	97.953	97.953	0	31.38	30.99302	100	0	5	0.04048058	0.2861195	0.2642993	
13:16:52	47.46515	-122.3103	97.953	97.953	0	31.38	30.99302	100	0	4	0.04048058	0.2861195	0.2642993	
13:16:52	47.46515	-122.3103	97.953	97.953	0	31.38	30.99302	100	0	5	0.04048058	0.2861195	0.2642993	
13:16:52	47.46515	-122.3103	97.953	97.953	0	31.38	30.99302	100	0	4	0.04048058	0.2861195	0.2642993	
13:16:53	47.46515	-122.3103	97.953	97.953	0	31.38	30.99302	100	0	4	0.04048058	0.2861195	0.2642993	
13:16:53	47.46515	-122.3103	97.953	97.953	0	31.38	30.99302	100	0	4	0.04048058	0.2861195	0.2642993	
13:16:53	47.46515	-122.3103	97.953	97.953	0	31.38	30.99302	100	0	4	0.04048058	0.2861195	0.2642993	
13:16:53	0	0	0	97.953	0	0	30.99302	100	0	4	0.04048058	0.2861195	0.2642993	
13:16:53	0	0	0	93.78272	-267.8849	0	3	100	0	4	1.277183	-4.754151	-2.123051	
13:16:54	0	0	0	74.67446	-1197.25	0	3	100	0	4	2.372778	-4.168182	-9.128621	
13:16:54	47.46515	-122.3103	97.953	58.14322	-1859.228	31.38	3	100	0	5	12.08377	-9.655087	-15.0125	
13:16:54	47.46515	-122.3103	97.953	56.99747	-1646.585	31.38	30.99302	100	0	4	16.12069	-9.559917	-17.95575	
13:16:54	47.46515	-122.3103	97.953	62.02995	-1149.618	31.38	30.99302	100	0	5	14.2121	-5.637533	-18.14808	
13:16:54	47.46515	-122.3103	97.953	66.9744	-701.8846	31.38	30.99302	100	0	4	10.49202	-1.240433	-17.81083	
13:16:55	47.46515	-122.3103	97.953	71.78896	-299.4648	31.38	30.99302	100	0	4	6.223985	2.836173	-17.83858	
13:16:55	47.46515	-122.3103	97.953	76.42961	58.31012	31.38	30.99302	100	0	4	2.762235	5.645533	-18.30439	
13:16:55	47.46515	-122.3103	97.953	80.79474	366.6438	31.38	30.99302	100	0	4	0.4744584	7.145632	-18.94293	
13:16:55	47.46515	-122.3103	97.953	84.92998	632.8667	31.38	30.99302	100	0	4	-0.8622899	7.774386	-19.60208	
13:16:55	47.46515	-122.3103	97.953	88.77201	857.1218	31.38	30.99302	100	0	4	0.3520189	7.837983	-7.028489	
13:16:56	47.46515	-122.3103	97.953	91.9025	1022.32	31.38	30.99302	100	0	5	-0.5477646	7.578133	-10.71475	
13:16:56	47.46515	-122.3103	97.953	95.33889	1183.952	31.38	30.99302	100	0	4	-0.7708078	7.011649	-13.61139	
13:16:56	47.46515	-122.3103	97.953	97.93153	1290.42	31.38	30.99302	100	0	5	-0.5489948	6.466197	-15.6781	
13:16:56	47.46515	-122.3103	97.953	100.402	1377.198	31.38	30.99302	100	0	5	-0.1489504	6.078894	-17.3048	
13:16:56	47.46515	-122.3103	97.953	102.562	1438.59	31.38	30.99302	100	0	4	0.2669942	5.8554	-18.50236	
13:16:57	47.46515	-122.3103	97.953	104.5728	1479.617	31.38	30.99302	100	0	4	0.6275638	5.752365	-19.31381	
13:16:57	47.46515	-122.3103	97.953	106.1027	1496.506	31.38	30.99302	100	0	4	0.8918984	5.738618	-19.84233	
13:16:57	47.46515	-122.3103	97.953	107.3596	1496.967	31.38	30.99302	100	0	4	1.027161	5.790362	-20.21374	
13:16:57	47.46515	-122.3103	97.953	108.3927	1482.801	31.38	30.99302	100	0	4	1.033355	5.867924	-20.45209	
13:16:57	47.46515	-122.3103	97.953	109.183	1456.973	31.38	30.99302	100	0	4	0.976544	5.944695	-20.59392	
13:16:58	47.46515	-122.3103	97.953	109.7686	1421.86	31.38	30.99302	100	0	5	1.60134	5.842764	-13.77467	
13:16:58	47.46515	-122.3103	97.953	110.1768	1379.199	31.38	30.99302	100	0	5	1.703394	5.803269	-9.263867	
13:16:58	47.46515	-122.3103	97.953	110.425	1330.664	31.38	30.99302	100	0	4	0.8936015	6.021933	-12.38008	
13:16:58	47.46515	-122.3103	97.953	110.5268	1283.724	31.38	30.99302	100	0	5	0.4186116	6.09188	-14.73775	
13:16:58	47.46515	-122.3103	97.953	110.5186	1224.793	31.38	30.99302	100	0	4	0.175003	6.050837	-16.66853	
13:16:59	47.46515	-122.3103	97.953	110.4231	1175.946	31.38	30.99302	100	0	5	0.138032	5.965167	-18.17287	
13:16:59	47.46515	-122.3103	97.953	110.2368	1120.925	31.38	30.99302	100	0	4	0.23194	5.880095	-19.25447	
13:16:59	47.46515	-122.3103	97.953	109.9856	1067.405	31.38	30.99302	100	0	4	0.3909643	5.816807	-20.03081	
13:16:59	47.46515	-122.3103	97.953	109.6504	1010.098	31.38	30.99302	100	0	5	0.5596043	5.775874	-20.53385	
13:16:59	47.46515	-122.3103	97.953	109.3031	959.8241	31.38	30.99302	100	0	5	0.6936191	5.76187	-20.87845	
13:17:00	47.46515	-122.3103	97.953	108.9284	912.2067	31.38	30.99302	100	0	4	0.7810933	5.764503	-21.0748	
13:17:00	47.46515	-122.3103	97.953	108.5452	868.0808	31.38	30.99302	100	0	4	0.9833365	5.74894	-19.45025	
13:17:00	47.46515	-122.3103	97.953	108.1512	826.5259	31.38	30.99302	100	0	5	2.002717	5.46076	-7.175196	
13:17:00	47.46515	-122.3103	97.953	107.7512	787.5732	31.38	30.99302	100	0	4	1.224419	5.69922	-11.0242	
13:17:00	47.46515	-122.3103	97.953	107.3568	751.6888	31.38	30.99302	100	0	5	0.5976231	5.841987	-13.80369	
13:17:01	47.46515	-122.3103	97.953	106.9753	719.0325	31.38	30.99302	100	0	4	0.2264272	5.888317	-16.01213	
13:17:01	47.46515	-122.3103	97.953	106.6128	689.8257	31.38	30.99302	100	0	4	0.07291953	5.88969	-17.60661	
13:17:01	47.46515	-122.3103	97.953	106.2603	663.0063	31.38	30.99302	100	0	4	0.128525	5.863385	-18.86179	
13:17:01	47.46515	-122.3103	97.953	105.9246	638.7893	31.38	30.99302	100	0	4	0.2836573	5.8375	-19.72725	
13:17:01	47.46515	-122.3103	97.953	105.6137	617.557	31.38	30.99302	100	0	4	0.4553267	5.819012	-20.35188	
13:17:02	47.46515	-122.3103	97.953	105.3481	600.3856	31.38	30.99302	100	0	4	0.6047438	5.808424	-20.78322	
13:17:02	47.46515	-122.3103	97.953	105.0498	581.9797	31.38	30.99302	100	0	4	0.7091314	5.804597	-21.07203	
13:17:02	47.46515	-122.3103	97.953	104.8012	567.231	31.38	30.99302	100	0	4	0.7597571	5.805893	-21.26176	
13:17:02	47.46515	-122.3103	97.953	104.5705	554.1287	31.38	30.99302	100	0	4	1.630931	5.617263	-12.80167	
13:17:02	47.46515	-122.3103	97.953	104.3624	542.7307	31.38	30.99302	100	0	4	1.766445	5.564432	-9.233615	
13:17:03	47.46515	-122.3103	97.953	104.1703	532.5488	31.38	30.99302	100	0	5	0.9544647	5.792573	-12.48952	
13:17:03	47.46515	-122.3103	97.953	103.9955	523.5346	31.38	30.99302	100	0	4	0.4312179	5.880562	-15.02983	
13:17:03	47.46515	-122.3103	97.953	103.8378	515.6826	31.38	30.99302	100	0	5	0.1868285	5.892487	-16.95155	
13:17:03	47.46515	-122.3103	97.953	103.708	509.3229	31.38	30.99302	100	0	4	0.1463555	5.872143	-18.3835	
13:17:03	47.46515	-122.3103	97.953	103.5683	502.5304	31.38	30.99302	100	0	5	0.2297119	5.778955	-19.5309	
13:17:04	47.46515	-122.3103	97.953	103.4528	496.9353	31.38	30.99302	100	0	4	0.3738362	5.689605	-20.32396	
13:17:04	47.46515	-122.3103	97.953	103.3594	492.3513	31.38	30.99302	100	0	5	0.5230955	5.6161	-20.90831	
13:17:04	47.46515	-122.3103	97.953	103.2578	487.315	31.38	30.99302	100	0	4	0.6349347	5.572281	-21.31126	
13:17:04	47.46515	-122.3103	97.953	103.1737	482.9672	31.38	30.99302	100	0	5	0.6934544	5.557258	-21.59485	
13:17:04	47.46515	-122.3103	97.953	103.0969	478.8395	31.38	30.99302	100	0	4	0.7130695	5.560231	-21.77141	
13:17:05	47.46515	-122.3103	97.953	103.034	475.3214	31.38	30.99302	100	0	4	1.929304	5.244217	-7.258548	
13:17:05	47.46515	-122.3103	97.953	102.9694	471.5076	31.38	30.99302	100	0	5	1.201394	5.466084	-11.20273	
13:17:05	47.46515	-122.3103	97.953	102.9098	467.8257	31.38	30.99302	100	0	4	0.5031268	5.637164	-14.23133	
13:17:05	47.46515	-122.3103	97.953	102.8538	464.1389	31.38	30.99302	100	0	4	-0.5640944	1.850938	-16.18291	
13:17:05	47.46517	-122.3103	97.863	102.7442	323.9112	31.3	30.99302	100	0	4	-0.8221745	-7.550608	-16.96677	
13:17:06	47.46522	-122.3102	97.205	102.0178	-158.4357	30.33	30.90725	100	0	5	3.830945	-10.15952	-17.77411	
13:17:06	47.46522	-122.3102	97.205	100.5026	-609.3832	30.33	28.94179	100	0	5	8.571885	-17.7198	-18.06393	
13:17:06	47.46527	-122.3102	95.941	98.4936	-887.4217	28.93	28.94179	100	0	4	13.45881	-25.71619	-18.407	
13:17:06	47.46532	-122.3101	93.793	96.49047	-1041.697	27.8	27.53759	100	0	4	14.00749	-31.48414	-16.28338	
13:17:06	47.46536	-122.3101	91.283	94.15116	-1102.866	27.12	25.73766	100	0	5	13.6429	-30.90117	-12.17793	
13:17:07	47.4654	-122.31	89.062	91.40217	-1048.943	27.03	25.05614	100	0	4	24.42234	-18.15042	-11.17437	
13:17:07	47.46544	-122.31	86.721	89.2696	-912.115	27.29	24.28512	100	0	4	35.63505	-5.667937	1.678975	
13:17:07	47.46547	-122.3099	84.585	87.43532	-795.0422	27.54	24.59917	100	0	5	45.68938	-0.6272491	18.22612	
13:17:07	47.46552	-122.3099	81.428	85.50942	-760.4853	27.61	24.31557	100	0	4	49.32445	4.987019	29.87075	
13:17:07	47.46554	-122.3098	79.441	83.58929	-795.025	27.56	24.22549	100	0	4	47.88904	9.284793	42.36897	
13:17:08	47.46556	-122.3097	77.438	81.43872	-845.4807	27.57	24.46007	100	0	4	41.57981	13.80577	52.14626	
13:17:08	47.46557	-122.3097	75.869	79.25748	-870.0648	27.68	24.38066	100	0	13	32.86367	17.22828	58.12429	
13:17:08	47.46558	-122.3096	74.256	77.18989	-885.1752	27.83	24.37128	100	0	23	20.37786	16.97388	59.98507	
13:17:08	47.46559	-122.3095	72.042	75.19065	-934.5687	27.8	24.72397	100	0	27	9.54224	13.88544	59.91285	
13:17:08	47.46559	-122.3095	72.042	73.0621	-1033.217	27.8	24.86687	100	0	27	3.360842	11.53062	59.44329	
13:17:09	47.46559	-122.3094	70.772	70.83966	-1144.336	27.6	24.86687	100	0	28	0.6305338	9.710216	58.76558	
13:17:09	47.4656	-122.3093	69.306	68.61143	-1226.706	27.41	24.69253	100	0	29	-1.037394	8.397621	58.1728	
13:17:09	47.4656	-122.3092	67.866	66.41634	-1270.969	27.33	24.50288	100	0	29	0.6800233	8.291623	57.54856	
13:17:09	47.46561	-122.3092	66.603	64.34486	-1241.806	27.36	24.40944	100	0	29	7.077476	8.772781	57.00817	
13:17:09	47.46561	-122.3091	65.132	62.60128	-1168.916	27.49	24.4056	100	0	29	14.62718	9.29152	57.09119	
13:17:10	47.46562	-122.309	63.963	61.26631	-1096.552	27.6	24.50356	100	0	29	20.46096	9.573718	58.20126	
13:17:10	47.46563	-122.3089	63.077	59.7545	-1021.632	27.62	24.60358	100	0	42	24.81732	9.604939	60.01099	
13:17:10	47.46563	-122.3088	62.003	58.57434	-962.1208	27.45	24.66533	100	0	58	29.12468	9.831885	62.08229	
13:17:10	47.46563	-122.3088	61.719	57.5412	-909.485	27.37	24.632	100	0	77	33.39733	10.60367	64.6818	
13:17:11	47.46563	-122.3087	61.155	56.77676	-853.0563	27.15	24.91011	100	0	82	35.88382	11.11818	67.73594	
13:17:11	47.46563	-122.3087	61.155	56.09207	-773.6371	27.15	24.95097	100	0	88	37.62313	12.05658	71.60696	
13:17:11	47.46563	-122.3086	60.926	55.66601	-691.6915	27.17	24.95097	100	0	93	37.67111	13.30478	75.5621	
13:17:11	47.46563	-122.3085	60.964	55.45426	-610.1912	27.27	25.17861	100	0	99	36.43401	14.92102	79.35076	
13:17:11	47.46562	-122.3085	61.093	55.4435	-501.7998	27.37	25.49714	100	0	99	35.20212	16.48482	83.0203	
13:17:12	47.4656	-122.3083	61.721	55.6713	-386.0418	27.39	25.62319	100	0	99	33.99014	17.72212	86.55647	
13:17:12	47.46559	-122.3083	62.314	56.17859	-278.9637	27.33	25.98623	100	0	99	33.21347	18.70847	89.88652	
13:17:12	47.46557	-122.3082	63.361	56.85319	-191.4022	27.18	26.11855	100	0	99	31.45383	19.26568	92.38813	
13:17:12	47.46554	-122.3081	64.684	57.68095	-125.5364	26.93	26.10795	100	0	99	29.295	19.43808	94.42696	
13:17:12	47.46552	-122.3081	66.111	58.72536	-77.3387	26.69	26.06635	100	0	99	26.78762	19.07972	96.07133	
13:17:13	47.4655	-122.308	67.45	59.80754	-48.4562	26.5	25.985	100	0	99	24.30241	18.36658	97.48244	
13:17:13	47.4655	-122.308	67.45	60.94762	-33.90668	26.5	25.91479	100	0	99	21.03208	17.41311	98.4834	
13:17:13	47.46547	-122.308	68.839	62.24406	-28.60462	26.36	25.91479	100	0	99	16.90224	16.13047	99.16254	
13:17:13	47.46544	-122.3079	70.396	63.49358	-32.05543	26.26	25.8746	100	0	99	12.62554	14.84731	99.87495	
13:17:13	47.4654	-122.3078	72.484	64.86629	-23.6439	26.21	25.85665	100	0	99	8.194062	13.63407	100.5308	
13:17:14	47.46537	-122.3077	73.811	66.2515	-13.80449	26.22	25.89041	100	0	99	4.045331	11.44709	100.7566	
13:17:14	47.46532	-122.3076	76.187	67.61766	-39.81211	26.34	25.92467	100	0	99	0.6614494	7.510358	100.8872	
13:17:14	47.46532	-122.3076	76.187	68.68299	-130.5869	26.34	26.2692	100	0	99	-0.9198394	3.651767	101.197	
13:17:14	47.46529	-122.3076	77.2	69.79298	-255.024	26.63	26.2692	100	0	99	-1.42392	1.259458	101.5749	
13:17:14	47.46526	-122.3075	77.794	70.6182	-313.509	27	26.56716	100	0	99	-0.9586931	1.143585	101.718	
13:17:15	47.46522	-122.3074	78.273	71.38297	-271.2798	27.45	26.92858	100	0	99	1.208983	4.560462	101.8613	
13:17:15	47.46519	-122.3074	78.473	72.28259	-66.93687	27.62	27.35815	100	0	99	2.815597	8.648314	102.2116	
13:17:15	47.46516	-122.3073	79.078	73.53017	180.6225	27.34	27.47904	100	0	99	2.896089	10.33941	102.8316	
13:17:15	47.46514	-122.3072	80.101	74.88493	339.8255	26.8	27.13906	100	0	99	3.136092	8.9948	103.2164	
13:17:15	47.46511	-122.3072	81.458	76.50915	342.566	26.56	26.56027	100	0	99	6.81946	7.46142	103.7517	
13:17:16	47.46508	-122.3071	82.619	77.67683	303.7734	26.58	26.30051	100	0	99	10.13908	5.726863	104.2047	
13:17:16	47.46505	-122.307	84.182	78.96167	262.5765	26.67	26.31133	100	0	99	12.1319	3.633417	104.5996	
13:17:16	47.46502	-122.307	85.184	80.14006	202.8989	26.81	26.41569	100	0	99	10.34299	1.749476	105.2408	
13:17:16	47.46499	-122.3069	86.091	81.29802	141.9463	26.99	26.57705	100	0	99	5.634346	0.6828454	106.1327	
13:17:16	47.46499	-122.3069	86.091	82.17709	123.3288	26.99	26.77471	100	0	99	2.198255	0.4345093	107.1139	
13:17:17	47.46496	-122.3068	86.84	83.19086	137.2584	27.13	26.77471	100	0	19	0.376629	0.5525908	107.8517	
13:17:17	47.46494	-122.3068	87.582	84.11908	164.3671	27.21	25.81001	100	0	69	1.918646	0.9536031	108.5515	
13:17:17	47.46491	-122.3067	88.345	85.02749	201.472	27.23	25.87904	100	0	75	11.16845	2.247603	110.2932	
13:17:17	47.46488	-122.3067	89.216	85.99447	272.8071	26.8	25.88752	100	0	79	20.34903	3.583127	111.9062	
13:17:17	47.46488	-122.3067	89.216	87.15047	348.2917	26.8	25.44506	100	0	82	28.64552	4.412964	114.0404	
13:17:18	47.46484	-122.3066	90.637	88.35766	400.305	25.31	25.44506	100	0	86	35.45816	5.005036	117.0219	
13:17:18	47.46479	-122.3065	92.938	89.55251	430.9273	24.03	24.07049	100	0	90	39.94964	5.418956	121.3114	
13:17:18	47.46479	-122.3065	92.938	90.90844	451.9706	24.03	23.14236	100	0	94	43.74603	5.904429	126.2827	
13:17:18	47.46476	-122.3064	94.529	92.12893	461.4204	23.64	23.14236	100	0	97	45.9352	6.584601	131.4319	
13:17:18	47.46473	-122.3064	95.927	93.47544	485.7305	23.37	22.64445	100	0	101	46.91659	7.418201	137.2364	
13:17:19	47.46469	-122.3063	97.374	94.90407	520.6167	23.14	22.74296	100	0	102	47.7387	8.1112	143.5648	
13:17:19	47.46465	-122.3063	98.871	96.36949	555.6945	22.95	22.66527	100	0	103	48.64562	8.65361	150.0085	
13:17:19	47.46461	-122.3063	100.965	97.84655	584.8745	22.69	22.90471	100	0	104	49.56984	9.082767	156.5689	
13:17:19	47.46456	-122.3062	102.738	99.33405	606.1976	22.54	23.16913	100	0	104	50.57924	9.401821	163.2072	
13:17:19	47.46452	-122.3062	104.239	101.0394	628.7363	22.44	23.53451	100	0	103	51.08248	9.571924	169.8963	
13:17:20	47.46452	-122.3062	104.239	102.5158	639.8027	22.44	23.96935	100	0	102	51.09737	9.572279	176.4485	
13:17:20	47.46448	-122.3062	105.989	104.149	639.3956	22.39	23.96935	100	0	96	51.05207	9.433102	-177.04	
13:17:20	47.46441	-122.3062	108.425	105.6817	632.3635	22.45	24.36015	100	0	89	50.89991	9.015187	-170.6897	
13:17:20	47.46438	-122.3063	109.861	107.1318	617.798	22.56	24.7872	100	0	83	50.66111	7.858193	-165.0761	
13:17:20	47.46434	-122.3063	111.387	108.7097	581.6977	22.76	25.19984	100	0	78	50.0571	6.114974	-160.1939	
13:17:21	47.46429	-122.3063	113.021	110.0559	519.5599	23.04	25.57682	100	0	71	49.5246	3.882558	-155.707	
13:17:21	47.46429	-122.3063	113.021	111.4981	447.2074	23.04	26.08226	100	0	64	48.87805	1.401618	-151.5031	
13:17:21	47.46426	-122.3064	114.142	112.6471	358.4623	23.26	26.08226	100	0	58	47.94529	-1.124378	-147.3881	
13:17:21	47.46422	-122.3064	115.121	113.5666	263.9024	23.45	26.39274	100	0	52	46.90273	-3.641432	-143.2096	
13:17:21	47.46419	-122.3064	115.771	114.2063	177.1372	23.58	26.68124	100	0	47	45.82755	-6.068416	-139.0214	
13:17:22	47.46419	-122.3064	115.771	114.6899	83.45355	23.58	26.87973	100	0	45	44.41214	-8.337337	-134.7328	
13:17:22	47.46419	-122.3064	115.771	114.9709	-19.3285	23.58	26.87973	100	0	40	42.85884	-10.36975	-130.5157	
13:17:22	47.46419	-122.3064	115.771	114.9948	-111.7307	23.58	26.87973	100	0	37	41.15751	-12.21782	-126.2779	
13:17:22	47.46413	-122.3065	116.335	114.8659	-192.7538	23.76	26.87973	100	0	34	39.33469	-13.87565	-122.0408	
13:17:22	47.46413	-122.3065	116.335	114.6034	-277.2759	23.76	26.7462	100	0	33	37.50275	-15.3553	-117.5497	
13:17:23	47.46403	-122.3068	114.182	114.3252	-346.6497	23.96	26.7462	100	0	31	37.66395	-16.55984	-112.6458	
13:17:23	47.46402	-122.3068	113.161	113.5962	-405.1988	24.05	26.29473	100	0	30	38.46786	-17.35784	-107.522	
13:17:23	47.464	-122.3069	111.862	112.86	-443.68	24.1	26.38433	100	0	30	37.92754	-17.61693	-102.3685	
13:17:23	47.46399	-122.307	110.453	111.8055	-482.7224	24.12	26.65825	100	0	31	37.22536	-17.69485	-97.27421	
13:17:23	47.46399	-122.307	110.453	110.5755	-511.8692	24.12	26.63516	100	0	32	36.35408	-17.58112	-92.17962	
13:17:24	47.46399	-122.3071	106.403	109.683	-521.9695	24.3	26.63516	100	0	33	35.5472	-17.3139	-87.26534	
13:17:24	47.46399	-122.3072	104.053	108.6719	-523.4879	24.51	26.63795	100	0	35	34.41074	-16.74304	-82.29877	
13:17:24	47.46399	-122.3072	104.053	107.1543	-532.7963	24.51	26.49773	100	0	36	32.61166	-15.96259	-77.49024	
13:17:24	47.464	-122.3073	101.674	105.5122	-543.7305	24.8	26.49773	100	0	38	29.54181	-15.06541	-72.95428	
13:17:24	47.46401	-122.3073	99.536	103.7877	-535.5444	25.15	26.64093	100	0	42	25.03146	-13.88587	-68.65	
13:17:25	47.46404	-122.3074	96.409	101.8598	-510.7888	25.77	26.83526	100	0	44	20.29888	-12.2564	-64.74758	
13:17:25	47.46409	-122.3075	92.381	100.1753	-468.9183	26.89	27.19217	100	0	47	16.82074	-10.60779	-61.66244	
13:17:25	47.4641	-122.3076	91.372	98.52614	-427.1211	27.23	28.00713	100	0	49	13.02447	-8.999061	-59.0835	
13:17:25	47.4641	-122.3076	91.372	96.41808	-379.2488	27.23	28.27459	100	0	53	6.857623	-7.088766	-56.84023	
13:17:25	47.46415	-122.3077	88.792	94.84568	-317.1904	28.16	28.27459	100	0	57	0.7522734	-5.03905	-55.17041	
13:17:26	47.46419	-122.3077	87.437	93.52563	-255.6034	28.7	29.53935	100	0	61	-3.526171	-3.309234	-54.29288	
13:17:26	47.46423	-122.3078	86.357	91.99243	-202.8724	29.15	29.98545	100	0	62	-7.974872	-1.758188	-54.01727	
13:17:26	47.46423	-122.3078	86.357	90.6038	-156.4799	29.15	30.37318	100	0	66	-11.90989	-0.2912281	-54.07783	
13:17:26	47.46429	-122.3079	84.991	89.3299	-105.524	29.69	30.37318	100	0	69	-15.04552	1.001601	-54.43181	
13:17:26	47.46434	-122.3079	84.704	88.46072	-62.51885	29.87	30.88151	100	0	72	-18.27822	2.014482	-55.10927	
13:17:27	47.46434	-122.3079	84.704	87.72807	-17.15235	29.87	31.07276	100	0	74	-21.54725	3.017376	-56.283	
13:17:27	47.46438	-122.308	84.559	87.11171	23.15067	29.96	31.07276	100	0	76	-24.49328	3.888543	-57.75377	
13:17:27	47.46447	-122.3081	85.077	86.71535	57.19314	29.81	31.19732	100	0	77	-27.79071	4.614637	-59.62545	
13:17:27	47.46451	-122.3082	85.696	86.53599	88.19521	29.65	30.87724	100	0	79	-31.08466	5.216271	-61.80418	
13:17:27	47.46453	-122.3082	86.393	86.56401	124.3487	29.44	30.7912	100	0	81	-34.27575	5.688071	-64.25132	
13:17:28	47.46457	-122.3083	87.24	86.74525	150.0959	29.2	30.68001	100	0	83	-37.24102	5.985322	-66.98257	
13:17:28	47.4646	-122.3084	88.386	87.09835	175.1623	28.9	30.53528	100	0	85	-39.68966	6.167269	-70.00446	
13:17:28	47.46463	-122.3084	89.59	87.43056	190.6012	28.6	30.36005	100	0	85	-42.07929	6.210342	-73.35178	
13:17:28	47.46465	-122.3085	90.895	88.03598	212.8979	28.29	30.14776	100	0	87	-44.44303	6.105728	-76.92506	
13:17:28	47.46465	-122.3085	90.895	88.85121	233.7287	28.29	29.97115	100	0	88	-46.29128	5.892907	-80.72804	
13:17:29	47.46468	-122.3086	92.885	89.59788	248.1261	27.84	29.97115	100	0	89	-47.57935	5.618902	-84.68661	
13:17:29	47.46469	-122.3087	93.931	90.67418	269.8376	27.63	29.72151	100	0	89	-48.06589	5.316138	-88.98608	
13:17:29	47.46471	-122.3087	95.656	91.95245	302.8007	27.28	29.37353	100	0	88	-48.11394	4.965703	-93.35184	
13:17:29	47.46472	-122.3088	97.227	93.11683	329.9997	26.98	29.19193	100	0	86	-48.20187	4.47386	-97.79538	
13:17:29	47.46473	-122.3089	98.89	94.59412	358.173	26.66	29.02764	100	0	83	-48.16073	3.845867	-102.087	
13:17:30	47.46473	-122.309	101.95	96.06724	380.7354	26.09	28.63651	100	0	80	-48.00039	3.011515	-106.384	
13:17:30	47.46473	-122.309	101.95	97.48741	390.7549	26.09	28.2941	100	0	77	-48.22258	1.996744	-110.7399	
13:17:30	47.46471	-122.3091	103.596	98.90159	401.6762	25.81	28.2941	100	0	75	-47.06045	0.905744	-115.0198	
13:17:30	47.4647	-122.3092	106.06	100.5277	401.6712	25.37	28.10685	100	0	70	-42.86626	-0.06947117	-119.2933	
13:17:30	47.46469	-122.3092	106.901	102.1902	416.227	25.23	27.88542	100	0	62	-35.25713	-0.7768874	-123.369	
13:17:31	47.46467	-122.3093	108.346	103.7702	438.8737	24.93	27.78428	100	0	52	-26.96867	-1.384114	-126.9869	
13:17:31	47.46465	-122.3094	109.747	105.2639	467.7777	24.57	27.53954	100	0	47	-19.26056	-2.339157	-129.8197	
13:17:31	47.46465	-122.3094	109.747	107.0022	479.1505	24.57	27.23412	100	0	39	-11.26949	-3.733557	-132.0603	
13:17:31	47.46462	-122.3094	111.554	108.4095	458.3075	23.97	27.23412	100	0	33	-3.252157	-5.435248	-133.8434	
13:17:31	47.4646	-122.3095	112.698	109.8038	419.4762	23.53	26.67041	100	0	29	4.741704	-7.400296	-135.3126	
13:17:32	47.46457	-122.3095	113.892	111.1251	365.5591	23.02	26.23318	100	0	24	12.64803	-9.459623	-136.6284	
13:17:32	47.46455	-122.3096	114.944	112.2562	295.8343	22.59	25.72759	100	0	20	20.34429	-11.50848	-137.5236	
13:17:32	47.46452	-122.3096	115.704	113.2946	225.8637	22.17	25.12552	100	0	18	27.98202	-13.56024	-138.1062	
13:17:32	47.4645	-122.3097	116.481	114.0163	156.1918	21.76	24.70355	100	0	17	34.56273	-15.66239	-138.187	
13:17:32	47.4645	-122.3097	116.481	114.7137	65.33238	21.76	24.29925	100	0	16	39.85628	-17.8172	-137.7769	
13:17:33	47.46445	-122.3098	117.289	115.1176	-23.17411	21.1	24.29925	100	0	15	42.4403	-19.61642	-136.4408	
13:17:33	47.46443	-122.3099	117.536	115.3833	-103.5532	20.73	23.61106	100	0	15	43.2432	-21.14919	-134.1538	
13:17:33	47.46441	-122.3099	117.539	115.5249	-172.9061	20.6	23.22083	100	0	13	43.04206	-22.50679	-131.2652	
13:17:33	47.46441	-122.3099	117.539	115.5202	-231.894	20.6	22.50227	100	0	13	42.37671	-23.81143	-128.0361	
13:17:34	47.46438	-122.31	117.378	115.4113	-286.5241	20.2	22.50227	100	0	13	41.59096	-24.89277	-124.5041	
13:17:34	47.46437	-122.31	117.094	115.2281	-329.0446	20.1	21.99586	100	0	12	40.76807	-25.52256	-120.5102	
13:17:34	47.46435	-122.3101	116.612	114.9457	-368.9908	19.93	21.84211	100	0	11	39.91983	-25.89397	-116.2	
13:17:34	47.46435	-122.3101	116.246	114.5305	-406.2809	19.86	21.21861	100	0	11	39.58441	-26.14875	-111.8843	
13:17:34	47.46434	-122.3102	115.869	114.1658	-432.2871	19.81	21.07793	100	0	11	38.61448	-26.3012	-107.2065	
13:17:35	47.46434	-122.3102	115.869	113.6772	-457.8924	19.81	20.94261	100	0	10	37.79569	-26.38962	-102.4314	
13:17:35	47.46434	-122.3102	115.396	113.2675	-474.5912	19.75	20.94261	100	0	10	37.37253	-26.43807	-97.60195	
13:17:35	47.46433	-122.3103	114.815	112.6667	-494.2411	19.74	20.5411	100	0	10	37.11935	-26.44645	-92.58388	
13:17:35	47.46434	-122.3104	113.948	112.0602	-512.8062	19.72	20.42846	100	0	10	37.0992	-26.43187	-87.54552	
13:17:35	47.46435	-122.3104	113.099	111.3847	-530.4044	19.74	20.25116	100	0	10	37.32653	-26.41516	-82.52095	
13:17:36	47.46435	-122.3105	112.261	110.6447	-546.108	19.77	20.05234	100	0	10	37.33761	-26.31105	-77.34912	
13:17:36	47.46436	-122.3105	111.395	109.9133	-559.5667	19.83	19.95839	100	0	10	37.19709	-26.07361	-72.03544	
13:17:36	47.46438	-122.3106	110.197	109.2149	-569.5951	19.92	19.88586	100	0	10	37.16167	-25.7412	-66.59676	
13:17:36	47.46438	-122.3106	110.197	108.2879	-578.9253	19.92	19.7188	100	0	10	37.4735	-25.38089	-61.2877	
13:17:36	47.46443	-122.3107	108.071	107.5692	-576.4259	20.13	19.7188	100	0	12	38.0443	-25.02235	-55.96988	
13:17:37	47.46443	-122.3107	108.071	106.7582	-582.543	20.13	19.67302	100	0	13	38.82872	-24.72658	-50.69374	
13:17:37	47.46448	-122.3108	105.576	105.9251	-585.972	20.42	19.67302	100	0	16	39.64115	-24.49763	-45.39675	
13:17:37	47.46448	-122.3108	105.576	105.17	-583.2379	20.42	19.89847	100	0	19	39.50374	-23.44787	-39.58137	
13:17:37	47.46454	-122.3108	102.499	103.9831	-581.8446	20.84	19.89847	100	0	22	39.346	-22.2099	-33.71643	
13:17:37	47.46457	-122.3108	101.195	102.8986	-577.2465	21.08	19.94731	100	0	26	39.77575	-20.96312	-27.85583	
13:17:38	47.46461	-122.3109	99.438	101.4494	-566.3212	21.43	20.09054	100	0	29	40.09673	-19.5035	-21.91183	
13:17:38	47.46466	-122.3109	97.718	100.1702	-547.0774	21.81	20.4526	100	0	35	40.66602	-17.9629	-15.89442	
13:17:38	47.46472	-122.3109	95.389	98.92027	-520.339	22.42	20.73575	100	0	40	41.31448	-16.26163	-9.75646	
13:17:38	47.46472	-122.3109	95.389	97.5225	-491.7407	22.42	21.38286	100	0	46	42.19358	-14.61602	-3.597425	
13:17:38	47.46476	-122.3109	93.764	96.26342	-456.4755	22.89	21.38286	100	0	51	42.39828	-12.80957	2.738271	
13:17:39	47.46481	-122.3109	92.206	95.09818	-421.799	23.42	21.80217	100	0	55	41.11034	-10.74095	9.158632	
13:17:39	47.46484	-122.3108	90.954	93.8779	-359.1298	23.88	22.46444	100	0	59	38.97574	-8.343289	15.53794	
13:17:39	47.46489	-122.3108	89.012	92.87807	-277.5366	24.73	22.89273	100	0	61	36.73632	-5.669977	21.60255	
13:17:39	47.46494	-122.3108	87.62	91.80365	-188.3285	25.47	23.63351	100	0	63	34.32264	-3.010523	27.07575	
13:17:39	47.46494	-122.3108	87.62	90.87798	-93.68432	25.47	24.37718	100	0	65	30.87182	-0.3448773	32.02824	
13:17:40	47.465	-122.3107	86.104	90.19772	10.51616	26.34	24.37718	100	0	65	27.65311	2.612248	36.72352	
13:17:40	47.46503	-122.3106	85.497	89.7838	126.054	26.72	25.45469	100	0	66	23.06475	5.373771	40.66829	
13:17:40	47.46503	-122.3106	85.497	89.45547	211.468	26.72	25.67237	100	0	65	18.96551	7.726024	43.58529	
13:17:40	47.46506	-122.3105	85.395	89.22407	294.2897	26.79	25.67237	100	0	65	12.55484	8.861316	45.43496	
13:17:40	47.46508	-122.3105	85.479	89.10155	319.8969	26.72	25.74577	100	0	65	5.815513	9.433486	46.70684	
13:17:41	47.46511	-122.3104	85.956	89.01519	317.2879	26.55	25.68017	100	0	65	-0.08606274	9.621605	47.49126	
13:17:41	47.46511	-122.3104	85.956	88.97784	297.348	26.55	25.51602	100	0	65	-4.742545	9.70209	48.02759	
13:17:41	47.46513	-122.3103	86.529	88.94556	272.8476	26.38	25.51602	100	0	66	-7.600377	9.332314	48.03587	
13:17:41	47.46513	-122.3103	86.529	89.00708	240.1935	26.38	25.52825	100	0	67	-9.198341	8.7412	47.7583	
13:17:41	47.46517	-122.3102	87.613	89.04881	200.7435	26.05	25.52825	100	0	68	-8.99781	8.142897	47.45897	
13:17:42	47.4652	-122.3101	88.486	89.20724	176.8473	25.8	25.2014	100	0	68	-5.901836	7.716923	47.25383	
13:17:42	47.46522	-122.3101	89.123	89.39497	159.014	25.68	24.95444	100	0	68	-1.724809	7.461604	47.2716	
13:17:42	47.46524	-122.31	89.862	89.65135	156.4553	25.52	24.82979	100	0	68	5.035686	7.24527	47.57825	
13:17:42	47.46525	-122.31	90.076	89.9828	161.3481	25.47	24.67546	100	0	68	12.35849	6.946563	48.30698	
13:17:42	47.46527	-122.3099	90.712	90.31546	161.2273	25.32	24.6236	100	0	69	19.2899	6.435261	49.66253	
13:17:43	47.46531	-122.3098	91.898	90.65173	156.4615	25.06	24.47596	100	0	69	24.87294	5.958557	51.6459	
13:17:43	47.46532	-122.3098	92.73	91.09998	146.4922	24.91	24.21591	100	0	70	30.05988	5.60666	54.15983	
13:17:43	47.46532	-122.3098	92.73	91.61019	139.6797	24.91	24.05831	100	0	71	34.83332	5.213401	57.08895	
13:17:43	47.46535	-122.3097	93.572	92.06774	126.4178	24.74	24.05831	100	0	72	39.006	4.649201	60.42881	
13:17:43	47.46536	-122.3096	94.48	92.66445	117.375	24.61	23.8972	100	0	74	42.02375	4.043364	64.34389	
13:17:44	47.46539	-122.3095	96.104	93.20529	103.3922	24.46	23.13066	100	0	76	44.46426	3.47901	68.67573	
13:17:44	47.4654	-122.3094	96.829	93.81425	99.74017	24.44	23.0613	100	0	77	46.1784	2.994919	73.50677	
13:17:44	47.4654	-122.3094	97.427	94.46019	98.96926	24.44	23.10028	100	0	77	46.65349	2.614847	78.63191	
13:17:44	47.4654	-122.3093	98.107	95.11561	103.8783	24.44	23.25196	100	0	77	46.65384	2.279218	83.8981	
13:17:44	47.4654	-122.3093	98.107	95.80115	111.5635	24.44	23.35653	100	0	75	46.87988	1.896175	89.24284	
13:17:45	47.4654	-122.3092	98.742	96.38396	115.5133	24.46	23.35653	100	0	73	47.09583	1.445787	94.5656	
13:17:45	47.46539	-122.3091	99.427	96.90025	116.1216	24.5	23.35035	100	0	72	46.65106	1.033826	99.92876	
13:17:45	47.46538	-122.3091	99.914	97.60709	120.4181	24.51	23.53453	100	0	70	46.80154	0.3854814	105.4697	
13:17:45	47.46538	-122.3091	99.914	98.22283	121.1937	24.51	23.50583	100	0	69	46.81684	-0.3994453	110.8775	
13:17:45	47.46536	-122.309	100.304	98.75973	117.7032	24.53	23.50583	100	0	67	46.6936	-1.255675	116.2786	
13:17:46	47.46531	-122.3089	101.001	99.34513	107.6536	24.57	23.66489	100	0	66	46.63136	-2.107797	121.7896	
13:17:46	47.46527	-122.3088	101.284	99.75456	97.91249	24.61	23.90229	100	0	64	46.99401	-3.03033	127.3924	
13:17:46	47.46525	-122.3088	101.349	100.2246	84.21873	24.64	24.12724	100	0	64	46.74525	-3.772455	133.0576	
13:17:46	47.46525	-122.3088	101.349	100.5375	71.24729	24.64	24.49864	100	0	62	46.11522	-4.415766	138.811	
13:17:46	47.46523	-122.3088	101.401	100.833	57.42424	24.64	24.49864	100	0	61	45.05064	-4.929484	144.513	
13:17:47	47.46519	-122.3087	101.304	101.0137	46.73222	24.69	24.56719	100	0	59	44.34213	-5.472674	150.2832	
13:17:47	47.46513	-122.3087	101.198	101.1528	35.0555	24.75	24.3107	100	0	58	44.56356	-6.249685	155.9909	
13:17:47	47.46509	-122.3087	101.005	101.2184	20.63573	24.79	24.58161	100	0	58	44.75642	-6.978841	161.7006	
13:17:47	47.46504	-122.3086	100.611	101.1987	1.651011	24.87	24.96112	100	0	58	44.20604	-7.492733	167.5645	
13:17:47	47.465	-122.3086	100.274	101.0824	-15.93508	24.93	25.20418	100	0	58	43.86772	-7.898216	173.5719	
13:17:48	47.46493	-122.3086	99.585	100.9043	-28.40461	25.05	25.19604	100	0	58	43.34811	-8.113094	179.6207	
13:17:48	47.46487	-122.3086	98.886	100.7014	-34.00643	25.17	25.48568	100	0	58	43.21078	-8.327394	-174.3731	
13:17:48	47.46483	-122.3086	98.273	100.3172	-43.68616	25.29	25.73617	100	0	59	42.96983	-8.354156	-168.3201	
13:17:48	47.46483	-122.3086	98.273	99.95226	-48.64573	25.29	25.96528	100	0	59	42.61551	-8.259134	-162.284	
13:17:48	47.46479	-122.3086	97.659	99.5425	-52.12484	25.41	25.96528	100	0	60	42.06617	-8.008153	-156.2623	
13:17:49	47.46475	-122.3087	97.009	99.06258	-49.98415	25.54	26.14937	100	0	61	41.34328	-7.557535	-150.2645	
13:17:49	47.46471	-122.3087	96.476	98.67551	-42.26304	25.67	26.35396	100	0	62	40.64885	-6.949309	-144.3405	
13:17:49	47.46465	-122.3087	95.315	98.19975	-24.83804	25.96	26.26154	100	0	62	40.44256	-6.449276	-138.5245	
13:17:49	47.46465	-122.3087	95.315	97.77085	-12.00505	25.96	26.64502	100	0	63	40.99644	-6.117615	-132.8424	
13:17:49	47.46458	-122.3089	94.019	97.19624	-6.308456	26.31	26.64502	100	0	65	41.60208	-5.725739	-127.2626	
13:17:50	47.46455	-122.3089	93.424	96.6226	0.5294155	26.49	27.19955	100	0	68	41.53465	-5.060897	-121.536	
13:17:50	47.46452	-122.309	92.594	96.06047	8.759707	26.78	27.21921	100	0	69	41.74709	-4.366286	-115.8107	
13:17:50	47.4645	-122.3091	91.937	95.49948	20.66071	27.02	27.51789	100	0	70	42.77723	-3.782745	-110.1695	
13:17:50	47.4645	-122.3091	91.937	95.02668	31.26934	27.02	27.91596	100	0	72	43.73552	-3.1431	-104.5348	
13:17:50	47.46449	-122.3091	91.391	94.4944	38.10063	27.22	27.91596	100	0	75	44.5386	-2.428013	-98.90743	
13:17:51	47.46447	-122.3093	90.605	93.91267	45.60258	27.63	28.09665	100	0	77	45.24751	-1.674069	-93.23798	
13:17:51	47.46447	-122.3094	90.408	93.43639	53.4879	27.83	28.38207	100	0	79	46.14177	-1.025448	-87.51038	
13:17:51	47.46448	-122.3094	90.31	93.04179	60.99441	27.99	28.52928	100	0	81	46.5281	-0.2303219	-81.69422	
13:17:51	47.46449	-122.3095	90.198	92.66932	71.78309	28.19	28.72195	100	0	83	46.55079	0.6429469	-75.86939	
13:17:51	47.46451	-122.3096	90.164	92.37437	91.08964	28.37	28.84246	100	0	84	46.76752	1.460824	-70.12685	
13:17:52	47.46453	-122.3096	90.184	92.15886	112.5812	28.56	28.88171	100	0	85	46.91728	2.176684	-64.51913	
13:17:52	47.46453	-122.3096	90.184	92.0079	133.9647	28.56	28.96552	100	0	85	47.17659	2.877947	-58.9422	
13:17:52	47.46456	-122.3097	90.399	91.94451	149.1557	28.71	28.96552	100	0	86	47.31342	3.525143	-53.53151	
13:17:52	47.4646	-122.3098	90.632	91.95039	165.5384	28.84	29.06101	100	0	86	47.38596	4.102392	-48.20234	
13:17:52	47.46463	-122.3098	90.933	92.01897	180.0816	28.92	29.0774	100	0	87	47.31451	4.597683	-42.99979	
13:17:53	47.46468	-122.3099	91.476	92.19409	193.8965	29.01	29.08604	100	0	87	47.40394	4.953109	-37.84473	
13:17:53	47.46473	-122.3099	92.044	92.4323	204.2191	29.06	29.05445	100	0	87	47.55034	5.233447	-32.88472	
13:17:53	47.46479	-122.31	92.875	92.73679	211.6914	29.09	28.9974	100	0	86	47.54705	5.521834	-28.02261	
13:17:53	47.46479	-122.31	92.875	93.11028	220.3094	29.09	28.96505	100	0	86	47.5316	5.718973	-23.2872	
13:17:53	47.46488	-122.31	94.15	93.55977	224.3124	29.08	28.96505	100	0	86	47.52449	5.895897	-18.63996	
13:17:54	47.46493	-122.31	94.788	93.9846	225.5609	29.07	28.78317	100	0	85	47.29325	5.977619	-14.09434	
13:17:54	47.46493	-122.31	94.788	94.53808	227.187	29.07	28.7578	100	0	84	46.82241	5.952558	-9.808286	
13:17:54	47.46498	-122.31	95.485	95.0072	222.1258	29.03	28.7578	100	0	82	46.33499	5.80387	-5.71851	
13:17:54	47.46502	-122.31	96.259	95.58511	211.8522	28.99	28.64414	100	0	81	46.00211	5.537247	-1.740217	
13:17:54	47.46507	-122.31	97.006	96.10652	199.639	28.95	28.53518	100	0	80	45.87467	5.184601	2.103077	
13:17:55	47.46513	-122.31	97.833	96.6254	183.9324	28.89	28.30973	100	0	79	45.8605	4.757022	5.813734	
13:17:55	47.4652	-122.31	98.95	97.12621	164.1917	28.8	28.18905	100	0	78	45.97759	4.268787	9.614713	
13:17:55	47.46525	-122.31	99.601	97.70811	151.0107	28.74	28.02225	100	0	77	46.26175	3.784727	13.38377	
13:17:55	47.4653	-122.31	100.369	98.28289	133.9512	28.68	28.25306	100	0	77	46.02597	3.321253	17.14564	
13:17:55	47.46537	-122.3099	101.356	98.8708	115.2067	28.59	28.14636	100	0	76	45.93967	2.820022	20.93948	
13:17:56	47.46542	-122.3099	101.879	99.36983	97.73456	28.53	27.99865	100	0	74	46.18195	2.299298	24.81375	
13:17:56	47.46546	-122.3098	102.405	99.91694	87.98985	28.49	28.18995	100	0	73	45.98137	1.814837	28.66423	
13:17:56	47.46546	-122.3098	102.405	100.502	73.9349	28.49	28.12178	100	0	73	45.54785	1.382592	32.5093	
13:17:56	47.46546	-122.3098	102.405	100.9807	61.27613	28.49	28.12178	100	0	71	45.08765	0.9789502	36.28192	
13:17:56	47.46554	-122.3097	103.194	101.3438	45.41792	28.4	28.12178	100	0	69	44.69331	0.5544666	40.04307	
13:17:57	47.46558	-122.3097	103.598	101.7256	29.06733	28.34	27.98301	100	0	68	44.4538	0.07054229	43.78002	
13:17:57	47.4656	-122.3096	103.817	102.0749	10.48068	28.3	27.83098	100	0	67	44.37849	-0.4607235	47.48013	
13:17:57	47.46564	-122.3095	104.058	102.3964	-7.903384	28.24	27.78253	100	0	66	44.36098	-1.052742	51.11737	
13:17:57	47.46566	-122.3095	104.089	102.6344	-27.63208	28.21	27.70167	100	0	65	44.66998	-1.621108	54.82153	
13:17:57	47.46566	-122.3095	104.089	102.8445	-51.78333	28.21	27.73567	100	0	65	44.3495	-2.204346	58.583	
13:17:58	47.4657	-122.3093	104.13	102.979	-72.74288	28.14	27.73567	100	0	64	44.60211	-2.681774	62.54676	
13:17:58	47.46572	-122.3092	104.026	103.0415	-90.9094	28.11	27.65943	100	0	64	44.9287	-3.131388	66.66708	
13:17:58	47.46574	-122.3091	103.626	103.0493	-107.0151	28.11	27.63549	100	0	64	44.92313	-3.451054	70.86103	
13:17:58	47.46574	-122.3091	103.306	102.957	-126.0436	28.11	27.80813	100	0	64	44.98711	-3.705111	75.1807	
13:17:58	47.46574	-122.309	103.045	102.8285	-139.291	28.13	27.81345	100	0	64	44.62641	-3.889146	79.62249	
13:17:59	47.46574	-122.3089	102.44	102.618	-151.1386	28.16	27.83484	100	0	64	44.11448	-3.977979	84.06408	
13:17:59	47.46574	-122.3089	102.44	102.3286	-160.5858	28.16	27.83743	100	0	64	44.31685	-4.071304	88.57339	
13:17:59	47.46574	-122.3089	102.079	101.9927	-169.819	28.18	27.83743	100	0	65	43.95171	-4.12863	93.09861	
13:17:59	47.46573	-122.3088	101.516	101.6447	-176.2724	28.22	27.85998	100	0	65	43.62746	-4.137632	97.71677	
13:17:59	47.46572	-122.3087	100.916	101.3289	-177.2399	28.27	27.9191	100	0	66	43.86766	-4.168753	102.4143	
13:18:00	47.46568	-122.3086	99.746	100.914	-177.9213	28.37	27.7833	100	0	67	44.23105	-4.177016	107.1402	
13:18:00	47.46565	-122.3085	98.929	100.4328	-183.2074	28.46	27.9285	100	0	68	44.7495	-4.119869	112.0433	
13:18:00	47.46562	-122.3084	98.289	99.97133	-184.6217	28.54	28.24101	100	0	70	45.10876	-3.937094	117.0752	
13:18:00	47.46562	-122.3084	98.289	99.39034	-183.455	28.54	28.34959	100	0	72	45.19094	-3.701018	122.175	
13:18:00	47.46558	-122.3083	97.489	98.85521	-180.7017	28.63	28.34959	100	0	73	45.17154	-3.339436	127.4472	
13:18:01	47.46554	-122.3083	96.878	98.31808	-174.0339	28.72	28.46709	100	0	74	45.14729	-2.842674	132.7793	
13:18:01	47.46551	-122.3083	96.491	97.75594	-157.0649	28.79	28.63606	100	0	75	45.01243	-2.268101	138.1022	
13:18:01	47.46547	-122.3082	95.968	97.30511	-141.4308	28.87	28.73269	100	0	76	44.83683	-1.642214	143.3964	
13:18:01	47.46542	-122.3082	95.397	96.80769	-118.679	28.97	28.82688	100	0	77	44.81931	-1.112592	148.7155	
13:18:01	47.46536	-122.3081	94.977	96.40183	-97.11147	29.04	28.7413	100	0	78	45.26636	-0.7392954	154.0452	
13:18:02	47.46531	-122.3081	94.677	96.02422	-83.22737	29.09	28.84109	100	0	79	45.58691	-0.3673505	159.2951	
13:18:02	47.46531	-122.3081	94.677	95.65775	-70.60011	29.09	29.02312	100	0	81	45.80006	0.06600734	164.5708	
13:18:02	47.46519	-122.3081	94.3	95.36111	-55.2	29.16	29.02312	100	0	82	45.97449	0.5645907	169.835	
13:18:02	47.46513	-122.3081	94.28	95.09602	-35.42427	29.16	29.14064	100	0	83	45.90215	1.040569	175.2278	
13:18:02	47.46507	-122.3081	94.433	94.89967	-16.50193	29.14	29.2862	100	0	83	44.52704	1.669821	-179.4944	
13:18:03	47.46503	-122.3081	94.444	94.78497	7.485878	29.12	29.29007	100	0	82	42.35601	2.402003	-174.3538	
13:18:03	47.46497	-122.3081	94.762	94.7662	42.12615	29.06	29.27432	100	0	80	39.81184	3.196949	-169.535	
13:18:03	47.46497	-122.3081	94.762	94.82189	80.9483	29.06	29.22749	100	0	78	37.38287	3.878801	-165.1264	
13:18:03	47.46492	-122.3082	95.206	94.98047	112.6043	28.95	29.22749	100	0	77	35.23589	4.447216	-161.1386	
13:18:03	47.46492	-122.3082	95.206	95.29144	149.2717	28.95	29.13593	100	0	75	32.17273	4.759265	-157.7426	
13:18:04	47.46482	-122.3082	96.43	95.62677	168.3239	28.6	29.13593	100	0	73	29.64666	4.928733	-154.5922	
13:18:04	47.46477	-122.3083	97.152	96.07458	180.3633	28.36	28.6065	100	0	72	27.3055	4.942474	-151.8362	
13:18:04	47.46473	-122.3083	97.931	96.51433	181.3262	28.13	28.37841	100	0	71	24.41663	4.75148	-149.5044	
13:18:04	47.46469	-122.3084	98.667	96.9731	176.405	27.87	28.1556	100	0	69	21.87195	4.419889	-147.3392	
13:18:04	47.46469	-122.3084	98.667	97.56796	169.1428	27.87	27.90896	100	0	67	20.58687	3.940471	-145.362	
13:18:05	47.46465	-122.3084	99.509	98.18546	159.7043	27.62	27.90896	100	0	66	19.68271	3.326813	-143.5419	
13:18:05	47.46462	-122.3085	100.085	98.74435	140.2058	27.44	28.03436	100	0	64	19.28465	2.567021	-141.7932	
13:18:05	47.46459	-122.3085	100.887	99.29318	119.175	27.19	27.85623	100	0	63	19.70993	1.729167	-140.0067	
13:18:05	47.46455	-122.3086	101.736	99.7469	97.01735	26.96	27.61909	100	0	63	21.1665	0.8549567	-138.1061	
13:18:06	47.46452	-122.3087	102.501	100.3388	76.65125	26.74	27.39034	100	0	62	23.35306	0.105111	-136.1543	
13:18:06	47.46452	-122.3087	102.501	100.9079	54.56926	26.74	27.18326	100	0	61	25.79958	-0.6419618	-134.1901	
13:18:06	47.46446	-122.3088	103.742	101.379	34.26784	26.39	27.18326	100	0	60	28.53842	-1.325974	-132.0787	
13:18:06	47.46442	-122.3089	104.464	101.8269	18.82143	26.19	26.62659	100	0	60	31.73313	-1.951847	-129.5379	
13:18:06	47.46439	-122.3089	105.049	102.3381	2.066674	26.05	26.45548	100	0	60	35.08964	-2.611831	-126.759	
13:18:06	47.46437	-122.309	105.409	102.7411	-13.03243	25.95	26.33198	100	0	60	37.88947	-3.270911	-123.7101	
13:18:07	47.46437	-122.309	105.409	103.1619	-30.31401	25.95	26.25383	100	0	61	40.26696	-3.901226	-120.4014	
13:18:07	47.46435	-122.3091	105.788	103.5001	-50.48689	25.88	26.25383	100	0	61	41.65004	-4.486187	-116.8095	
13:18:07	47.46432	-122.3092	106.307	103.8249	-70.59722	25.83	26.21766	100	0	61	42.39187	-4.957965	-112.8705	
13:18:07	47.46432	-122.3092	106.307	104.1113	-80.21974	25.83	26.22016	100	0	61	43.34901	-5.282824	-108.6022	
13:18:07	47.46431	-122.3093	106.537	104.368	-82.57277	25.84	26.22016	100	0	61	43.6181	-5.517159	-104.2146	
13:18:08	47.46429	-122.3094	106.68	104.6416	-84.64786	25.9	26.25891	100	0	60	43.30318	-5.651046	-99.74617	
13:18:08	47.46429	-122.3094	106.68	104.8499	-85.21807	25.9	26.15343	100	0	59	43.76107	-5.877293	-95.15458	
13:18:08	47.46429	-122.3094	106.68	105.0133	-85.81844	25.9	26.15343	100	0	59	44.23189	-6.126949	-90.56272	
13:18:08	47.46429	-122.3095	106.726	105.1595	-89.29886	26	26.15343	100	0	58	44.45236	-6.334455	-85.98389	
13:18:08	47.46431	-122.3096	106.68	105.2853	-96.13175	26.08	26.31793	100	0	58	44.48504	-6.448181	-81.36272	
13:18:09	47.46432	-122.3097	106.645	105.3536	-101.8849	26.15	26.4015	100	0	58	44.47575	-6.580168	-76.67883	
13:18:09	47.46433	-122.3097	106.522	105.4012	-105.8901	26.21	26.49365	100	0	57	44.24371	-6.716679	-72.02571	
13:18:09	47.46436	-122.3098	106.215	105.4205	-109.2507	26.31	26.56747	100	0	57	43.81176	-6.817629	-67.383	
13:18:09	47.46436	-122.3098	106.215	105.3955	-112.1255	26.31	26.56472	100	0	56	43.93365	-6.962325	-62.77845	
13:18:09	47.46441	-122.31	105.66	105.3372	-115.5374	26.49	26.56472	100	0	56	44.21369	-7.108373	-58.21611	
13:18:10	47.46444	-122.31	105.319	105.1996	-123.9067	26.59	26.76924	100	0	56	44.60431	-7.260723	-53.66247	
13:18:10	47.46448	-122.3101	104.905	105.0192	-134.2348	26.69	27.10777	100	0	57	44.66541	-7.289151	-48.99847	
13:18:10	47.46448	-122.3101	104.905	104.8385	-141.3404	26.69	27.21211	100	0	57	44.38321	-7.201533	-44.27315	
13:18:10	47.46458	-122.3102	103.6	104.5618	-144.7278	27.01	27.21211	100	0	58	42.58799	-6.875391	-39.50626	
13:18:10	47.46458	-122.3102	103.6	104.2266	-142.2213	27.01	27.19101	100	0	57	42.81559	-6.629046	-34.82941	
13:18:11	47.46462	-122.3102	103.012	103.8848	-140.7687	27.16	27.19101	100	0	58	43.54266	-6.457342	-30.23129	
13:18:11	47.46466	-122.3102	102.543	103.4458	-145.1281	27.3	27.32483	100	0	58	44.04739	-6.253227	-25.63384	
13:18:11	47.46471	-122.3103	101.908	103.043	-151.6892	27.43	27.84012	100	0	60	44.44093	-6.013922	-21.03223	
13:18:11	47.46476	-122.3103	101.278	102.592	-159.4551	27.57	27.95178	100	0	61	44.63198	-5.754809	-16.3477	
13:18:11	47.46482	-122.3103	100.398	102.1133	-164.1308	27.76	28.05713	100	0	63	44.67483	-5.466012	-11.61551	
13:18:12	47.46487	-122.3103	99.65	101.4564	-170.8843	27.95	28.10062	100	0	64	44.82664	-5.067513	-6.853136	
13:18:12	47.46494	-122.3103	98.645	100.8516	-171.4001	28.23	28.24303	100	0	66	44.76408	-4.612772	-2.060887	
13:18:12	47.46494	-122.3103	98.645	100.2289	-169.0137	28.23	28.46874	100	0	67	45.10306	-4.139528	2.73292	
13:18:12	47.465	-122.3103	97.801	99.65134	-164.8007	28.48	28.46874	100	0	69	45.37125	-3.636392	7.624223	
13:18:12	47.46503	-122.3103	97.419	98.95932	-157.505	28.61	28.75836	100	0	71	45.12679	-3.007761	12.51126	
13:18:13	47.46508	-122.3102	96.535	98.30914	-146.8034	28.85	28.8582	100	0	72	44.87688	-2.340506	17.36803	
13:18:13	47.46513	-122.3102	95.809	97.70705	-130.5748	29.09	29.03446	100	0	73	45.07893	-1.704022	22.24582	
13:18:13	47.46518	-122.3101	95.153	97.13255	-112.2743	29.33	29.05861	100	0	75	45.41021	-1.108151	27.05861	
13:18:13	47.46524	-122.3101	94.249	96.62399	-95.21777	29.62	29.23383	100	0	76	45.79256	-0.5401297	31.87121	
13:18:13	47.46528	-122.31	93.758	96.1009	-81.93996	29.78	29.43997	100	0	78	46.32202	0.0240397	36.65311	
13:18:14	47.46531	-122.31	93.402	95.55368	-73.37782	29.92	29.71956	100	0	80	46.34691	0.627863	41.44263	
13:18:14	47.46531	-122.31	93.402	95.09837	-64.09794	29.92	29.80422	100	0	80	46.00563	1.24561	46.25087	
13:18:14	47.46535	-122.3099	92.934	94.63931	-50.31857	30.07	29.80422	100	0	81	45.83431	1.884277	51.1114	
13:18:14	47.46539	-122.3098	92.535	94.22762	-31.55959	30.24	29.89276	100	0	82	45.93434	2.449961	55.86375	
13:18:15	47.46541	-122.3097	92.312	93.84567	-12.66873	30.34	29.82945	100	0	83	46.36851	2.960687	60.58604	
13:18:15	47.46543	-122.3097	92.219	93.55501	1.057575	30.37	29.86092	100	0	84	46.54671	3.403634	65.29972	
13:18:15	47.46545	-122.3096	92.183	93.32155	12.23182	30.38	29.85475	100	0	85	46.2274	3.801265	69.96493	
13:18:15	47.46545	-122.3095	92.279	93.14473	25.01791	30.34	29.84771	100	0	86	46.30059	4.20307	74.67753	
13:18:15	47.46545	-122.3095	92.279	93.03872	39.66071	30.34	29.75878	100	0	86	46.37013	4.65098	79.39927	
13:18:16	47.46546	-122.3093	92.731	92.98993	53.83298	30.19	29.75878	100	0	87	46.52593	5.076587	84.07433	
13:18:16	47.46546	-122.3093	92.731	93.03171	68.53568	30.19	29.52478	100	0	87	46.79694	5.374317	88.72166	
13:18:16	47.46544	-122.3091	93.82	93.11195	77.70897	29.85	29.52478	100	0	87	47.07299	5.717582	93.32839	
13:18:16	47.46544	-122.3091	93.82	93.21321	84.82451	29.85	29.31434	100	0	88	47.02127	5.88322	98.00057	
13:18:16	47.46542	-122.309	94.311	93.48798	94.28149	29.68	29.31434	100	0	88	46.65522	6.006409	102.5946	
13:18:17	47.4654	-122.309	94.966	93.85831	103.713	29.5	29.12766	100	0	87	46.33239	6.115871	107.2114	
13:18:17	47.46538	-122.3089	95.595	94.30513	118.5037	29.33	28.92039	100	0	86	46.05199	6.088504	111.6746	
13:18:17	47.46535	-122.3088	96.477	94.77141	128.1259	29.1	28.73799	100	0	85	45.71983	5.975319	116.0153	
13:18:17	47.46532	-122.3088	97.054	95.28529	136.8056	28.94	28.50516	100	0	84	45.72559	5.737984	120.3702	
13:18:17	47.46529	-122.3087	97.826	95.92484	141.1612	28.74	28.24462	100	0	83	45.42705	5.31996	124.6086	
13:18:18	47.46529	-122.3087	97.826	96.43732	137.9554	28.74	28.05672	100	0	82	45.36321	4.820491	128.8141	
13:18:18	47.46521	-122.3086	99.719	97.07427	136.404	28.31	28.05672	100	0	81	45.55785	4.300053	133.0731	
13:18:18	47.46517	-122.3085	100.487	97.81736	133.0536	28.13	27.66073	100	0	80	46.01267	3.717165	137.4173	
13:18:18	47.46512	-122.3085	101.44	98.3706	125.3399	27.92	27.63126	100	0	79	45.61556	3.164414	141.6173	
13:18:18	47.46507	-122.3085	102.337	99.03046	119.4151	27.74	27.45965	100	0	77	45.63002	2.590224	146.0909	
13:18:19	47.46507	-122.3085	102.337	99.77618	120.1028	27.74	27.31458	100	0	76	41.59375	2.131687	150.4779	
13:18:19	47.46497	-122.3084	103.824	100.6678	132.3731	27.44	27.31458	100	0	71	34.97727	2.118279	154.6714	
13:18:19	47.46497	-122.3084	103.824	101.3777	154.3992	27.44	27.02573	100	0	64	26.40479	2.155448	158.229	
13:18:19	47.46492	-122.3084	104.44	102.2436	188.9908	27.28	27.02573	100	0	61	17.47785	2.229494	160.9363	
13:18:19	47.46492	-122.3084	104.44	103.099	213.2818	27.28	26.91195	100	0	55	8.238712	2.252419	163.0019	
13:18:20	47.46481	-122.3083	106.156	103.8837	233.0554	26.69	26.91195	100	0	52	-0.7326347	1.600431	164.3377	
13:18:20	47.46471	-122.3083	107.711	104.6511	202.0636	26	26.38847	100	0	49	-9.396921	0.2074109	165.2421	
13:18:20	47.46467	-122.3083	108.32	105.5473	137.2886	25.69	25.72775	100	0	47	-18.11568	-1.276698	165.7527	
13:18:20	47.46462	-122.3083	108.782	106.0941	67.93764	25.44	25.42476	100	0	46	-26.89678	-3.141011	166.247	
13:18:20	47.46455	-122.3083	109.165	106.5976	-22.25988	25.09	25.16249	100	0	46	-34.35307	-5.033007	165.9048	
13:18:21	47.46455	-122.3083	109.165	106.8812	-101.5698	25.09	24.80202	100	0	48	-39.66296	-6.568376	165.1253	
13:18:21	47.46452	-122.3083	109.24	107.0307	-176.0502	24.97	24.80202	100	0	50	-42.62286	-7.727644	163.6024	
13:18:21	47.46448	-122.3083	109.138	107.0642	-221.6527	24.84	24.66803	100	0	52	-43.74113	-8.585969	160.9832	
13:18:21	47.46443	-122.3083	108.927	107.0149	-255.3336	24.73	24.52248	100	0	53	-44.39605	-9.171946	157.8559	
13:18:21	47.46436	-122.3083	108.513	106.8901	-273.1961	24.67	24.37122	100	0	53	-44.807	-9.416592	154.2913	
13:18:22	47.46436	-122.3083	108.513	106.6732	-283.1511	24.67	24.25194	100	0	54	-45.42767	-9.54122	150.5334	
13:18:22	47.46432	-122.3082	108.162	106.4672	-286.2361	24.67	24.25194	100	0	54	-45.64928	-9.519394	146.5594	
13:18:22	47.46428	-122.3082	107.69	106.2246	-284.1035	24.69	24.21178	100	0	55	-45.59766	-9.450104	142.3605	
13:18:22	47.46424	-122.3082	107.299	105.9733	-278.8745	24.71	24.182	100	0	55	-45.5774	-9.36251	138.0703	
13:18:22	47.4642	-122.3081	106.895	105.7331	-273.3436	24.74	24.1241	100	0	55	-45.52647	-9.248957	133.7365	
13:18:23	47.46415	-122.3081	106.264	105.4639	-266.993	24.8	24.1059	100	0	55	-45.75274	-9.212475	129.3408	
13:18:23	47.46412	-122.308	105.851	105.1185	-263.3915	24.84	24.10776	100	0	56	-46.37047	-9.292362	124.8827	
13:18:23	47.46412	-122.308	105.851	104.7489	-259.2192	24.84	24.27471	100	0	57	-46.27665	-9.13395	120.2444	
13:18:23	47.46406	-122.3079	105.029	104.4559	-254.7223	24.91	24.27471	100	0	58	-46.47307	-8.946489	115.4776	
13:18:23	47.46404	-122.3079	104.533	104.0677	-245.5334	24.97	24.295	100	0	59	-46.66887	-8.670525	110.6119	
13:18:24	47.46401	-122.3078	104.055	103.705	-236.461	25.02	24.32928	100	0	60	-46.48434	-8.278474	105.6569	
13:18:24	47.46399	-122.3077	103.363	103.4216	-224.9675	25.13	24.56537	100	0	60	-46.23253	-7.802127	100.6243	
13:18:24	47.46398	-122.3077	102.919	103.1404	-208.216	25.23	24.6468	100	0	61	-46.50517	-7.423731	95.61409	
13:18:24	47.46397	-122.3076	102.583	102.7672	-193.5018	25.29	24.84245	100	0	62	-46.43245	-6.959239	90.60404	
13:18:24	47.46397	-122.3076	102.583	102.4021	-183.3762	25.29	24.90235	100	0	62	-46.21996	-6.462124	85.57319	
13:18:25	47.46397	-122.3075	102.14	102.0861	-171.7194	25.41	24.90235	100	0	63	-46.08204	-5.982989	80.59774	
13:18:25	47.46398	-122.3074	101.367	101.7821	-157.9879	25.6	24.91581	100	0	64	-46.08505	-5.570812	75.60818	
13:18:25	47.46399	-122.3073	100.991	101.459	-146.6172	25.71	25.10772	100	0	64	-46.62862	-5.288585	70.68859	
13:18:25	47.46399	-122.3073	100.991	101.1672	-137.8673	25.71	25.49896	100	0	66	-46.72168	-4.841332	65.68773	
13:18:25	47.46401	-122.3073	100.588	100.8881	-127.93	25.83	25.49896	100	0	66	-44.95174	-4.017905	60.62522	
13:18:26	47.46404	-122.3072	99.998	100.6083	-111.6656	26	25.61802	100	0	66	-43.12512	-3.534268	55.76651	
13:18:26	47.46404	-122.3072	99.998	100.3235	-91.97672	26	25.53488	100	0	65	-36.10321	-2.766779	51.29673	
13:18:26	47.46407	-122.3071	99.593	100.0976	-57.53583	26.14	25.53488	100	0	60	-28.79477	-1.721335	47.26755	
13:18:26	47.46413	-122.307	98.948	99.93421	-0.7952005	26.42	25.68671	100	0	57	-21.46001	-0.5778663	44.18765	
13:18:26	47.46417	-122.3069	98.769	99.84285	63.80653	26.51	25.99644	100	0	55	-14.05509	-0.02337612	42.53608	
13:18:27	47.46417	-122.3069	98.769	99.81763	95.44495	26.51	26.54233	100	0	54	-6.433667	0.1848995	41.51003	
13:18:27	47.46421	-122.3069	98.746	99.81612	112.0999	26.5	26.54233	100	0	53	1.525763	-0.01813481	40.81271	
13:18:27	47.46425	-122.3069	98.81	99.82651	105.2788	26.43	26.53891	100	0	53	9.608647	-0.5798864	40.44416	
13:18:27	47.46429	-122.3068	98.945	99.81016	80.42991	26.3	26.46596	100	0	54	17.58672	-1.277029	40.68031	
13:18:27	47.46435	-122.3068	99.179	99.77228	47.96803	26.1	26.33526	100	0	55	25.61679	-1.966845	41.76371	
13:18:28	47.46439	-122.3067	99.339	99.69999	8.302551	25.97	26.13278	100	0	57	32.85561	-2.576332	43.27464	
13:18:28	47.46443	-122.3067	99.47	99.59462	-29.94864	25.88	26.00819	100	0	59	37.72448	-3.165506	45.55104	
13:18:28	47.46447	-122.3066	99.476	99.47948	-63.57326	25.82	25.91086	100	0	63	40.93184	-3.633174	48.45588	
13:18:28	47.46447	-122.3066	99.476	99.34706	-88.11967	25.82	25.85109	100	0	65	42.81728	-3.942001	52.06067	
13:18:28	47.4645	-122.3066	99.601	99.1936	-102.9781	25.8	25.85109	100	0	67	43.66001	-3.914449	56.27484	
13:18:29	47.46455	-122.3065	99.591	99.08835	-99.20097	25.84	25.82973	100	0	69	44.62461	-3.784694	60.74008	
13:18:29	47.46458	-122.3065	99.539	98.99888	-83.38264	25.9	25.86781	100	0	70	45.35431	-3.678156	65.35392	
13:18:29	47.46462	-122.3064	99.526	98.95924	-66.36352	26	25.13342	100	0	71	46.11812	-3.640733	70.17979	
13:18:29	47.46464	-122.3063	99.5	98.9562	-48.28153	26.07	25.25455	100	0	71	46.52203	-3.542372	75.24239	
13:18:29	47.46466	-122.3063	99.49	98.98167	-29.46123	26.14	25.34595	100	0	72	46.59723	-3.358472	80.45953	
13:18:30	47.46468	-122.3062	99.545	99.05161	-4.159895	26.2	25.50563	100	0	72	46.58723	-3.175097	85.71014	
13:18:30	47.46469	-122.3062	99.615	99.16724	20.26501	26.24	25.59659	100	0	71	46.58278	-3.073516	91.04734	
13:18:30	47.46471	-122.3061	99.639	99.29499	40.30737	26.27	25.66617	100	0	71	46.55441	-3.118891	96.39484	
13:18:30	47.46471	-122.3059	99.833	99.47104	60.77563	26.28	25.68163	100	0	71	46.65267	-3.286522	101.7005	
13:18:30	47.46471	-122.3059	99.854	99.65432	75.57757	26.28	25.79049	100	0	70	47.13615	-3.546574	107.0763	
13:18:31	47.46469	-122.3058	99.991	99.84159	85.45184	26.28	26.20756	100	0	70	46.79903	-3.662912	112.5906	
13:18:31	47.46469	-122.3058	99.991	100.0121	93.26857	26.28	26.2494	100	0	69	46.55994	-3.790312	118.2647	
13:18:31	47.46468	-122.3057	100.067	100.1817	103.0946	26.26	26.2494	100	0	69	46.3678	-4.022874	124.0202	
13:18:31	47.46465	-122.3056	100.106	100.3624	111.268	26.24	26.13801	100	0	68	46.2604	-4.317161	129.6525	
13:18:31	47.46462	-122.3056	100.16	100.5213	115.6543	26.23	26.18782	100	0	67	46.37312	-4.644365	135.2823	
13:18:32	47.46459	-122.3055	100.177	100.6514	117.3881	26.22	26.29844	100	0	67	46.01031	-4.8847	141.0057	
13:18:32	47.46456	-122.3055	100.124	100.792	117.2591	26.2	26.33133	100	0	66	45.76555	-5.139233	146.7366	
13:18:32	47.46456	-122.3055	100.124	100.8913	117.5998	26.2	26.20668	100	0	66	45.44086	-5.373314	152.5423	
13:18:32	47.46453	-122.3054	100.079	100.9637	118.3808	26.19	26.20668	100	0	65	45.23515	-5.678436	158.3558	
13:18:32	47.46442	-122.3053	99.829	101.0045	116.485	26.21	26.2413	100	0	65	45.33018	-6.040952	164.166	
13:18:33	47.46438	-122.3053	99.644	100.9991	111.1021	26.22	26.20391	100	0	64	45.6997	-6.446961	170.0133	
13:18:33	47.46434	-122.3053	99.422	100.9645	103.5348	26.24	26.26298	100	0	65	45.01157	-6.552047	175.9428	
13:18:33	47.46429	-122.3053	99.095	100.8919	96.89028	26.28	26.64285	100	0	64	43.49718	-6.499469	-178.0254	
13:18:33	47.46424	-122.3053	98.793	100.7794	99.15048	26.33	26.70774	100	0	63	41.84688	-6.375275	-172.125	
13:18:33	47.46424	-122.3053	98.793	100.6572	107.4863	26.33	26.62197	100	0	62	40.24036	-6.17266	-166.3961	
13:18:34	47.46419	-122.3053	98.482	100.512	116.1505	26.39	26.62197	100	0	61	37.66872	-5.875893	-160.9453	
13:18:34	47.46414	-122.3053	98.115	100.3618	127.1739	26.45	26.69722	100	0	60	34.56007	-5.516768	-155.6943	
13:18:34	47.46407	-122.3053	97.65	100.2064	143.6123	26.52	26.63205	100	0	58	31.01021	-5.131592	-150.819	
13:18:34	47.46403	-122.3053	97.37	100.0663	159.4998	26.55	26.72694	100	0	57	28.08037	-4.693155	-146.5013	
13:18:34	47.46399	-122.3054	97.084	99.88538	174.2697	26.57	26.76538	100	0	57	32.51557	-4.484949	-142.3998	
13:18:35	47.46394	-122.3054	96.88	99.69443	170.8626	26.56	26.99346	100	0	59	36.88005	-4.682614	-138.3401	
