Date	Latitude(deg) 	Longitude(deg)	hamsl(m)	hafl(m)	climbrate(cm/s)	GroundSpeed(m/s)	Airspeed(m/s)	Mav_Link(%)	Rssi_Link(%)	Throttle	Roll(deg)	Pitch(deg)	Yaw(deg)
18:35:57	-6.795856	38.98535	127.324	0	0	0.56	0	100	0	0	1.958455	-20.14419	55.10672	
18:35:57	-6.795856	38.98536	127.627	0.1336267	-1.626062	0.56	3	100	0	99	2.288764	-19.88499	54.81381	
18:35:57	-6.795873	38.98539	132.865	-0.05714672	-14.28863	1.09	3	100	0	100	2.685429	-19.09594	54.49966	
18:35:57	-6.795874	38.98539	132.99	-0.21667	-23.2629	0.51	3	100	0	100	1.770481	-19.37296	54.66414	
18:35:57	-6.795874	38.98539	132.99	-0.1905531	-22.01261	0.51	3	100	0	100	1.353165	-19.68474	54.70754	
18:35:58	-6.795874	38.98539	133.082	-0.1672913	-21.30492	0.51	3	100	0	100	1.355201	-19.60711	54.59969	
18:35:58	-6.795874	38.98539	132.912	0.1137765	-6.664974	0.45	3	100	0	100	1.554634	-19.56135	54.44102	
18:35:58	-6.795873	38.9854	132.973	0.3439473	3.899595	0.72	3	100	0	100	1.184802	-19.0657	54.47633	
18:35:58	-6.795873	38.9854	132.973	0.5384851	11.26257	1.11	3	100	0	100	1.608809	-19.54378	54.29279	
18:35:58	-6.795873	38.9854	133.403	0.6247624	12.51342	0.18	3	100	0	100	1.711695	-19.06349	54.15313	
18:35:59	-6.795873	38.9854	133.403	0.6512446	10.4343	0.29	3	100	0	100	1.636653	-18.52413	54.05355	
18:35:59	0	0	0	0.5702485	0.2497571	0	3	100	0	100	1.257731	-18.4188	55.22837	
18:35:59	0	0	0	0.492723	-14.60683	0	3	100	0	100	0.9929672	-18.56225	56.28896	
18:35:59	47.4636	-122.3077	0.021	0.3849033	-28.79522	0.41	3	100	0	100	0.7667577	-18.42145	57.35172	
18:35:59	47.4636	-122.3077	0.021	0.2364552	-45.1237	0.41	3	100	0	100	0.4711611	-18.01543	58.49217	
18:36:00	47.4636	-122.3077	0.021	0.1013406	-57.93721	0.41	3	100	0	100	0.03453894	-17.26162	59.63526	
18:36:00	47.4636	-122.3077	0.021	-0.02998478	-68.42849	0.41	3	100	0	100	-0.4217908	-16.47411	60.91552	
18:36:00	47.4636	-122.3077	0.021	-0.1570657	-76.77483	0.41	3	100	0	100	-0.8711911	-15.67843	62.27364	
18:36:00	47.4636	-122.3077	0.021	-0.2725281	-82.79725	0.41	3	100	0	100	-1.272399	-14.9204	63.58308	
18:36:00	47.4636	-122.3077	0.021	-0.3758052	-86.76315	0.41	3	100	0	100	-1.614911	-14.18985	64.79443	
18:36:01	47.4636	-122.3077	0.021	-0.4564087	-88.73714	0.41	3	100	0	100	-1.820887	-13.48273	65.52232	
18:36:01	47.4636	-122.3077	0.021	-0.5399484	-89.35848	0.41	3	100	0	100	-1.929207	-12.78954	65.85881	
18:36:01	47.4636	-122.3077	0.021	-0.6005506	-88.40699	0.41	3	100	0	100	-1.972466	-12.10195	65.91068	
18:36:01	47.4636	-122.3077	0.021	-0.6470425	-86.19794	0.41	3	100	0	100	-2.208655	-11.41294	67.01369	
18:36:01	47.4636	-122.3077	0.021	-0.6771976	-83.27721	0.41	3	100	0	100	-2.413789	-10.75962	68.0714	
18:36:02	47.4636	-122.3077	0.021	-0.6996532	-78.74033	0.41	3	100	0	100	-2.617002	-10.16345	69.24412	
18:36:02	47.4636	-122.3077	0.021	-0.7071691	-74.37029	0.41	3	100	0	100	-2.800014	-9.602916	70.41383	
18:36:02	47.4636	-122.3077	0.021	-0.7043647	-68.57331	0.41	3	100	0	100	-2.961638	-9.065983	71.57248	
18:36:02	47.4636	-122.3077	0.021	-0.6916325	-62.86572	0.41	3	100	0	100	-3.088748	-8.552884	72.61509	
18:36:02	47.4636	-122.3077	0.021	-0.6706042	-56.97352	0.41	3	100	0	100	-3.204846	-8.058726	73.6864	
18:36:03	47.4636	-122.3077	0.021	-0.6448484	-51.42856	0.41	3	100	0	100	-3.28884	-7.587296	74.62997	
18:36:03	47.4636	-122.3077	0.021	-0.6074489	-44.79684	0.41	3	100	0	100	-3.360436	-7.140983	75.55923	
18:36:03	47.4636	-122.3077	0.021	-0.5689282	-38.92603	0.41	3	100	0	4	-3.427104	-6.704744	76.53246	
18:36:03	47.4636	-122.3077	0.021	-0.5262779	-33.1286	0.41	3	100	0	5	-3.47689	-6.290622	77.44923	
18:36:03	47.4636	-122.3077	0.021	-0.48126	-27.57605	0.41	3	100	0	4	-3.516412	-5.894276	78.35418	
18:36:04	47.4636	-122.3077	0.021	-0.4334677	-22.16706	0.41	3	100	0	4	-3.539835	-5.524177	79.16417	
18:36:04	47.4636	-122.3077	0.021	-0.3905003	-17.65082	0.41	3	100	0	4	-3.556868	-5.170852	79.96903	
18:36:04	47.4636	-122.3077	0.021	-0.3383131	-12.5332	0.41	3	100	0	5	-3.565608	-4.827168	80.75872	
18:36:04	47.4636	-122.3077	0.021	-0.2896869	-8.083796	0.41	3	100	0	4	-3.563501	-4.507264	81.46485	
18:36:04	47.4636	-122.3077	0.021	-0.2436305	-4.130397	0.41	3	100	0	4	-3.55646	-4.200524	82.16355	
18:36:05	47.4636	-122.3077	0.021	-0.1979523	-0.4404305	0.41	3	100	0	4	-3.541463	-3.912708	82.79176	
18:36:05	47.4636	-122.3077	0.021	-0.1586471	2.55551	0.41	3	100	0	3	-3.537966	-3.522976	83.80247	
18:36:05	47.4636	-122.3077	0.021	-0.1138199	5.79688	0.41	3	100	0	4	-3.524924	-3.137519	84.7934	
18:36:05	47.4636	-122.3077	0.021	-0.07565713	8.417847	0.41	3	100	0	4	-3.502879	-2.76807	85.74045	
18:36:05	47.4636	-122.3077	0.021	-0.04350507	10.52165	0.41	3	100	0	4	-3.45828	-2.123954	86.59634	
18:36:06	47.4636	-122.3077	0.021	-0.01079104	12.16131	0.41	3	100	0	5	-3.394636	-0.9308358	87.2524	
18:36:06	47.4636	-122.3077	0.021	0.0216706	13.49909	0.42	3	100	0	4	-3.329561	-0.2542452	87.7197	
18:36:06	47.4636	-122.3077	0.02	0.04843546	15.70878	0.43	3	100	0	5	-3.246588	-0.3017765	88.05779	
18:36:06	47.4636	-122.3077	0.02	0.07276458	16.01941	0.43	3	100	0	4	-3.183067	-0.5535332	88.2772	
18:36:06	47.4636	-122.3077	0.02	0.0932713	16.5433	0.45	3	100	0	4	-3.128178	-0.474885	88.4099	
18:36:07	47.4636	-122.3077	0.02	0.1109023	17.13644	0.46	3	100	0	5	-3.05348	-0.0791559	88.46542	
18:36:07	47.4636	-122.3077	0.02	0.1270767	18.21398	0.47	3	100	0	4	-3.014346	0.3472762	88.42652	
18:36:07	47.4636	-122.3077	0.02	0.1401268	18.13537	0.5	3	100	0	4	-2.967986	0.5492783	88.31723	
18:36:07	47.4636	-122.3077	0.02	0.1521657	17.8863	0.51	3	100	0	4	-2.940682	0.5686658	88.13805	
18:36:07	47.4636	-122.3077	0.02	0.1609035	17.98198	0.53	3	100	0	4	-2.883227	0.6196553	87.90221	
18:36:08	47.4636	-122.3077	0.02	0.1672709	17.57091	0.54	3	100	0	4	-2.860576	0.764531	87.60893	
18:36:08	47.4636	-122.3077	0.021	0.1733319	18.27557	0.57	3	100	0	47	-2.85141	0.9710743	87.27248	
18:36:08	47.4636	-122.3077	0.021	0.1791427	18.07642	0.57	3	100	0	71	-2.897189	1.139856	86.89861	
18:36:08	47.4636	-122.3077	0.02	0.1834289	18.3126	0.58	3	100	0	79	-2.939513	1.288264	86.47426	
18:36:08	47.4636	-122.3077	0.02	0.1867528	17.68245	0.68	3	100	0	90	-3.024361	1.53223	85.99435	
18:36:09	47.4636	-122.3077	0.021	0.1895312	18.59194	0.91	3	100	0	99	-3.016433	1.993661	85.43925	
18:36:09	47.4636	-122.3077	0.021	0.1936481	20.25466	1.43	3	100	0	99	-2.938995	2.55869	84.76163	
18:36:09	47.4636	-122.3077	0.021	0.2035316	23.93968	2.38	3	100	0	99	-2.709936	2.963799	83.93386	
18:36:09	47.4636	-122.3077	0.022	0.2163009	27.89577	4.54	3	100	0	99	-2.564843	2.769994	84.2301	
18:36:09	47.4636	-122.3077	0.023	0.2369102	31.30471	6.12	4.728529	100	0	99	-2.529315	2.42368	85.88624	
18:36:10	47.4636	-122.3076	0.023	0.255108	33.47108	7.64	6.317802	100	0	99	-2.388571	2.760393	88.18771	
18:36:10	47.4636	-122.3076	0.024	0.2790548	36.67418	8.95	7.834394	100	0	99	-2.153378	2.962363	90.47211	
18:36:10	47.4636	-122.3076	0.026	0.3006321	39.98268	10.25	9.142838	100	0	99	-1.896321	2.96288	92.3825	
18:36:10	47.4636	-122.3076	0.026	0.3303142	44.08631	11.43	10.43224	100	0	99	-1.614057	3.155919	93.73843	
18:36:10	47.4636	-122.3075	0.029	0.3547158	45.31925	13.17	11.60478	100	0	99	-1.302564	3.341867	94.54321	
18:36:11	47.4636	-122.3075	0.029	0.3822133	48.86057	13.17	13.3317	100	0	99	-1.084657	3.073856	95.16247	
18:36:11	47.4636	-122.3075	0.028	0.4103914	51.3428	14.26	13.3317	100	0	99	-0.187981	4.370451	95.54386	
18:36:11	47.4636	-122.3074	0.029	0.4391166	62.30472	15.16	14.41957	100	0	99	1.808289	9.317856	94.77425	
18:36:11	47.4636	-122.3074	0.054	0.5283618	116.8084	16.44	15.31947	100	0	99	6.757158	16.34965	94.26884	
18:36:11	47.4636	-122.3073	0.231	0.8312184	298.1434	16.91	16.60078	100	0	99	11.20144	21.72551	95.61186	
18:36:12	47.4636	-122.3073	0.719	1.424002	468.3268	16.88	17.06266	100	0	99	15.41027	23.92262	99.01441	
18:36:12	47.4636	-122.3072	1.68	2.193245	558.5278	16.68	17.03118	100	0	99	20.12845	25.00041	103.2328	
18:36:12	47.4636	-122.3072	2.739	2.9874	595.8242	16.63	16.82106	100	0	99	24.23603	26.14977	107.2665	
18:36:12	47.4636	-122.3072	2.739	3.90851	623.7219	16.63	16.25257	100	0	99	26.55179	27.25381	110.8969	
18:36:13	47.46359	-122.3071	4.496	4.775043	643.6429	16.58	16.25257	100	0	99	27.75924	28.04715	114.718	
18:36:13	47.46358	-122.3071	5.923	5.974839	666.5207	16.49	16.17346	100	0	99	26.87176	28.44925	118.7878	
18:36:13	47.46357	-122.307	7.215	7.198273	684.386	16.4	16.06264	100	0	99	22.94316	28.79002	122.4746	
18:36:13	47.46356	-122.307	8.75	8.237534	696.4194	16.28	15.83721	100	0	99	17.57538	29.12118	125.433	
18:36:13	47.46355	-122.307	10.211	9.583282	711.8414	16.15	15.70397	100	0	99	11.80451	29.38006	127.6735	
18:36:14	47.46354	-122.3069	11.832	10.86886	722.0338	16.01	15.56219	100	0	99	4.951323	29.29772	128.5762	
18:36:14	47.46351	-122.3069	14.272	12.14015	720.1476	15.87	15.40974	100	0	98	-2.851472	28.88814	128.5661	
18:36:14	47.4635	-122.3068	15.914	13.59873	724.2358	15.88	15.26618	100	0	99	-11.23601	28.278	128.0856	
18:36:14	47.46349	-122.3068	17.365	15.31989	716.1859	15.96	15.27871	100	0	99	-20.26583	27.57583	126.8396	
18:36:14	47.46347	-122.3068	19.077	16.78719	696.3947	16.13	15.36064	100	0	99	-29.08434	26.86841	124.9451	
18:36:15	47.46347	-122.3068	19.077	18.22888	668.3699	16.13	15.54043	100	0	99	-35.88291	26.49579	121.6928	
18:36:15	47.46346	-122.3067	21.225	19.60142	643.1738	16.5	15.54043	100	0	99	-41.23208	26.48531	117.0475	
18:36:15	47.46344	-122.3066	22.8	21.0698	634.7629	16.81	15.92506	100	0	99	-45.04782	26.72742	111.4464	
18:36:15	47.46344	-122.3066	24.12	22.49592	633.5739	17.02	16.24858	100	0	99	-47.81456	27.12062	105.051	
18:36:15	47.46343	-122.3066	25.477	23.75194	633.8825	17.21	16.48468	100	0	99	-49.79614	27.5428	98.16537	
18:36:16	47.46343	-122.3065	27.466	25.22152	635.2407	17.45	16.70795	100	0	99	-51.54083	27.88504	90.70676	
18:36:16	47.46343	-122.3064	28.896	26.59861	637.814	17.6	16.70222	100	0	99	-53.35157	28.07042	82.851	
18:36:16	47.46344	-122.3064	30.019	27.81738	635.7186	17.72	16.91663	100	0	99	-54.4563	28.32468	74.83891	
18:36:16	47.46345	-122.3064	31.294	29.32583	633.6182	17.87	17.15104	100	0	99	-54.78239	28.69692	66.94766	
18:36:16	47.46346	-122.3063	32.554	30.55367	632.705	17.98	17.36839	100	0	98	-55.00268	29.07717	58.95589	
18:36:17	47.46348	-122.3063	33.721	31.97649	631.2426	18.07	17.42839	100	0	99	-55.24447	29.30532	51.13884	
18:36:17	47.46348	-122.3063	33.721	33.25429	626.749	18.07	17.5922	100	0	99	-55.16988	29.37146	43.56453	
18:36:17	47.46352	-122.3062	35.921	34.2738	613.9427	18.2	17.5922	100	0	101	-55.25012	29.51598	35.91796	
18:36:17	47.46354	-122.3062	37.298	35.85975	615.3522	18.28	17.79224	100	0	99	-54.94574	29.6645	28.63014	
18:36:17	47.46357	-122.3062	38.707	37.12099	614.2888	18.34	17.96474	100	0	99	-54.20169	29.88658	21.74657	
18:36:18	47.4636	-122.3062	40.135	38.59472	612.1417	18.38	18.27012	100	0	99	-53.33117	30.18363	15.1965	
18:36:18	47.46363	-122.3061	41.644	39.69108	605.2009	18.39	18.38188	100	0	99	-52.44884	30.32473	9.102114	
18:36:18	47.46367	-122.3061	43.001	41.23528	606.1255	18.39	18.42251	100	0	99	-51.42544	30.32005	3.513606	
18:36:18	47.46371	-122.3061	45.249	42.54679	599.4077	18.4	18.48002	100	0	99	-50.31295	30.31511	-1.650476	
18:36:18	47.46374	-122.3061	46.733	43.86434	592.3922	18.41	18.47953	100	0	99	-49.62212	30.32531	-6.756207	
18:36:19	47.46374	-122.3061	46.733	45.29498	597.1398	18.41	18.54032	100	0	99	-48.39377	30.30721	-11.26891	
18:36:19	47.46378	-122.3062	48.379	46.94596	599.006	18.42	18.54032	100	0	99	-47.16913	30.34804	-15.536	
18:36:19	47.46381	-122.3062	50.045	48.21298	595.4028	18.43	18.59819	100	0	99	-46.26104	30.27435	-19.54461	
18:36:19	47.46385	-122.3062	52.486	49.77873	592.8297	18.46	18.67459	100	0	99	-45.46654	30.1265	-23.34866	
18:36:19	47.46389	-122.3062	54.367	51.30748	592.9353	18.48	18.75505	100	0	99	-44.48259	29.99465	-26.94479	
18:36:20	47.46391	-122.3062	56.081	52.87587	596.0854	18.53	18.81808	100	0	99	-41.82407	29.94548	-30.38315	
18:36:20	47.46394	-122.3063	57.826	54.41117	599.3028	18.59	18.89025	100	0	99	-34.90116	30.17715	-33.22322	
18:36:20	47.46398	-122.3063	60.523	55.9295	612.4959	18.65	19.09921	100	0	99	-26.94403	30.62163	-35.43649	
18:36:20	47.464	-122.3063	62.191	57.4825	640.2474	18.64	19.19375	100	0	99	-18.69375	30.78253	-36.55945	
18:36:20	47.46403	-122.3064	64.019	59.267	667.7347	18.64	19.19216	100	0	99	-9.320329	30.00206	-36.27471	
18:36:21	47.46405	-122.3064	65.833	61.14359	679.002	18.73	19.20504	100	0	97	0.7936018	26.96892	-34.86361	
18:36:21	47.46409	-122.3065	68.417	62.93009	636.0248	19.28	19.2985	100	0	99	11.22728	21.91804	-33.38402	
18:36:21	47.46409	-122.3065	68.417	64.62526	527.2825	19.28	19.8491	100	0	99	21.28848	16.16727	-32.39071	
18:36:21	47.46412	-122.3065	69.93	66.18198	387.1381	20	19.8491	100	0	99	25.4971	11.69887	-31.87407	
18:36:21	47.46414	-122.3065	71.02	67.54967	233.4761	20.74	20.56061	100	0	95	21.59503	9.1945	-31.33993	
18:36:22	47.46416	-122.3066	71.724	68.46597	139.4255	21.44	21.05407	100	0	80	16.81598	6.714599	-29.89275	
18:36:22	47.4642	-122.3066	72.129	69.1196	68.57312	22.13	21.75592	100	0	64	13.39384	4.095615	-27.34961	
18:36:22	47.46422	-122.3067	72.283	69.71074	-6.132653	22.73	22.43866	100	0	60	11.4591	1.979532	-24.97125	
18:36:22	47.46427	-122.3067	72.042	70.09897	-72.31968	23.25	23.0249	100	0	60	10.63443	0.5362073	-23.30575	
18:36:22	47.4643	-122.3068	71.681	70.31774	-126.0038	23.44	22.91806	100	0	59	10.98981	-0.4809701	-22.09394	
18:36:23	47.46433	-122.3068	71.177	70.36709	-152.1834	23.66	23.09072	100	0	59	11.28899	-1.160338	-20.5445	
18:36:23	47.46436	-122.3069	70.469	70.27907	-163.9726	23.98	23.29069	100	0	59	13.79269	-1.675338	-18.51606	
18:36:23	47.4644	-122.3069	69.738	70.08486	-166.3784	24.31	23.5853	100	0	59	16.67928	-2.132285	-16.37388	
18:36:23	47.46444	-122.3069	68.899	69.84552	-163.6051	24.69	23.90051	100	0	58	18.54121	-2.495373	-14.40738	
18:36:23	47.46447	-122.307	68.148	69.43074	-164.2366	25.03	24.24702	100	0	57	22.61522	-2.698211	-12.23486	
18:36:24	47.46451	-122.307	67.326	69.00665	-155.3474	25.36	24.19731	100	0	57	29.22085	-2.628773	-9.443589	
18:36:24	47.46455	-122.307	66.606	68.60892	-142.1008	25.68	24.48217	100	0	58	31.01805	-2.36784	-6.118254	
18:36:24	47.46455	-122.307	66.606	68.1484	-116.6662	25.68	24.74971	100	0	57	31.03757	-1.94069	-2.457761	
18:36:24	47.46459	-122.3071	65.777	67.65034	-72.73192	26.04	24.74971	100	0	58	32.77924	-1.658543	1.161767	
18:36:24	47.46465	-122.3071	64.658	67.22254	-38.22028	26.49	25.03327	100	0	57	30.99992	-1.853873	4.238454	
18:36:25	47.4647	-122.3072	64.072	66.84296	-23.52025	26.74	25.13752	100	0	57	27.82983	-2.070573	7.042186	
18:36:25	47.46475	-122.3072	63.475	66.31949	-14.97466	26.94	25.3182	100	0	58	26.4931	-2.127701	9.798164	
18:36:25	47.46481	-122.3072	62.823	65.84041	-7.155542	27.19	25.45678	100	0	58	25.72558	-2.084516	12.20125	
18:36:25	47.46486	-122.3072	62.331	65.37151	-0.8017151	27.34	25.64191	100	0	58	24.40174	-2.112921	14.44709	
18:36:25	47.46486	-122.3072	62.331	64.89862	4.30698	27.34	25.99124	100	0	57	22.79164	-1.952416	16.64683	
18:36:26	47.46492	-122.3072	61.98	64.43719	11.23424	27.47	25.99124	100	0	57	24.09474	-1.795253	18.8964	
18:36:26	47.46499	-122.3072	61.459	64.02915	19.49426	27.61	26.07698	100	0	58	24.69011	-1.851307	20.97072	
18:36:26	47.46504	-122.3073	61.272	63.58251	17.82953	27.67	26.16754	100	0	58	22.62931	-1.78825	23.02166	
18:36:26	47.46509	-122.3073	61.022	63.20036	20.32203	27.71	26.19242	100	0	58	18.59561	-1.549716	25.10166	
18:36:26	47.46514	-122.3073	60.877	62.89813	30.95501	27.73	26.20005	100	0	58	13.43452	-1.240894	26.86427	
18:36:27	47.46519	-122.3072	60.743	62.59118	48.01891	27.72	26.28998	100	0	58	9.29437	-0.8578171	27.95246	
18:36:27	47.46527	-122.3072	60.682	62.38953	60.06848	27.65	26.2572	100	0	57	6.317341	-0.6390808	28.49721	
18:36:27	47.46532	-122.3072	60.734	62.20378	66.79915	27.6	26.17009	100	0	57	4.280005	-0.6360202	28.94251	
18:36:27	47.46537	-122.3072	60.746	62.03177	64.55946	27.53	26.10483	100	0	58	3.044643	-0.6223436	29.32197	
18:36:27	47.46543	-122.3072	60.868	61.90786	58.86145	27.44	26.0303	100	0	58	2.355987	-0.5022348	29.52615	
18:36:28	47.46543	-122.3072	60.868	61.80268	54.65658	27.44	25.9434	100	0	58	1.975373	-0.3845443	29.49247	
18:36:28	47.46549	-122.3072	60.96	61.73647	52.59582	27.35	25.9434	100	0	58	1.726989	-0.3071432	29.56541	
18:36:28	47.46553	-122.3072	61.148	61.68694	49.41479	27.29	25.84641	100	0	58	1.621681	-0.2121209	29.65713	
18:36:28	47.46558	-122.3072	61.189	61.66604	47.88369	27.22	25.78378	100	0	57	1.530129	-0.1994716	29.68165	
18:36:28	47.46563	-122.3072	61.366	61.66062	44.63676	27.15	25.71144	100	0	58	1.416616	-0.2606754	29.75369	
18:36:29	47.46568	-122.3072	61.437	61.65775	38.39077	27.09	25.63934	100	0	58	1.317227	-0.2363295	29.85886	
18:36:29	47.46576	-122.3072	61.585	61.67864	33.23524	26.99	25.5763	100	0	57	1.246467	-0.08972998	29.96424	
18:36:29	47.46581	-122.3071	61.589	61.71227	38.85312	26.93	25.47712	100	0	58	1.250334	-0.04362494	30.00237	
18:36:29	47.46586	-122.3071	61.778	61.76326	40.06864	26.87	25.4157	100	0	57	1.221492	-0.09718419	29.96247	
18:36:29	47.4659	-122.3071	61.818	61.80151	35.68459	26.82	25.35332	100	0	57	1.084002	-0.1694418	30.02638	
18:36:30	47.46596	-122.3071	61.977	61.85501	31.50293	26.77	25.29983	100	0	57	0.971216	-0.2299841	30.19477	
18:36:30	47.466	-122.3071	61.969	61.90497	28.35123	26.72	25.24646	100	0	57	2.013669	-0.2351226	30.33152	
18:36:30	47.46605	-122.3071	62.073	61.97639	28.40437	26.68	25.20314	100	0	58	8.964226	-0.2677754	30.47614	
18:36:30	47.46605	-122.3071	62.073	62.02814	28.977	26.68	25.16123	100	0	58	18.86329	-0.3697657	31.02716	
18:36:30	47.46609	-122.3071	62.121	62.08423	21.93559	26.63	25.16123	100	0	57	28.35434	-0.5307982	32.70036	
18:36:31	47.46617	-122.307	62.167	62.11728	12.66987	26.6	25.10727	100	0	58	36.09626	-0.8177028	35.08677	
18:36:31	47.46622	-122.307	62.148	62.13356	-2.901926	26.58	25.05124	100	0	58	41.06708	-1.216013	37.92209	
18:36:31	47.46627	-122.307	62.182	62.10931	-23.56854	26.59	25.01078	100	0	58	43.61303	-1.695945	41.55184	
18:36:31	47.46631	-122.307	62.137	62.06324	-35.6032	26.61	25.18565	100	0	58	44.7079	-2.123208	45.89205	
18:36:31	47.46636	-122.307	61.873	62.01383	-34.86972	26.62	25.19735	100	0	58	44.98564	-2.109265	50.50039	
18:36:32	47.4664	-122.3069	61.728	61.97963	-22.9837	26.63	25.21419	100	0	58	44.18562	-1.960753	55.15879	
18:36:32	47.46647	-122.3069	61.464	61.93563	-2.204582	26.63	25.08815	100	0	58	38.80766	-1.644192	59.71966	
18:36:32	47.46647	-122.3069	61.464	61.92579	36.66839	26.63	25.11621	100	0	57	31.50078	-1.216066	63.82189	
18:36:32	47.46654	-122.3068	61.115	61.95584	87.66215	26.54	25.11621	100	0	53	23.59427	0.1590838	67.14517	
18:36:32	47.46654	-122.3068	61.115	62.04888	138.9292	26.54	25.03435	100	0	49	19.06319	0.7925792	69.09388	
18:36:33	47.46657	-122.3067	61.103	62.16383	170.3678	26.44	25.03435	100	0	42	12.59273	0.752248	70.41667	
18:36:33	47.4666	-122.3067	61.166	62.28049	175.5883	26.3	24.97128	100	0	38	3.864354	0.4063308	71.49721	
18:36:33	47.46664	-122.3066	61.358	62.39299	157.6092	26.02	24.85853	100	0	38	-4.873582	0.01742132	72.12144	
18:36:33	47.46667	-122.3065	61.399	62.47012	131.0455	25.76	24.61528	100	0	37	-13.62296	-0.08608817	71.9613	
18:36:33	47.4667	-122.3065	61.594	62.4866	103.4577	25.48	24.35803	100	0	38	-22.50126	0.8010262	70.85205	
18:36:34	47.46672	-122.3064	61.538	62.49997	105.133	25.2	24.07933	100	0	38	-29.75336	2.677464	68.41163	
18:36:34	47.46677	-122.3064	61.729	62.55522	144.9512	24.71	23.79516	100	0	38	-34.58361	4.774518	64.82799	
18:36:34	47.4668	-122.3063	62.048	62.70183	192.1182	24.3	23.2668	100	0	38	-38.47189	6.881543	60.02782	
18:36:34	47.46683	-122.3063	62.434	62.95641	236.4556	23.85	22.816	100	0	38	-41.08371	8.494986	54.93414	
18:36:35	47.46686	-122.3062	62.976	63.24043	264.4657	23.38	22.31537	100	0	38	-43.02079	9.621601	49.90434	
18:36:35	47.4669	-122.3062	63.468	63.62991	274.4813	22.89	21.80833	100	0	38	-44.51968	10.21063	45.24696	
18:36:35	47.46693	-122.3062	64.28	64.04128	262.453	22.47	21.29035	100	0	38	-45.37175	9.949988	41.13207	
18:36:35	47.46697	-122.3061	64.971	64.41888	225.2017	22.07	20.85162	100	0	38	-45.36588	8.292233	38.26157	
18:36:35	47.46697	-122.3061	64.971	64.74253	148.1613	22.07	20.54844	100	0	38	-44.94188	5.59268	36.35418	
18:36:36	47.46701	-122.3061	65.488	64.94782	49.60542	21.82	20.54844	100	0	38	-43.99056	2.51634	34.66167	
18:36:36	47.46705	-122.3061	65.982	64.99873	-82.57429	21.69	20.30615	100	0	38	-43.01326	-0.3694766	32.67349	
18:36:36	47.4671	-122.3061	66.195	64.85461	-194.4099	21.59	20.18923	100	0	38	-42.41442	-2.703368	30.43848	
18:36:36	47.46714	-122.306	66.125	64.66952	-273.1501	21.59	20.12696	100	0	38	-41.98368	-4.472447	27.71426	
18:36:36	47.46717	-122.306	65.692	64.3385	-344.2579	21.63	20.15052	100	0	38	-41.49697	-5.570863	24.27647	
18:36:37	47.46724	-122.306	64.861	63.96015	-382.2296	21.79	20.21377	100	0	37	-41.20922	-5.994161	20.74568	
18:36:37	47.46728	-122.306	64.074	63.51999	-401.1091	21.97	20.44412	100	0	37	-41.3362	-5.987889	17.08321	
18:36:37	47.46728	-122.306	64.074	63.01149	-410.0713	21.97	20.56155	100	0	37	-41.04969	-5.907309	13.22701	
18:36:37	47.46732	-122.306	63.001	62.485	-413.0569	22.16	20.56155	100	0	38	-40.71514	-5.794582	9.243688	
18:36:37	47.46738	-122.306	61.283	61.8961	-413.7068	22.48	20.81301	100	0	37	-41.05799	-5.67379	5.315684	
18:36:38	47.46743	-122.306	59.945	61.03287	-426.7612	22.73	21.24386	100	0	37	-41.50539	-5.565382	1.540767	
18:36:38	47.46746	-122.306	58.695	60.03423	-447.4917	22.96	21.57506	100	0	38	-41.54753	-5.394103	-2.143273	
18:36:38	47.46751	-122.3061	57.546	59.03984	-465.525	23.18	21.89636	100	0	38	-41.46634	-5.226464	-5.914057	
18:36:38	47.46754	-122.3061	56.385	58.04193	-479.3248	23.42	22.19561	100	0	38	-41.29952	-4.981475	-9.610717	
18:36:38	47.46758	-122.3061	55.205	56.86109	-499.4906	23.64	22.5295	100	0	37	-41.17609	-4.64402	-13.28217	
18:36:39	47.46762	-122.3062	54.133	55.70612	-512.6252	23.86	22.82913	100	0	37	-41.25549	-4.29674	-16.82993	
18:36:39	47.46767	-122.3062	52.391	54.5391	-524.0789	24.2	23.11386	100	0	37	-41.24111	-3.991766	-20.20555	
18:36:39	47.46767	-122.3062	52.391	53.32849	-538.0377	24.2	23.49687	100	0	38	-41.4694	-3.728066	-23.48666	
18:36:39	47.46771	-122.3062	51.168	52.27428	-550.1829	24.44	23.49687	100	0	38	-41.58771	-3.525486	-26.73892	
18:36:39	47.46775	-122.3063	49.992	50.96271	-565.7696	24.65	23.81146	100	0	38	-41.64201	-3.286592	-29.88385	
18:36:40	47.46777	-122.3063	49	49.76253	-579.7891	24.84	24.09698	100	0	38	-41.57039	-3.046941	-32.95826	
18:36:40	47.46777	-122.3063	49	48.6061	-589.1543	24.84	24.35721	100	0	37	-40.66907	-2.861424	-35.95555	
18:36:40	47.46781	-122.3064	47.847	47.48185	-594.7272	25.06	24.4826	100	0	37	-40.21012	-2.6101	-38.88944	
18:36:40	47.46787	-122.3065	45.31	46.44131	-597.687	25.5	24.76286	100	0	38	-40.89491	-2.327807	-41.74052	
18:36:40	47.4679	-122.3066	44.211	45.09347	-607.7862	25.69	25.35455	100	0	38	-41.96796	-1.917479	-44.62038	
18:36:41	47.46792	-122.3066	43.253	43.9564	-610.6363	25.85	25.60607	100	0	37	-42.05984	-0.9732806	-48.06012	
18:36:41	47.46794	-122.3067	42.239	42.98185	-591.6215	26.04	25.93896	100	0	38	-41.90693	0.2563759	-51.69361	
18:36:41	47.46794	-122.3067	42.239	41.79157	-553.844	26.04	26.1909	100	0	38	-41.88939	1.252749	-55.0992	
18:36:41	47.46798	-122.3069	40.313	40.84082	-522.241	26.45	26.1909	100	0	38	-40.59899	1.978867	-58.11083	
18:36:41	47.46799	-122.3069	39.694	40.04382	-497.5087	26.53	26.72431	100	0	37	-41.64198	2.640183	-60.93962	
18:36:42	47.46799	-122.3069	39.694	39.09095	-485.7474	26.53	26.88257	100	0	31	-42.31158	2.837447	-63.40564	
18:36:42	47.46799	-122.307	39.225	38.30406	-493.6986	26.57	26.88257	100	0	8	-42.12656	2.690148	-65.61423	
18:36:42	47.468	-122.3071	38.753	37.62365	-510.3171	26.58	26.95071	100	0	4	-41.64625	2.476278	-67.47869	
18:36:42	47.468	-122.3072	38.259	36.83985	-536.4763	26.52	26.99174	100	0	4	-40.99573	2.21083	-69.31168	
18:36:42	47.468	-122.3072	38.259	36.2168	-555.541	26.52	26.95863	100	0	4	-39.88046	1.482319	-71.28995	
18:36:43	47.468	-122.3073	37.548	35.51868	-572.6237	26.2	26.95863	100	0	4	-39.54443	0.6073051	-73.47901	
18:36:43	47.46799	-122.3073	36.938	34.74224	-593.1467	25.91	26.66461	100	0	4	-39.93644	1.006657	-75.79768	
18:36:43	47.46799	-122.3074	36.313	33.99057	-590.8682	25.68	26.39966	100	0	4	-40.06507	2.789617	-79.19688	
18:36:43	47.46798	-122.3075	35.671	33.3588	-524.579	25.48	26.18071	100	0	5	-40.13899	6.068558	-84.12327	
18:36:43	47.46797	-122.3076	34.777	32.94114	-393.6238	25.3	25.99857	100	0	4	-40.78137	9.652729	-89.74106	
18:36:44	47.46796	-122.3076	34.385	32.69213	-247.2954	25.19	25.67276	100	0	4	-42.57071	12.93175	-95.29634	
18:36:44	47.46794	-122.3077	34.314	32.67307	-130.2861	24.89	25.60586	100	0	4	-44.06624	14.77065	-100.2028	
18:36:44	47.46791	-122.3077	34.216	32.81101	-64.46292	24.37	25.03259	100	0	4	-45.23764	15.30194	-104.3647	
18:36:44	47.46788	-122.3078	34.48	32.96123	-50.5546	23.56	24.56048	100	0	4	-45.8387	15.17773	-107.679	
18:36:44	47.46788	-122.3078	34.48	33.11987	-76.57526	23.56	23.80035	100	0	4	-45.86687	14.93887	-110.4614	
18:36:45	47.46786	-122.3079	34.603	33.19156	-114.268	23.04	23.80035	100	0	2	-45.17872	14.32682	-112.6251	
18:36:45	47.46783	-122.3079	34.869	33.21493	-164.3938	22.6	23.64968	100	0	4	-44.33355	13.40782	-114.5877	
18:36:45	47.4678	-122.308	34.953	33.16156	-221.7858	22.17	23.23427	100	0	4	-43.48577	12.24316	-116.5821	
18:36:45	47.46777	-122.308	35.143	33.05449	-266.5221	21.77	22.82598	100	0	6	-42.81661	10.90785	-118.6731	
18:36:45	47.46774	-122.308	35.109	32.88351	-317.1956	21.4	22.45603	100	0	4	-42.38559	9.641442	-120.8036	
18:36:46	47.46771	-122.3081	35.009	32.66269	-359.6378	21.13	22.10749	100	0	4	-42.20547	8.70068	-122.954	
18:36:46	47.46766	-122.3081	34.629	32.39854	-394.9748	20.76	22.05805	100	0	4	-42.00621	8.087871	-125.1813	
18:36:46	47.46762	-122.3081	34.275	32.0464	-421.4287	20.57	21.74482	100	0	4	-41.87334	7.826675	-127.6315	
18:36:46	47.46759	-122.3082	33.74	31.71856	-435.8949	20.4	21.58833	100	0	4	-41.50819	7.460429	-130.2343	
18:36:46	47.46756	-122.3082	33.251	31.27897	-447.25	20.28	21.45672	100	0	4	-41.2374	7.052124	-133.0946	
18:36:47	47.46751	-122.3082	32.327	30.81584	-455.3403	20.12	21.36168	100	0	4	-41.03996	6.664435	-136.1039	
18:36:47	47.46751	-122.3082	32.327	30.3149	-462.0221	20.12	21.33528	100	0	4	-41.36364	6.522523	-139.3676	
18:36:47	47.46747	-122.3082	31.761	29.83558	-464.526	20.04	21.33528	100	0	4	-41.61644	6.506273	-142.7309	
18:36:47	47.46744	-122.3082	31.219	29.28748	-463.5539	20	21.28454	100	0	4	-41.57102	6.592611	-146.2008	
18:36:47	47.46741	-122.3082	30.46	28.74532	-456.4178	19.93	21.26375	100	0	4	-41.32297	6.768101	-149.6853	
18:36:48	47.46735	-122.3083	29.35	28.27253	-445.9866	19.86	21.22927	100	0	4	-41.35454	7.175756	-153.3556	
18:36:48	47.46732	-122.3083	28.718	27.60871	-435.7485	19.82	21.11966	100	0	4	-40.25566	7.690726	-157.1205	
18:36:48	47.46728	-122.3083	27.984	27.07922	-422.9469	19.75	21.09171	100	0	15	-34.39723	8.253264	-160.7094	
18:36:48	47.46722	-122.3082	26.898	26.55269	-393.5636	19.62	21.03587	100	0	26	-27.39099	8.684602	-164.2556	
18:36:48	47.46719	-122.3082	26.278	25.98956	-352.0681	19.55	20.93684	100	0	27	-21.2058	9.431702	-167.092	
18:36:49	47.46715	-122.3082	25.763	25.50488	-315.293	19.5	20.86394	100	0	27	-15.69218	10.1466	-168.199	
18:36:49	47.46715	-122.3082	25.763	25.11759	-285.1611	19.5	20.81016	100	0	26	-9.848646	10.45634	-168.187	
18:36:49	47.46711	-122.3082	25.226	24.70364	-261.0864	19.48	20.81016	100	0	27	-2.486611	10.01425	-167.4371	
18:36:49	47.46708	-122.3082	24.863	24.32933	-251.1225	19.48	20.79663	100	0	27	2.7142	8.941659	-166.7792	
18:36:49	47.46704	-122.3081	24.492	23.95165	-263.9553	19.5	20.78666	100	0	26	2.769919	7.781098	-166.2502	
18:36:50	47.46701	-122.3081	24.133	23.55281	-278.3127	19.53	20.80905	100	0	27	1.766397	6.714574	-165.803	
18:36:50	47.46696	-122.3081	23.323	23.20855	-285.5313	19.64	20.84404	100	0	26	0.1622256	5.587649	-165.3823	
18:36:50	47.46693	-122.3081	22.889	22.66788	-298.3536	19.71	20.95576	100	0	26	-1.767415	4.72494	-165.1147	
18:36:50	47.46689	-122.3081	22.206	22.1646	-302.452	19.83	21.0308	100	0	27	-3.774566	4.618892	-165.1826	
18:36:50	47.46689	-122.3081	22.206	21.67097	-288.4218	19.83	21.14634	100	0	26	-5.113693	5.281011	-165.5678	
18:36:51	47.46685	-122.3081	21.59	21.28888	-252.617	19.95	21.14634	100	0	26	-4.92011	6.420613	-166.0696	
18:36:51	47.46682	-122.3081	20.972	20.91806	-196.8637	20.06	21.26742	100	0	26	-4.254035	7.630173	-166.6337	
18:36:51	47.46674	-122.308	19.591	20.60681	-124.9968	20.23	21.37993	100	0	27	-3.695014	8.658259	-167.0812	
18:36:51	47.4667	-122.308	19.258	20.35736	-74.64195	20.19	21.54348	100	0	26	-3.138665	9.14601	-167.373	
18:36:51	47.4667	-122.308	19.258	20.09056	-31.46662	20.19	21.50194	100	0	26	-2.675824	9.100987	-167.5054	
18:36:52	47.46663	-122.308	18.812	19.89161	-18.90804	20	21.50194	100	0	26	-2.116677	8.760533	-167.6064	
18:36:52	47.46659	-122.308	18.593	19.7011	-19.70222	19.9	21.32021	100	0	26	-1.328069	8.485045	-167.7476	
18:36:52	47.46655	-122.308	18.417	19.50222	-22.91067	19.8	21.21907	100	0	26	-0.2555014	8.314071	-167.9667	
18:36:52	47.46655	-122.308	18.417	19.26889	-24.24366	19.8	21.11429	100	0	26	0.6075637	8.27967	-168.1457	
18:36:52	47.46651	-122.308	18.161	19.07409	-20.42081	19.7	21.11429	100	0	26	1.138171	8.237177	-168.2042	
18:36:53	47.46646	-122.308	17.894	18.87017	-16.44665	19.57	21.01796	100	0	26	1.519948	8.088381	-168.1727	
18:36:53	47.46646	-122.308	17.894	18.69492	-15.17193	19.57	20.88584	100	0	26	1.734162	7.846221	-168.1148	
18:36:53	47.46643	-122.3079	17.753	18.48995	-16.42792	19.49	20.88584	100	0	26	1.891887	7.603333	-168.0634	
18:36:53	47.4664	-122.3079	17.622	18.30911	-18.08595	19.39	20.80131	100	0	26	1.979207	7.408868	-168.084	
18:36:53	47.46632	-122.3079	17.309	18.14829	-18.91225	19.2	20.70253	100	0	27	2.02515	7.337739	-168.1569	
18:36:54	47.46629	-122.3079	17.178	17.99413	-17.89168	19.11	20.50691	100	0	26	2.142829	7.178714	-168.2524	
18:36:54	47.46626	-122.3079	16.994	17.83387	-16.60332	19.02	20.42463	100	0	26	2.173885	6.88862	-168.3856	
18:36:54	47.46622	-122.3079	16.868	17.66652	-19.03329	18.95	20.33341	100	0	26	2.423978	6.550569	-168.518	
18:36:54	47.46617	-122.3079	16.545	17.49494	-24.24725	18.84	20.25439	100	0	24	3.473377	6.074301	-168.5868	
18:36:54	47.46613	-122.3079	16.382	17.31967	-32.59697	18.78	20.1525	100	0	24	3.878508	5.637993	-168.5488	
18:36:55	47.46613	-122.3079	16.382	17.12237	-42.75738	18.78	20.08406	100	0	24	3.206978	5.338696	-168.5566	
18:36:55	47.46609	-122.3079	16.136	16.89958	-51.93755	18.72	20.08406	100	0	24	1.615557	5.216675	-168.728	
18:36:55	47.46606	-122.3079	15.926	16.64589	-53.96468	18.67	20.02656	100	0	24	0.09887156	5.229437	-169.1152	
18:36:55	47.46603	-122.3079	15.657	16.42793	-48.34276	18.61	19.97119	100	0	24	-0.1136002	5.308834	-169.6948	
18:36:55	47.466	-122.3079	15.389	16.25052	-40.98034	18.54	19.91296	100	0	24	0.395989	5.624884	-170.4738	
18:36:56	47.46596	-122.3079	15.283	16.04746	-27.73932	18.48	19.84023	100	0	24	0.7927746	5.990768	-171.4305	
18:36:56	47.46591	-122.3078	14.959	15.87099	-12.24594	18.34	19.77951	100	0	24	0.714565	6.167165	-172.2386	
18:36:56	47.46588	-122.3078	14.777	15.72028	-1.488971	18.23	19.63923	100	0	20	1.037894	6.146284	-172.7752	
18:36:56	47.46584	-122.3078	14.668	15.56732	2.196789	18.13	18.70577	100	0	19	1.530997	5.939963	-173.1634	
18:36:56	47.46581	-122.3078	14.579	15.43345	-0.2851414	18.02	18.60766	100	0	19	2.23689	5.701912	-173.5342	
18:36:57	47.46578	-122.3078	14.48	15.27278	-6.278889	17.9	18.49844	100	0	13	2.93211	5.463843	-173.9623	
18:36:57	47.46575	-122.3078	14.364	15.12212	-12.15199	17.76	18.37572	100	0	4	3.427322	5.20101	-174.3993	
18:36:57	47.46571	-122.3078	14.111	14.97043	-18.88424	17.6	18.24074	100	0	4	4.455036	4.740991	-174.6208	
18:36:57	47.46567	-122.3078	13.947	14.82676	-28.92528	17.32	18.07487	100	0	4	5.207135	4.076952	-174.8085	
18:36:58	47.46564	-122.3078	13.824	14.62945	-45.80731	17.1	17.79533	100	0	4	4.997125	3.098418	-175.0725	
18:36:58	47.46564	-122.3078	13.824	14.36389	-74.39449	17.1	17.57359	100	0	4	4.181588	1.846099	-175.3704	
18:36:58	47.46561	-122.3078	13.559	14.12753	-101.1989	16.92	17.57359	100	0	4	3.411732	0.3875223	-175.7294	
18:36:58	47.46558	-122.3078	13.302	13.82068	-136.9049	16.78	17.3942	100	0	5	2.888247	-0.9683445	-176.1474	
18:36:58	47.46555	-122.3078	12.859	13.43458	-173.3042	16.65	17.24698	100	0	4	3.313813	-1.87375	-176.6615	
18:36:59	47.46552	-122.3078	12.424	12.99557	-200.7575	16.57	17.12275	100	0	5	4.482592	-2.370713	-177.2182	
18:36:59	47.46547	-122.3078	11.675	12.47474	-217.2847	16.52	17.04028	100	0	4	5.526111	-2.308886	-177.6894	
18:36:59	47.46544	-122.3078	11.131	12.02566	-217.9426	16.52	16.98772	100	0	4	5.249894	-1.948715	-177.928	
18:36:59	47.46541	-122.3078	10.573	11.52676	-209.8012	16.52	16.9832	100	0	4	3.7911	-1.340098	-177.9384	
18:36:59	47.46538	-122.3078	9.927	11.01104	-191.0143	16.53	16.98708	100	0	4	2.337034	-0.4175307	-177.8029	
18:37:00	47.46535	-122.3078	9.4	10.57486	-164.7039	16.51	16.9937	100	0	4	1.910631	0.6185468	-177.9371	
18:37:00	47.46532	-122.3078	8.84	10.15156	-135.8957	16.45	16.97377	100	0	4	1.759595	1.866079	-178.4697	
18:37:00	47.46529	-122.3078	8.485	9.714911	-106.2366	16.37	16.91649	100	0	4	1.502815	3.15858	-179.4142	
18:37:00	47.46526	-122.3078	8.137	9.374002	-74.01135	16.23	16.83026	100	0	4	1.075636	4.03383	179.3243	
18:37:00	47.46522	-122.3078	7.794	9.11984	-49.20668	15.99	16.69619	100	0	4	0.660793	4.383732	178.1728	
18:37:01	47.46522	-122.3078	7.794	8.849975	-36.13995	15.99	16.45886	100	0	4	0.6977472	4.559238	177.2182	
18:37:01	47.46519	-122.3078	7.61	8.605992	-34.46867	15.79	16.45886	100	0	4	1.223257	4.439866	176.4073	
18:37:01	47.46516	-122.3078	7.384	8.364897	-36.44209	15.6	16.26147	100	0	4	2.358328	4.300457	175.6668	
18:37:01	47.46516	-122.3078	7.384	8.120088	-42.16742	15.6	15.38614	100	0	5	3.562721	4.106275	174.9908	
18:37:01	47.46513	-122.3078	7.205	7.906063	-49.05346	15.4	15.38614	100	0	4	4.601769	3.869736	174.3837	
18:37:02	47.4651	-122.3077	7.012	7.63737	-58.78274	15.21	15.19193	100	0	4	5.472177	3.658277	173.9602	
18:37:02	47.46508	-122.3077	6.867	7.393799	-66.72604	15.04	15.01203	100	0	4	6.381664	3.509179	173.7781	
18:37:02	47.46503	-122.3077	6.504	7.167743	-72.5429	14.8	14.84581	100	0	4	7.870286	3.640732	173.8714	
18:37:02	47.46501	-122.3077	6.27	6.909358	-74.82238	14.65	14.6025	100	0	4	9.312257	3.949822	174.1452	
18:37:02	47.46498	-122.3077	5.974	6.676185	-73.07361	14.52	14.45314	100	0	4	10.39286	4.250065	174.6036	
18:37:03	47.46495	-122.3077	5.786	6.416791	-68.94044	14.36	14.30923	100	0	4	9.961875	4.517011	175.284	
18:37:03	47.46491	-122.3077	5.486	6.207962	-65.19661	14.14	14.14575	100	0	5	8.522055	4.767441	176.0982	
18:37:03	47.46491	-122.3077	5.486	5.989741	-61.26733	14.14	13.90658	100	0	4	6.275559	5.162353	176.9489	
18:37:03	47.46489	-122.3077	5.289	5.777695	-57.10007	13.97	13.90658	100	0	5	4.128174	5.555736	177.597	
18:37:03	47.46486	-122.3077	5.096	5.557882	-51.80455	13.79	13.72236	100	0	4	2.723045	5.850432	177.8045	
18:37:04	47.46482	-122.3077	4.826	5.382421	-47.34135	13.54	13.53589	100	0	4	2.216882	6.015351	177.2949	
18:37:04	47.4648	-122.3077	4.653	5.206384	-46.96347	13.34	13.27671	100	0	4	2.041414	6.132032	176.2383	
18:37:04	47.46477	-122.3077	4.528	5.023335	-48.53638	13.15	13.07572	100	0	4	1.693721	6.141402	174.9203	
18:37:04	47.46477	-122.3077	4.528	4.842735	-50.82786	13.15	12.88742	100	0	4	1.334884	6.061721	173.5935	
18:37:04	47.46473	-122.3077	4.22	4.65804	-54.40125	12.8	12.88742	100	0	4	1.033733	6.027217	172.4467	
18:37:05	47.46473	-122.3077	4.22	4.473738	-58.28522	12.8	12.54984	100	0	4	1.130463	5.920936	171.573	
18:37:05	47.46471	-122.3077	4.03	4.286108	-61.30522	12.64	12.54984	100	0	4	1.843	5.928645	170.9112	
18:37:05	47.46467	-122.3077	3.808	4.087473	-62.96249	12.42	12.39164	100	0	4	2.664679	6.156111	170.3904	
18:37:05	47.46465	-122.3077	3.6	3.900056	-62.05658	12.28	12.18255	100	0	4	3.480383	6.411451	169.938	
18:37:05	47.46461	-122.3077	3.27	3.747114	-59.15945	12.02	12.05843	100	0	4	4.298731	6.582202	169.5677	
18:37:06	47.46458	-122.3077	3.106	3.560699	-56.33721	11.88	11.81017	100	0	4	5.324439	6.845063	169.3626	
18:37:06	47.46456	-122.3077	2.907	3.390312	-54.40844	11.75	11.6666	100	0	4	6.248764	7.072539	169.3384	
18:37:06	47.46453	-122.3077	2.604	3.23711	-52.74348	11.53	11.53664	100	0	4	6.819359	7.238325	169.4501	
18:37:06	47.46451	-122.3077	2.5	3.077349	-50.96413	11.4	11.31675	100	0	4	6.801	7.426737	169.7354	
18:37:06	47.46449	-122.3077	2.346	2.878382	-51.57887	11.29	11.18606	100	0	5	5.945895	7.548024	170.1549	
18:37:07	47.46449	-122.3077	2.346	2.716451	-51.38475	11.29	11.06703	100	0	5	4.617956	7.737121	170.734	
18:37:07	47.46447	-122.3077	2.138	2.559535	-50.36996	11.13	11.06703	100	0	4	3.527205	8.008308	171.2381	
18:37:07	47.46445	-122.3077	2.008	2.405096	-48.63226	10.99	10.90588	100	0	4	2.988824	8.311942	171.48	
18:37:07	47.46445	-122.3077	2.008	2.244307	-47.09857	10.99	10.76038	100	0	3	3.023114	8.51586	171.3089	
18:37:07	47.4644	-122.3077	1.622	2.100019	-45.93786	10.61	10.76038	100	0	5	3.286418	8.823446	170.8181	
18:37:08	47.4644	-122.3077	1.622	1.941021	-44.0874	10.61	10.3812	100	0	5	3.465583	9.241158	170.0448	
18:37:08	47.46438	-122.3077	1.497	1.795611	-42.44574	10.46	10.3812	100	0	5	3.399105	9.480689	169.2031	
18:37:08	47.46436	-122.3077	1.262	1.657278	-40.59797	10.25	10.23264	100	0	4	3.274971	9.736952	168.4523	
18:37:08	47.46434	-122.3077	1.117	1.510274	-40.59022	10.1	10.02474	100	0	4	3.493468	9.981275	167.8615	
18:37:08	47.4643	-122.3077	0.74	1.350614	-42.29958	9.79	9.876287	100	0	4	4.350997	10.30234	167.4702	
18:37:09	47.46428	-122.3077	0.59	1.201363	-43.64597	9.67	9.575692	100	0	4	5.428185	10.83282	167.2585	
18:37:09	47.46426	-122.3077	0.38	1.019983	-44.38276	9.53	9.448807	100	0	4	6.633663	11.30361	167.2857	
18:37:09	47.46426	-122.3077	0.38	0.8525234	-44.87336	9.53	9.31572	100	0	4	7.681827	11.7237	167.608	
18:37:09	47.46424	-122.3077	0.19	0.684103	-45.41855	9.41	9.31572	100	0	4	2.789185	11.28113	168.2534	
18:37:09	47.46422	-122.3077	0.005	0.7875596	135.0502	9.16	9.187945	100	0	4	3.322462	10.39435	169.4409	
18:37:10	47.4642	-122.3077	0.028	0.8848758	111.0456	8.87	8.931546	100	0	9	4.86694	10.2678	170.3796	
18:37:10	47.46419	-122.3077	0.036	0.9098194	92.25287	8.73	8.643081	100	0	25	4.774355	10.55615	170.9797	
18:37:10	47.46417	-122.3077	0.035	0.9197729	96.39089	8.58	8.489136	100	0	33	4.607366	10.79099	171.2765	
18:37:10	47.46416	-122.3077	0.038	0.9205223	82.13503	8.45	8.325	100	0	38	4.533003	10.63227	171.3918	
18:37:10	47.46414	-122.3077	0.032	0.9105242	80.4909	8.4	8.183064	100	0	34	4.443256	10.4249	171.4242	
18:37:11	47.46414	-122.3077	0.032	0.8793573	71.2975	8.4	8.124841	100	0	20	4.250631	10.49078	171.4106	
18:37:11	47.46412	-122.3077	0.036	0.8655988	82.86134	8.58	8.124841	100	0	15	4.089973	10.8156	171.3844	
18:37:11	47.4641	-122.3077	0.038	0.8731157	88.71981	8.73	8.296338	100	0	5	4.04458	12.57209	171.3923	
18:37:11	47.46408	-122.3077	0.036	0.88351	81.59229	8.81	8.442294	100	0	4	3.908333	14.56325	171.475	
18:37:11	47.46407	-122.3077	0.048	0.8736055	80.59267	8.79	8.520379	100	0	4	3.681717	14.79389	171.4514	
18:37:12	47.46407	-122.3077	0.048	0.8636118	70.3744	8.79	8.499642	100	0	4	3.139204	12.67338	171.0439	
18:37:12	47.46405	-122.3077	0.042	0.8382291	68.42371	8.63	8.499642	100	0	4	4.268322	8.605038	169.733	
18:37:12	47.46403	-122.3077	0.046	0.8073193	54.8988	8.31	8.34016	100	0	5	4.756568	3.46637	167.5861	
18:37:12	47.46401	-122.3077	0.037	0.7726146	63.96011	8.07	8.020421	100	0	4	5.023514	-0.02744703	165.0754	
18:37:12	47.464	-122.3077	0.02	0.7315372	47.27794	7.96	7.783019	100	0	4	5.203156	0.2600911	162.4479	
18:37:13	47.46399	-122.3077	0.024	0.6912664	49.7457	7.87	7.690544	100	0	4	4.901614	3.36827	160.3295	
18:37:13	47.46397	-122.3077	0.017	0.6501466	38.07079	7.73	7.353029	100	0	4	4.468443	4.079635	159.2908	
18:37:13	47.46395	-122.3077	0.024	0.6080575	40.77373	7.62	7.26512	100	0	4	3.803438	2.444796	159.2556	
18:37:13	47.46394	-122.3077	0.022	0.5566689	21.54629	7.44	7.198969	100	0	5	3.111004	0.4366105	160.0314	
18:37:13	47.46392	-122.3077	0.023	0.508507	28.12983	7.35	7.078598	100	0	5	2.566089	0.6192366	161.4037	
18:37:14	47.46391	-122.3077	0.02	0.4510981	13.68746	7.24	6.996735	100	0	4	2.471289	1.48463	162.7957	
18:37:14	47.46391	-122.3077	0.02	0.4013191	20.64678	7.24	6.888915	100	0	5	2.602122	2.152089	164.1437	
18:37:14	47.4639	-122.3077	0.024	0.3598182	9.59294	7.16	6.888915	100	0	4	2.676677	1.348554	165.5901	
18:37:14	47.46388	-122.3077	0.02	0.3165987	13.97874	7.04	6.788053	100	0	4	2.66161	0.9106835	167.3774	
18:37:14	47.46387	-122.3077	0.024	0.2883915	8.518647	6.96	6.646082	100	0	5	2.724957	0.7636179	169.3913	
18:37:15	47.46385	-122.3077	0.021	0.2480375	5.133736	6.81	6.540272	100	0	4	2.736329	1.080087	171.4372	
18:37:15	47.46384	-122.3077	0.023	0.2195848	7.628273	6.71	6.354417	100	0	4	2.853336	1.313045	173.4345	
18:37:15	47.46383	-122.3077	0.019	0.1893945	1.305802	6.62	6.226976	100	0	4	2.838395	0.8116181	175.2638	
18:37:15	47.46381	-122.3077	0.024	0.1629166	4.857427	6.54	6.095087	100	0	5	2.954773	-0.5649747	177.0254	
18:37:15	47.4638	-122.3077	0.019	0.1325944	-5.259808	6.36	5.982482	100	0	5	2.847388	-1.90322	178.6829	
18:37:16	47.46379	-122.3077	0.023	0.1239127	8.762362	5.97	5.543977	100	0	4	2.999549	-0.5790953	-179.5879	
18:37:16	47.46378	-122.3077	0.021	0.1197989	8.281696	5.66	5.127812	100	0	4	3.115029	1.585655	-178.0752	
18:37:16	47.46376	-122.3077	0.021	0.1175377	8.625751	5.59	4.788491	100	0	4	3.377243	2.099697	-177.0994	
18:37:16	47.46375	-122.3077	0.021	0.1166346	9.449933	5.54	4.705412	100	0	4	3.508278	0.846966	-176.6519	
18:37:16	47.46375	-122.3077	0.021	0.1157915	8.979126	5.54	4.635554	100	0	4	3.596145	-0.09743919	-176.363	
18:37:17	47.46375	-122.3077	0.021	0.1144667	8.283336	5.47	4.635554	100	0	4	3.661424	0.1676527	-176.2303	
18:37:17	47.46373	-122.3077	0.021	0.1132627	9.315022	5.43	4.562886	100	0	4	3.744785	0.9972418	-176.3101	
18:37:17	47.46373	-122.3077	0.021	0.1145116	10.44239	5.38	4.517704	100	0	4	3.852005	1.394436	-176.6145	
18:37:17	47.46371	-122.3077	0.021	0.1178174	12.10326	5.33	4.469253	100	0	4	4.002301	1.191512	-177.3681	
18:37:17	47.46371	-122.3077	0.021	0.1237511	13.12564	5.28	4.418412	100	0	4	4.231959	0.9948196	-178.8257	
18:37:18	47.4637	-122.3077	0.021	0.1298018	13.70457	5.21	4.366394	100	0	4	4.360287	1.150858	179.2299	
18:37:18	47.46368	-122.3077	0.021	0.1357114	14.61221	5.12	4.299072	100	0	4	4.423125	1.488751	177.0044	
18:37:18	47.46367	-122.3077	0.021	0.1439061	16.95122	5.07	4.234457	100	0	5	4.396907	1.768099	174.685	
18:37:18	47.46366	-122.3077	0.021	0.1533588	18.60624	5.01	4.207198	100	0	4	4.353072	1.883262	172.4678	
18:37:18	47.46365	-122.3077	0.021	0.1647272	20.44142	4.95	4.168131	100	0	4	4.236382	1.94284	170.5184	
18:37:19	47.46365	-122.3077	0.021	0.1772378	21.66535	4.89	4.14035	100	0	4	4.020956	1.989496	168.8792	
18:37:19	47.46365	-122.3077	0.021	0.1907279	22.69962	4.89	4.102029	100	0	4	3.872159	2.026768	167.932	
18:37:19	47.46363	-122.3077	0.021	0.2013185	22.7438	4.83	4.102029	100	0	4	3.738621	1.961042	167.5508	
18:37:19	47.46363	-122.3077	0.021	0.2094103	22.17405	4.77	4.070481	100	0	4	3.649267	1.854112	167.3666	
18:37:19	47.46362	-122.3077	0.021	0.2149508	21.42678	4.7	4.034685	100	0	4	3.615203	1.884049	167.1118	
18:37:20	47.46361	-122.3077	0.021	0.2181281	21.01648	4.66	3.983938	100	0	4	3.604764	1.992214	166.7413	
18:37:20	47.4636	-122.3077	0.021	0.2198095	20.46197	4.6	3.942421	100	0	4	3.616869	2.088042	166.2819	
18:37:20	47.46359	-122.3077	0.021	0.2209875	20.47326	4.54	3.886669	100	0	4	3.621401	2.101318	165.7455	
18:37:20	47.46359	-122.3077	0.021	0.2205668	18.90558	4.54	3.833614	100	0	4	3.629725	2.095674	165.189	
18:37:20	47.46359	-122.3077	0.021	0.217373	17.26827	4.54	3.833614	100	0	4	3.637095	2.091792	164.6091	
18:37:21	47.46359	-122.3077	0.021	0.2105297	15.2978	4.54	3.833614	100	0	4	3.643798	2.089201	164.01	
18:37:21	47.46359	-122.3077	0.021	0.2021457	13.57456	4.54	3.833614	100	0	4	3.650003	2.087584	163.3966	
18:37:21	47.46359	-122.3077	0.021	0.1921666	11.92228	4.54	3.833614	100	0	4	3.65584	2.0867	162.7728	
18:37:21	47.46359	-122.3077	0.021	0.182191	10.51084	4.54	3.833614	100	0	4	3.661376	2.086371	162.1444	
18:37:21	47.46359	-122.3077	0.021	0.179897	10.21119	4.54	3.833614	100	0	4	3.66673	2.086464	161.5072	
18:37:22	47.46359	-122.3077	0.021	0.179897	10.21119	4.54	3.833614	100	0	4	3.671929	2.086884	160.8658	
18:37:22	47.46359	-122.3077	0.021	0.179897	10.21119	4.54	3.833614	100	0	3	3.67701	2.08756	160.2213	
18:37:22	47.46352	-122.3077	0.021	0.179897	10.21119	4	3.833614	100	0	4	3.705833	2.029772	160.5112	
18:37:22	47.46351	-122.3077	0.021	0.1708373	9.545329	3.95	3.32644	100	0	4	3.803796	1.971637	161.7855	
18:37:23	47.4635	-122.3077	0.021	0.159432	8.433484	3.91	3.274903	100	0	4	3.954805	1.990672	162.8151	
18:37:23	47.46349	-122.3077	0.021	0.1491977	8.269356	3.86	3.224669	100	0	4	3.968713	2.021987	163.6597	
18:37:23	47.46349	-122.3077	0.021	0.1409601	7.646077	3.82	3.149296	100	0	4	3.983577	2.042184	164.3737	
18:37:23	47.46347	-122.3077	0.021	0.1318101	7.170154	3.76	3.091096	100	0	4	3.964123	2.010033	165.0247	
18:37:23	47.46347	-122.3077	0.021	0.1245999	6.638906	3.72	3.014581	100	0	4	3.972486	1.951085	165.6711	
18:37:24	47.46346	-122.3077	0.021	0.1168403	5.954512	3.68	3	100	0	4	3.951596	1.85007	166.3111	
18:37:24	47.46346	-122.3077	0.021	0.1087131	5.142877	3.64	3	100	0	4	4.11311	1.813287	167.0122	
18:37:24	47.46346	-122.3077	0.021	0.1008517	4.477278	3.64	3	100	0	4	4.110621	1.797534	167.8058	
18:37:24	47.46345	-122.3077	0.021	0.09489825	4.918073	3.6	3	100	0	4	4.024763	1.781953	168.7097	
18:37:24	47.46344	-122.3077	0.021	0.09097892	5.64066	3.57	3	100	0	4	3.976722	1.782585	169.6856	
18:37:25	47.46343	-122.3077	0.021	0.08870446	5.738113	3.51	3	100	0	4	3.957544	1.804416	170.6794	
18:37:25	47.46343	-122.3077	0.021	0.08738724	6.445271	3.51	3	100	0	4	3.949653	1.845111	171.6044	
18:37:25	47.46343	-122.3077	0.021	0.08837061	7.760414	3.51	3	100	0	4	3.940739	1.889698	172.4825	
18:37:25	47.46343	-122.3077	0.021	0.09138311	8.929289	3.51	3	100	0	4	3.93126	1.937052	173.3224	
18:37:25	47.46343	-122.3077	0.021	0.09544515	9.942186	3.51	3	100	0	4	3.921578	1.98622	174.1303	
18:37:26	47.4634	-122.3077	0.021	0.1010626	10.9994	3.34	3	100	0	4	3.911297	2.0307	174.6848	
18:37:26	47.46339	-122.3077	0.021	0.1074247	11.32999	3.3	3	100	0	4	3.825944	2.078815	174.376	
18:37:26	47.46339	-122.3077	0.021	0.1120572	10.95521	3.27	3	100	0	4	3.633017	2.141861	174.2136	
18:37:26	47.46338	-122.3077	0.021	0.1153153	10.95032	3.24	3	100	0	4	3.604628	2.186761	174.1654	
18:37:26	47.46338	-122.3077	0.021	0.1182065	10.83958	3.21	3	100	0	5	3.606825	2.22272	174.1395	
18:37:27	47.46337	-122.3077	0.021	0.1208042	11.18403	3.18	3	100	0	4	3.590351	2.240848	174.09	
18:37:27	47.46337	-122.3077	0.021	0.1218821	10.13295	3.18	3	100	0	4	3.589036	2.254021	174.0054	
18:37:27	47.46336	-122.3077	0.021	0.1222325	10.20321	3.15	3	100	0	4	3.541374	2.256927	173.8933	
18:37:27	47.46336	-122.3077	0.021	0.1211451	9.055687	3.12	3	100	0	4	3.530118	2.229276	173.7536	
18:37:27	47.46335	-122.3077	0.021	0.1194952	9.134408	3.07	3	100	0	4	3.525662	2.191497	173.6111	
18:37:28	47.46334	-122.3077	0.021	0.117457	8.881792	3.04	3	100	0	4	3.49845	2.112611	173.4742	
18:37:28	47.46334	-122.3077	0.021	0.1154846	8.708488	3.01	3	100	0	4	3.45238	1.714684	173.3084	
18:37:28	47.46333	-122.3077	0.02	0.1141078	8.607686	2.99	3	100	0	4	3.409404	1.450665	173.1165	
18:37:28	47.46333	-122.3077	0.021	0.1125695	8.7724	2.98	3	100	0	4	3.386552	1.567417	172.9455	
18:37:28	47.46332	-122.3077	0.021	0.1117481	8.61339	2.97	3	100	0	4	3.313852	1.85284	172.918	
18:37:29	47.46332	-122.3077	0.021	0.1122814	9.763447	2.97	3	100	0	5	3.256595	1.966496	173.0097	
18:37:29	47.46331	-122.3077	0.021	0.1131433	9.409225	2.96	3	100	0	4	3.216578	1.876414	173.1721	
18:37:29	47.46331	-122.3077	0.02	0.1136586	9.59938	2.95	3	100	0	4	3.183694	1.718396	173.4034	
18:37:29	47.4633	-122.3077	0.02	0.1138015	9.416406	2.92	3	100	0	4	3.166894	1.665679	173.6769	
18:37:29	47.46329	-122.3077	0.021	0.1134875	8.865793	2.91	3	100	0	4	3.158216	1.699978	173.9775	
18:37:30	47.46329	-122.3077	0.021	0.1124564	8.643658	2.91	3	100	0	4	3.117365	1.702881	174.3164	
18:37:30	47.46328	-122.3077	0.021	0.1120492	8.994468	2.91	3	100	0	5	3.081643	1.643854	174.7531	
18:37:30	47.46328	-122.3077	0.021	0.1113872	8.664674	2.9	3	100	0	4	3.028011	1.57356	175.344	
18:37:30	47.46327	-122.3077	0.021	0.1105662	8.573436	2.88	3	100	0	5	2.96218	1.545952	176.1664	
18:37:30	47.46327	-122.3077	0.021	0.1097118	8.244493	2.87	3	100	0	5	2.911281	1.568004	177.3064	
18:37:31	47.46326	-122.3077	0.021	0.1086698	8.750141	2.86	3	100	0	4	2.869696	1.578127	178.709	
18:37:31	47.46326	-122.3077	0.021	0.1078358	8.079659	2.84	3	100	0	4	2.855753	1.54086	-179.6512	
18:37:31	47.46326	-122.3077	0.021	0.1065328	7.703467	2.83	3	100	0	4	2.855808	1.46855	-177.8917	
18:37:31	47.46326	-122.3077	0.021	0.1038616	6.952332	2.83	3	100	0	4	2.847576	1.350497	-176.0526	
18:37:31	47.46325	-122.3077	0.021	0.1007699	6.28732	2.82	3	100	0	10	2.844733	1.248178	-174.1661	
18:37:32	47.46324	-122.3077	0.02	0.0972956	5.896304	2.81	3	100	0	8	2.939538	1.177319	-172.551	
18:37:32	47.46323	-122.3077	0.021	0.09414376	5.987929	2.81	3	100	0	5	3.135784	1.137601	-171.5266	
18:37:32	47.46323	-122.3077	0.021	0.09089091	5.147839	2.82	3	100	0	4	3.282793	1.139702	-171.2712	
18:37:32	47.46322	-122.3077	0.021	0.0870409	4.38777	2.84	3	100	0	5	3.413772	1.18618	-171.6325	
18:37:32	47.46322	-122.3077	0.021	0.08329386	4.975735	2.86	3	100	0	4	3.544285	1.24575	-172.3533	
18:37:33	47.46321	-122.3077	0.021	0.08195776	6.149442	2.89	3	100	0	4	3.639323	1.385512	-173.8854	
18:37:33	47.46321	-122.3077	0.021	0.08343751	7.248253	2.89	3	100	0	5	3.665531	1.483914	-175.7851	
18:37:33	47.4632	-122.3077	0.021	0.08593222	7.681623	2.89	3	100	0	4	3.64287	1.541886	-177.9499	
18:37:33	47.4632	-122.3077	0.021	0.08818119	7.832505	2.89	3	100	0	4	3.541676	1.67052	179.8716	
18:37:33	47.4632	-122.3077	0.021	0.09094376	8.358933	2.87	3	100	0	4	3.346754	1.82438	178.0839	
18:37:34	47.46319	-122.3077	0.02	0.09362774	8.817842	2.86	3	100	0	5	3.211169	1.883103	176.7466	
18:37:34	47.46318	-122.3077	0.02	0.09702875	8.987475	2.86	3	100	0	4	3.128933	1.823146	175.686	
18:37:34	47.46318	-122.3077	0.021	0.09863348	8.555526	2.86	3	100	0	4	3.016614	1.753939	174.7893	
18:37:34	47.46318	-122.3077	0.021	0.09990578	8.498396	2.85	3	100	0	4	2.941898	1.749942	173.9945	
18:37:34	47.46317	-122.3077	0.021	0.1003429	8.298071	2.84	3	100	0	4	2.893515	1.805705	173.2625	
18:37:35	47.46316	-122.3077	0.021	0.101301	8.387419	2.83	3	100	0	5	2.861185	1.876928	172.5686	
18:37:35	47.46316	-122.3077	0.021	0.1017337	8.204333	2.81	3	100	0	4	2.793877	1.927195	171.9857	
18:37:35	47.46315	-122.3077	0.021	0.1017349	8.045122	2.8	3	100	0	4	2.712003	1.955579	171.5195	
18:37:35	47.46315	-122.3077	0.021	0.1017098	8.07954	2.8	3	100	0	4	2.698764	1.975508	171	
18:37:35	47.46314	-122.3077	0.021	0.1023203	8.623186	2.78	3	100	0	4	2.654439	2.010321	170.4429	
18:37:36	47.46313	-122.3077	0.021	0.1025808	7.866508	2.78	3	100	0	4	2.609669	2.032529	169.8805	
18:37:36	47.46313	-122.3077	0.021	0.1021443	7.89764	2.76	3	100	0	4	2.561755	2.022248	169.3477	
18:37:36	47.46313	-122.3077	0.021	0.1013206	7.401285	2.74	3	100	0	4	2.53151	1.99557	168.8522	
18:37:36	47.46312	-122.3077	0.021	0.09954597	6.952602	2.73	3	100	0	4	2.49703	1.954217	168.3752	
18:37:36	47.46312	-122.3077	0.021	0.09766496	6.704104	2.72	3	100	0	4	2.472083	1.941513	167.9313	
18:37:37	47.46311	-122.3077	0.021	0.09573977	6.610821	2.69	3	100	0	5	2.422813	1.974692	167.5303	
18:37:37	47.4631	-122.3077	0.021	0.09408601	6.390887	2.69	3	100	0	4	2.363096	2.021744	167.1668	
18:37:37	47.4631	-122.3077	0.021	0.09187083	5.416159	2.67	3	100	0	4	2.317825	2.053953	166.8748	
18:37:37	47.46309	-122.3077	0.021	0.08862287	5.201231	2.65	3	100	0	5	2.275911	2.093456	166.6314	
18:37:37	47.46309	-122.3077	0.021	0.08598819	5.493181	2.64	3	100	0	4	2.254473	2.142709	166.426	
18:37:38	47.46308	-122.3077	0.021	0.08364983	5.000204	2.63	3	100	0	4	2.229396	2.178396	166.2501	
18:37:38	47.46308	-122.3077	0.021	0.08150441	5.316496	2.61	3	100	0	4	2.182334	2.164984	166.0951	
18:37:38	47.46308	-122.3077	0.021	0.07920613	4.621995	2.6	3	100	0	4	2.144883	2.118799	165.9526	
18:37:38	47.46308	-122.3077	0.021	0.07768625	5.07687	2.6	3	100	0	5	2.139134	2.054628	165.8235	
18:37:38	47.46307	-122.3077	0.021	0.07671952	5.341113	2.58	3	100	0	4	2.125693	2.038739	165.7002	
18:37:39	47.46306	-122.3077	0.021	0.07597408	5.061299	2.56	3	100	0	4	2.116147	2.048595	165.5872	
18:37:39	47.46306	-122.3077	0.021	0.07510567	4.796152	2.56	3	100	0	4	2.10531	2.041546	165.4973	
18:37:39	47.46306	-122.3077	0.021	0.07383905	4.664262	2.56	3	100	0	4	2.083756	2.018039	165.4375	
18:37:39	47.46306	-122.3077	0.021	0.07284306	4.816665	2.56	3	100	0	4	2.062033	1.994176	165.3845	
18:37:39	47.46306	-122.3077	0.021	0.07231311	4.972744	2.56	3	100	0	4	2.040351	1.970042	165.3348	
18:37:40	47.46306	-122.3077	0.021	0.07216915	5.11403	2.56	3	100	0	5	2.018891	1.945913	165.2881	
18:37:40	47.46306	-122.3077	0.021	0.07233788	5.280992	2.56	3	100	0	4	1.997411	1.921577	165.2432	
18:37:40	47.46306	-122.3077	0.021	0.07274812	5.42424	2.56	3	100	0	4	1.976106	1.897293	165.2	
18:37:40	47.46306	-122.3077	0.021	0.0729645	5.478694	2.56	3	100	0	4	1.954856	1.872957	165.1579	
18:37:40	47.46306	-122.3077	0.021	0.0729645	5.478694	2.56	3	100	0	4	1.933543	1.848456	165.1164	
18:37:41	47.46306	-122.3077	0.021	0.0729645	5.478694	2.56	3	100	0	4	1.912374	1.824041	165.0757	
18:37:41	47.46306	-122.3077	0.021	0.0729645	5.478694	2.56	3	100	0	4	1.89113	1.799476	165.0352	
18:37:41	47.46306	-122.3077	0.021	0.0729645	5.478694	2.56	3	100	0	4	1.869913	1.774884	164.9951	
18:37:41	47.46306	-122.3077	0.021	0.0729645	5.478694	2.56	3	100	0	4	1.848827	1.750392	164.9554	
18:37:41	47.46306	-122.3077	0.021	0.0729645	5.478694	2.56	3	100	0	4	1.827765	1.72588	164.9159	
18:37:42	47.46306	-122.3077	0.021	0.0729645	5.478694	2.56	3	100	0	4	1.806722	1.70135	164.8765	
18:37:42	47.46306	-122.3077	0.021	0.0729645	5.478694	2.56	3	100	0	4	1.7857	1.676803	164.8372	
18:37:42	47.46306	-122.3077	0.021	0.0729645	5.478694	2.56	3	100	0	4	1.764697	1.652238	164.798	
18:37:42	47.46306	-122.3077	0.021	0.0729645	5.478694	2.56	3	100	0	5	1.743712	1.627658	164.7589	
18:37:42	47.46306	-122.3077	0.021	0.0729645	5.478694	2.56	3	100	0	4	1.722745	1.603062	164.7198	
18:37:43	47.46306	-122.3077	0.021	0.0729645	5.478694	2.56	3	100	0	4	1.701796	1.578451	164.6808	
18:37:43	47.46306	-122.3077	0.021	0.0729645	5.478694	2.56	3	100	0	5	1.68076	1.553702	164.6416	
18:37:43	47.46306	-122.3077	0.021	0.0729645	5.478694	2.56	3	100	0	4	1.659846	1.529061	164.6026	
18:37:43	47.46306	-122.3077	0.021	0.0729645	5.478694	2.56	3	100	0	4	1.63895	1.504407	164.5637	
18:37:43	47.46305	-122.3077	0.021	0.0729645	5.478694	2.55	3	100	0	5	1.621519	1.470368	164.6164	
18:37:44	47.46296	-122.3076	0.02	0.0730891	5.338349	2.26	3	100	0	4	1.523916	1.492571	165.1539	
18:37:44	47.46295	-122.3076	0.021	0.07301562	4.607044	2.24	3	100	0	5	1.481907	1.721446	166.0735	
18:37:44	47.46294	-122.3076	0.021	0.07135148	4.395412	2.22	3	100	0	4	1.487765	1.712519	167.1966	
18:37:44	47.46294	-122.3076	0.021	0.06954902	3.77032	2.22	3	100	0	4	1.5018	1.648524	168.4891	
18:37:44	47.46294	-122.3076	0.021	0.06787263	4.242877	2.2	3	100	0	4	1.519554	1.592475	169.8838	
18:37:45	47.46293	-122.3076	0.021	0.06718182	4.181281	2.19	3	100	0	4	1.540938	1.588235	171.3334	
18:37:45	47.46293	-122.3076	0.021	0.06544159	3.297437	2.18	3	100	0	4	1.592348	1.610464	172.7585	
18:37:45	47.46293	-122.3076	0.021	0.06346414	3.50488	2.18	3	100	0	4	1.710577	1.651068	173.9521	
18:37:45	47.46292	-122.3076	0.021	0.0621339	3.299452	2.18	3	100	0	4	1.852534	1.690057	174.7358	
18:37:45	47.46292	-122.3076	0.021	0.059872	2.720831	2.18	3	100	0	4	1.904927	1.711875	175.103	
18:37:46	47.46292	-122.3076	0.02	0.05779682	2.748924	2.18	3	100	0	4	1.902524	1.730515	175.1653	
18:37:46	47.46291	-122.3076	0.02	0.05512442	2.116844	2.17	3	100	0	4	1.898375	1.765867	175.1089	
18:37:46	47.46291	-122.3076	0.02	0.05263362	2.061445	2.17	3	100	0	4	1.856443	1.759441	175.1907	
18:37:46	47.46291	-122.3076	0.02	0.05031624	2.025424	2.17	3	100	0	4	1.826047	1.723269	175.4265	
18:37:46	47.4629	-122.3076	0.02	0.04808704	1.732841	2.17	3	100	0	4	1.80332	1.683564	175.8115	
18:37:47	47.46289	-122.3076	0.02	0.04600714	1.86362	2.16	3	100	0	4	1.774813	1.651914	176.2925	
18:37:47	47.46289	-122.3076	0.02	0.04529347	2.455241	2.16	3	100	0	4	1.777729	1.630244	176.9379	
18:37:47	47.46289	-122.3076	0.021	0.04523561	2.333679	2.16	3	100	0	4	1.796578	1.602709	177.6396	
18:37:47	47.46288	-122.3076	0.021	0.04426219	1.931404	2.15	3	100	0	5	1.808216	1.582055	178.3591	
18:37:47	47.46288	-122.3076	0.021	0.04313838	1.638827	2.15	3	100	0	4	1.82015	1.580004	179.0977	
18:37:48	47.46287	-122.3076	0.021	0.04225588	1.66951	2.15	3	100	0	4	1.834207	1.571234	179.8619	
18:37:48	47.46287	-122.3076	0.021	0.04077484	1.417004	2.15	3	100	0	4	1.847324	1.599614	-179.3587	
18:37:48	47.46287	-122.3076	0.02	0.04035251	1.848192	2.15	3	100	0	4	1.870837	1.638617	-178.5655	
18:37:48	47.46287	-122.3076	0.02	0.0393864	1.540263	2.15	3	100	0	4	1.865054	1.659327	-177.7655	
18:37:48	47.46286	-122.3076	0.02	0.03848445	1.4514	2.15	3	100	0	4	1.885262	1.651793	-176.946	
18:37:49	47.46286	-122.3076	0.02	0.03849281	1.986007	2.15	3	100	0	4	1.887456	1.633948	-176.122	
18:37:49	47.46286	-122.3076	0.02	0.03877443	2.237427	2.15	3	100	0	4	1.894411	1.652093	-175.3044	
18:37:49	47.46285	-122.3076	0.02	0.04025971	3.078257	2.15	3	100	0	4	1.931754	1.624456	-174.4855	
18:37:49	47.46284	-122.3076	0.02	0.04305473	3.59062	2.16	3	100	0	5	1.941191	1.542798	-173.7029	
18:37:49	47.46284	-122.3076	0.02	0.04528563	3.57908	2.15	3	100	0	5	1.948173	1.44055	-172.9478	
18:37:50	47.46284	-122.3076	0.02	0.04764597	3.863596	2.15	3	100	0	4	1.968207	1.408501	-172.2005	
18:37:50	47.46284	-122.3076	0.02	0.04970906	4.020549	2.15	3	100	0	4	1.983805	1.389365	-171.4928	
18:37:50	47.46283	-122.3076	0.02	0.0513038	3.544351	2.15	3	100	0	4	2.043123	1.395909	-170.8908	
18:37:50	47.46283	-122.3076	0.021	0.05183453	3.26525	2.14	3	100	0	4	2.091724	1.393204	-170.415	
18:37:50	47.46283	-122.3076	0.021	0.05186672	2.902707	2.15	3	100	0	5	2.165216	1.385888	-170.1879	
18:37:51	47.46282	-122.3076	0.021	0.05146973	2.976484	2.14	3	100	0	4	2.205893	1.438722	-170.1831	
18:37:51	47.46282	-122.3076	0.021	0.05154354	3.155534	2.13	3	100	0	4	2.21421	1.475868	-170.2907	
18:37:51	47.46281	-122.3076	0.02	0.05152386	3.020179	2.13	3	100	0	5	2.215598	1.475067	-170.4464	
18:37:51	47.46281	-122.3077	0.021	0.05173704	3.407439	2.12	3	100	0	4	2.220362	1.529767	-170.6937	
18:37:52	47.4628	-122.3077	0.021	0.05220845	3.296362	2.12	3	100	0	4	2.223921	1.573819	-170.9469	
18:37:52	47.4628	-122.3077	0.02	0.05279451	3.523369	2.12	3	100	0	4	2.221868	1.587253	-171.1982	
18:37:52	47.4628	-122.3077	0.02	0.05378428	3.85723	2.11	3	100	0	4	2.213535	1.621131	-171.5317	
18:37:52	47.46279	-122.3077	0.02	0.05416121	3.364325	2.11	3	100	0	5	2.207127	1.596754	-171.9562	
18:37:52	47.46279	-122.3077	0.02	0.05462488	3.731263	2.11	3	100	0	4	2.228714	1.508818	-172.4579	
18:37:53	47.46279	-122.3077	0.02	0.05531394	4.00678	2.11	3	100	0	4	2.197392	1.522653	-173.0289	
18:37:53	47.46278	-122.3077	0.021	0.05564201	3.461209	2.1	3	100	0	4	2.167506	1.566424	-173.5321	
18:37:53	47.46278	-122.3077	0.021	0.05575569	3.32853	2.11	3	100	0	4	2.132529	1.58092	-173.9949	
18:37:53	47.46277	-122.3077	0.02	0.05497604	3.006951	2.09	3	100	0	4	2.134586	1.589042	-174.4715	
18:37:53	47.46277	-122.3077	0.021	0.05492458	3.919449	2.1	3	100	0	4	2.07998	1.578821	-174.8621	
18:37:54	47.46276	-122.3077	0.021	0.05618374	4.04449	2.1	3	100	0	4	2.06367	1.603851	-175.2365	
18:37:54	47.46276	-122.3077	0.021	0.0570132	3.871365	2.09	3	100	0	3	2.052432	1.654856	-175.5638	
18:37:54	47.46276	-122.3077	0.021	0.05729097	3.740367	2.09	3	100	0	4	2.02056	1.743286	-175.9009	
18:37:54	47.46275	-122.3077	0.02	0.0575972	3.744121	2.09	3	100	0	4	2.013359	1.792911	-176.2472	
18:37:54	47.46275	-122.3077	0.02	0.05756474	3.757734	2.08	3	100	0	5	2.017074	1.842955	-176.644	
18:37:55	47.46275	-122.3077	0.02	0.05723626	3.752854	2.09	3	100	0	5	1.981952	1.893939	-177.0753	
18:37:55	47.46274	-122.3077	0.02	0.05770297	3.749759	2.1	3	100	0	4	1.97449	1.904397	-177.5363	
18:37:55	47.46274	-122.3077	0.02	0.05745162	3.456258	2.11	3	100	0	4	1.962956	1.892016	-178.0107	
