Date	Latitude(deg) 	Longitude(deg)	hamsl(m)	hafl(m)	climbrate(cm/s)	GroundSpeed(m/s)	Airspeed(m/s)	Mav_Link(%)	Rssi_Link(%)	Throttle	Roll(deg)	Pitch(deg)	Yaw(deg)
13:26:00	0	0	0	0	0	0	0	100	0	0	0	0	0.8492947	
13:26:01	-6.795897	38.98537	119.736	0	0	0.13	3	100	0	99	0	0	7.620982	
13:26:01	-6.795897	38.98537	119.672	0	0	0.14	3	100	0	100	0	0	12.78481	
13:26:01	-6.795897	38.98538	119.565	0	0	0.36	3	100	0	100	0	0	16.36933	
13:26:01	-6.795897	38.98538	119.242	0	0	0.56	3	100	0	100	0	0	19.07723	
13:26:01	-6.795896	38.98538	119.211	0	0	0.17	3	100	0	100	0	0	20.96608	
13:26:02	-6.795896	38.98538	119.14	0	0	0.11	3	100	0	100	0	0	22.32454	
13:26:02	-6.795896	38.98538	119.135	0	0	0.14	3	100	0	100	0	0	23.29455	
13:26:02	-6.795896	38.98538	118.896	0	0	0.08	3	100	0	100	0	0	24.05027	
13:26:02	-6.795895	38.98537	118.897	0	0	0.42	3	100	0	100	0	0	24.41459	
13:26:02	-6.795895	38.98537	118.873	0	0	0.06	3	100	0	100	0.001232031	0.001965575	24.91501	
13:26:03	-6.795895	38.98537	118.781	0.2986309	-11.05646	0.14	3	100	0	100	0.3057423	-1.792288	24.79985	
13:26:03	-6.795895	38.98537	118.904	0.25968	-31.43674	0.08	3	100	0	100	-0.3048813	-4.1924	23.96096	
13:26:03	-6.795894	38.98537	119.167	0.1943063	-48.04392	0.02	3	100	0	100	-1.872809	-10.31733	23.16289	
13:26:03	-6.795894	38.98537	119.167	0.05764917	-61.17456	0.39	3	100	0	100	-2.918002	-16.97682	22.41868	
13:26:03	-6.795894	38.98537	119.259	-0.071604	-67.38554	0.09	3	100	0	100	-7.905999	-21.83319	23.62779	
13:26:04	-6.795894	38.98537	119.261	-0.1689652	-68.33703	0.04	3	100	0	100	-6.907257	-25.39039	23.2007	
13:26:04	-6.795894	38.98537	119.412	-0.2489888	-68.27299	0.14	3	100	0	100	-6.729385	-27.40493	22.75764	
13:26:04	-6.795894	38.98537	119.412	-0.3469162	-69.13013	0.04	3	100	0	100	-5.009173	-27.30862	21.42201	
13:26:04	0	0	0	-0.4196044	-52.99102	0	3	100	0	100	-2.428326	-25.59689	12.15924	
13:26:04	47.4659	-122.3106	97.444	-0.3681988	32.28955	30.7	3	100	0	100	2.228269	-22.03071	-0.3560181	
13:26:05	47.4659	-122.3106	97.444	17.0182	1028.192	30.7	30.63773	100	0	100	13.44418	-28.26598	-1.032933	
13:26:05	47.4659	-122.3106	97.444	33.10414	1849.511	30.7	30.63773	100	0	100	17.43851	-16.97927	-11.48137	
13:26:05	47.4659	-122.3106	97.444	50.74979	2656.406	30.7	30.63773	100	0	56	14.46701	-5.433431	-16.13338	
13:26:05	47.4659	-122.3106	97.444	64.68921	3226.963	30.7	30.63773	100	0	50	8.710806	3.504283	-16.82657	
13:26:05	47.4659	-122.3106	97.444	77.20424	3673.425	30.7	30.63773	100	0	44	3.053042	9.902779	-17.16066	
13:26:06	47.4659	-122.3106	97.444	88.08006	3991.187	30.7	30.63773	100	0	36	-1.239811	13.58527	-17.83338	
13:26:06	47.4659	-122.3106	97.444	96.58546	4179.129	30.7	30.63773	100	0	29	-3.727757	14.74404	-18.63701	
13:26:06	47.4659	-122.3106	97.444	105.2821	4296.951	30.7	30.63773	100	0	23	-4.684517	14.3856	-19.24809	
13:26:06	47.4659	-122.3106	97.444	111.7874	4319.403	30.7	30.63773	100	0	18	-4.718839	13.334	-19.64899	
13:26:07	47.4659	-122.3106	97.444	116.6725	4281.257	30.7	30.63773	100	0	10	-4.139899	12.00391	-20.20835	
13:26:07	47.4659	-122.3106	97.444	121.385	4172.481	30.7	30.63773	100	0	4	-2.565895	11.04111	-16.69564	
13:26:07	47.4659	-122.3106	97.444	124.5054	4031.655	30.7	30.63773	100	0	4	1.160762	10.30851	1.057008	
13:26:07	47.4659	-122.3106	97.444	126.5941	3874.7	30.7	30.63773	100	0	4	0.6633184	9.820383	1.042032	
13:26:07	47.4659	-122.3106	97.444	128.1802	3676.683	30.7	30.63773	100	0	4	-1.124372	9.643118	-4.576001	
13:26:08	47.4659	-122.3106	97.444	129.0887	3460.415	30.7	30.63773	100	0	4	-2.402652	9.523162	-9.165981	
13:26:08	47.4659	-122.3106	97.444	129.4192	3232.956	30.7	30.63773	100	0	4	-3.120448	9.502918	-12.80559	
13:26:08	47.4659	-122.3106	97.444	129.2565	2996.256	30.7	30.63773	100	0	4	-3.344388	9.593859	-15.65723	
13:26:08	47.4659	-122.3106	97.444	128.6178	2740.765	30.7	30.63773	100	0	4	-3.143146	9.78652	-17.62936	
13:26:08	47.4659	-122.3106	97.444	127.7972	2533.204	30.7	30.63773	100	0	4	-2.722547	10.01542	-18.88483	
13:26:09	47.4659	-122.3106	97.444	126.6638	2312.047	30.7	30.63773	100	0	4	-2.306362	10.20069	-19.83932	
13:26:09	47.4659	-122.3106	97.444	125.1727	2076.517	30.7	30.63773	100	0	4	-1.93716	10.33324	-20.32911	
13:26:09	47.4659	-122.3106	97.444	123.6937	1876.928	30.7	30.63773	100	0	4	-1.673872	10.4079	-20.59715	
13:26:09	47.4659	-122.3106	97.444	122.1233	1689.543	30.7	30.63773	100	0	4	-0.4798694	10.5132	-14.9182	
13:26:09	47.4659	-122.3106	97.444	120.6744	1533.554	30.7	30.63773	100	0	5	2.268291	10.17361	2.376414	
13:26:10	47.4659	-122.3106	97.444	118.8895	1358.88	30.7	30.63773	100	0	9	1.046602	10.22248	0.4625051	
13:26:10	47.4659	-122.3106	97.444	117.312	1218.252	30.7	30.63773	100	0	11	-1.139073	10.3074	-4.789238	
13:26:10	47.4659	-122.3106	97.444	115.9165	1103.353	30.7	30.63773	100	0	14	-2.647924	10.13582	-9.167051	
13:26:10	47.4659	-122.3106	97.444	114.4256	989.5023	30.7	30.63773	100	0	17	-3.455725	9.945464	-12.76326	
13:26:10	47.4659	-122.3106	97.444	112.8592	879.4999	30.7	30.63773	100	0	20	-3.566735	9.851099	-15.54714	
13:26:11	47.4659	-122.3106	97.444	111.537	794.2195	30.7	30.63773	100	0	23	-3.290502	9.872757	-17.49351	
13:26:11	47.4659	-122.3106	97.444	110.4539	729.5339	30.7	30.63773	100	0	25	-2.758705	9.984661	-18.25916	
13:26:11	47.4659	-122.3106	97.444	109.3409	668.2967	30.7	30.63773	100	0	28	-2.068511	10.14246	-18.10828	
13:26:11	47.4659	-122.3106	97.444	108.2312	612.8167	30.7	30.63773	100	0	31	-1.253258	10.31819	-17.27477	
13:26:11	47.4659	-122.3106	97.444	107.4121	575.7201	30.7	30.63773	100	0	32	-0.4509347	10.48523	-16.4796	
13:26:12	47.4659	-122.3106	97.444	106.6066	542.6953	30.7	30.63773	100	0	34	1.389856	10.52057	-9.415648	
13:26:12	47.4659	-122.3106	97.444	105.8244	514.3268	30.7	30.63773	100	0	35	3.758322	9.882765	4.889129	
13:26:12	47.4659	-122.3106	97.444	105.2654	496.7105	30.7	30.63773	100	0	37	2.114264	10.24993	-0.6919433	
13:26:12	47.4659	-122.3106	97.444	104.6763	481.4546	30.7	30.63773	100	0	38	-0.08103917	10.41283	-5.478319	
13:26:12	47.4659	-122.3106	97.444	104.2203	472.5878	30.7	30.63773	100	0	39	-1.782357	10.31174	-9.41929	
13:26:13	47.4659	-122.3106	97.444	103.8358	467.7297	30.7	30.63773	100	0	39	-2.985864	10.12372	-12.63384	
13:26:13	47.4659	-122.3106	97.444	103.5147	466.0455	30.7	30.63773	100	0	40	-3.562259	9.951487	-15.32568	
13:26:13	47.4659	-122.3106	97.444	103.2558	466.9093	30.7	30.63773	100	0	41	-3.680866	9.852017	-17.52205	
13:26:13	47.4659	-122.3106	97.444	103.0475	469.7486	30.7	30.63773	100	0	41	-3.363104	9.872929	-19.09762	
13:26:13	47.4659	-122.3106	97.444	102.8982	473.6232	30.7	30.63773	100	0	41	-2.747657	9.999937	-19.71487	
13:26:14	47.4659	-122.3106	97.444	102.7707	478.9318	30.7	30.63773	100	0	41	-1.978975	10.16995	-19.44822	
13:26:14	47.4659	-122.3106	97.444	102.669	485.4932	30.7	30.63773	100	0	41	-1.140827	10.34821	-18.7236	
13:26:14	47.4659	-122.3106	97.444	102.6065	491.6254	30.7	30.63773	100	0	41	1.396169	10.40113	-7.70099	
13:26:14	47.4659	-122.3106	97.444	102.5698	496.8974	30.7	30.63773	100	0	41	3.20516	9.921242	4.265725	
13:26:14	47.4659	-122.3106	97.444	102.5445	503.0717	30.7	30.63773	100	0	41	2.005557	10.18494	-0.875942	
13:26:15	47.4659	-122.3106	97.444	102.5366	508.3888	30.7	30.63773	100	0	41	1.165887	10.30345	-3.91509	
13:26:15	47.4659	-122.3106	97.444	102.5391	512.8049	30.7	30.63773	100	0	41	0.6013075	10.36279	-5.405047	
13:26:15	47.4659	-122.3106	97.444	102.5493	517.1107	30.7	30.63773	100	0	41	0.2376124	10.40275	-5.765481	
13:26:15	47.4659	-122.3106	97.444	102.567	521.126	30.7	30.63773	100	0	41	0.02402658	10.4393	-5.286586	
13:26:15	47.4659	-122.3106	97.444	102.567	521.126	30.7	30.63773	100	0	40	-0.07621031	10.47716	-4.193159	
13:26:16	47.4659	-122.3106	97.444	102.567	521.126	30.7	30.63773	100	0	40	-0.105609	11.06022	-2.630636	
13:26:16	47.4659	-122.3106	97.444	102.5764	522.258	30.7	30.63773	100	0	40	-0.09570025	13.81789	-0.8109187	
13:26:16	47.4659	-122.3106	97.444	102.5927	521.4791	30.7	30.63773	100	0	40	0.03457913	16.57969	1.061489	
13:26:16	47.4659	-122.3106	97.444	102.6004	516.8874	30.7	30.63773	100	0	40	0.2978766	19.30969	3.042801	
13:26:16	47.4659	-122.3106	97.444	102.5938	506.7876	30.7	30.63773	100	0	40	0.6643933	21.94516	5.039939	
13:26:17	47.4659	-122.3106	97.444	102.56	489.3879	30.7	30.63773	100	0	40	1.127499	24.41421	7.083501	
13:26:17	47.4659	-122.3106	97.444	102.5073	470.4313	30.7	30.63773	100	0	40	1.718661	26.75644	9.273435	
13:26:17	47.4659	-122.3106	97.444	102.4167	444.0818	30.7	30.63773	100	0	40	2.54009	29.08951	11.79175	
13:26:17	47.4659	-122.3106	97.444	102.2724	408.5866	30.7	30.63773	100	0	40	3.477858	31.34496	14.41306	
13:26:17	47.4659	-122.3106	97.444	102.1195	375.0622	30.7	30.63773	100	0	40	4.326403	33.46587	16.81576	
13:26:18	47.4659	-122.3106	97.444	101.911	333.2734	30.7	30.63773	100	0	41	5.309814	35.40733	19.37045	
13:26:18	47.4659	-122.3106	97.444	101.6527	285.8215	30.7	30.63773	100	0	41	6.382769	37.17862	22.02057	
13:26:18	47.4659	-122.3106	97.444	101.3575	235.701	30.7	30.63773	100	0	42	7.539667	38.81921	24.75326	
13:26:18	47.4659	-122.3106	97.444	100.9884	177.3602	30.7	30.63773	100	0	43	8.789577	40.37404	27.58157	
13:26:18	47.4659	-122.3106	97.444	100.6436	126.0949	30.7	30.63773	100	0	44	10.12398	41.82981	30.50741	
13:26:19	47.4659	-122.3106	97.444	100.1859	61.58994	30.7	30.63773	100	0	45	11.59795	43.17951	33.603	
13:26:19	47.4659	-122.3106	97.444	99.7364	1.420368	30.7	30.63773	100	0	47	13.16727	44.40482	36.8302	
13:26:19	47.4659	-122.3106	97.444	99.30466	-53.92106	30.7	30.63773	100	0	48	15.03068	45.51775	40.40717	
13:26:19	47.4659	-122.3106	97.444	98.75055	-122.133	30.7	30.63773	100	0	50	17.15203	46.50679	44.27895	
13:26:19	47.4659	-122.3106	97.444	98.22246	-184.7747	30.7	30.63773	100	0	52	19.50967	47.36475	48.42006	
13:26:20	47.4659	-122.3106	97.444	97.72844	-241.668	30.7	30.63773	100	0	53	22.04645	48.07313	52.74728	
13:26:20	47.4659	-122.3106	97.444	97.16154	-305.21	30.7	30.63773	100	0	55	24.37131	48.77308	56.91712	
13:26:20	47.4659	-122.3106	97.444	96.63325	-363.6996	30.7	30.63773	100	0	57	26.29404	49.56659	60.75588	
13:26:20	47.4659	-122.3106	97.444	96.04583	-427.14	30.7	30.63773	100	0	58	28.2661	50.1671	64.65337	
13:26:20	47.4659	-122.3106	97.444	95.45584	-488.9277	30.7	30.63773	100	0	60	30.17386	50.5742	68.47289	
13:26:21	47.4659	-122.3106	97.444	94.92193	-542.9637	30.7	30.63773	100	0	62	32.16447	50.77474	72.42323	
13:26:21	47.4659	-122.3106	97.444	94.26418	-606.9296	30.7	30.63773	100	0	64	34.1096	50.88972	76.34212	
13:26:21	47.4659	-122.3106	97.444	93.67904	-661.5524	30.7	30.63773	100	0	66	36.00681	50.92603	80.25867	
13:26:21	47.4659	-122.3106	97.444	93.10561	-713.0277	30.7	30.63773	100	0	67	37.85397	50.87926	84.16338	
13:26:21	47.4659	-122.3106	97.444	92.5332	-762.4866	30.7	30.63773	100	0	69	39.67632	50.74216	88.09718	
13:26:22	47.4659	-122.3106	97.444	91.98817	-807.8345	30.7	30.63773	100	0	71	41.42934	50.52995	92.00002	
13:26:22	47.4659	-122.3106	97.444	91.46517	-849.6921	30.7	30.63773	100	0	73	43.09801	50.25388	95.83482	
13:26:22	47.4659	-122.3106	97.444	91.00809	-884.9345	30.7	30.63773	100	0	75	44.6935	49.92644	99.65639	
13:26:22	47.4659	-122.3106	97.444	90.47493	-924.4858	30.7	30.63773	100	0	77	46.19627	49.55069	103.4346	
13:26:22	47.4659	-122.3106	97.444	90.02371	-956.5894	30.7	30.63773	100	0	78	47.61199	49.11525	107.1541	
13:26:23	47.4659	-122.3106	97.444	89.59496	-985.7476	30.7	30.63773	100	0	80	48.92965	48.64113	110.8099	
13:26:23	47.4659	-122.3106	97.444	89.20502	-1011.018	30.7	30.63773	100	0	82	50.17216	48.11634	114.4485	
13:26:23	47.4659	-122.3106	97.444	88.8327	-1033.948	30.7	30.63773	100	0	84	51.33441	47.54459	118.075	
13:26:23	47.4659	-122.3106	97.444	88.52386	-1051.884	30.7	30.63773	100	0	85	52.3972	46.9376	121.6096	
13:26:23	47.4659	-122.3106	97.444	88.21433	-1068.661	30.7	30.63773	100	0	87	53.3902	46.28333	125.1635	
13:26:24	47.4659	-122.3106	97.444	87.89931	-1084.305	30.7	30.63773	100	0	88	54.28113	45.61086	128.6241	
13:26:24	47.4659	-122.3106	97.444	87.65024	-1095.202	30.7	30.63773	100	0	90	54.98357	45.07347	131.9072	
13:26:24	47.4659	-122.3106	97.444	87.44904	-1102.663	30.7	30.63773	100	0	91	55.63978	44.49492	135.1815	
13:26:24	47.4659	-122.3106	97.444	87.23472	-1108.913	30.7	30.63773	100	0	93	56.2228	43.9209	138.4359	
13:26:24	47.4659	-122.3106	97.444	87.0686	-1112.065	30.7	30.63773	100	0	94	56.74647	43.33055	141.6575	
13:26:25	47.4659	-122.3106	97.444	86.94268	-1112.851	30.7	30.63773	100	0	95	57.22118	42.71283	144.8798	
13:26:25	47.4659	-122.3106	97.444	86.82782	-1111.69	30.7	30.63773	100	0	96	57.60967	42.14001	148.0659	
13:26:25	47.4659	-122.3106	97.444	86.73009	-1108.076	30.7	30.63773	100	0	97	57.95709	41.53064	151.2333	
13:26:25	47.4659	-122.3106	97.444	86.66734	-1102.59	30.7	30.63773	100	0	98	58.2645	40.88634	154.4178	
13:26:25	47.4659	-122.3106	97.444	86.63128	-1095.754	30.7	30.63773	100	0	99	58.52019	40.23479	157.6112	
13:26:26	47.4659	-122.3106	97.444	86.6125	-1085.222	30.7	30.63773	100	0	100	58.72501	39.58066	160.7846	
13:26:26	47.4659	-122.3106	97.444	86.61913	-1074.046	30.7	30.63773	100	0	101	58.89355	38.89482	163.9853	
13:26:26	47.4659	-122.3106	97.444	86.64687	-1061.125	30.7	30.63773	100	0	102	58.99375	38.25666	167.1351	
13:26:26	47.4659	-122.3106	97.444	86.68871	-1048.226	30.7	30.63773	100	0	103	59.05432	37.60912	170.2941	
13:26:26	47.4659	-122.3106	97.444	86.76151	-1030.65	30.7	30.63773	100	0	104	59.07148	36.96114	173.468	
13:26:27	47.4659	-122.3106	97.444	86.83822	-1014.987	30.7	30.63773	100	0	104	59.05401	36.29847	176.6333	
13:26:27	47.4659	-122.3106	97.444	86.9397	-996.3823	30.7	30.63773	100	0	105	59.00583	35.60592	179.8327	
13:26:27	47.4659	-122.3106	97.444	87.0714	-974.2462	30.7	30.63773	100	0	105	58.92363	34.89814	-176.9485	
13:26:27	47.4659	-122.3106	97.444	87.19414	-954.9757	30.7	30.63773	100	0	106	58.79509	34.21359	-173.7242	
13:26:27	47.4659	-122.3106	97.444	87.345	-932.4722	30.7	30.63773	100	0	107	58.63577	33.50856	-170.4695	
13:26:28	47.4659	-122.3106	97.444	87.52797	-906.4085	30.7	30.63773	100	0	107	58.42868	32.85753	-167.224	
13:26:28	47.4659	-122.3106	97.444	87.70805	-881.6954	30.7	30.63773	100	0	107	58.18905	32.20797	-163.9482	
13:26:28	47.4659	-122.3106	97.444	87.88338	-858.3607	30.7	30.63773	100	0	108	57.92443	31.54011	-160.6407	
13:26:28	47.4659	-122.3106	97.444	88.08952	-831.7393	30.7	30.63773	100	0	108	57.6314	30.87812	-157.3133	
13:26:28	47.4659	-122.3106	97.444	88.33054	-801.5088	30.7	30.63773	100	0	108	57.32501	30.17522	-153.9657	
13:26:29	47.4659	-122.3106	97.444	88.5595	-773.4739	30.7	30.63773	100	0	108	56.99681	29.44251	-150.5822	
13:26:29	47.4659	-122.3106	97.444	88.77508	-747.5125	30.7	30.63773	100	0	108	56.62761	28.73567	-147.1356	
13:26:29	47.4659	-122.3106	97.444	89.05057	-714.8419	30.7	30.63773	100	0	108	56.24313	28.00676	-143.6829	
13:26:29	47.4659	-122.3106	97.444	89.30867	-684.5908	30.7	30.63773	100	0	108	55.83307	27.26415	-140.1696	
13:26:29	47.4659	-122.3106	97.444	89.57635	-653.4962	30.7	30.63773	100	0	108	55.40194	26.51126	-136.6282	
13:26:30	47.4659	-122.3106	97.444	89.85568	-621.2975	30.7	30.63773	100	0	108	54.93928	25.75871	-133.0235	
13:26:30	47.4659	-122.3106	97.444	90.13854	-589.0596	30.7	30.63773	100	0	108	54.44467	25.02413	-129.4039	
13:26:30	47.4659	-122.3106	97.444	90.40169	-559.3625	30.7	30.63773	100	0	108	53.93026	24.29585	-125.7144	
13:26:30	47.4659	-122.3106	97.444	90.70035	-525.9906	30.7	30.63773	100	0	107	53.40132	23.53304	-121.9713	
13:26:30	47.4659	-122.3106	97.444	91.03773	-488.6413	30.7	30.63773	100	0	107	52.85413	22.73807	-118.1401	
13:26:31	47.4659	-122.3106	97.444	91.3531	-454.0045	30.7	30.63773	100	0	106	52.28452	21.92924	-114.2439	
13:26:31	47.4659	-122.3106	97.444	91.63945	-422.6253	30.7	30.63773	100	0	106	51.67693	21.1309	-110.2908	
13:26:31	47.4659	-122.3106	97.444	92.0024	-383.0601	30.7	30.63773	100	0	105	51.0418	20.36321	-106.2799	
13:26:31	47.4659	-122.3106	97.444	92.33356	-347.1219	30.7	30.63773	100	0	104	50.34279	19.69414	-102.2769	
13:26:31	47.4659	-122.3106	97.444	92.6751	-310.2746	30.7	30.63773	100	0	103	49.65621	18.98247	-98.08713	
13:26:32	47.4659	-122.3106	97.444	92.98771	-276.7453	30.7	30.63773	100	0	102	48.97435	18.22552	-93.85764	
13:26:32	47.4659	-122.3106	97.444	93.3711	-235.9653	30.7	30.63773	100	0	101	48.28171	17.43599	-89.54817	
13:26:32	47.4659	-122.3106	97.444	93.7182	-199.338	30.7	30.63773	100	0	100	47.55209	16.67925	-85.16764	
13:26:32	47.4659	-122.3106	97.444	94.03799	-165.7576	30.7	30.63773	100	0	99	46.80457	15.92412	-80.68766	
13:26:32	47.4659	-122.3106	97.444	94.43391	-124.4637	30.7	30.63773	100	0	98	46.01013	15.26924	-76.25213	
13:26:33	47.4659	-122.3106	97.444	94.79476	-87.07095	30.7	30.63773	100	0	97	45.19864	14.64636	-71.68166	
13:26:33	47.4659	-122.3106	97.444	95.12389	-53.22201	30.7	30.63773	100	0	96	44.39039	14.00611	-66.97044	
13:26:33	47.4659	-122.3106	97.444	95.52782	-12.03882	30.7	30.63773	100	0	95	43.57484	13.33118	-62.11962	
13:26:33	47.4659	-122.3106	97.444	95.89816	25.41671	30.7	30.63773	100	0	94	42.74114	12.72035	-57.2948	
13:26:33	47.4659	-122.3106	97.444	96.2672	62.41484	30.7	30.63773	100	0	92	41.86726	12.21563	-52.44435	
13:26:34	47.4659	-122.3106	97.444	96.63522	98.99998	30.7	30.63773	100	0	91	41.0093	11.70876	-47.45413	
13:26:34	47.4659	-122.3106	97.444	97.00919	135.784	30.7	30.63773	100	0	90	40.14786	11.27278	-42.45408	
13:26:34	47.4659	-122.3106	97.444	97.36848	170.7184	30.7	30.63773	100	0	89	39.28317	10.88834	-37.38858	
13:26:34	47.4659	-122.3106	97.444	97.6962	202.19	30.7	30.63773	100	0	88	38.4244	10.57369	-32.32403	
13:26:34	47.4659	-122.3106	97.444	98.09272	239.7319	30.7	30.63773	100	0	86	37.54182	10.38798	-27.2305	
13:26:35	47.4659	-122.3106	97.444	98.44739	272.7418	30.7	30.63773	100	0	85	36.67228	10.33302	-22.24239	
13:26:35	47.4659	-122.3106	97.444	98.79837	304.8363	30.7	30.63773	100	0	84	35.8381	10.3469	-17.19265	
13:26:35	47.4659	-122.3106	97.444	99.10342	332.1779	30.7	30.63773	100	0	82	35.03188	10.44267	-12.13811	
13:26:35	47.4659	-122.3106	97.444	99.47212	364.4206	30.7	30.63773	100	0	82	34.25914	10.62191	-7.133591	
13:26:35	47.4659	-122.3106	97.444	99.79835	392.1161	30.7	30.63773	100	0	80	33.50389	10.93354	-2.254104	
13:26:36	47.4659	-122.3106	97.444	100.0832	415.5806	30.7	30.63773	100	0	79	32.78497	11.38236	2.562584	
13:26:36	47.4659	-122.3106	97.444	100.4192	442.2482	30.7	30.63773	100	0	78	32.04438	12.20485	6.820635	
13:26:36	47.4659	-122.3106	97.444	100.7046	463.7595	30.7	30.63773	100	0	77	31.34541	13.16564	10.86199	
13:26:36	47.4659	-122.3106	97.444	100.9818	483.3372	30.7	30.63773	100	0	76	30.71813	14.18346	14.71727	
13:26:36	47.4659	-122.3106	97.444	101.2133	498.3646	30.7	30.63773	100	0	75	30.14503	15.2911	18.41221	
13:26:37	47.4659	-122.3106	97.444	101.4725	513.438	30.7	30.63773	100	0	74	29.62793	16.4774	21.95879	
13:26:37	47.4659	-122.3106	97.444	101.6877	523.9868	30.7	30.63773	100	0	73	29.16751	17.71737	25.45326	
13:26:37	47.4659	-122.3106	97.444	101.883	531.3195	30.7	30.63773	100	0	73	28.76975	18.98174	28.76168	
13:26:37	47.4659	-122.3106	97.444	102.0509	535.056	30.7	30.63773	100	0	72	28.42998	20.28741	32.08091	
13:26:37	47.4659	-122.3106	97.444	102.1899	535.2291	30.7	30.63773	100	0	72	28.15511	21.57456	35.24075	
13:26:38	47.4659	-122.3106	97.444	102.299	532.0534	30.7	30.63773	100	0	71	27.95789	22.83232	38.36387	
13:26:38	47.4659	-122.3106	97.444	102.3721	526.3303	30.7	30.63773	100	0	71	27.81064	24.08776	41.4091	
13:26:38	47.4659	-122.3106	97.444	102.4292	515.505	30.7	30.63773	100	0	70	27.69457	25.35344	44.33437	
13:26:38	47.4659	-122.3106	97.444	102.4484	502.4335	30.7	30.63773	100	0	70	27.66004	26.58156	47.30099	
13:26:38	47.4659	-122.3106	97.444	102.437	486.1264	30.7	30.63773	100	0	70	27.6325	27.83238	50.12471	
13:26:39	47.4659	-122.3106	97.444	102.3942	466.5887	30.7	30.63773	100	0	70	27.70015	29.06374	53.07528	
13:26:39	47.4659	-122.3106	97.444	102.3292	446.4779	30.7	30.63773	100	0	70	27.80074	30.28071	55.93542	
13:26:39	47.4659	-122.3106	97.444	102.2172	419.0936	30.7	30.63773	100	0	70	27.9239	31.46537	58.70182	
13:26:39	47.4659	-122.3106	97.444	102.0967	394.0126	30.7	30.63773	100	0	70	28.12943	32.57188	61.50756	
13:26:40	47.4659	-122.3106	97.444	101.919	361.1922	30.7	30.63773	100	0	71	28.39395	33.62508	64.3209	
13:26:40	47.4659	-122.3106	97.444	101.7264	328.9329	30.7	30.63773	100	0	71	28.72083	34.64544	67.2018	
13:26:40	47.4659	-122.3106	97.444	101.535	299.036	30.7	30.63773	100	0	71	29.09314	35.59721	70.03176	
13:26:40	47.4659	-122.3106	97.444	101.2993	264.4038	30.7	30.63773	100	0	72	29.5709	36.50124	73.01189	
13:26:40	47.4659	-122.3106	97.444	101.0097	224.1086	30.7	30.63773	100	0	73	30.03217	37.40373	75.90712	
13:26:41	47.4659	-122.3106	97.444	100.7305	187.0318	30.7	30.63773	100	0	73	30.55743	38.22961	78.8399	
13:26:41	47.4659	-122.3106	97.444	100.4338	149.2328	30.7	30.63773	100	0	74	31.14629	38.96944	81.80227	
13:26:41	47.4659	-122.3106	97.444	100.149	114.2673	30.7	30.63773	100	0	74	31.74978	39.68179	84.75275	
13:26:41	47.4659	-122.3106	97.444	99.82426	75.65872	30.7	30.63773	100	0	75	32.39684	40.34682	87.74453	
13:26:41	47.4659	-122.3106	97.444	99.45304	33.04665	30.7	30.63773	100	0	76	33.0885	40.95954	90.77781	
13:26:42	47.4659	-122.3106	97.444	99.14436	-1.333202	30.7	30.63773	100	0	77	33.84777	41.50014	93.88686	
13:26:42	47.4659	-122.3106	97.444	98.75462	-43.56525	30.7	30.63773	100	0	78	34.61107	42.0126	96.9973	
13:26:42	47.4659	-122.3106	97.444	98.39629	-81.34566	30.7	30.63773	100	0	79	35.41179	42.46666	100.152	
13:26:42	47.4659	-122.3106	97.444	98.06953	-114.9758	30.7	30.63773	100	0	80	36.28762	42.8243	103.4087	
13:26:42	47.4659	-122.3106	97.444	97.66577	-155.5037	30.7	30.63773	100	0	81	37.19203	43.12223	106.6776	
13:26:43	47.4659	-122.3106	97.444	97.30717	-190.6278	30.7	30.63773	100	0	82	38.02699	43.44829	109.8888	
13:26:43	47.4659	-122.3106	97.444	96.94678	-225.1529	30.7	30.63773	100	0	84	38.91854	43.67455	113.1662	
13:26:43	47.4659	-122.3106	97.444	96.58752	-258.8199	30.7	30.63773	100	0	85	39.81805	43.86297	116.4844	
13:26:43	47.4659	-122.3106	97.444	96.23642	-291.0049	30.7	30.63773	100	0	85	40.71447	44.00013	119.8026	
13:26:43	47.4659	-122.3106	97.444	95.89202	-321.9049	30.7	30.63773	100	0	87	41.62541	44.07534	123.1438	
13:26:44	47.4659	-122.3106	97.444	95.58878	-348.5509	30.7	30.63773	100	0	88	42.47007	44.16395	126.4328	
13:26:44	47.4659	-122.3106	97.444	95.22949	-379.4106	30.7	30.63773	100	0	89	43.22232	44.29599	129.5999	
13:26:44	47.4659	-122.3106	97.444	94.94143	-403.6016	30.7	30.63773	100	0	90	43.96267	44.4096	132.7936	
13:26:44	47.4659	-122.3106	97.444	94.62683	-429.4323	30.7	30.63773	100	0	91	44.68882	44.47751	135.9338	
13:26:44	47.4659	-122.3106	97.444	94.30369	-455.3878	30.7	30.63773	100	0	92	45.41903	44.50239	139.1065	
13:26:45	47.4659	-122.3106	97.444	94.01829	-477.8163	30.7	30.63773	100	0	93	46.14519	44.48888	142.302	
13:26:45	47.4659	-122.3106	97.444	93.75049	-498.4503	30.7	30.63773	100	0	94	46.91139	44.38086	145.5569	
13:26:45	47.4659	-122.3106	97.444	93.49306	-517.8496	30.7	30.63773	100	0	95	47.59459	44.31803	148.7467	
13:26:45	47.4659	-122.3106	97.444	93.24896	-535.7986	30.7	30.63773	100	0	96	48.30423	44.16696	151.9798	
13:26:45	47.4659	-122.3106	97.444	93.01705	-552.4214	30.7	30.63773	100	0	97	48.97299	44.00505	155.1991	
13:26:46	47.4659	-122.3106	97.444	92.82175	-566.0162	30.7	30.63773	100	0	98	49.64772	43.77456	158.4555	
13:26:46	47.4659	-122.3106	97.444	92.61442	-580.0514	30.7	30.63773	100	0	99	50.2816	43.52742	161.6863	
13:26:46	47.4659	-122.3106	97.444	92.40475	-593.6605	30.7	30.63773	100	0	100	50.89819	43.23794	164.9453	
13:26:46	47.4659	-122.3106	97.444	92.24648	-603.4889	30.7	30.63773	100	0	101	51.50164	42.89313	168.2189	
13:26:46	47.4659	-122.3106	97.444	92.0828	-613.1619	30.7	30.63773	100	0	102	52.06721	42.52507	171.4888	
13:26:47	47.4659	-122.3106	97.444	91.91766	-622.3141	30.7	30.63773	100	0	103	52.61075	42.10695	174.7736	
13:26:47	47.4659	-122.3106	97.444	91.78282	-629.1429	30.7	30.63773	100	0	104	53.12127	41.65025	178.0629	
13:26:47	47.4659	-122.3106	97.444	91.67322	-634.0094	30.7	30.63773	100	0	105	53.63079	41.10408	-178.5999	
13:26:47	47.4659	-122.3106	97.444	91.56346	-638.1665	30.7	30.63773	100	0	106	54.06577	40.58443	-175.29	
13:26:47	47.4659	-122.3106	97.444	91.45905	-641.0709	30.7	30.63773	100	0	107	54.46676	40.02485	-171.9669	
13:26:48	47.4659	-122.3106	97.444	91.37969	-642.2428	30.7	30.63773	100	0	107	54.83851	39.40991	-168.6264	
13:26:48	47.4659	-122.3106	97.444	91.31308	-641.9367	30.7	30.63773	100	0	108	55.17578	38.746	-165.2526	
13:26:48	47.4659	-122.3106	97.444	91.26151	-640.2431	30.7	30.63773	100	0	109	55.47145	38.04465	-161.846	
13:26:48	47.4659	-122.3106	97.444	91.22684	-637.4205	30.7	30.63773	100	0	110	55.72254	37.31447	-158.453	
13:26:48	47.4659	-122.3106	97.444	91.20033	-632.3064	30.7	30.63773	100	0	110	55.92272	36.56583	-155.015	
13:26:49	47.4659	-122.3106	97.444	91.19155	-625.7617	30.7	30.63773	100	0	111	56.08322	35.77307	-151.5547	
13:26:49	47.4659	-122.3106	97.444	91.19799	-617.7727	30.7	30.63773	100	0	111	56.19451	34.96031	-148.0918	
13:26:49	47.4659	-122.3106	97.444	91.21695	-609.1244	30.7	30.63773	100	0	111	56.25747	34.1296	-144.6215	
13:26:49	47.4659	-122.3106	97.444	91.25707	-596.9072	30.7	30.63773	100	0	112	56.2779	33.25838	-141.1048	
13:26:49	47.4659	-122.3106	97.444	91.30819	-584.5207	30.7	30.63773	100	0	113	56.25183	32.36356	-137.5771	
13:26:50	47.4659	-122.3106	97.444	91.36744	-571.962	30.7	30.63773	100	0	113	56.17856	31.43906	-133.9984	
13:26:50	47.4659	-122.3106	97.444	91.4484	-556.3917	30.7	30.63773	100	0	114	56.05938	30.49161	-130.4027	
13:26:50	47.4659	-122.3106	97.444	91.55479	-537.4301	30.7	30.63773	100	0	114	55.88896	29.52088	-126.7584	
13:26:50	47.4659	-122.3106	97.444	91.66749	-518.6063	30.7	30.63773	100	0	21	55.66821	28.53839	-123.0702	
13:26:50	47.4659	-122.3106	97.444	91.78278	-500.1262	30.7	30.63773	100	0	21	55.40272	27.52125	-119.3084	
13:26:51	47.4659	-122.3106	97.444	91.94137	-475.7358	30.7	30.63773	100	0	21	55.08763	26.48204	-115.5083	
13:26:51	47.4659	-122.3106	97.444	92.10234	-451.7598	30.7	30.63773	100	0	21	54.72264	25.42121	-111.6246	
13:26:51	47.4659	-122.3106	97.444	92.28049	-425.9488	30.7	30.63773	100	0	21	48.58128	23.29004	-109.5988	
13:26:51	47.4659	-122.3106	97.444	92.43321	-453.4998	30.7	30.63773	100	0	21	16.32947	11.94717	-114.7362	
13:26:51	47.46593	-122.3106	97.443	92.20934	-865.9419	30.27	30.63773	100	0	21	-14.78499	-4.942271	-113.8549	
13:26:52	47.46593	-122.3106	97.443	90.99722	-1464.984	30.27	30.21313	100	0	21	-37.61031	-16.86544	-104.9003	
13:26:52	47.46597	-122.3105	96.512	89.2001	-1909.303	28.53	30.21313	100	0	21	-44.31935	-17.96471	-96.70446	
13:26:52	47.46601	-122.3104	92.699	86.49136	-2194.445	24.17	28.46514	100	0	21	-42.13455	-16.92986	-96.70306	
13:26:52	47.46604	-122.3104	88.692	83.51887	-2220.125	22.15	24.11867	100	0	21	-39.4197	-16.99212	-102.0152	
13:26:52	47.46606	-122.3103	84.769	80.53671	-2107.933	22.04	22.10302	100	0	21	-38.0708	-13.9731	-107.2541	
13:26:53	47.46609	-122.3103	80.632	77.81149	-1892.358	22.93	21.99127	100	0	21	-35.25391	-8.418744	-110.477	
13:26:53	47.46612	-122.3102	76.503	75.39692	-1616.253	24.57	22.87315	100	0	21	-30.31222	-2.433628	-114.2836	
13:26:53	47.46617	-122.3102	71.617	73.45289	-1334.003	27.02	24.50836	100	0	20	-25.65767	2.665328	-118.5259	
13:26:53	47.46621	-122.3101	68.998	71.43516	-1012.357	28.37	26.94226	100	0	21	-21.19748	6.935328	-120.6655	
13:26:53	47.46625	-122.3101	66.865	69.41108	-819.4689	29.33	28.28195	100	0	21	-15.72061	9.217711	-120.3177	
13:26:54	47.46631	-122.31	64.301	67.71377	-723.3811	29.96	29.00875	100	0	21	-9.512331	9.106878	-119.2285	
13:26:54	47.46631	-122.31	64.301	66.14785	-715.8147	29.96	29.60379	100	0	21	-3.26976	6.439569	-118.422	
13:26:54	47.46635	-122.31	62.961	64.41679	-808.3042	29.95	29.60379	100	0	21	2.410148	2.663567	-117.8088	
13:26:54	47.4664	-122.31	61.338	62.24686	-980.7334	29.6	29.58426	100	0	21	7.503211	-0.6035969	-116.7725	
13:26:54	47.46645	-122.3099	59.224	60.06504	-1101.937	28.95	29.23138	100	0	26	12.62889	-1.590074	-115.3082	
13:26:55	47.4665	-122.3099	56.969	58.05173	-1098.658	28.47	28.58851	100	0	33	17.85101	-0.3055342	-113.1561	
13:26:55	47.46655	-122.3098	54.657	55.69489	-994.2958	28.47	28.10915	100	0	33	22.92463	2.80575	-109.9823	
13:26:55	47.46658	-122.3098	52.827	53.87148	-781.1526	28.79	28.11027	100	0	33	26.32841	6.347847	-105.5786	
13:26:55	47.46666	-122.3097	49.748	52.56001	-545.8599	29.98	28.44064	100	0	33	28.64142	9.424453	-100.7144	
13:26:55	47.46666	-122.3097	49.748	51.58504	-375.7154	29.98	29.69165	100	0	33	30.44023	12.75786	-95.97837	
13:26:56	47.4667	-122.3097	48.454	50.52777	-237.3698	30.31	29.69165	100	0	43	31.37596	15.19301	-91.79726	
13:26:56	47.46674	-122.3096	47.654	49.83565	-160.6855	30.28	30.05846	100	0	47	31.59985	16.56632	-87.99104	
13:26:56	47.46678	-122.3096	47.18	49.12437	-109.543	30.04	29.53548	100	0	50	31.56461	17.06839	-84.29174	
13:26:56	47.46684	-122.3095	46.913	48.6172	-92.1147	29.53	29.32354	100	0	56	31.63856	17.24643	-80.62543	
13:26:56	47.46687	-122.3094	46.854	48.09291	-82.59385	29.2	28.85011	100	0	68	31.82586	17.49718	-76.98782	
13:26:57	47.46691	-122.3094	46.944	47.75116	-72.74657	28.92	28.3488	100	0	85	31.94917	17.50682	-73.50491	
13:26:57	47.46695	-122.3093	47.185	47.4826	-53.66857	28.61	28.10397	100	0	99	31.91491	17.696	-69.73733	
13:26:57	47.46695	-122.3093	47.185	47.34076	-16.28972	28.61	27.84129	100	0	99	32.0898	18.2714	-65.52415	
13:26:57	47.46698	-122.3092	47.44	47.35852	35.40577	28.52	27.84129	100	0	99	32.66154	18.91822	-61.14249	
13:26:57	47.467	-122.3092	47.709	47.50332	95.32137	28.61	27.554	100	0	99	33.80397	19.88991	-56.59378	
13:26:58	47.46703	-122.3091	48.029	47.84845	173.2718	28.86	27.69611	100	0	99	35.05879	21.11708	-51.89689	
13:26:58	47.46705	-122.309	48.561	48.2755	237.6328	29.07	28.00483	100	0	99	36.16115	22.14769	-47.01082	
13:26:58	47.46707	-122.3089	49.28	48.76556	286.5754	29.26	27.86133	100	0	99	37.17812	22.95626	-42.16041	
13:26:58	47.46709	-122.3088	50.06	49.43264	327.8472	29.33	28.14355	100	0	99	37.91561	23.64409	-37.4976	
13:26:58	47.46709	-122.3088	50.777	50.24126	358.2549	29.36	28.30225	100	0	99	38.35625	23.95977	-32.83824	
13:26:59	47.46711	-122.3086	51.971	51.02755	377.8937	29.4	28.19093	100	0	99	38.5852	23.84508	-28.28723	
13:26:59	47.46711	-122.3086	52.763	51.86504	389.6654	29.42	28.32973	100	0	99	39.05076	24.00117	-23.61974	
13:26:59	47.46711	-122.3085	53.496	52.71881	397.5701	29.45	28.4328	100	0	99	39.46762	23.99947	-18.8784	
13:26:59	47.4671	-122.3084	54.229	53.58918	405.9223	29.48	28.2905	100	0	99	39.91058	23.79819	-13.98573	
13:26:59	47.46709	-122.3083	54.788	54.41986	410.154	29.52	28.39919	100	0	99	40.36106	23.6075	-9.148507	
13:27:00	47.46708	-122.3082	55.661	55.1955	409.8046	29.57	28.51684	100	0	99	40.73351	23.53474	-4.231319	
13:27:00	47.46707	-122.3082	56.219	55.91093	411.6626	29.62	28.36019	100	0	99	41.25042	23.80204	1.062295	
13:27:00	47.46707	-122.3082	56.219	56.70809	416.9974	29.62	28.49829	100	0	99	41.57582	23.64452	6.288364	
13:27:00	47.46705	-122.3081	56.764	57.38926	417.6038	29.67	28.49829	100	0	99	41.52343	22.60865	10.76056	
13:27:00	47.46702	-122.308	57.556	58.0146	376.9959	29.75	28.65593	100	0	99	41.17149	20.95531	14.40866	
13:27:01	47.467	-122.3079	58.027	58.50747	295.1764	29.84	28.59725	100	0	99	40.56744	18.88888	17.66447	
13:27:01	47.46696	-122.3078	58.311	58.85521	194.0703	30	28.7848	100	0	99	40.15281	16.08479	20.62515	
13:27:01	47.46693	-122.3078	58.412	58.98645	75.91655	30.21	29.01183	100	0	99	40.32967	13.01383	23.41882	
13:27:01	47.4669	-122.3077	58.134	58.89558	-48.51763	30.42	29.1363	100	0	99	40.64085	9.711288	25.86087	
13:27:01	47.46686	-122.3076	57.29	58.5719	-184.3971	30.71	29.40027	100	0	99	41.02398	6.145148	28.56539	
13:27:02	47.46683	-122.3075	56.425	57.89092	-331.1082	30.88	29.74321	100	0	99	41.31886	2.988504	31.39006	
13:27:02	47.46679	-122.3075	55.336	56.91654	-462.1952	31.04	29.30235	100	0	99	41.40077	1.27987	35.17439	
13:27:02	47.46676	-122.3074	53.892	55.82907	-516.3439	31.31	29.49204	100	0	100	41.11478	1.00712	40.77819	
13:27:02	47.46671	-122.3073	51.518	54.70481	-490.4751	31.96	29.82645	100	0	99	40.89543	2.657054	48.06903	
13:27:02	47.46666	-122.3073	49.857	53.77567	-380.0492	32.53	29.8564	100	0	99	41.1133	4.998317	55.48554	
13:27:03	47.4666	-122.3072	47.967	52.68212	-253.8214	33.15	30.64012	100	0	99	41.94791	5.831213	61.67399	
13:27:03	47.4666	-122.3072	47.967	51.72956	-231.7455	33.15	31.18106	100	0	99	42.59251	5.099303	66.55054	
13:27:03	47.46655	-122.3072	46.813	50.85095	-284.2922	33.43	31.18106	100	0	99	42.4664	4.014004	71.16746	
13:27:03	47.4665	-122.3071	45.48	49.50268	-392.6719	33.56	31.62889	100	0	99	41.81771	3.744909	76.424	
13:27:03	47.46645	-122.3071	44.155	47.94938	-442.2694	33.68	31.85815	100	0	99	41.46631	3.744798	82.01166	
13:27:04	47.46639	-122.307	42.536	46.67453	-442.4932	33.94	31.93903	100	0	99	41.72311	3.957865	87.75117	
13:27:04	47.46633	-122.307	40.844	45.19174	-436.9561	34.26	32.3428	100	0	99	42.36436	4.549883	93.73363	
13:27:04	47.46624	-122.307	38.458	43.51878	-429.9085	34.67	32.20189	100	0	91	43.05493	5.34733	99.82578	
13:27:04	47.46618	-122.307	36.939	42.1834	-417.2765	34.94	32.89469	100	0	70	43.91172	5.933428	106.0188	
13:27:04	47.46611	-122.307	35.506	40.46023	-419.766	35.14	33.08743	100	0	56	44.3302	6.258419	112.1872	
13:27:05	47.46606	-122.307	34.233	38.96624	-426.9445	35.14	33.47232	100	0	47	44.63306	6.609405	118.063	
13:27:05	47.46599	-122.307	32.698	37.43105	-443.9101	34.88	33.1873	100	0	24	44.4008	6.672687	123.5099	
13:27:05	47.46599	-122.307	32.698	35.9471	-468.3221	34.88	33.14846	100	0	20	44.22007	6.261078	128.8991	
13:27:05	47.46593	-122.307	31.341	34.58558	-503.5968	34.55	33.14846	100	0	15	44.29502	5.170118	134.2441	
13:27:05	47.46585	-122.307	29.63	32.70129	-574.95	33.9	32.60419	100	0	13	43.9389	4.67136	139.4122	
13:27:06	47.46579	-122.307	28.403	30.96962	-626.6706	33.33	32.20723	100	0	14	38.85679	4.705442	144.9662	
13:27:06	47.46574	-122.307	27.144	29.26296	-634.4482	32.75	31.51788	100	0	13	28.00586	6.207371	151.4701	
13:27:06	47.46569	-122.3071	25.799	27.76747	-550.8998	32.2	31.11693	100	0	13	17.51888	9.082395	157.5662	
13:27:06	47.46563	-122.3071	24.489	26.50134	-423.3302	31.77	30.29486	100	0	13	10.24533	11.951	161.5349	
13:27:06	47.46555	-122.3072	23.117	25.53376	-331.6385	31.14	30.13207	100	0	4	6.26218	13.68653	164.165	
13:27:07	47.46551	-122.3072	22.596	24.72364	-294.7661	30.63	29.34789	100	0	4	4.424875	14.69488	166.7792	
13:27:07	47.46547	-122.3073	22.23	23.74837	-323.876	30.13	28.95013	100	0	4	3.252316	13.90023	169.4724	
13:27:07	47.46543	-122.3073	21.802	22.81808	-384.109	29.5	28.51255	100	0	4	6.91991	12.30348	172.5633	
13:27:07	47.46538	-122.3073	21.339	21.96089	-446.6608	28.84	27.9333	100	0	4	12.69176	10.57983	175.3884	
13:27:07	47.46534	-122.3074	20.842	20.94834	-504.0851	28.26	27.31845	100	0	4	16.66235	9.371964	178.6956	
13:27:08	47.46528	-122.3075	19.959	19.9938	-521.2305	27.56	26.47124	100	0	4	19.62589	9.118414	-176.9872	
13:27:08	47.46528	-122.3075	19.959	19.11247	-483.0217	27.56	25.90166	100	0	16	23.01062	9.636315	-172.0671	
13:27:08	47.46524	-122.3075	19.484	18.41512	-418.1888	27.18	25.90166	100	0	22	27.61276	9.990392	-167.1746	
13:27:08	47.46521	-122.3075	18.903	17.8774	-357.552	26.84	25.66311	100	0	30	31.53008	10.29674	-162.1407	
13:27:08	47.46517	-122.3076	18.65	17.42407	-305.1991	26.47	24.8612	100	0	30	34.59557	10.46155	-156.8501	
13:27:09	47.46514	-122.3076	18.235	17.11516	-262.2349	26.1	24.72299	100	0	30	36.09467	10.4297	-150.8712	
13:27:09	47.46511	-122.3077	18.101	16.87244	-212.3926	25.82	24.63956	100	0	31	37.23024	10.41381	-144.8341	
13:27:09	47.46507	-122.3078	18.012	16.75015	-162.3104	25.45	24.22644	100	0	30	38.36786	10.54046	-138.947	
13:27:09	47.46505	-122.3078	18.002	16.72694	-117.4222	25.19	24.33482	100	0	31	39.23567	10.78765	-133.2311	
13:27:09	47.46503	-122.3079	18.045	16.78627	-75.72579	24.9	24.21988	100	0	31	39.39602	11.02447	-127.6237	
13:27:10	47.46501	-122.3079	18.238	16.93176	-30.44141	24.58	24.30718	100	0	31	39.28898	10.92923	-122.0176	
13:27:10	47.46499	-122.308	18.514	17.14343	4.269509	24.24	24.09809	100	0	31	39.33729	10.5715	-116.5664	
13:27:10	47.46498	-122.3081	18.822	17.40811	28.60477	23.9	24.16601	100	0	30	39.55787	10.23795	-111.2763	
13:27:10	47.46497	-122.3081	19.402	17.7128	47.62564	23.41	24.21087	100	0	30	39.5209	9.98695	-106.2757	
13:27:10	47.46497	-122.3082	19.777	18.15422	70.69747	23.1	24.0273	100	0	31	40.20226	9.417904	-101.5332	
13:27:11	47.46497	-122.3083	20.235	18.56793	82.56962	22.77	24.04033	100	0	31	40.91775	7.443	-97.70325	
13:27:11	47.46497	-122.3083	20.705	18.91599	51.32648	22.47	24.03368	100	0	31	41.17838	4.953173	-94.17487	
13:27:11	47.46497	-122.3084	21.011	19.25663	1.088412	22.28	23.94409	100	0	31	41.39977	2.948864	-90.24768	
13:27:11	47.46497	-122.3084	21.011	19.52487	-48.36154	22.28	23.96876	100	0	31	41.17478	1.609952	-85.9232	
13:27:11	47.46498	-122.3085	21.289	19.70434	-65.55748	22.08	23.96876	100	0	31	40.87362	0.7598666	-81.20361	
13:27:12	47.46499	-122.3085	21.46	19.85561	-68.46157	21.98	24.06772	100	0	31	40.59945	0.4371109	-76.07381	
13:27:12	47.465	-122.3086	21.533	20.06308	-50.61769	21.88	23.86002	100	0	31	40.45901	0.6350483	-70.43722	
13:27:12	47.46502	-122.3086	21.462	20.25103	-17.36912	21.78	24.02634	100	0	31	40.54276	1.158267	-64.51621	
13:27:12	47.46504	-122.3087	21.406	20.5135	33.65576	21.65	24.22855	100	0	31	41.06313	1.709805	-58.53498	
13:27:13	47.46506	-122.3088	21.521	20.78565	79.01463	21.53	24.12223	100	0	30	42.04528	2.047984	-52.61066	
13:27:13	47.46509	-122.3088	21.613	21.10152	115.5235	21.31	24.29416	100	0	31	42.41965	2.31347	-46.61121	
13:27:13	47.46512	-122.3089	21.805	21.41196	142.209	21.16	24.25243	100	0	31	43.23839	2.43248	-40.63476	
13:27:13	47.46514	-122.3089	21.879	21.74838	164.463	21.04	24.3364	100	0	31	43.54358	2.388315	-34.76729	
13:27:13	47.46518	-122.3089	22.225	22.11813	179.2421	20.81	24.28329	100	0	31	43.38068	2.204413	-28.76517	
13:27:14	47.46518	-122.3089	22.225	22.45197	187.3072	20.81	24.3439	100	0	31	43.71569	1.91432	-22.67953	
13:27:14	47.46522	-122.309	22.374	22.73866	191.0988	20.66	24.3439	100	0	31	43.71789	1.825361	-16.75708	
13:27:14	47.46525	-122.309	22.542	23.0563	193.8768	20.53	24.09567	100	0	31	43.50905	1.888807	-10.78646	
13:27:14	47.4653	-122.309	22.78	23.32494	197.9485	20.35	24.09357	100	0	31	43.36646	1.950272	-4.841312	
13:27:14	47.46532	-122.309	22.763	23.59147	202.9054	20.29	23.73432	100	0	31	43.18507	1.958748	1.201401	
13:27:15	47.46537	-122.309	22.936	23.81702	204.9795	20.11	23.71652	100	0	31	42.45466	2.064953	7.251788	
13:27:15	47.46541	-122.309	23.026	24.03585	208.1638	20.02	23.29503	100	0	31	42.87849	2.024971	13.32219	
13:27:15	47.46544	-122.309	23.005	24.23161	208.5429	19.93	23.22414	100	0	31	43.02565	2.020408	19.38585	
13:27:15	47.46548	-122.309	23.052	24.39057	205.1711	19.85	23.05456	100	0	31	43.01029	2.058542	25.40669	
13:27:15	47.46548	-122.309	23.052	24.51888	200.2988	19.85	22.95778	100	0	31	42.85332	2.172734	31.38667	
13:27:16	47.46556	-122.309	22.867	24.61019	195.3633	19.71	22.95778	100	0	30	43.3084	2.237299	37.33761	
13:27:16	47.46558	-122.3089	22.864	24.66117	187.8686	19.68	22.34311	100	0	30	43.56223	2.274682	43.4301	
13:27:16	47.46562	-122.3089	22.555	24.66665	178.4263	19.63	22.26316	100	0	31	43.58823	2.426604	49.67667	
13:27:16	47.46564	-122.3089	22.381	24.61832	168.1056	19.6	22.10189	100	0	30	44.06232	2.625737	56.07856	
13:27:16	47.46566	-122.3088	22.107	24.52548	159.2472	19.6	21.92077	100	0	31	44.18004	3.048394	62.52287	
13:27:17	47.46568	-122.3088	21.851	24.39626	152.9744	19.58	21.77864	100	0	31	44.06842	3.650775	69.08561	
13:27:17	47.4657	-122.3087	21.574	24.19729	148.7348	19.58	21.57956	100	0	30	44.12929	4.604387	75.85331	
13:27:17	47.46571	-122.3087	21.204	24.02093	154.6466	19.55	21.05482	100	0	30	44.69596	5.500614	82.73851	
13:27:17	47.46572	-122.3086	20.675	23.83087	160.4527	19.5	20.79195	100	0	31	45.38127	6.188416	89.75439	
13:27:17	47.46572	-122.3086	20.382	23.57868	160.6014	19.44	20.24195	100	0	31	46.22275	6.647431	96.74511	
13:27:18	47.46572	-122.3086	20.382	23.30546	153.676	19.44	19.88906	100	0	31	46.82166	6.997091	103.6646	
13:27:18	47.46572	-122.3085	20.105	22.99686	139.334	19.35	19.88906	100	0	31	47.18419	7.350026	110.4712	
13:27:18	47.46572	-122.3085	19.784	22.69455	122.8687	19.27	19.61424	100	0	30	47.23336	7.65482	117.4235	
13:27:18	47.46571	-122.3084	19.612	22.36454	107.0424	19.2	19.29095	100	0	30	46.99361	8.012329	124.5	
13:27:18	47.4657	-122.3084	19.253	22.01097	94.31668	19.1	18.87852	100	0	22	46.00702	8.295706	131.4826	
13:27:19	47.46568	-122.3083	18.879	21.66528	83.92818	18.95	18.51248	100	0	21	43.81125	8.43425	138.0656	
13:27:19	47.46565	-122.3083	18.726	21.3001	72.7213	18.83	17.91022	100	0	5	40.96456	8.383091	144.1491	
13:27:19	47.46563	-122.3082	18.605	20.95158	57.68019	18.68	17.5981	100	0	6	36.49244	8.188218	149.5641	
13:27:19	47.46559	-122.3082	18.338	20.6122	40.80581	18.31	17.47275	100	0	4	31.94113	7.575929	153.7771	
13:27:19	47.46559	-122.3082	18.338	20.24231	5.075027	18.31	16.89339	100	0	4	29.05596	6.476126	156.6989	
13:27:20	47.46556	-122.3082	18.216	19.88373	-37.60352	17.99	16.89339	100	0	4	25.94716	5.204792	158.95	
13:27:20	47.46552	-122.3081	18.06	19.43516	-95.46124	17.56	16.47164	100	0	4	21.12221	3.919978	160.87	
13:27:20	47.4655	-122.3081	17.846	18.93178	-152.0993	17.34	16.38109	100	0	4	14.38919	2.678927	162.6548	
13:27:20	47.46547	-122.3081	17.68	18.39867	-200.2577	17.15	16.1254	100	0	3	8.710167	1.466015	164.4892	
13:27:20	47.46543	-122.3081	17.208	17.85583	-240.0668	16.93	15.90463	100	0	4	4.463115	0.5341272	165.8132	
13:27:21	47.4654	-122.3081	16.819	17.22042	-277.5516	16.8	15.66327	100	0	5	0.6069232	-0.01202588	166.4427	
13:27:21	47.46537	-122.3081	16.245	16.61484	-300.8127	16.72	15.5186	100	0	4	-3.060044	-0.2295719	166.507	
13:27:21	47.46534	-122.308	15.781	16.00312	-312.9614	16.67	15.43228	100	0	4	-5.392513	0.003376235	166.1329	
13:27:21	47.46531	-122.308	15.157	15.37853	-311.2302	16.64	15.37339	100	0	4	-5.979248	0.3772941	165.5998	
13:27:21	47.46529	-122.308	14.704	14.84676	-302.9176	16.63	15.34303	100	0	4	-4.497392	0.8194872	164.9742	
13:27:22	47.46524	-122.308	13.893	14.26018	-283	16.62	15.33383	100	0	4	-0.4402682	1.155731	164.6593	
13:27:22	47.46521	-122.308	13.351	13.68219	-270.2742	16.6	15.32903	100	0	4	4.613728	1.508156	164.9802	
13:27:22	47.46518	-122.308	12.854	13.14944	-259.4502	16.56	15.3144	100	0	4	9.174438	1.877535	166.1053	
13:27:22	47.46516	-122.308	12.291	12.63747	-249.4807	16.5	15.27093	100	0	5	12.52095	2.215404	168.321	
13:27:22	47.46513	-122.308	11.925	12.19312	-240.5616	16.45	15.21024	100	0	4	14.49354	2.526082	171.4788	
13:27:23	47.46509	-122.308	11.233	11.70903	-224.9944	16.34	15.39946	100	0	4	14.56442	2.809587	175.002	
13:27:23	47.46507	-122.3079	11.06	11.3209	-207.011	16.29	15.28524	100	0	5	12.55564	3.136798	178.7239	
13:27:23	47.46503	-122.3079	10.494	10.91398	-189.2733	16.14	15.23533	100	0	5	9.450316	3.679473	-178.0213	
13:27:23	47.46503	-122.3079	10.494	10.57468	-168.6565	16.14	15.07771	100	0	5	6.702724	4.506754	-175.356	
13:27:23	47.465	-122.3079	10.173	10.25927	-146.7047	16.03	15.07771	100	0	4	4.109483	5.458196	-173.4575	
13:27:24	47.46498	-122.3079	9.831	10.00015	-125.6455	15.9	14.77855	100	0	4	1.669363	6.267552	-172.3028	
13:27:24	47.46495	-122.3079	9.588	9.7375	-106.4632	15.75	14.65349	100	0	4	-0.5708374	6.816059	-171.6013	
13:27:24	47.46492	-122.3079	9.33	9.512708	-93.26511	15.57	14.49704	100	0	4	-2.671568	7.048442	-170.9567	
13:27:24	47.46489	-122.3079	9.183	9.303666	-88.03994	15.37	14.32097	100	0	4	-4.692113	6.800702	-170.3692	
13:27:24	47.46487	-122.3079	8.992	9.079701	-95.84145	15.17	14.12877	100	0	4	-6.686402	6.33088	-169.8486	
13:27:25	47.46483	-122.3079	8.82	8.894242	-109.0173	14.89	13.92492	100	0	4	-8.042836	5.882709	-169.3818	
13:27:25	47.46481	-122.3079	8.715	8.636287	-128.3533	14.74	13.64852	100	0	5	-8.596388	5.532903	-169.1036	
13:27:25	47.46477	-122.3079	8.432	8.399791	-143.1022	14.51	13.49709	100	0	4	-8.847457	5.341465	-169.0414	
13:27:25	47.46474	-122.3079	8.196	8.154853	-152.4547	14.39	13.27179	100	0	4	-9.030677	5.357518	-169.124	
13:27:25	47.46471	-122.3079	7.914	7.844514	-158.2808	14.27	13.14755	100	0	4	-9.073226	5.513281	-169.2407	
13:27:26	47.46471	-122.3079	7.914	7.570073	-158.9325	14.27	13.02336	100	0	4	-8.726063	5.853047	-169.3313	
13:27:26	47.46469	-122.3079	7.646	7.339912	-156.179	14.16	13.02336	100	0	4	-7.740387	6.37882	-169.3123	
13:27:26	47.46466	-122.3079	7.423	7.078994	-144.8518	14.06	12.9102	100	0	4	-6.571391	7.00745	-169.1293	
13:27:26	47.46463	-122.3079	7.16	6.8716	-131.6863	13.95	12.80811	100	0	5	-5.587642	7.664283	-168.7348	
13:27:26	47.46461	-122.3079	6.942	6.684361	-118.0097	13.83	12.69721	100	0	5	-4.922813	8.251924	-168.0307	
13:27:27	47.46457	-122.3079	6.569	6.538699	-106.6549	13.63	12.57705	100	0	4	-4.346472	8.75481	-167.0743	
13:27:27	47.46455	-122.3079	6.413	6.354924	-99.26702	13.47	12.37712	100	0	5	-3.733226	9.198931	-165.9013	
13:27:27	47.46453	-122.3079	6.204	6.192368	-93.2929	13.31	12.21709	100	0	4	-3.150686	9.469174	-164.6062	
13:27:27	47.46449	-122.3079	6.002	6.001324	-90.209	13.06	11.86449	100	0	4	-3.165125	9.530013	-163.257	
13:27:27	47.46447	-122.3079	5.827	5.833076	-91.17659	12.9	11.61974	100	0	5	-4.101095	9.437645	-161.9446	
13:27:28	47.46445	-122.3079	5.729	5.65781	-96.68321	12.74	11.46551	100	0	4	-5.435077	9.192476	-160.6609	
13:27:28	47.46443	-122.3079	5.558	5.484145	-104.7031	12.57	11.31303	100	0	6	-6.428167	8.987102	-159.5831	
13:27:28	47.4644	-122.3079	5.35	5.299675	-112.9125	12.41	11.15107	100	0	6	-7.119874	8.80206	-158.7963	
13:27:28	47.46438	-122.3079	5.168	5.121449	-119.2719	12.28	10.99754	100	0	6	-7.384907	8.684976	-158.4085	
13:27:28	47.46435	-122.308	4.829	4.900788	-124.7082	12.11	10.87168	100	0	10	-7.372857	8.648171	-158.2938	
13:27:29	47.46433	-122.308	4.662	4.685691	-127.7909	12.02	10.70433	100	0	14	-7.039644	8.726585	-158.3461	
13:27:29	47.4643	-122.308	4.366	4.475388	-129.0588	11.95	10.61475	100	0	27	-6.735187	8.850361	-158.4445	
13:27:29	47.4643	-122.308	4.366	4.234361	-126.5291	11.95	10.54411	100	0	46	-6.414156	9.057087	-158.4686	
13:27:29	47.46428	-122.308	4.208	4.033936	-122.347	11.89	10.54411	100	0	57	-6.113844	9.524508	-158.3164	
13:27:29	47.46426	-122.308	3.935	3.833151	-110.1509	11.88	10.48439	100	0	69	-5.924992	10.51732	-157.961	
13:27:30	47.46424	-122.308	3.74	3.664825	-84.98338	11.95	10.47541	100	0	75	-5.740704	12.20913	-157.5432	
13:27:30	47.46422	-122.308	3.571	3.549626	-37.094	12.15	10.54606	100	0	79	-5.687234	14.83197	-157.2357	
13:27:30	47.4642	-122.308	3.445	3.532887	33.25395	12.5	10.74804	100	0	83	-5.568089	18.186	-157.1642	
13:27:30	47.46417	-122.308	3.373	3.659526	128.4754	12.97	11.09034	100	0	89	-5.610842	21.56016	-157.3049	
13:27:30	47.46415	-122.308	3.422	3.947845	233.493	13.52	11.565	100	0	98	-5.565151	24.22108	-157.4748	
13:27:31	47.46411	-122.308	3.814	4.337472	322.2921	14.04	11.83366	100	0	99	-5.002569	25.79336	-157.4201	
13:27:31	47.46409	-122.308	4.324	4.975534	408.7889	14.22	12.35851	100	0	99	-3.514092	26.24683	-156.9275	
13:27:31	47.46406	-122.308	5.072	5.651728	453.5781	14.41	12.54058	100	0	99	-1.776821	26.64293	-155.7936	
13:27:31	47.46406	-122.308	5.072	6.392876	481.2403	14.41	12.73317	100	0	99	0.1528408	27.29335	-153.9947	
13:27:31	47.46401	-122.308	6.902	7.197116	507.3061	15.03	12.73317	100	0	99	0.9947903	28.27609	-152.2246	
13:27:32	47.46397	-122.308	8.521	8.112405	543.0203	15.44	13.36622	100	0	99	1.039319	29.79196	-150.6539	
13:27:32	47.46394	-122.308	9.629	9.238673	596.0912	15.57	13.79832	100	0	99	0.2623614	32.10329	-149.1335	
13:27:32	47.46391	-122.308	10.818	10.41722	662.4267	15.53	13.94909	100	0	99	-0.5538214	33.9635	-147.6921	
13:27:32	47.46388	-122.308	12.139	11.55753	715.6906	15.3	13.35886	100	0	99	-0.5790098	34.86836	-146.336	
13:27:32	47.46386	-122.308	13.575	12.86819	751.5479	15.04	13.13811	100	0	99	0.4979283	34.48007	-144.912	
13:27:33	47.46383	-122.308	15.283	14.13657	747.1438	14.91	12.89356	100	0	99	2.141816	32.96265	-143.3391	
13:27:33	47.46379	-122.308	17.39	15.63256	724.2097	15.05	12.76996	100	0	99	3.504293	28.29735	-141.972	
13:27:33	47.46377	-122.308	19.088	16.9108	647.6097	15.49	12.92569	100	0	99	4.127332	18.40847	-141.1384	
13:27:33	47.46377	-122.308	19.088	18.12857	442.1064	15.49	13.37669	100	0	98	3.00869	7.616382	-140.6566	
13:27:33	47.46374	-122.3081	20.415	18.88046	136.9337	16.51	13.37669	100	0	75	1.761341	-0.2098217	-139.9604	
13:27:34	47.46371	-122.3081	21.168	19.14993	-157.9101	17.68	14.0996	100	0	72	4.660082	-0.4513357	-138.5282	
13:27:34	47.46368	-122.3081	21.31	19.0605	-280.0089	18.61	14.93641	100	0	78	11.42496	5.05308	-135.7696	
13:27:34	47.46364	-122.3081	20.934	19.01867	-180.2293	19.64	15.85474	100	0	93	17.49147	12.08252	-132.0033	
13:27:34	47.46364	-122.3081	20.934	19.32395	63.02402	19.64	16.89047	100	0	101	22.16942	17.711	-127.4017	
13:27:34	47.46358	-122.3081	20.401	19.83893	266.5555	20.47	16.89047	100	0	102	26.26196	20.53572	-122.0039	
13:27:35	47.46355	-122.3081	20.452	20.49719	384.6458	20.59	17.77351	100	0	102	29.36578	20.4982	-116.7421	
13:27:35	47.46352	-122.3081	20.872	21.29488	455.1414	20.64	17.35703	100	0	103	30.88438	19.77981	-112.1886	
13:27:35	47.46347	-122.3082	21.927	22.11621	485.9474	20.95	17.49083	100	0	104	30.9403	19.2766	-108.1214	
13:27:35	47.46344	-122.3082	22.726	23.08025	510.4612	21.26	17.96644	100	0	104	29.72075	19.06741	-104.0386	
13:27:35	47.46338	-122.3083	24.6	23.93533	540.8478	21.86	18.60887	100	0	103	25.99446	19.55054	-100.1116	
13:27:36	47.46338	-122.3083	24.6	24.94974	590.0375	21.86	19.47087	100	0	102	22.32949	19.88318	-96.57198	
13:27:36	47.46335	-122.3083	25.654	26.11439	648.1765	22.02	19.47087	100	0	101	18.33697	20.33251	-93.4257	
13:27:36	47.46332	-122.3084	26.776	27.07375	689.8423	22.09	19.77622	100	0	101	12.95933	20.86565	-91.63002	
13:27:36	47.4633	-122.3085	28.061	28.40596	729.2333	22.12	20.07711	100	0	100	7.748917	21.06491	-89.99886	
13:27:36	47.46327	-122.3085	30.046	29.58556	753.1175	22.13	20.21659	100	0	100	3.040982	21.03318	-88.91147	
13:27:37	47.46326	-122.3086	31.286	31.03766	775.3786	22.15	20.32753	100	0	100	-0.7100865	20.76741	-88.03268	
13:27:37	47.46326	-122.3086	31.286	32.29603	784.9744	22.15	20.38363	100	0	100	-4.663889	20.73013	-87.64191	
13:27:37	47.46324	-122.3086	32.447	33.78548	786.1361	22.16	20.38363	100	0	100	-8.387796	20.74809	-87.57692	
13:27:37	47.46322	-122.3087	34.017	35.03643	784.9369	22.21	20.42886	100	0	100	-11.72472	20.75918	-87.65854	
13:27:38	47.46318	-122.3088	37.87	36.29964	773.4743	22.31	20.4964	100	0	100	-13.94071	20.71934	-87.97157	
13:27:38	47.46316	-122.3089	39.579	37.69397	765.8325	22.36	20.6041	100	0	100	-15.61307	20.64554	-88.51402	
13:27:38	47.46316	-122.3089	39.579	39.26571	757.5773	22.36	20.63241	100	0	100	-17.00913	20.65273	-89.08421	
13:27:38	47.46316	-122.3089	39.579	40.60227	743.6469	22.36	20.63241	100	0	101	-17.71897	20.66452	-89.64613	
13:27:38	47.4631	-122.309	43.666	41.8666	734.8336	22.47	20.63241	100	0	101	-18.23069	20.71395	-90.42189	
13:27:39	47.4631	-122.309	43.666	43.63669	736.3522	22.47	20.68443	100	0	99	-18.21642	20.5419	-91.12434	
13:27:39	47.46308	-122.309	45.459	45.28205	733.8334	22.51	20.68443	100	0	98	-17.84647	20.19154	-91.71481	
13:27:39	47.46304	-122.3091	48.696	46.85023	722.5107	22.63	20.69861	100	0	96	-17.63775	19.74937	-92.31482	
13:27:39	47.46302	-122.3092	50.198	48.31953	708.5842	22.72	20.75552	100	0	93	-17.35792	19.18959	-92.84232	
13:27:39	47.463	-122.3092	51.714	50.01243	682.1288	22.82	20.81916	100	0	91	-16.54931	18.37897	-93.16907	
13:27:40	47.46298	-122.3093	53.256	51.29292	652.3613	22.93	20.89903	100	0	90	-15.57216	17.36873	-93.37734	
13:27:40	47.46295	-122.3093	54.759	52.77999	606.9645	23.06	20.99045	100	0	88	-14.64784	16.20086	-93.51004	
13:27:40	47.46295	-122.3093	54.759	54.14504	563.9654	23.06	21.101	100	0	86	-13.78921	15.02081	-93.58652	
13:27:40	47.46292	-122.3094	56.264	55.27109	509.6747	23.21	21.101	100	0	84	-13.08686	13.87486	-93.64576	
13:27:40	47.4629	-122.3095	57.554	56.44289	466.7941	23.37	21.23843	100	0	83	-12.49007	12.78575	-93.68295	
13:27:41	47.46286	-122.3095	59.152	57.46112	431.9233	23.58	21.38451	100	0	82	-12.02923	11.83124	-93.69265	
13:27:41	47.46282	-122.3096	60.504	58.37186	390.5031	23.82	21.59117	100	0	81	-11.68518	10.93404	-93.71796	
13:27:41	47.46282	-122.3096	60.504	59.33913	353.0679	23.82	21.81969	100	0	81	-11.39503	10.2231	-93.70072	
13:27:41	47.4628	-122.3097	61.278	60.10328	330.4424	23.97	21.81969	100	0	80	-10.95344	9.717804	-93.68266	
13:27:41	47.46277	-122.3097	61.91	60.90611	311.6381	24.12	21.96341	100	0	80	-10.66325	9.234172	-93.67065	
13:27:42	47.46275	-122.3098	62.475	61.66085	291.7616	24.25	22.11077	100	0	80	-10.37517	8.814359	-93.62939	
13:27:42	47.4627	-122.3099	63.534	62.34534	278.5809	24.55	22.23937	100	0	80	-10.25056	8.501119	-93.55441	
13:27:42	47.46267	-122.3099	64.004	62.99317	268.7283	24.71	22.53102	100	0	80	-10.28825	8.156524	-93.48684	
13:27:42	47.46265	-122.31	64.464	63.6101	261.6328	24.84	22.41685	100	0	79	-10.28845	7.910679	-93.42938	
13:27:42	47.46265	-122.31	64.464	64.20156	256.2955	24.84	22.54718	100	0	80	-10.25853	7.797319	-93.3864	
13:27:43	47.46262	-122.31	64.789	64.67532	252.6716	24.95	22.54718	100	0	80	-10.26486	7.758004	-93.32156	
13:27:43	47.46259	-122.3101	65.389	65.17471	246.9583	25.12	22.65521	100	0	80	-10.29516	7.803234	-93.26279	
13:27:43	47.46255	-122.3102	66.005	65.62661	245.257	25.31	22.82155	100	0	81	-10.34586	7.876974	-93.24811	
13:27:43	47.46252	-122.3102	66.503	66.11416	249.3665	25.44	23.01365	100	0	82	-10.35574	7.976669	-93.23602	
13:27:43	47.46249	-122.3103	66.938	66.54298	254.9331	25.57	23.14745	100	0	82	-10.41579	8.138268	-93.24234	
13:27:44	47.46247	-122.3104	67.556	67.10033	264.8094	25.68	23.27266	100	0	83	-10.47358	8.310553	-93.3781	
13:27:44	47.46247	-122.3104	67.556	67.58685	274.5391	25.68	23.39275	100	0	83	-10.59505	8.50186	-93.52815	
13:27:44	47.46244	-122.3104	68.053	68.13911	283.7089	25.78	23.39275	100	0	84	-10.65972	8.720431	-93.67437	
13:27:44	47.46241	-122.3105	68.577	68.62399	292.5226	25.86	23.49055	100	0	84	-10.71811	8.959342	-93.83379	
13:27:44	47.46238	-122.3105	69.387	69.16184	301.7917	25.97	23.57466	100	0	84	-10.78174	9.197309	-94.0047	
13:27:45	47.46233	-122.3107	70.536	69.77445	314.5194	26.1	23.68617	100	0	85	-10.86398	9.412432	-94.18296	
13:27:45	47.46233	-122.3107	70.536	70.43719	327.0856	26.1	23.81139	100	0	85	-10.94482	9.581032	-94.3374	
13:27:45	47.46227	-122.3108	71.916	71.07134	336.9724	26.2	23.81139	100	0	85	-10.99304	9.78445	-94.49131	
13:27:45	47.46227	-122.3108	71.916	71.73597	344.2802	26.2	23.9143	100	0	85	-11.07134	9.898276	-94.65656	
13:27:45	47.46224	-122.3108	72.683	72.40046	350.9482	26.24	23.9143	100	0	86	-11.20693	10.01933	-94.82624	
13:27:46	47.46222	-122.3109	73.397	73.10304	357.2329	26.27	23.95541	100	0	86	-11.29939	10.11191	-94.99335	
13:27:46	47.46219	-122.3109	74.11	73.7747	359.6303	26.3	23.98281	100	0	86	-11.34663	10.18511	-95.16081	
13:27:46	47.46217	-122.311	74.747	74.42937	363.7525	26.32	24.01022	100	0	86	-11.38766	10.26075	-95.34572	
13:27:46	47.46212	-122.3111	76.02	75.14674	366.426	26.34	24.02904	100	0	86	-11.43441	10.33818	-95.54097	
13:27:46	47.46209	-122.3111	76.822	75.86932	369.6008	26.36	24.04951	100	0	86	-11.46652	10.35916	-95.72235	
13:27:47	47.46209	-122.3111	76.822	76.64198	372.7822	26.36	24.0649	100	0	86	-11.41193	10.33303	-95.89903	
13:27:47	47.46207	-122.3112	77.646	77.48728	377.0237	26.36	24.0649	100	0	86	-11.34957	10.33828	-96.08165	
13:27:47	47.46201	-122.3113	79.302	78.37756	379.6475	26.38	24.06659	100	0	86	-7.79764	10.40507	-95.98208	
13:27:47	47.46201	-122.3113	79.302	79.20467	384.3219	26.38	24.08036	100	0	85	0.9701992	10.49766	-95.37322	
13:27:47	47.46197	-122.3114	80.556	79.86891	386.448	26.39	24.08036	100	0	85	9.814183	10.42014	-94.46677	
13:27:48	47.46194	-122.3114	81.372	80.696	381.2092	26.37	24.08893	100	0	86	18.93943	9.984961	-92.84814	
13:27:48	47.46189	-122.3116	82.94	81.58331	368.0978	26.44	24.0952	100	0	87	28.01297	9.222142	-90.53098	
13:27:48	47.46189	-122.3116	82.94	82.40616	341.2454	26.44	24.2672	100	0	88	35.68231	8.044273	-87.78731	
13:27:48	47.46187	-122.3116	83.697	83.10391	303.0621	26.54	24.2672	100	0	92	41.02654	7.128706	-84.58737	
13:27:48	47.46187	-122.3116	83.697	83.75558	272.3945	26.54	24.45597	100	0	96	44.74812	6.457473	-80.66792	
13:27:49	47.46183	-122.3118	84.85	84.29594	250.4689	26.93	24.45597	100	0	100	46.83704	5.89578	-76.04135	
13:27:49	47.46181	-122.3118	85.242	84.88261	241.9023	27.2	25.09357	100	0	102	47.52832	5.863876	-70.71809	
13:27:49	47.46179	-122.3119	85.612	85.41196	260.2954	27.52	25.31859	100	0	103	47.70997	6.185333	-65.19741	
13:27:49	47.46178	-122.312	85.897	85.97128	299.9618	27.84	25.82054	100	0	103	47.83298	6.551306	-59.55872	
13:27:49	47.46177	-122.3121	86.385	86.50076	338.6028	28.4	26.0931	100	0	103	48.02825	6.871005	-53.98368	
13:27:50	47.46177	-122.3121	86.385	87.21107	384.3661	28.4	27.05695	100	0	103	48.64775	6.909666	-48.50042	
13:27:50	47.46177	-122.3121	86.385	87.85412	418.2031	28.4	27.05695	100	0	104	49.19868	6.834921	-43.06473	
13:27:50	47.46179	-122.3123	87.183	88.38306	440.637	29.33	27.05695	100	0	104	49.62162	6.7069	-37.58412	
13:27:50	47.46181	-122.3124	87.436	89.00286	461.5384	29.6	28.86999	100	0	105	49.65561	6.804269	-32.12173	
13:27:50	47.46181	-122.3124	87.436	89.55773	479.2421	29.6	29.57182	100	0	105	49.25639	7.184875	-26.67578	
13:27:51	47.46186	-122.3125	87.928	90.10765	498.1312	30.1	29.57182	100	0	104	48.89794	7.545203	-21.14987	
13:27:51	47.46186	-122.3125	87.928	90.61786	513.6658	30.1	30.51649	100	0	104	48.65055	7.777401	-15.99191	
13:27:51	47.46191	-122.3126	88.257	91.03518	521.791	30.47	30.51649	100	0	104	48.9285	7.820551	-11.06731	
13:27:51	47.46196	-122.3127	88.452	91.56572	523.79	30.72	31.05397	100	0	102	49.02761	7.682639	-6.412762	
13:27:51	47.46201	-122.3127	88.641	91.96964	515.3575	30.95	31.50867	100	0	98	48.769	7.373713	-2.007218	
13:27:52	47.46205	-122.3128	88.809	92.29978	493.1618	31.17	31.90678	100	0	94	48.44016	6.876952	1.998179	
13:27:52	47.46215	-122.3128	89.059	92.53214	455.9712	31.56	32.55249	100	0	93	48.12607	6.319765	5.906644	
13:27:52	47.46215	-122.3128	89.059	92.66747	411.5528	31.56	33.14145	100	0	90	47.96558	5.494177	9.389625	
13:27:52	47.4622	-122.3128	89.184	92.70813	359.5032	31.73	33.14145	100	0	87	47.45323	4.617515	12.76344	
13:27:52	47.4623	-122.3129	89.202	92.65337	288.7623	31.92	33.39347	100	0	86	46.93216	3.791743	15.92766	
13:27:53	47.46235	-122.3129	88.973	92.4567	211.5607	31.98	33.90525	100	0	84	46.67368	2.985926	19.09185	
13:27:53	47.46235	-122.3129	88.973	92.15693	145.1145	31.98	33.99919	100	0	83	46.34647	2.327545	22.27962	
13:27:53	47.46241	-122.3129	88.809	91.82066	90.8816	32.04	33.99919	100	0	83	45.84055	1.829912	25.5852	
13:27:53	47.46247	-122.3129	88.414	91.28858	29.19342	32.1	34.08274	100	0	82	45.63729	1.42114	28.87839	
13:27:53	47.46261	-122.3129	87.189	90.73036	-18.18278	32.24	34.08716	100	0	82	45.8322	1.022727	32.23082	
13:27:54	47.46266	-122.3128	86.66	90.08984	-58.74569	32.31	34.23076	100	0	83	45.7653	0.8056566	35.69347	
13:27:54	47.46271	-122.3128	86.031	89.36752	-94.24134	32.39	34.28764	100	0	84	43.64963	0.90146	39.27237	
13:27:54	47.46276	-122.3128	85.298	88.65472	-114.3189	32.48	34.34924	100	0	83	40.48298	1.35477	42.91601	
13:27:54	47.46283	-122.3128	84.449	87.95424	-111.9451	32.67	34.70549	100	0	81	37.50302	2.145282	46.40397	
13:27:54	47.46289	-122.3127	83.626	87.20695	-93.65845	32.82	34.83328	100	0	80	35.13813	2.591151	49.28186	
13:27:55	47.46289	-122.3127	83.626	86.48006	-91.39956	32.82	34.91571	100	0	80	32.04552	2.823501	51.73053	
13:27:55	47.46295	-122.3127	82.983	85.79179	-94.83861	32.89	34.91571	100	0	79	28.06249	3.214404	54.03661	
13:27:55	47.46299	-122.3126	82.637	85.08282	-91.96608	32.93	35.02981	100	0	79	22.58747	3.631052	56.02552	
13:27:55	47.46304	-122.3126	82.018	84.51775	-82.8895	32.95	35.01502	100	0	78	17.58244	4.098384	57.59063	
13:27:55	47.46311	-122.3124	81.354	83.92107	-66.36965	32.92	34.97055	100	0	78	13.39147	4.612847	58.64648	
13:27:56	47.46315	-122.3124	81.02	83.37985	-52.88862	32.87	34.86751	100	0	79	8.558696	5.017962	59.42122	
13:27:56	47.46319	-122.3123	80.847	82.92166	-43.98863	32.79	34.77385	100	0	80	2.074274	5.369431	59.86522	
13:27:56	47.46324	-122.3122	80.644	82.48391	-36.56572	32.65	34.65889	100	0	81	-4.579729	5.734017	60.12125	
