Date	Latitude(deg) 	Longitude(deg)	hamsl(m)	hafl(m)	climbrate(cm/s)	GroundSpeed(m/s)	Airspeed(m/s)	Mav_Link(%)	Rssi_Link(%)	Throttle	Roll(deg)	Pitch(deg)	Yaw(deg)
10:13:06	-6.733737	38.95368	114.552	0	0	0.47	0	100	0	0	4.74411	-3.139066	-126.7134	
10:13:06	-6.733712	38.95368	122.104	1.751205	-3.024326	0.37	3	100	0	6	5.513383	-3.192435	-126.7853	
10:13:06	-6.733711	38.95368	121.988	1.68751	-7.739597	0.03	3	100	0	6	5.587377	-3.423233	-126.6221	
10:13:06	-6.73371	38.95368	121.751	1.573183	-15.12502	0.08	3	100	0	6	5.317018	-3.594355	-126.5318	
10:13:07	-6.73371	38.95368	121.576	1.429969	-23.66649	0.39	3	100	0	6	5.405682	-3.508681	-126.5299	
10:13:07	-6.733709	38.95369	121.554	1.527898	-18.1723	0.25	3	100	0	6	5.616833	-3.466562	-126.5329	
10:13:07	-6.733708	38.95369	121.546	1.766994	-5.913818	0.09	3	100	0	6	5.295553	-3.637928	-126.4361	
10:13:07	-6.733708	38.95368	121.879	1.960675	3.454783	0.13	3	100	0	6	4.971091	-3.682024	-126.3607	
10:13:07	-6.733709	38.95368	122.426	2.154526	10.8431	0.26	3	100	0	6	5.098997	-3.711792	-126.3809	
10:13:08	-6.733708	38.95368	122.864	2.218132	10.87652	0.02	3	100	0	5	5.036923	-3.636286	-126.3587	
10:13:08	-6.733708	38.95368	123.038	2.167774	5.08343	0.12	3	100	0	6	4.82469	-3.430221	-126.3657	
10:13:08	-6.733708	38.95368	123.323	2.135922	0.9687517	0.08	3	100	0	6	4.769345	-3.451416	-126.2208	
10:13:08	-6.733709	38.95368	123.489	2.131863	-1.109087	0.07	3	100	0	6	4.733747	-3.51457	-126.2249	
10:13:08	-6.733709	38.95368	123.805	2.12448	-3.670861	0.19	3	100	0	6	4.647521	-3.459046	-126.262	
10:13:09	-6.73371	38.95368	124.438	2.115492	-5.801294	0.18	3	100	0	6	4.555985	-3.437633	-126.2969	
10:13:09	-6.73371	38.95368	124.944	2.104313	-8.038356	0.07	3	100	0	6	4.60742	-3.4322	-126.2947	
10:13:09	-6.733711	38.95368	125.231	2.104074	-8.909764	0.14	3	100	0	6	4.650959	-3.533352	-126.3089	
10:13:09	-6.733712	38.95368	125.5	2.102097	-10.21529	0.17	3	100	0	5	4.597779	-3.487742	-126.3372	
10:13:09	-6.733712	38.95368	125.757	2.0765	-12.43994	0.08	3	100	0	6	4.640915	-3.34391	-126.3974	
10:13:10	-6.733712	38.95367	125.956	2.052439	-14.21575	0.22	3	100	0	6	4.668682	-3.191095	-126.4679	
10:13:10	-6.733714	38.95367	126.085	1.981998	-18.35898	0.44	3	100	0	6	4.44991	-3.328991	-126.4117	
10:13:10	-6.733715	38.95367	126.289	1.91227	-21.4964	0.02	3	100	0	6	4.483225	-3.461384	-126.4375	
10:13:10	-6.733715	38.95367	126.462	1.870076	-23.21996	0.07	3	100	0	6	4.603472	-3.31602	-126.497	
10:13:10	-6.733715	38.95367	126.64	1.83288	-24.53369	0.22	3	100	0	6	4.521313	-3.218747	-126.5487	
10:13:11	-6.733716	38.95367	126.852	1.775918	-27.52077	0.09	3	100	0	5	4.610415	-3.270706	-126.5576	
10:13:11	-6.733717	38.95367	126.992	1.725158	-29.27698	0.11	3	100	0	6	4.752436	-3.45524	-126.5359	
10:13:11	-6.733717	38.95367	127.288	1.702008	-29.3114	0.04	3	100	0	6	4.773247	-3.409113	-126.5699	
10:13:11	-6.733718	38.95367	127.428	1.680844	-29.22039	0.14	3	100	0	6	4.718297	-3.273275	-126.6106	
10:13:11	-6.733719	38.95367	127.605	1.667752	-29.0702	0.09	3	100	0	5	4.6947	-3.227041	-126.6416	
10:13:12	-6.73372	38.95367	127.705	1.658122	-28.27584	0.08	3	100	0	6	4.645429	-3.342397	-126.5855	
10:13:12	-6.733721	38.95367	127.77	1.637645	-27.9816	0.11	3	100	0	6	4.58323	-3.442069	-126.6165	
10:13:12	-6.733722	38.95367	127.796	1.619871	-27.68712	0.13	3	100	0	6	4.5593	-3.378193	-126.6474	
10:13:12	-6.733722	38.95367	127.791	1.609632	-27.49233	0.21	3	100	0	6	4.486845	-3.300038	-126.6962	
10:13:12	-6.733723	38.95367	127.937	1.601542	-27.09674	0.24	3	100	0	6	4.401451	-3.252045	-126.6115	
10:13:13	-6.733723	38.95367	127.98	1.633363	-24.18571	0.45	3	100	0	6	4.437143	-2.945422	-126.6379	
10:13:13	-6.733724	38.95367	127.927	1.664176	-21.56082	0.26	3	100	0	6	4.486083	-2.6986	-126.7498	
10:13:13	-6.733725	38.95367	127.972	1.737622	-17.03428	0.19	3	100	0	6	4.47557	-2.94856	-126.8474	
10:13:13	-6.733727	38.95367	127.876	1.812738	-12.39433	0.37	3	100	0	6	4.339386	-3.042109	-126.8778	
10:13:13	-6.733727	38.95367	127.883	1.888405	-8.561262	0.18	3	100	0	6	4.371927	-2.952584	-126.8456	
10:13:14	-6.733728	38.95367	127.536	1.964918	-4.869609	0.17	3	100	0	6	4.526187	-3.073312	-126.9141	
10:13:14	-6.733729	38.95367	127.293	2.036348	-2.277356	0.34	3	100	0	6	4.711701	-3.084141	-126.9745	
10:13:14	-6.733729	38.95367	127.166	2.110103	0.111916	0.21	3	100	0	6	4.727991	-2.879794	-127.0359	
10:13:14	-6.733729	38.95367	127.031	2.14075	-0.04889714	0.13	3	100	0	6	4.560005	-2.918432	-126.8984	
10:13:14	-6.73373	38.95367	126.759	2.141349	-1.611437	0.17	3	100	0	6	4.498209	-3.103723	-126.944	
10:13:15	-6.733731	38.95367	126.607	2.111974	-4.231313	0.14	3	100	0	6	4.448897	-3.120061	-126.9905	
10:13:15	-6.733732	38.95367	126.534	2.065022	-8.182021	0.39	3	100	0	6	4.424257	-2.847764	-127.0705	
10:13:15	-6.733733	38.95367	127.336	2.032174	-10.53996	0.19	3	100	0	5	4.490025	-2.815427	-127.1034	
10:13:15	-6.733735	38.95367	128.258	2.007583	-12.31867	0.26	3	100	0	6	4.712275	-3.123864	-127.099	
10:13:15	-6.733735	38.95366	128.764	1.98674	-13.31526	0.04	3	100	0	6	4.708408	-3.247089	-127.1197	
10:13:16	-6.733737	38.95366	129.144	1.971753	-14.04757	0.08	3	100	0	6	4.663892	-3.143569	-127.1635	
10:13:16	-6.733737	38.95366	129.539	1.969694	-14.3699	0.29	3	100	0	6	4.555775	-2.971521	-127.2002	
10:13:16	-6.733738	38.95366	129.976	1.986271	-13.44874	0.22	3	100	0	6	4.393429	-2.891186	-127.2279	
10:13:16	-6.733739	38.95366	130.392	1.993953	-13.37772	0.22	3	100	0	6	4.55154	-3.12955	-127.2851	
10:13:16	-6.733741	38.95366	130.789	1.996014	-13.40609	0.13	3	100	0	6	4.609496	-3.205748	-127.3329	
10:13:17	-6.733742	38.95366	131.203	2.014002	-12.05278	0.12	3	100	0	6	4.46191	-3.0647	-127.3756	
10:13:17	-6.733742	38.95366	131.656	2.04545	-10.47406	0.14	3	100	0	6	4.428579	-3.022845	-127.3634	
10:13:17	-6.733743	38.95365	131.835	2.06949	-9.269099	0.19	3	100	0	6	4.423807	-2.936107	-127.3374	
10:13:17	-6.733744	38.95365	132.119	2.090502	-9.232192	0.19	3	100	0	6	4.629154	-2.869784	-127.4188	
10:13:17	-6.733744	38.95365	132.23	2.117436	-7.987127	0.19	3	100	0	6	4.667758	-2.991014	-127.4776	
10:13:18	-6.733746	38.95365	132.592	2.154074	-6.592221	0.14	3	100	0	6	4.502882	-3.006487	-127.5212	
10:13:18	-6.733746	38.95365	132.919	2.189812	-4.646765	0.09	3	100	0	6	4.580771	-3.039095	-127.4113	
10:13:18	-6.733747	38.95365	133.129	2.217986	-3.785445	0.13	3	100	0	6	4.740565	-3.028254	-127.4178	
10:13:18	-6.733747	38.95365	133.379	2.242155	-3.139602	0.04	3	100	0	6	4.768849	-2.994429	-127.4451	
10:13:18	-6.733747	38.95364	133.687	2.230042	-4.733778	0.14	3	100	0	6	4.602895	-2.974907	-127.4868	
10:13:19	-6.733748	38.95364	134.025	2.217451	-6.223873	0.19	3	100	0	6	4.50798	-2.895069	-127.4827	
10:13:19	-6.733749	38.95364	134.312	2.220076	-6.027042	0.17	3	100	0	6	4.539241	-2.982165	-127.478	
10:13:19	-6.733749	38.95364	134.524	2.222595	-6.038762	0.14	3	100	0	6	4.528304	-2.971041	-127.5304	
10:13:19	-6.733749	38.95364	134.846	2.216956	-7.040506	0.06	3	100	0	6	4.642711	-2.892599	-127.5945	
10:13:19	-6.73375	38.95364	134.962	2.210062	-7.716576	0.42	3	100	0	6	4.590795	-2.675253	-127.6379	
10:13:20	-6.73375	38.95364	134.981	2.176948	-9.957552	0.32	3	100	0	6	4.777477	-2.59379	-127.6173	
10:13:20	-6.73375	38.95364	135.082	2.143111	-12.14328	0.19	3	100	0	6	4.783787	-2.718939	-127.6474	
10:13:20	-6.733751	38.95364	135.276	2.146133	-11.90114	0.24	3	100	0	6	4.565543	-2.883985	-127.6976	
10:13:20	-6.733752	38.95364	135.229	2.14943	-11.20088	0.07	3	100	0	6	4.672014	-2.989668	-127.7665	
10:13:20	-6.733753	38.95364	135.366	2.212213	-7.755812	0.14	3	100	0	6	4.732637	-2.885297	-127.7161	
10:13:21	-6.733753	38.95364	135.402	2.267751	-5.624937	0.04	3	100	0	6	4.74018	-2.884078	-127.6835	
10:13:21	-6.733754	38.95364	135.385	2.32057	-3.040049	0.16	3	100	0	6	4.658897	-2.91684	-127.7305	
10:13:21	-6.733754	38.95364	135.531	2.372777	-0.8337244	0.37	3	100	0	6	4.770895	-2.760164	-127.7922	
10:13:21	-6.733755	38.95364	135.546	2.379825	-0.8033277	0.09	3	100	0	6	4.744253	-2.906552	-127.8406	
10:13:21	-6.733755	38.95364	135.267	2.384494	-1.453965	0.29	3	100	0	6	4.74474	-3.277558	-127.7699	
10:13:22	-6.733755	38.95364	135.131	2.308071	-5.728433	0.04	3	100	0	6	4.773669	-3.244846	-127.7683	
10:13:22	-6.733756	38.95364	135.044	2.230445	-10.18739	0.22	3	100	0	5	4.591493	-3.089123	-127.773	
10:13:22	-6.733757	38.95364	134.831	2.210213	-10.9544	0.17	3	100	0	6	4.604012	-3.221719	-127.8074	
10:13:22	-6.733757	38.95364	134.687	2.192482	-11.69833	0.19	3	100	0	6	4.774462	-3.328289	-127.7166	
10:13:22	-6.733757	38.95364	134.618	2.124789	-14.88219	0.26	3	100	0	6	4.879733	-3.034546	-127.6902	
10:13:23	-6.733758	38.95364	134.477	2.064286	-17.44576	0.38	3	100	0	6	4.529912	-3.099045	-127.7029	
10:13:23	-6.733758	38.95364	134.159	1.999094	-20.02782	0.12	3	100	0	6	4.790027	-3.162594	-127.7572	
10:13:23	-6.733758	38.95364	133.991	1.935244	-21.94557	0.07	3	100	0	6	4.859292	-3.053833	-127.7563	
10:13:23	-6.733759	38.95364	133.793	1.864241	-24.22165	0.09	3	100	0	6	4.793353	-3.138761	-127.644	
10:13:23	-6.73376	38.95364	133.632	1.773184	-27.69799	0.14	3	100	0	6	4.722984	-3.222	-127.6392	
10:13:24	-6.73376	38.95364	133.325	1.729309	-28.70548	0.28	3	100	0	6	4.886645	-3.331633	-127.6615	
10:13:24	-6.733761	38.95364	133.219	1.715911	-27.13522	0.19	3	100	0	6	4.831955	-3.330446	-127.6521	
10:13:24	-6.733761	38.95364	132.818	1.735131	-24.04194	0.33	3	100	0	6	5.018279	-3.000282	-127.4727	
10:13:24	-6.733761	38.95364	132.629	1.77305	-20.52274	0.14	3	100	0	6	4.986306	-2.921417	-127.4706	
10:13:24	-6.733762	38.95364	132.42	1.830124	-16.19208	0.09	3	100	0	6	4.87611	-3.133436	-127.4938	
10:13:25	-6.733762	38.95364	132.304	1.90288	-11.50038	0.16	3	100	0	6	4.706642	-3.0665	-127.5161	
10:13:25	-6.733762	38.95364	132.149	1.974307	-7.710175	0.16	3	100	0	6	4.623195	-3.034021	-127.4883	
10:13:25	-6.733763	38.95364	132.033	2.054862	-3.89141	0.29	3	100	0	6	4.674754	-2.829731	-127.4762	
10:13:25	-6.733763	38.95364	131.935	2.123079	-0.5961442	0.08	3	100	0	6	4.770767	-2.879317	-127.5408	
10:13:25	-6.733763	38.95364	131.688	2.160952	0.4044841	0.22	3	100	0	6	4.917791	-3.142932	-127.5989	
10:13:26	-6.733764	38.95364	131.616	2.20574	1.857087	0.35	3	100	0	6	4.906621	-3.085412	-127.6104	
10:13:26	-6.733764	38.95364	131.616	2.261973	3.897049	0.35	3	100	0	6	4.759533	-2.681062	-127.4707	
10:13:26	-6.733764	38.95364	131.377	2.283761	3.955336	0.33	3	100	0	6	4.727386	-2.753902	-127.5101	
10:13:26	-6.733764	38.95364	131.377	2.288242	3.16392	0.33	3	100	0	6	4.773128	-3.108214	-127.5512	
10:13:26	-6.733764	38.95364	131.124	2.28298	1.768234	0.19	3	100	0	6	4.804084	-2.957561	-127.5786	
10:13:27	-6.733764	38.95364	131.041	2.271761	0.5570253	0.14	3	100	0	6	4.861885	-3.054566	-127.5789	
10:13:27	-6.733764	38.95364	130.888	2.276257	-0.121813	0.03	3	100	0	6	4.668526	-2.963108	-127.5019	
10:13:27	-6.733764	38.95364	130.848	2.292941	0.1037159	0.09	3	100	0	6	4.783222	-2.954444	-127.5516	
10:13:27	-6.733764	38.95364	130.737	2.310898	0.7031428	0.09	3	100	0	6	4.773022	-2.876272	-127.585	
10:13:27	-6.733764	38.95364	130.529	2.328747	0.7244342	0.11	3	100	0	6	4.847467	-2.811177	-127.6341	
10:13:28	-6.733764	38.95364	130.382	2.352482	1.570551	0.26	3	100	0	6	4.80829	-2.954356	-127.5499	
10:13:28	-6.733764	38.95364	130.313	2.381234	2.521151	0.04	3	100	0	6	4.979004	-2.678123	-127.5707	
10:13:28	-6.733765	38.95364	130.23	2.405492	3.051119	0.26	3	100	0	6	4.939661	-2.763923	-127.6048	
10:13:28	-6.733765	38.95364	130.303	2.41377	2.752632	0.19	3	100	0	6	4.904039	-3.050829	-127.6354	
10:13:29	-6.733765	38.95364	130.195	2.419601	2.047291	0.14	3	100	0	6	4.831452	-2.7391	-127.5783	
10:13:29	-6.733766	38.95364	129.954	2.472138	4.18356	0.07	3	100	0	6	4.942418	-3.010355	-127.5858	
10:13:29	-6.733766	38.95364	129.98	2.518178	4.645504	0.09	3	100	0	6	8.154651	-3.160903	-129.5545	
10:13:29	-6.733767	38.95364	129.906	2.476436	0.2802887	0.03	3	100	0	6	6.163925	-3.291589	-129.4239	
10:13:29	-6.733767	38.95365	129.889	2.437353	-1.795981	0.06	3	100	0	6	4.834412	-3.154315	-126.8852	
10:13:30	-6.733767	38.95365	129.794	2.433283	-3.115477	0.18	3	100	0	6	4.562078	-2.894222	-124.6965	
10:13:30	-6.733768	38.95365	129.653	2.428712	-3.909189	0.22	3	100	0	6	7.47019	-3.210927	-124.8511	
10:13:30	-6.733768	38.95365	129.542	2.440068	-4.047235	0.24	3	100	0	6	5.739499	-3.185368	-124.6601	
10:13:30	-6.733769	38.95365	129.481	2.449992	-3.342606	0.09	3	100	0	6	4.438122	-2.715659	-123.2618	
10:13:30	-6.733769	38.95365	129.423	2.428002	-6.89361	0.04	3	100	0	6	7.044006	-2.948292	-124.5466	
10:13:31	-6.733769	38.95365	129.273	2.40902	-7.570733	0.37	3	100	0	6	19.20273	-3.525382	-123.3045	
10:13:31	-6.73377	38.95365	129.298	2.449347	-6.126812	0.06	3	100	0	6	9.804158	-3.221003	-123.6875	
10:13:31	-6.733771	38.95365	129.321	2.486063	-5.485411	0.09	3	100	0	6	5.797659	-3.525714	-123.2317	
10:13:31	-6.733772	38.95365	129.287	2.423064	-9.013623	0.48	3	100	0	6	12.2683	-3.644	-123.2276	
10:13:31	-6.733772	38.95365	129.116	2.366026	-12.95226	0.22	3	100	0	6	17.04579	-3.383623	-122.2947	
10:13:31	-6.733773	38.95365	129.02	2.25425	-18.24094	0.04	3	100	0	6	5.188105	-3.373132	-123.2217	
10:13:32	-6.733773	38.95365	128.925	2.150125	-25.38681	0.17	3	100	0	6	12.79317	-3.649808	-122.9547	
10:13:32	-6.733774	38.95365	128.84	2.08834	-26.19999	0.08	3	100	0	6	15.76781	-3.827811	-122.5992	
10:13:32	-6.733774	38.95365	128.799	2.03723	-27.029	0.39	3	100	0	6	5.543195	-3.676305	-123.1014	
10:13:32	-6.733774	38.95365	128.787	2.032772	-26.35433	0.31	3	100	0	6	4.515027	-3.329082	-123.5281	
10:13:32	-6.733773	38.95366	128.984	2.032552	-24.53176	0.58	3	100	0	6	4.365985	-3.376753	-123.554	
10:13:33	-6.733773	38.95366	129.221	2.083492	-20.35765	0.18	3	100	0	6	4.555182	-3.171367	-123.6727	
10:13:33	-6.733773	38.95366	129.256	2.133069	-16.65378	0.13	3	100	0	6	4.488939	-3.477202	-123.7561	
10:13:33	-6.733773	38.95366	129.287	2.128881	-15.6721	0.03	3	100	0	6	4.404838	-3.572101	-123.6575	
10:13:33	-6.733774	38.95366	129.348	2.080614	-16.54562	0.44	3	100	0	6	4.303898	-3.6722	-123.6671	
10:13:33	-6.733774	38.95366	129.358	2.033339	-17.21466	0.21	3	100	0	6	4.183062	-3.973754	-123.7286	
10:13:34	-6.733775	38.95366	129.328	1.987589	-18.20958	0.09	3	100	0	6	4.171167	-3.817741	-123.7673	
10:13:34	-6.733775	38.95366	129.443	1.957475	-18.74134	0.18	3	100	0	6	4.383362	-3.721613	-123.7116	
10:13:34	-6.733775	38.95366	129.403	1.938076	-18.1012	0.22	3	100	0	6	4.477581	-3.499272	-123.7282	
10:13:34	-6.733776	38.95366	129.458	1.95512	-15.69865	0.04	3	100	0	6	4.186528	-3.904197	-123.766	
10:13:34	-6.733776	38.95366	129.683	1.993231	-12.48541	0.26	3	100	0	6	4.212306	-3.915679	-123.8106	
10:13:35	-6.733777	38.95366	130.001	2.023358	-9.883883	0.28	3	100	0	6	4.206101	-4.103566	-123.8177	
10:13:35	-6.733777	38.95366	130.082	2.04842	-8.174966	0.17	3	100	0	6	4.321331	-4.108088	-123.8002	
10:13:35	-6.733778	38.95366	130.165	2.060737	-7.039134	0.16	3	100	0	6	4.36284	-3.66165	-123.8443	
10:13:35	-6.733778	38.95366	130.036	2.061494	-7.158054	0.08	3	100	0	7	4.223619	-3.800374	-123.8922	
10:13:36	-6.733778	38.95366	129.807	2.066135	-6.475256	0.28	3	100	0	6	4.292867	-3.737529	-123.9427	
10:13:36	-6.733779	38.95366	129.543	2.074505	-5.412904	0.62	3	100	0	6	4.165889	-3.883352	-123.805	
10:13:36	-6.733779	38.95366	129.392	2.067271	-5.449265	0.14	3	100	0	6	4.028965	-4.217189	-123.8109	
10:13:36	-6.733779	38.95366	129.246	2.051226	-5.890265	0.19	3	100	0	6	4.272471	-3.838798	-123.8601	
10:13:36	-6.733779	38.95366	129.185	2.050961	-5.828877	0.22	3	100	0	6	4.401026	-3.639503	-123.9382	
10:13:37	-6.733778	38.95366	129.008	2.059107	-5.23063	0.18	3	100	0	6	4.473266	-3.722306	-123.9171	
10:13:37	-6.733778	38.95366	128.824	2.061602	-4.982669	0.29	3	100	0	6	4.452643	-3.650383	-123.9053	
10:13:37	-6.733778	38.95366	128.633	2.058727	-5.455903	0.08	3	100	0	6	4.547543	-3.757208	-123.9596	
10:13:37	-6.733778	38.95366	128.431	2.043527	-6.239515	0.22	3	100	0	6	4.38003	-3.59905	-123.9941	
10:13:37	-6.733778	38.95366	128.339	2.020852	-7.079514	0.14	3	100	0	6	4.441117	-3.779643	-124.0604	
10:13:38	-6.733778	38.95366	128.086	2.008899	-7.202749	0.13	3	100	0	6	4.43602	-3.7467	-124.0009	
10:13:38	-6.733778	38.95366	127.97	2.012377	-6.515408	0.19	3	100	0	6	4.381021	-3.761726	-124.0202	
10:13:38	-6.733778	38.95366	127.859	2.016374	-6.259289	0.29	3	100	0	6	4.474952	-3.732493	-124.0838	
10:13:38	-6.733778	38.95366	127.898	2.003051	-6.500917	0.26	3	100	0	6	4.193213	-3.876812	-124.0999	
10:13:38	-6.733778	38.95366	127.95	1.992055	-6.40845	0.29	3	100	0	6	4.286133	-3.854324	-124.097	
10:13:38	-6.733779	38.95366	127.896	1.973332	-7.255651	0.22	3	100	0	6	4.193362	-3.7632	-124.0875	
10:13:39	-6.733779	38.95366	127.876	1.956238	-8.086369	0.22	3	100	0	6	3.4296	-2.610333	-123.728	
10:13:39	-6.733779	38.95366	127.836	1.944748	-7.385291	0.24	3	100	0	6	3.084907	-2.846224	-122.9512	
10:13:39	-6.73378	38.95366	127.707	1.936415	-6.814986	0.12	3	100	0	6	1.208139	-1.484166	-121.636	
10:13:39	-6.73378	38.95366	127.657	1.904428	-8.669755	0.14	3	100	0	6	3.74526	-3.316428	-121.5729	
10:13:40	-6.733781	38.95366	127.48	1.875521	-9.737133	0.39	3	100	0	6	3.43643	-2.931103	-121.4837	
10:13:40	-6.733781	38.95366	127.396	1.878744	-9.375782	0.37	3	100	0	6	3.305043	-3.162504	-121.4334	
10:13:40	-6.733782	38.95366	127.288	1.882426	-9.268195	0.08	3	100	0	6	2.895329	-2.860835	-121.4434	
10:13:40	-6.733782	38.95366	127.188	1.854699	-10.4309	1.02	3	100	0	6	3.174155	-2.463982	-121.8077	
10:13:40	-6.733781	38.95366	127.025	1.830497	-11.27179	0.24	3	100	0	6	2.898338	-1.255555	-121.9274	
10:13:41	-6.733782	38.95366	126.984	1.851177	-9.436687	0.19	3	100	0	6	1.416483	-2.849982	-122.3151	
10:13:41	-6.733782	38.95366	126.831	1.875039	-3.609992	0.07	3	100	0	6	-1.927361	-4.767459	-123.598	
10:13:41	-6.733782	38.95366	126.788	1.9029	-0.4641104	0.21	3	100	0	6	-3.618072	-4.812194	-122.8122	
10:13:41	-6.733782	38.95366	126.569	1.93881	10.87603	0.12	3	100	0	6	-8.27765	-3.596131	-121.6612	
10:13:41	-6.733782	38.95366	126.392	2.00108	10.31242	0.04	3	100	0	6	-11.02218	-3.530302	-121.5473	
10:13:42	-6.733783	38.95366	126.145	2.047476	8.662421	0.14	3	100	0	6	-12.64122	-3.404615	-122.6779	
10:13:42	-6.733783	38.95366	125.907	2.060675	-1.799705	0.74	3	100	0	6	-13.78149	-3.241548	-122.2883	
10:13:42	-6.733784	38.95366	125.812	2.047578	-9.046464	0.11	3	100	0	8	-14.00077	-2.286249	-124.1258	
10:13:42	-6.733784	38.95366	125.613	2.013039	-14.17142	0.07	3	100	0	6	-13.52798	1.48388	-123.8496	
10:13:42	-6.733786	38.95366	125.531	1.986904	-9.553382	0.42	3	100	0	6	-11.43218	5.191288	-122.8766	
10:13:43	-6.733786	38.95366	125.407	2.005058	0.09896392	0.29	3	100	0	6	-10.8859	9.658552	-121.1442	
10:13:43	-6.733786	38.95366	125.195	2.034366	-0.4361189	0.09	3	100	0	6	-10.87968	13.07691	-120.6872	
10:13:43	-6.733787	38.95366	125.194	2.061956	5.461703	0.34	3	100	0	6	-14.79608	9.712222	-122.734	
10:13:43	-6.733787	38.95366	125.361	2.105903	1.329805	0.14	3	100	0	6	-18.16885	3.501406	-128.8721	
10:13:43	-6.733787	38.95366	125.678	2.164211	7.179203	0.42	3	100	0	6	-19.73603	-6.991643	-137.2734	
10:13:44	-6.733787	38.95366	125.601	2.253836	16.76389	0.14	3	100	0	6	-19.82384	-15.94942	-149.6184	
10:13:44	-6.733787	38.95366	125.625	2.340714	16.57448	0.32	3	100	0	6	-14.35439	-22.41006	-170.0665	
10:13:44	-6.733788	38.95366	125.613	2.401055	3.208895	0.08	3	100	0	8	-7.611775	-22.55569	166.9129	
10:13:44	-6.733788	38.95366	125.084	2.386781	-23.75447	0.41	3	100	0	6	2.725387	-21.27017	140.8392	
10:13:44	-6.733789	38.95366	125.147	2.298088	-55.67316	0.89	3	100	0	6	9.142114	-16.15892	119.3171	
10:13:45	-6.733789	38.95366	125.202	2.191525	-46.65681	0.68	3	100	0	6	8.516053	-9.858623	104.1269	
10:13:45	-6.73379	38.95366	125.342	2.125191	-34.7434	0.35	3	100	0	6	6.758319	-3.842824	95.39529	
10:13:45	-6.733791	38.95366	125.439	2.056369	-27.21986	0.63	3	100	0	6	6.21418	0.4700222	91.68658	
10:13:45	-6.733792	38.95366	125.44	1.972583	-25.99794	0.78	3	100	0	6	8.028644	1.054342	89.41275	
10:13:45	-6.733792	38.95367	125.25	1.919224	-26.98198	0.96	3	100	0	6	7.924184	2.182627	85.77893	
10:13:46	-6.733793	38.95367	125.209	1.887151	-28.99993	0.7	3	100	0	6	8.725587	2.959655	83.5583	
10:13:46	-6.733793	38.95367	125.248	1.820638	-25.65566	0.35	3	100	0	6	9.67708	2.940041	82.29453	
10:13:46	-6.733794	38.95367	125.37	1.74615	-22.8694	0.51	3	100	0	8	10.14978	2.084145	80.75842	
10:13:46	-6.733795	38.95367	125.604	1.680711	-25.55783	0.29	3	100	0	6	9.654986	2.264376	79.95878	
10:13:46	-6.733796	38.95367	125.556	1.614434	-31.07466	0.7	3	100	0	6	8.230944	3.367545	79.95995	
10:13:47	-6.733797	38.95367	125.428	1.577685	-26.12823	0.26	3	100	0	6	8.520514	3.357747	78.7416	
10:13:47	-6.733799	38.95366	125.684	1.560853	-25.29029	0.66	3	100	0	6	8.337354	3.245334	78.26706	
10:13:47	-6.7338	38.95366	125.777	1.555993	-21.50935	0.91	3	100	0	6	6.990471	3.017497	78.32687	
10:13:47	-6.733801	38.95366	125.806	1.566613	-18.37492	0.29	3	100	0	6	7.049522	3.13043	78.38636	
10:13:47	-6.733802	38.95366	126.018	1.602847	-15.5018	0.65	3	100	0	6	6.322845	3.048187	78.25716	
10:13:48	-6.733804	38.95366	126.393	1.657735	-11.6235	0.45	3	100	0	6	6.60474	2.788154	78.31535	
10:13:48	-6.733805	38.95366	126.615	1.709486	-7.844025	0.42	3	100	0	6	6.235168	2.743293	78.34372	
10:13:48	-6.733805	38.95366	126.78	1.68111	-9.410421	0.42	3	100	0	6	5.308275	2.341567	78.34374	
10:13:48	-6.733806	38.95366	126.699	1.655876	-10.23949	0.14	3	100	0	6	5.918612	2.860618	78.3622	
10:13:48	-6.733807	38.95366	126.828	1.626522	-10.76854	0.21	3	100	0	6	5.887038	2.458809	78.37749	
10:13:49	-6.733807	38.95366	126.818	1.598158	-11.77205	0.09	3	100	0	6	5.864306	2.097269	78.3783	
10:13:49	-6.733807	38.95366	126.651	1.577352	-12.30654	0.12	3	100	0	6	5.621562	1.988075	78.35244	
10:13:49	-6.733807	38.95366	126.382	1.560497	-11.38426	0.06	3	100	0	6	5.463471	1.854345	78.30406	
10:13:49	-6.733807	38.95366	126.297	1.608986	-7.370012	0.07	3	100	0	6	5.394002	1.868415	78.23186	
10:13:49	-6.733807	38.95366	126.016	1.657948	-5.104561	0.35	3	100	0	7	5.332007	1.661561	78.16023	
10:13:50	-6.733807	38.95366	125.794	1.704048	-2.180703	0.29	3	100	0	6	5.176637	1.841259	78.10311	
10:13:50	-6.733807	38.95366	125.572	1.745878	-0.4702572	0.01	3	100	0	6	5.204433	1.57047	78.06206	
10:13:50	-6.733807	38.95366	125.525	1.78905	1.92232	0.06	3	100	0	6	4.945694	1.167736	77.91585	
10:13:50	-6.733806	38.95366	125.572	1.824239	3.802537	0.36	3	100	0	6	4.900142	1.037515	77.79021	
10:13:50	-6.733805	38.95366	125.618	1.866329	5.56255	0.36	3	100	0	6	4.829118	0.4632896	77.67496	
10:13:51	-6.733803	38.95366	125.265	1.907691	6.895158	0.16	3	100	0	6	3.722525	0.3497242	77.46835	
10:13:51	-6.733803	38.95366	125.41	1.913799	7.301031	0.24	3	100	0	6	-0.992448	0.5244721	76.96756	
10:13:51	-6.733803	38.95366	125.857	1.918133	4.981191	0.38	3	100	0	6	7.446312	0.3748195	76.94808	
10:13:51	-6.733801	38.95366	126.06	1.901423	4.105272	1.1	3	100	0	6	11.75488	0.0590544	76.67506	
10:13:51	-6.7338	38.95366	126.063	1.886677	3.062425	0.38	3	100	0	6	-2.821917	-0.3788992	75.62994	
10:13:52	-6.7338	38.95366	126.082	1.844592	-3.383466	0.58	3	100	0	6	14.7133	0.3428327	75.85969	
10:13:52	-6.7338	38.95366	126.206	1.80662	-1.796975	0.33	3	100	0	6	8.640366	0.8264932	74.91019	
10:13:52	-6.733799	38.95366	126.35	1.759688	0.2008364	0.62	3	100	0	6	4.422684	0.000525599	74.35928	
10:13:52	-6.733799	38.95366	126.489	1.720339	-3.76686	0.5	3	100	0	6	19.61173	-1.078059	74.04186	
10:13:52	-6.733799	38.95366	126.623	1.705867	-2.959557	0.21	3	100	0	6	2.57749	-0.327029	72.66709	
10:13:53	-6.733797	38.95366	126.648	1.694282	-1.267058	0.77	3	100	0	6	8.45374	0.7722949	72.84763	
10:13:53	-6.733795	38.95366	126.732	1.693511	-2.531022	1.05	3	100	0	6	8.885118	0.6859686	72.35266	
10:13:53	-6.733794	38.95366	126.803	1.701862	-7.829338	0.97	3	100	0	6	-3.919406	1.138413	71.56137	
10:13:53	-6.733793	38.95366	127.033	1.696951	-11.16264	1.4	3	100	0	6	10.81543	1.123453	71.97254	
10:13:53	-6.73379	38.95366	127.11	1.678201	-13.61368	1.23	3	100	0	6	1.504466	0.5161614	71.63059	
10:13:54	-6.733789	38.95366	127.087	1.674542	-15.97766	0.94	3	100	0	6	0.7098197	0.5866629	71.70918	
10:13:54	-6.733789	38.95366	126.959	1.67656	-16.17327	0.42	3	100	0	6	1.632026	0.483537	71.76043	
10:13:54	-6.733787	38.95365	126.803	1.635726	-15.20446	0.95	3	100	0	6	2.66804	-0.2557758	71.80771	
10:13:54	-6.733786	38.95365	126.69	1.572578	-16.64561	0.85	3	100	0	6	2.529378	-0.1756243	71.79215	
10:13:54	-6.733785	38.95365	126.514	1.542213	-16.762	0.87	3	100	0	6	2.927633	0.2061664	71.76088	
10:13:55	-6.733784	38.95365	126.196	1.538872	-15.54845	0.69	3	100	0	6	2.531752	-0.2697892	71.71275	
10:13:55	-6.733783	38.95365	125.926	1.529443	-14.29924	0.52	3	100	0	6	3.06046	-0.2055629	71.66496	
10:13:55	-6.733783	38.95364	125.792	1.510214	-14.21556	0.47	3	100	0	7	3.272782	-0.3943228	71.63175	
10:13:55	-6.733783	38.95364	125.591	1.503978	-13.26135	0.11	3	100	0	6	3.267894	-0.6070333	71.58031	
10:13:55	-6.733783	38.95364	125.572	1.515364	-10.32992	0.14	3	100	0	6	3.281535	-1.089733	71.39542	
10:13:56	-6.733783	38.95364	125.691	1.50494	-9.467879	0.28	3	100	0	6	3.368022	-1.2793	71.27328	
10:13:56	-6.733783	38.95364	125.562	1.482949	-9.675378	0.26	3	100	0	6	3.372467	-1.498824	71.1488	
10:13:56	-6.733783	38.95364	125.506	1.462542	-9.36259	0.32	3	100	0	6	3.286909	-1.385177	71.01927	
10:13:56	-6.733783	38.95364	125.448	1.44479	-8.880705	0.25	3	100	0	6	3.100302	-0.9308763	70.87406	
10:13:56	-6.733783	38.95364	125.418	1.441443	-8.344397	0.38	3	100	0	6	3.269722	-1.245143	70.75227	
10:13:57	-6.733783	38.95364	125.306	1.451775	-6.842538	0.14	3	100	0	6	3.186208	-0.9936651	70.68421	
10:13:57	-6.733782	38.95364	125.209	1.461277	-5.377298	0.03	3	100	0	6	3.175055	-1.295473	70.60571	
10:13:57	-6.733783	38.95364	125.386	1.468764	-4.203146	0.37	3	100	0	6	3.11925	-1.329631	70.50111	
10:13:57	-6.733784	38.95364	125.514	1.504414	-1.531019	0.09	3	100	0	6	3.254314	-1.19101	70.33849	
10:13:57	-6.733784	38.95364	125.461	1.562558	2.195643	0.36	3	100	0	6	3.154608	-1.401089	70.2534	
10:13:58	-6.733785	38.95364	125.443	1.615912	4.73303	0.24	3	100	0	6	3.230125	-1.270352	70.17818	
10:13:58	-6.733786	38.95364	125.647	1.614743	4.917467	0.36	3	100	0	6	3.301112	-1.692333	70.08678	
10:13:58	-6.733786	38.95364	125.718	1.613924	5.103389	0.16	3	100	0	6	3.211674	-1.812963	69.85413	
10:13:58	-6.733787	38.95364	126.08	1.61038	5.383989	0.08	3	100	0	6	3.171182	-1.517554	69.73922	
10:13:58	-6.733788	38.95364	126.1	1.606799	4.71893	0.28	3	100	0	6	3.172958	-1.594004	69.64357	
10:13:59	-6.733788	38.95364	126.204	1.635455	6.146922	0.36	3	100	0	6	3.094116	-1.380597	69.56828	
10:13:59	-6.733789	38.95364	126.212	1.660621	6.925677	0.11	3	100	0	6	2.849957	-1.434095	69.50167	
10:13:59	-6.733789	38.95364	126.178	1.699193	8.585601	0.18	3	100	0	6	3.118978	-1.701683	69.32618	
10:13:59	-6.73379	38.95364	126.356	1.736395	10.2827	0.19	3	100	0	6	3.196988	-1.899088	69.24879	
10:13:59	-6.733791	38.95364	126.323	1.777572	11.66395	0.06	3	100	0	6	3.093931	-1.934568	69.1657	
10:14:00	-6.733792	38.95364	126.454	1.814387	13.45111	0.09	3	100	0	6	3.052868	-1.782257	69.08289	
10:14:00	-6.733793	38.95364	126.395	1.83638	13.36561	0.29	3	100	0	6	3.069439	-1.744726	68.93353	
10:14:00	-6.733793	38.95364	126.345	1.85416	13.0371	0.14	3	100	0	6	3.243298	-1.433548	68.86102	
10:14:00	-6.733794	38.95364	126.207	1.865894	12.47863	0.12	3	100	0	6	2.714728	-1.573443	68.81183	
10:14:00	-6.733794	38.95364	126.138	1.875593	11.90891	0.09	3	100	0	6	1.73561	-1.737342	68.73586	
10:14:01	-6.733794	38.95364	125.997	1.901442	13.87774	0.22	3	100	0	6	-2.826619	-2.00514	68.45969	
10:14:01	-6.733794	38.95364	125.749	1.92172	10.9985	0.65	3	100	0	6	5.438319	-1.593127	68.55752	
10:14:01	-6.733794	38.95364	125.653	1.942766	10.20931	1.49	3	100	0	6	10.281	-1.074422	68.55646	
10:14:01	-6.733795	38.95363	125.566	1.962195	10.45145	0.91	3	100	0	6	8.140015	-0.8271812	68.34533	
10:14:01	-6.733795	38.95363	125.757	1.976173	8.738133	0.34	3	100	0	6	-4.670928	-1.362908	68.10582	
10:14:02	-6.733795	38.95363	125.928	1.981874	5.40109	0.42	3	100	0	6	-6.329498	-2.197726	68.04116	
10:14:02	-6.733796	38.95363	125.924	1.930034	1.198725	0.65	3	100	0	6	-6.174866	-2.389551	68.06767	
10:14:02	-6.733797	38.95363	125.819	1.880721	-2.724859	0.29	3	100	0	6	-0.8133851	-2.115932	68.29666	
10:14:02	-6.733795	38.95363	125.884	1.828281	-7.829356	0.62	3	100	0	6	11.77176	-2.071365	68.44823	
10:14:02	-6.733795	38.95363	125.916	1.773842	-10.16137	0.21	3	100	0	6	11.67948	-2.35965	67.92931	
10:14:03	-6.733794	38.95363	125.964	1.742288	-10.97	0.79	3	100	0	5	-3.873237	-2.554321	67.29629	
10:14:03	-6.733793	38.95363	125.955	1.742509	-8.376978	0.25	3	100	0	5	-7.887668	-3.062019	67.08667	
10:14:03	-6.733793	38.95363	125.756	1.744172	-9.35257	0.56	3	100	0	6	-0.9836861	-2.133834	67.48311	
10:14:03	-6.733792	38.95363	125.409	1.744159	-8.879585	0.5	3	100	0	6	13.37612	-1.36966	67.93111	
10:14:03	-6.733792	38.95363	125.529	1.751544	-7.248378	0.76	3	100	0	6	12.18768	-1.681529	67.30772	
10:14:04	-6.733792	38.95363	125.6	1.761344	-5.971508	0.61	3	100	0	6	-2.263283	-2.166027	66.7373	
10:14:04	-6.733792	38.95363	125.72	1.755002	-7.035863	0.35	3	100	0	6	-6.939922	-1.666615	66.39444	
10:14:04	-6.733792	38.95363	125.643	1.721745	-8.852749	0.53	3	100	0	6	-2.97245	-0.8695229	66.65071	
10:14:04	-6.733794	38.95363	125.677	1.696571	-10.71068	0.91	3	100	0	6	8.764171	-0.3141934	67.02889	
10:14:04	-6.733794	38.95363	125.647	1.670111	-10.75447	0.38	3	100	0	6	18.47744	-0.5174859	66.80009	
10:14:05	-6.733794	38.95363	125.73	1.616947	-12.92721	0.42	3	100	0	6	9.778973	-0.7823508	66.3465	
10:14:05	-6.733793	38.95363	125.745	1.525943	-16.50426	0.39	3	100	0	6	-5.125529	-1.063689	65.97068	
10:14:05	-6.733792	38.95362	125.865	1.471496	-19.74894	0.29	3	100	0	6	-5.210619	-0.5887052	66.05211	
10:14:05	-6.733792	38.95362	125.782	1.445888	-20.52676	0.42	3	100	0	6	-1.91586	-0.6692333	66.11774	
10:14:05	-6.733792	38.95362	125.67	1.388967	-24.77177	0.29	3	100	0	6	11.0398	-0.8706055	66.40548	
10:14:06	-6.733792	38.95362	125.452	1.319384	-22.51304	0.22	3	100	0	6	11.20939	-0.3306835	66.235	
10:14:06	-6.733793	38.95362	125.353	1.285125	-22.91235	0.02	3	100	0	6	-5.325657	-0.4701892	65.78033	
10:14:06	-6.733791	38.95362	125.3	1.263401	-24.93685	0.48	3	100	0	6	-4.447447	-0.7703182	65.575	
10:14:06	-6.733789	38.95362	125.336	1.251873	-24.25035	0.37	3	100	0	6	-2.676465	-0.7781909	65.80013	
10:14:06	-6.733789	38.95362	125.406	1.246193	-23.66235	0.45	3	100	0	6	9.898462	-0.7167541	66.28456	
10:14:07	-6.733789	38.95362	125.571	1.263871	-19.81202	0.65	3	100	0	6	17.09344	-0.693411	66.60882	
10:14:07	-6.733789	38.95362	125.615	1.304653	-15.11922	0.53	3	100	0	6	10.50043	-0.09421332	65.77203	
10:14:07	-6.733789	38.95362	125.637	1.359286	-12.384	0.33	3	100	0	6	-4.558019	-0.7586337	65.27571	
10:14:07	-6.733789	38.95362	125.752	1.4347	-5.651597	0.26	3	100	0	6	-1.258331	-1.414773	65.13454	
10:14:07	-6.73379	38.95361	125.717	1.494077	-5.101039	0.17	3	100	0	6	14.01815	-1.488226	65.5575	
10:14:08	-6.733791	38.95361	125.84	1.571661	1.994963	0.29	3	100	0	6	16.65301	-1.678293	64.91346	
10:14:08	-6.733792	38.95361	125.925	1.641641	4.651046	0.68	3	100	0	6	1.053391	-1.195601	64.2039	
10:14:08	-6.733793	38.95361	126.11	1.763808	11.56658	0.24	3	100	0	5	-2.21973	-1.332316	64.01441	
10:14:08	-6.733794	38.95361	126.295	1.860221	13.47114	0.09	3	100	0	6	7.368498	-1.009686	64.34487	
10:14:08	-6.733795	38.95361	126.424	1.942994	18.4571	0.26	3	100	0	6	14.0418	-0.9736155	64.3213	
10:14:09	-6.733795	38.95361	126.569	2.019953	21.8781	0.22	3	100	0	6	1.251101	-0.6310242	62.96029	
10:14:09	-6.733796	38.95361	126.705	2.049579	24.50363	0.14	3	100	0	6	-3.444865	-0.45931	62.57923	
10:14:09	-6.733796	38.95361	126.778	2.077824	21.62457	0.33	3	100	0	6	9.447502	-0.6716752	63.15091	
10:14:09	-6.733795	38.95361	126.632	2.121783	22.66498	0.28	3	100	0	6	18.1629	-1.624746	62.92826	
10:14:09	-6.733795	38.95361	126.614	2.159639	20.60576	0.36	3	100	0	5	4.435372	-0.5211964	61.99176	
10:14:10	-6.733796	38.95361	126.702	2.111441	14.1975	0.17	3	100	0	6	-1.509279	-0.3238925	59.74207	
10:14:10	-6.733795	38.95361	126.731	2.058073	4.264534	0.02	3	100	0	6	4.913043	-0.4862893	59.94619	
10:14:10	-6.733794	38.95361	126.656	2.01251	1.261364	0.07	3	100	0	6	12.89211	-0.8807924	60.55161	
10:14:10	-6.733794	38.95361	126.552	1.966457	-1.003329	0.22	3	100	0	6	7.932649	-0.8848775	60.05354	
10:14:10	-6.733792	38.95361	126.457	1.930429	-3.31357	0.24	3	100	0	6	-3.837595	-0.7461482	59.9784	
10:14:11	-6.733791	38.95361	126.382	1.89765	-5.011612	0.14	3	100	0	6	0.5117669	-0.6123399	60.32518	
10:14:11	-6.73379	38.9536	126.26	1.833885	-9.579585	0.28	3	100	0	6	10.34109	-1.135875	61.04282	
10:14:11	-6.733789	38.9536	126.08	1.77286	-10.73543	0.08	3	100	0	6	15.40254	-0.981253	61.47227	
10:14:11	-6.733788	38.9536	125.747	1.769014	-9.974352	0.29	3	100	0	6	5.182062	-0.390242	60.98717	
10:14:11	-6.733787	38.9536	125.68	1.767074	-9.033391	0.08	3	100	0	6	-2.283937	-0.5641654	60.80857	
10:14:12	-6.733785	38.9536	125.555	1.801721	-7.171547	0.09	3	100	0	6	5.098023	-0.6419523	61.22989	
10:14:12	-6.733784	38.9536	125.426	1.833929	-4.755246	0.37	3	100	0	6	10.28158	-1.034583	61.16797	
10:14:12	-6.733782	38.9536	125.231	1.851839	-2.867825	0.09	3	100	0	6	1.531756	-0.7731637	60.95253	
10:14:12	-6.733781	38.9536	125.229	1.874329	1.099456	0.14	3	100	0	6	6.298192	-0.7225099	61.24753	
10:14:12	-6.73378	38.9536	125.274	1.867252	0.0464204	0.11	3	100	0	6	18.90574	-1.511428	61.11916	
10:14:13	-6.733779	38.9536	125.212	1.821282	-0.7092023	0.24	3	100	0	6	15.21749	-1.260491	59.99891	
10:14:13	-6.733778	38.9536	125.133	1.768812	-2.312971	0.17	3	100	0	6	9.132621	-0.9133152	59.60113	
10:14:13	-6.733778	38.9536	125.251	1.694326	-6.775594	0.09	3	100	0	6	-0.1252807	-0.6917941	59.7292	
10:14:13	-6.733779	38.9536	125.158	1.671611	-9.582396	0.17	3	100	0	6	4.963719	-0.9622919	59.92928	
10:14:13	-6.733779	38.9536	125.042	1.678285	-5.6505	0.18	3	100	0	4	3.434371	-0.7426414	60.00141	
10:14:14	-6.733779	38.9536	124.956	1.673139	-5.536886	0.09	3	100	0	6	4.349447	-0.8939191	60.16745	
10:14:14	-6.733778	38.95359	124.843	1.655271	-5.955711	0.09	3	100	0	6	3.873713	-0.9989641	60.26377	
10:14:14	-6.733778	38.95359	124.814	1.650225	-5.290194	0.29	3	100	0	6	3.621546	-0.9821213	60.34893	
10:14:14	-6.733777	38.95359	124.631	1.658306	-4.104745	0.01	3	100	0	6	4.293621	-1.137085	60.3553	
10:14:14	-6.733776	38.95359	124.607	1.688268	-1.700257	0.17	3	100	0	6	4.514987	-1.404276	60.38681	
10:14:15	-6.733776	38.95359	124.607	1.747156	2.184654	0.14	3	100	0	6	4.240312	-1.292746	60.44155	
10:14:15	-6.733776	38.95359	124.527	1.801666	4.951301	0.19	3	100	0	6	2.879353	-0.9913781	60.49518	
10:14:15	-6.733776	38.95359	124.618	1.859934	10.52708	0.22	3	100	0	6	-0.9156914	-0.9811352	60.45792	
10:14:15	-6.733776	38.95359	124.518	1.880482	9.779798	0.12	3	100	0	6	0.3120641	-1.075853	60.69384	
10:14:15	-6.733776	38.95359	124.474	1.877688	8.056103	0.19	3	100	0	6	3.624423	-1.051304	60.96631	
10:14:16	-6.733776	38.95359	124.424	1.872083	7.285036	0.04	3	100	0	6	12.69413	-1.513552	61.35536	
10:14:16	-6.733776	38.95358	124.671	1.866173	5.808154	0.09	3	100	0	6	13.2056	-1.451916	60.58768	
10:14:16	-6.733776	38.95358	124.855	1.868703	6.644866	0.18	3	100	0	6	-3.3596	-1.092714	59.84147	
10:14:16	-6.733775	38.95358	124.918	1.872751	-1.854845	0.09	3	100	0	6	2.085639	-0.5924782	60.18596	
10:14:16	-6.733774	38.95358	124.855	1.850313	-1.949432	0.22	3	100	0	6	16.42862	-0.8875532	60.33018	
10:14:17	-6.733775	38.95358	124.639	1.813244	-4.090987	0.11	3	100	0	6	11.9942	-0.5782055	59.76379	
10:14:17	-6.733774	38.95358	124.558	1.771506	-6.523833	0.16	3	100	0	6	-2.985199	-0.5246556	59.16973	
10:14:17	-6.733774	38.95358	124.383	1.740151	-2.616437	0.22	3	100	0	6	-1.392067	-0.2715836	58.38969	
10:14:17	-6.733774	38.95358	124.202	1.707245	-9.005791	0.19	3	100	0	6	17.5032	-1.121491	58.6079	
10:14:18	-6.733775	38.95358	124.28	1.599407	-16.60418	0.22	3	100	0	6	10.55887	-0.7240219	57.82343	
10:14:18	-6.733774	38.95358	124.16	1.560884	-14.05727	0.12	3	100	0	6	-1.311412	-0.1447873	57.53341	
10:14:18	-6.733773	38.95358	123.913	1.527167	-16.36506	0.14	3	100	0	6	-2.443517	-0.07954407	57.69417	
10:14:18	-6.733773	38.95358	123.701	1.503508	-18.55539	0.09	3	100	0	5	5.310284	-0.294463	58.09425	
10:14:18	-6.733773	38.95358	123.539	1.480371	-19.39111	0.39	3	100	0	6	9.980413	-0.2961967	58.1879	
10:14:19	-6.733773	38.95358	123.676	1.461464	-17.49628	0.16	3	100	0	6	-0.2561708	-0.234695	57.8452	
10:14:19	-6.733773	38.95358	123.613	1.451022	-12.57746	0.22	3	100	0	6	-1.407241	-0.06904324	57.12576	
10:14:19	-6.733772	38.95358	123.571	1.481222	-13.13556	0.29	3	100	0	6	7.486077	-0.313345	57.576	
10:14:19	-6.733772	38.95358	123.437	1.510216	-9.55152	0.14	3	100	0	6	13.47518	-0.5900145	57.20887	
10:14:19	-6.733773	38.95358	123.254	1.505177	-8.398111	0.11	3	100	0	6	0.3906133	0.1264778	55.97919	
10:14:20	-6.733773	38.95358	123.197	1.503114	-6.511692	0.14	3	100	0	6	-7.407224	0.1882029	55.96266	
10:14:20	-6.733773	38.95358	123.196	1.510727	-7.582394	0.17	3	100	0	6	-6.257552	0.3353001	55.37341	
10:14:20	-6.733774	38.95357	123.138	1.517876	-9.339322	0.14	3	100	0	6	7.31985	-0.3198089	54.29624	
10:14:20	-6.733774	38.95357	123.101	1.537576	-3.956911	0.19	3	100	0	6	10.202	-0.3303483	54.05656	
10:14:20	-6.733774	38.95357	123.054	1.562874	-2.043732	0.26	3	100	0	6	-1.437489	-0.4220591	53.73223	
10:14:21	-6.733774	38.95357	123.019	1.578011	3.236239	0.08	3	100	0	5	-2.150583	-0.2757711	53.8693	
10:14:21	-6.733775	38.95357	122.934	1.592678	1.113526	0.19	3	100	0	6	0.6917617	-0.4541956	54.10955	
10:14:21	-6.733774	38.95357	122.769	1.616185	3.748802	0.04	3	100	0	5	11.53044	-1.23406	53.95453	
10:14:21	-6.733774	38.95357	122.654	1.648369	9.47691	0.06	3	100	0	6	1.443231	-0.4665223	50.43529	
10:14:21	-6.733775	38.95357	122.577	1.698346	13.00869	0.12	3	100	0	6	-3.405092	-0.2244287	47.96394	
10:14:22	-6.733775	38.95357	122.258	1.738408	8.949018	0.13	3	100	0	6	5.168188	-0.316487	48.64144	
10:14:22	-6.733775	38.95357	122.258	1.776548	10.07141	0.13	3	100	0	6	12.19379	-1.029928	50.33562	
10:14:22	-6.733775	38.95357	122.18	1.8065	8.814024	0.09	3	100	0	6	5.462899	-1.230055	52.86662	
10:14:22	-6.733774	38.95357	122.067	1.810266	4.336269	0.09	3	100	0	6	4.355194	-1.040109	53.23869	
10:14:22	-6.733774	38.95357	121.981	1.787797	3.906178	0.42	3	100	0	6	-4.340868	-0.9614359	52.48086	
10:14:23	-6.733774	38.95357	122.023	1.784108	4.800121	0.28	3	100	0	6	-6.545852	-1.208439	53.07498	
10:14:23	-6.733774	38.95357	122.057	1.796162	-2.201863	0.69	3	100	0	6	13.26723	-2.300029	53.59851	
10:14:23	-6.733774	38.95357	121.848	1.763532	-0.5793507	0.18	3	100	0	6	24.67369	-5.146047	54.59715	
10:14:23	-6.733774	38.95357	121.801	1.712084	-1.299014	0.22	3	100	0	6	12.53351	-5.261462	52.64244	
10:14:23	-6.733774	38.95357	121.858	1.663556	-9.024693	0.07	3	100	0	6	-1.43996	-0.5823325	54.32461	
10:14:24	-6.733775	38.95357	121.851	1.610621	-8.928819	0.14	3	100	0	6	-4.556695	-1.36473	54.28272	
10:14:24	-6.733775	38.95357	121.851	1.581938	-11.61392	0.14	3	100	0	6	8.671156	-3.915353	54.29487	
10:14:24	-6.733776	38.95357	121.936	1.563345	-10.90148	0.14	3	100	0	6	19.35091	-7.161265	57.146	
10:14:24	-6.733777	38.95357	121.922	1.534991	-12.97519	0.18	3	100	0	6	2.95652	-4.974838	57.80484	
10:14:25	-6.733778	38.95357	121.969	1.480547	-25.40058	0.18	3	100	0	6	-4.492596	-2.778285	54.74851	
10:14:25	-6.733778	38.95357	121.997	1.447906	-25.70727	0.26	3	100	0	6	11.30652	-3.016038	51.02102	
10:14:25	-6.733778	38.95357	122.106	1.435105	-24.6994	0.36	3	100	0	6	21.31428	-2.488843	49.41299	
10:14:25	-6.733778	38.95357	122.29	1.441399	-20.1562	0.32	3	100	0	6	8.160829	-3.036036	48.80124	
10:14:25	-6.73378	38.95357	122.448	1.462213	-12.88759	0.07	3	100	0	6	-1.813612	0.2695021	49.56062	
10:14:26	-6.73378	38.95357	122.451	1.491792	-15.54021	0.14	3	100	0	6	6.443152	-1.02663	49.76998	
10:14:26	-6.733781	38.95357	122.522	1.525839	-8.813271	0.21	3	100	0	6	12.41869	-4.099039	51.70291	
10:14:26	-6.733781	38.95357	122.42	1.561452	-8.427477	0.29	3	100	0	6	-2.805516	-3.181958	54.60545	
10:14:26	-6.733782	38.95357	122.576	1.596259	-6.81204	0.42	3	100	0	6	-5.664619	0.2223722	56.10934	
10:14:26	-6.733782	38.95357	122.755	1.600674	-7.90413	0.28	3	100	0	6	7.906897	-1.253146	56.45165	
10:14:26	-6.733783	38.95357	122.933	1.588461	-3.148753	0.91	3	100	0	6	12.26091	-3.75153	57.75345	
10:14:27	-6.733785	38.95357	122.97	1.584316	-6.34171	1.26	3	100	0	6	-0.6305118	-0.7603076	58.04317	
10:14:27	-6.733786	38.95356	123.071	1.583724	-5.662082	0.26	3	100	0	6	-3.238263	1.515019	55.46904	
10:14:27	-6.733786	38.95356	123.132	1.583704	-5.866676	0.08	3	100	0	6	6.695172	-0.7542443	55.87595	
10:14:27	-6.733786	38.95356	123.132	1.559547	-4.846753	0.08	3	100	0	6	6.373938	-1.894133	58.54105	
10:14:27	-6.733786	38.95356	123.197	1.539434	-7.314999	0.5	3	100	0	6	0.8950725	-0.3369177	59.94275	
10:14:28	-6.733787	38.95356	123.489	1.50346	-2.395494	0.28	3	100	0	6	-0.5623656	-3.799479	59.01397	
10:14:28	-6.733787	38.95356	123.575	1.469171	-15.18388	0.28	3	100	0	6	5.36411	0.5835515	59.98071	
10:14:28	-6.733788	38.95356	123.638	1.483882	-8.51908	0.37	3	100	0	6	9.634118	-0.8265376	58.92361	
10:14:28	-6.733788	38.95356	123.508	1.507455	-4.401482	0.17	3	100	0	6	0.7898587	-0.1861382	60.57876	
10:14:28	-6.733787	38.95356	123.246	1.498457	0.2780789	0.22	3	100	0	6	-1.92627	-0.4009589	62.18658	
10:14:29	-6.733787	38.95356	123.346	1.49166	-4.136226	0.14	3	100	0	6	5.780501	-0.9290981	63.20375	
10:14:29	-6.733788	38.95356	123.369	1.483933	-1.951585	0.34	3	100	0	6	10.49627	0.07821483	63.66839	
10:14:29	-6.733789	38.95356	123.353	1.474916	-3.996411	0.26	3	100	0	6	-4.212924	-0.385305	64.47931	
10:14:29	-6.733789	38.95356	123.268	1.46041	-2.795487	0.18	3	100	0	6	-6.539753	-0.5216327	64.23714	
10:14:30	-6.733789	38.95356	123.289	1.446183	-4.798669	0.24	3	99	0	6	6.029881	-0.8379806	61.81252	
10:14:30	-6.733789	38.95356	123.332	1.474083	-3.269361	0.09	3	99	0	6	7.695898	-0.465434	60.01999	
10:14:30	-6.73379	38.95356	123.42	1.501192	-0.4489229	0.18	3	99	0	6	-7.684348	-1.348472	60.18206	
10:14:30	-6.733791	38.95356	123.429	1.598779	4.358265	0.14	3	99	0	6	-5.678656	-1.89623	60.75783	
10:14:30	-6.733791	38.95356	123.619	1.664544	-3.865912	0.36	3	99	0	5	12.26499	-0.9183205	60.66854	
10:14:30	-6.73379	38.95356	123.55	1.72527	16.43851	0.26	3	99	0	6	12.47742	-3.193724	60.53193	
10:14:31	-6.73379	38.95356	123.666	1.784442	17.80643	0.08	3	99	0	6	-5.169868	-3.33487	59.21495	
10:14:31	-6.73379	38.95357	123.596	1.781961	11.93399	0.26	3	99	0	6	-8.570647	-0.3667261	58.2011	
10:14:31	-6.73379	38.95357	123.603	1.771489	11.31354	0.12	3	99	0	6	10.1385	-1.668754	60.71641	
10:14:31	-6.73379	38.95357	123.566	1.738456	9.676202	0.19	3	99	0	6	7.466386	-1.349873	61.24209	
10:14:31	-6.73379	38.95357	123.682	1.708262	9.375897	0.17	3	99	0	6	-11.83232	-1.462699	58.6632	
10:14:32	-6.73379	38.95357	123.721	1.678041	5.605841	0.29	3	99	0	6	-4.09153	-2.178223	60.0256	
10:14:32	-6.73379	38.95357	123.764	1.633468	-5.238027	0.44	3	99	0	6	10.38518	-4.128812	59.52671	
10:14:32	-6.73379	38.95357	123.747	1.612954	-1.264079	0.33	3	99	0	6	3.788146	-4.602607	59.61714	
10:14:32	-6.73379	38.95357	123.785	1.626131	3.527031	0.25	3	99	0	6	-13.65454	-3.623975	57.25329	
10:14:33	-6.733789	38.95357	123.917	1.637941	-2.816252	0.12	3	99	0	6	14.95689	-2.262449	55.89833	
10:14:33	-6.733789	38.95357	123.961	1.618672	-5.20341	0.28	3	99	0	6	2.527688	-2.631227	54.10638	
10:14:33	-6.733789	38.95357	124.015	1.604735	-1.494467	0.18	3	99	0	6	-3.465093	-1.969758	51.84285	
10:14:33	-6.733787	38.95357	123.744	1.596401	-12.58604	0.87	3	99	0	6	13.61823	-2.500163	51.45938	
10:14:34	-6.733787	38.95357	123.537	1.596294	-3.520468	0.19	3	99	0	6	7.337417	-3.819087	55.50829	
10:14:34	-6.733787	38.95357	123.37	1.607419	-1.599489	0.32	3	99	0	6	-11.96846	-4.015067	57.73799	
10:14:34	-6.733786	38.95358	123.261	1.631979	-1.15306	0.21	3	99	0	6	-9.302732	-4.290163	59.4192	
10:14:34	-6.733784	38.95358	122.938	1.649717	-6.13165	0.97	3	99	0	6	12.99361	-4.570784	58.54542	
10:14:34	-6.733784	38.95358	122.996	1.670123	0.5548979	0.83	3	99	0	6	1.014783	-4.523624	54.98355	
10:14:35	-6.733785	38.95358	123.069	1.682265	3.724415	0.08	3	99	0	6	2.273167	-4.748029	49.58359	
10:14:35	-6.733785	38.95358	122.965	1.668946	-7.123742	0.59	3	99	0	6	15.81189	-3.19802	47.70867	
10:14:35	-6.733785	38.95358	123.067	1.657489	-2.122504	0.37	3	99	0	6	7.482724	-2.786446	49.50658	
10:14:35	-6.733786	38.95358	123.123	1.655484	2.94992	1.18	3	99	0	6	-3.646204	-3.356396	50.24971	
10:14:35	-6.733786	38.95358	123.197	1.673719	-2.378233	0.08	3	99	0	6	15.1271	-3.572205	50.86932	
10:14:36	-6.733785	38.95358	123.323	1.696071	0.1811577	0.12	3	99	0	6	8.520098	-3.563466	52.8435	
10:14:36	-6.733786	38.95358	123.509	1.719732	4.527906	0.63	3	99	0	6	-10.43827	-5.26245	52.13937	
10:14:36	-6.733785	38.95358	123.516	1.745542	4.256532	0.55	3	99	0	6	3.278334	-5.718259	50.14017	
10:14:36	-6.733784	38.95358	123.468	1.733617	-1.623111	0.65	3	99	0	6	14.38484	-2.815155	49.52633	
10:14:36	-6.733782	38.95358	123.098	1.701501	-3.184068	0.22	3	99	0	6	-6.053645	-2.638022	49.22535	
10:14:37	-6.733782	38.95358	123.139	1.66982	-0.969479	0.06	3	99	0	6	-7.338625	-3.565964	48.22496	
10:14:37	-6.733782	38.95358	123.048	1.628901	-10.29052	0.5	3	99	0	6	12.76375	-2.177016	48.5928	
10:14:37	-6.733781	38.95359	122.815	1.586801	-7.698108	0.58	3	99	0	6	-2.602333	-3.698762	49.39267	
10:14:37	-6.733781	38.95359	122.79	1.545747	-6.187095	0.09	3	99	0	6	-8.164294	-4.714903	49.55183	
10:14:37	-6.733781	38.95359	122.722	1.506234	-15.6841	0.34	3	99	0	6	13.37157	-3.858333	50.53179	
10:14:38	-6.73378	38.95359	122.613	1.470855	-12.64239	0.29	3	99	0	6	2.166683	-2.55451	50.64164	
10:14:38	-6.733779	38.95359	122.341	1.445605	-7.724664	0.42	3	99	0	6	-9.580382	-3.618077	49.4743	
10:14:38	-6.733778	38.95359	122.18	1.422154	-13.68684	0.55	3	99	0	6	12.68931	-3.229475	48.70499	
10:14:38	-6.733778	38.95359	122.039	1.395387	-14.25521	0.16	3	99	0	6	14.49205	-0.7166795	46.67262	
10:14:38	-6.733778	38.95359	121.878	1.383368	-14.54261	0.29	3	99	0	6	0.08505296	-2.131041	44.81266	
10:14:39	-6.733778	38.95359	121.809	1.370863	-21.33048	0.24	3	98	0	6	11.42347	-3.590783	44.40982	
10:14:39	-6.733777	38.95359	121.479	1.383208	-14.46764	0.45	3	98	0	6	2.991232	-4.232475	44.73645	
10:14:39	-6.733776	38.95359	121.554	1.401167	-8.505138	0.04	3	98	0	6	17.20062	-1.590468	44.13354	
10:14:39	-6.733776	38.95359	121.392	1.598027	-2.62913	0.61	3	98	0	6	0.4125245	-3.399013	43.11266	
10:14:40	-6.733775	38.95359	121.39	1.717312	8.390713	0.29	3	98	0	6	-1.125361	-3.880404	42.25935	
10:14:40	-6.733775	38.9536	121.488	1.812913	-1.256397	0.06	3	98	0	6	18.47476	-3.24631	42.21234	
10:14:40	-6.733775	38.9536	121.498	1.814144	3.234129	0.71	3	98	0	6	-0.5097973	-3.869642	39.49809	
10:14:40	-6.733775	38.9536	121.572	1.82553	7.027312	0.51	3	98	0	6	3.863896	-2.63503	38.35509	
10:14:40	-6.733775	38.9536	121.706	1.808423	-1.336095	0.79	3	98	0	6	12.30421	-3.080239	39.18811	
10:14:41	-6.733774	38.9536	121.692	1.797962	2.31656	0.5	3	98	0	6	-5.396512	-6.042548	40.06042	
10:14:41	-6.733774	38.9536	121.612	1.787966	0.2915012	0.22	3	98	0	6	8.215524	-4.544888	40.63584	
10:14:41	-6.733773	38.9536	121.435	1.763047	-3.455981	0.14	3	98	0	6	11.00765	-2.839663	41.51225	
10:14:41	-6.733773	38.9536	121.51	1.743561	-0.8945839	0.16	3	98	0	6	-6.167636	-4.746079	42.28692	
10:14:41	-6.733773	38.9536	121.329	1.733517	-1.909529	0.08	3	98	0	6	5.79842	-6.135531	40.13865	
10:14:42	-6.733771	38.9536	121.169	1.744898	-8.097906	0.48	3	98	0	6	18.1621	-5.230456	39.257	
10:14:42	-6.733771	38.9536	121.076	1.756948	-4.33101	0.36	3	98	0	6	-1.122685	-6.018742	41.1404	
10:14:42	-6.73377	38.95361	120.998	1.763234	-2.115585	0.17	3	98	0	6	7.082761	-5.949201	42.4401	
10:14:42	-6.733769	38.95361	120.921	1.747705	-7.786944	0.21	3	98	0	6	14.69176	-5.369717	43.39539	
10:14:42	-6.733769	38.95361	120.66	1.736103	-4.592321	0.45	3	98	0	6	-3.63513	-7.423203	48.15301	
10:14:43	-6.733768	38.95361	120.56	1.73063	-4.647659	0.16	3	97	0	6	6.481853	-10.02314	45.29427	
10:14:43	-6.733768	38.95361	120.415	1.704308	-1.297795	0.29	3	97	0	6	-4.173728	-9.995698	42.74618	
10:14:43	-6.733768	38.95361	120.494	1.694754	-10.1562	0.21	3	97	0	6	13.03198	-5.89679	40.27194	
10:14:43	-6.733768	38.95361	120.321	1.679782	-7.407744	0.25	3	97	0	6	3.652119	-4.709943	41.01934	
10:14:44	-6.733768	38.95361	120.331	1.63478	-6.335403	0.5	3	97	0	4	-0.7195274	-4.352491	40.70808	
10:14:44	-6.733768	38.95362	120.065	1.568512	-13.56062	0.16	3	97	0	6	9.666596	-5.963404	37.96172	
10:14:44	-6.733767	38.95362	119.855	1.494075	-11.19566	0.19	3	97	0	6	1.776502	-10.10903	39.92676	
10:14:44	-6.733767	38.95362	119.68	1.415589	-13.05974	0.06	3	97	0	6	1.421398	-9.787805	39.35835	
10:14:44	-6.733767	38.95362	119.654	1.358272	-20.6599	0.38	3	97	0	5	9.090468	-5.669579	41.31649	
10:14:45	-6.733766	38.95362	119.365	1.315528	-16.95068	0.13	3	97	0	6	-1.641418	-3.676946	47.43107	
10:14:45	-6.733766	38.95362	119.242	1.316175	-14.23668	0.18	3	97	0	6	-0.176426	-4.840896	46.42308	
10:14:45	-6.733765	38.95362	119.066	1.338442	-10.7327	0.33	3	97	0	6	5.794562	-7.481157	40.80373	
10:14:45	-6.733764	38.95362	118.849	1.374236	-8.821225	0.25	3	97	0	6	8.866924	-5.654868	42.06927	
10:14:45	-6.733764	38.95362	118.647	1.414195	-4.788649	0.16	3	97	0	6	1.98627	-3.579937	46.587	
10:14:46	-6.733763	38.95362	118.43	1.456372	2.148963	0.06	3	97	0	7	-8.042928	-4.699201	47.79916	
10:14:46	-6.733763	38.95362	118.453	1.493623	-0.1556491	0.26	3	97	0	6	-1.21762	-6.539343	50.32791	
10:14:46	-6.733762	38.95362	118.299	1.539744	7.367865	0.19	3	97	0	6	-0.01951556	-7.96553	47.27809	
10:14:46	-6.733762	38.95362	118.243	1.549769	2.317702	0.39	3	97	0	6	10.90902	-6.469754	43.98567	
10:14:47	-6.733762	38.95362	118.007	1.550566	3.60502	0.19	3	97	0	6	-2.484638	-5.751407	41.04085	
10:14:47	-6.733762	38.95362	117.877	1.554746	2.139806	0.35	3	97	0	6	9.541773	-3.83845	40.26182	
10:14:47	-6.733762	38.95362	117.718	1.600463	7.766626	0.19	3	97	0	6	0.7130241	-4.918428	44.60638	
10:14:47	-6.733761	38.95363	117.656	1.646481	11.34051	0.28	3	97	0	6	1.931433	-5.807981	48.29472	
10:14:47	-6.733761	38.95363	117.728	1.721209	10.07911	0.19	3	97	0	6	6.529966	-7.194771	52.07673	
10:14:48	-6.733761	38.95363	117.528	1.797029	16.02419	0.09	3	97	0	7	-9.777643	-7.981288	52.60068	
10:14:48	-6.73376	38.95363	117.552	1.845072	13.83351	0.24	3	97	0	6	3.440272	-6.498686	50.02088	
10:14:48	-6.73376	38.95363	117.511	1.874332	11.0861	0.14	3	97	0	6	10.36094	-6.475164	49.04651	
10:14:48	-6.733759	38.95363	117.426	1.88415	10.75392	0.18	3	97	0	6	-10.36878	-6.783654	47.9945	
10:14:49	-6.733759	38.95363	117.386	1.894577	9.21049	0.35	3	97	0	6	7.432187	-5.362133	47.76388	
10:14:49	-6.733759	38.95363	117.378	1.918276	9.93919	0.22	3	97	0	6	3.87753	-5.936427	47.89934	
10:14:49	-6.733758	38.95363	117.238	1.945287	15.53691	0.19	3	97	0	6	-4.257772	-7.686957	47.17997	
10:14:49	-6.733758	38.95363	117.136	1.951136	7.320303	0.45	3	97	0	6	13.12493	-7.826352	47.68907	
10:14:49	-6.733757	38.95364	117.045	1.952019	11.1372	0.14	3	97	0	6	-1.623233	-8.635463	49.49893	
10:14:49	-6.733757	38.95364	116.926	1.946968	11.33556	0.26	3	97	0	6	5.228685	-7.502965	49.78982	
10:14:50	-6.733757	38.95364	116.896	1.93292	6.718216	0.39	3	97	0	6	5.77679	-7.954134	48.93645	
10:14:50	-6.733757	38.95364	116.707	1.898074	6.615415	0.32	3	97	0	6	-0.1630333	-7.117205	46.40743	
10:14:50	-6.733756	38.95364	116.624	1.864823	-1.222962	0.57	3	97	0	6	11.63302	-5.017402	44.39607	
10:14:50	-6.733755	38.95364	116.508	1.830446	1.089032	0.24	3	97	0	6	-1.480762	-5.378392	45.93684	
10:14:50	-6.733755	38.95364	116.288	1.801923	0.1152009	0.19	3	97	0	6	8.200103	-5.561114	47.50489	
10:14:51	-6.733753	38.95364	116.088	1.746864	-2.480629	0.19	3	97	0	5	6.348385	-7.503035	51.34975	
10:14:51	-6.733753	38.95364	116.01	1.700885	-2.234973	0.41	3	97	0	6	-8.03869	-8.615031	51.21381	
10:14:51	-6.733752	38.95364	115.852	1.687674	-8.707719	0.48	3	97	0	6	9.079732	-7.163579	49.64185	
10:14:51	-6.733751	38.95364	115.782	1.667287	-7.902049	0.07	3	97	0	6	7.184468	-8.141568	49.26096	
10:14:51	-6.733751	38.95364	115.703	1.721569	-2.970187	0.39	3	97	0	6	-10.33208	-8.261619	47.33625	
10:14:52	-6.73375	38.95364	115.399	1.779426	-2.77406	0.52	3	97	0	6	2.078002	-8.054886	44.71918	
10:14:52	-6.73375	38.95364	115.289	1.797036	0.7805851	0.51	3	97	0	6	-5.183997	-7.425726	44.13039	
10:14:52	-6.73375	38.95364	115.257	1.775342	-7.974956	0.47	3	97	0	6	10.54833	-6.975692	45.55519	
10:14:52	-6.733749	38.95364	115.232	1.724313	-5.547085	0.08	3	97	0	6	-6.854915	-9.019828	47.88643	
10:14:53	-6.733749	38.95364	115.249	1.696572	-4.811964	0.22	3	97	0	6	0.08061381	-8.956707	47.89436	
10:14:53	-6.733749	38.95364	115.283	1.670001	-7.715291	0.87	3	97	0	6	4.663377	-9.625958	46.04908	
10:14:53	-6.733749	38.95364	115.28	1.683483	-1.413262	0.62	3	97	0	6	-6.33238	-10.18296	42.03394	
10:14:53	-6.733748	38.95364	115.252	1.726985	-7.293979	0.83	3	97	0	6	13.40411	-6.986801	39.60549	
10:14:53	-6.733748	38.95364	115.249	1.764639	1.58462	0.72	3	97	0	6	12.78002	-6.174728	39.68892	
10:14:54	-6.733748	38.95364	115.152	1.810961	5.172626	0.08	3	97	0	6	11.75872	-6.868256	38.66736	
10:14:54	-6.733748	38.95364	115.119	1.82452	5.23615	0.31	3	97	0	5	-10.97821	-8.679874	38.19747	
10:14:54	-6.733748	38.95364	115.176	1.794806	1.383795	0.18	3	97	0	6	-1.84983	-4.297028	40.88158	
10:14:54	-6.733748	38.95364	115.38	1.750873	-2.962055	0.91	3	97	0	6	6.085416	-6.716469	44.51014	
10:14:54	-6.733747	38.95364	115.437	1.721948	3.184541	0.69	3	97	0	6	-3.820639	-8.18001	46.55125	
10:14:55	-6.733747	38.95365	115.514	1.703138	-4.263367	0.13	3	97	0	6	9.295198	-6.395562	46.17304	
10:14:55	-6.733747	38.95365	115.569	1.687538	-1.705173	0.19	3	97	0	6	-6.582265	-5.667099	44.28572	
10:14:55	-6.733747	38.95365	115.701	1.675143	-1.168398	0.31	3	97	0	6	4.892859	-4.637311	42.32438	
10:14:55	-6.733748	38.95365	115.724	1.65011	-2.842324	0.32	3	97	0	6	7.369621	-4.747832	44.26862	
10:14:55	-6.733748	38.95365	115.772	1.644214	-3.073423	0.14	3	97	0	6	-6.263696	-5.847571	47.25974	
10:14:56	-6.733748	38.95365	115.824	1.654723	-3.050828	0.32	3	98	0	6	7.811755	-5.323785	48.85466	
10:14:56	-6.733748	38.95365	115.831	1.659042	-0.8529971	0.22	3	98	0	6	0.3551148	-6.484402	52.01502	
10:14:56	-6.733747	38.95365	115.529	1.667674	3.197041	0.14	3	98	0	6	-10.0027	-7.041262	49.61301	
10:14:56	-6.733747	38.95365	115.322	1.690517	-0.2187107	0.44	3	98	0	6	4.85162	-5.974028	47.0449	
10:14:56	-6.733746	38.95365	114.999	1.725008	1.669499	0.24	3	98	0	6	5.450858	-4.837381	47.4198	
10:14:57	-6.733746	38.95365	114.915	1.754792	2.529481	0.09	3	98	0	6	-9.158072	-5.032838	47.36266	
10:14:57	-6.733746	38.95365	114.966	1.759172	1.141685	0.36	3	98	0	6	6.910189	-4.800711	47.80134	
10:14:57	-6.733746	38.95366	114.943	1.761263	5.081318	0.38	3	98	0	6	0.8795058	-6.069607	51.45008	
10:14:57	-6.733746	38.95366	115.037	1.778635	8.130665	0.11	3	98	0	6	-10.3094	-8.400307	51.47221	
10:14:57	-6.733746	38.95366	115.391	1.795286	4.162669	0.42	3	98	0	6	9.382108	-8.376102	51.87307	
10:14:58	-6.733745	38.95366	115.313	1.828335	6.584725	0.04	3	98	0	6	1.93637	-7.277257	50.67617	
10:14:58	-6.733746	38.95366	115.524	1.858822	7.796281	0.55	3	98	0	6	-6.795514	-4.350015	46.37207	
10:14:58	-6.733746	38.95366	115.736	1.909449	4.891138	0.22	3	97	0	6	10.93803	-4.19169	44.69773	
10:14:58	-6.733747	38.95366	115.63	1.960633	13.48317	0.14	3	97	0	5	16.14396	-6.136693	43.92752	
10:14:58	-6.733747	38.95366	115.691	2.017048	15.03639	0.04	3	98	0	6	-1.908104	-6.573745	40.03036	
10:14:59	-6.733746	38.95366	115.767	2.067513	15.03804	0.04	3	98	0	6	5.181658	-4.909242	41.05962	
10:14:59	-6.733746	38.95366	115.737	2.134932	17.70892	0.25	3	98	0	6	3.376832	-3.64217	47.27914	
10:14:59	-6.733746	38.95366	115.886	2.198968	21.51365	0.26	3	98	0	6	9.243289	-5.516864	48.67406	
10:14:59	-6.733746	38.95366	116.04	2.21146	19.02246	0.33	3	98	0	6	0.4859953	-4.746506	44.32714	
10:14:59	-6.733746	38.95366	116.169	2.218138	15.55604	0.11	3	98	0	6	18.08707	-5.17813	40.9177	
10:15:00	-6.733747	38.95366	116.277	2.213686	17.10851	0.45	3	98	0	6	10.39594	-6.071832	38.35381	
10:15:00	-6.733747	38.95366	116.276	2.211577	18.92344	0.08	3	98	0	6	2.467388	-5.864164	37.41028	
10:15:00	-6.733747	38.95366	116.299	2.210408	4.649247	0.07	3	98	0	6	14.36852	-4.304854	40.37627	
10:15:00	-6.733747	38.95366	116.436	2.209608	15.87799	0.31	3	98	0	6	0.1936048	-5.888734	45.04095	
10:15:00	-6.733747	38.95366	116.575	2.194968	12.5856	0.12	3	98	0	6	0.5222621	-4.939902	51.57549	
10:15:01	-6.733747	38.95366	116.505	2.16927	5.950969	0.48	3	98	0	6	11.43081	-4.536433	55.95573	
10:15:01	-6.733747	38.95366	116.491	2.053778	1.653834	0.39	3	98	0	6	-4.525717	-3.893739	52.87268	
10:15:01	-6.733747	38.95366	116.423	1.948229	-4.40952	0.39	3	98	0	6	7.970866	-3.480061	48.50072	
10:15:01	-6.733747	38.95366	116.5	1.896129	-1.542129	0.29	3	98	0	6	15.76093	-6.772523	43.19919	
10:15:01	-6.733747	38.95366	116.381	1.859717	-2.465647	0.36	3	98	0	6	5.003038	-6.669734	37.79399	
10:15:02	-6.733747	38.95366	116.424	1.864107	-7.059085	0.26	3	98	0	6	18.16969	-3.818672	38.17209	
10:15:02	-6.733747	38.95366	116.471	1.905303	1.701209	0.21	3	98	0	6	5.40037	-6.264985	39.09876	
10:15:02	-6.733747	38.95366	116.59	1.970467	6.96217	0.55	3	98	0	6	5.526042	-4.790296	41.27555	
10:15:02	-6.733747	38.95366	116.842	2.040685	-1.378611	0.28	3	98	0	6	17.34344	-3.796762	43.51453	
10:15:03	-6.733748	38.95366	116.461	2.072278	6.467418	0.48	3	98	0	6	0.1642607	-4.205709	42.74537	
10:15:03	-6.733748	38.95366	116.528	2.084157	-0.5354345	0.17	3	98	0	6	6.079042	-3.095552	40.10897	
10:15:03	-6.733749	38.95366	116.705	2.092531	7.565319	0.26	3	98	0	6	4.078337	-2.291072	39.91592	
10:15:03	-6.733749	38.95366	116.815	2.100395	7.44725	0.08	3	98	0	6	6.519307	-3.128061	41.34068	
10:15:03	-6.733749	38.95366	116.958	2.109674	7.666654	0.58	3	98	0	6	12.03878	-4.816206	43.40147	
10:15:04	-6.733748	38.95366	116.841	2.095058	8.258539	0.22	3	98	0	6	-0.9823204	-5.090351	42.47081	
10:15:04	-6.733748	38.95367	116.648	2.049497	4.623923	0.16	3	98	0	6	0.7067043	-2.385882	40.95597	
10:15:04	-6.733747	38.95367	116.711	2.0134	-1.954076	0.42	3	98	0	6	7.659506	-3.713562	41.12656	
10:15:04	-6.733747	38.95367	116.628	2.007498	2.016426	0.33	3	98	0	6	11.88066	-5.426573	43.05636	
10:15:04	-6.733747	38.95367	116.58	2.014228	5.845579	0.18	3	98	0	6	-2.220499	-5.570584	41.93858	
10:15:05	-6.733748	38.95367	117.052	2.028883	1.969114	0.59	3	98	0	6	1.65008	-3.052663	41.59129	
10:15:05	-6.733749	38.95367	117.321	2.053294	0.7970155	0.45	3	98	0	6	5.501789	-2.505646	41.626	
10:15:05	-6.733751	38.95367	117.42	2.103321	6.909342	0.95	3	98	0	6	12.84865	-3.543318	43.07341	
10:15:05	-6.733752	38.95367	117.774	2.127558	9.661663	0.21	3	98	0	6	9.779137	-7.237628	43.53555	
10:15:05	-6.733752	38.95367	117.881	2.135462	11.4871	0.08	3	98	0	6	-0.7561496	-9.988678	43.12531	
10:15:06	-6.733752	38.95367	117.939	2.127681	10.92974	0.36	3	98	0	6	-4.058403	-8.518886	45.50588	
10:15:06	-6.733751	38.95367	118.013	2.081793	-3.340137	0.37	3	98	0	6	10.00956	-3.109254	48.61533	
10:15:06	-6.733751	38.95367	118.15	2.031661	-3.439215	0.31	3	98	0	6	11.7624	-4.890178	51.40023	
10:15:06	-6.73375	38.95367	117.965	2.002787	-1.967434	0.09	3	98	0	6	5.072306	-5.407019	53.71208	
10:15:06	-6.733749	38.95367	117.954	1.978505	-3.592492	0.29	3	98	0	6	-5.629858	-2.13308	53.61326	
10:15:07	-6.733749	38.95367	117.83	1.918665	-6.664749	0.19	3	98	0	6	8.947458	-5.029897	53.53964	
10:15:07	-6.733749	38.95367	117.901	1.918665	-6.664749	0.26	3	98	0	6	11.93736	-6.983027	54.34254	
10:15:07	-6.733749	38.95367	117.976	1.823737	-12.06575	0.09	3	98	0	6	-4.711667	-4.721521	52.71209	
10:15:07	-6.733749	38.95367	117.987	1.790401	-11.33581	0.21	3	98	0	6	-9.999724	-3.179229	47.39972	
10:15:08	-6.733749	38.95367	118.107	1.691473	-11.85179	0.36	3	98	0	6	7.802831	-5.666516	46.96462	
10:15:08	-6.73375	38.95367	118.634	1.640638	-13.69207	0.52	3	97	0	6	6.224056	-4.020308	46.47326	
10:15:08	-6.733751	38.95367	118.736	1.594423	-14.21014	0.24	3	97	0	6	11.18179	-6.416022	50.03037	
10:15:08	-6.733752	38.95367	118.837	1.598621	-14.93819	0.13	3	97	0	6	-5.28089	-4.131186	51.89656	
10:15:09	-6.733753	38.95367	118.533	1.621578	-11.72883	0.25	3	97	0	6	-12.07903	-2.16162	51.79578	
10:15:09	-6.733753	38.95367	118.344	1.643443	-9.84991	0.28	3	97	0	6	-5.272143	-2.892279	52.14352	
10:15:09	-6.733753	38.95367	118.291	1.658327	-6.733012	0.42	3	97	0	6	7.394781	-5.174876	49.64733	
10:15:09	-6.733754	38.95367	118.131	1.679027	-5.51661	0.83	3	97	0	6	-4.428612	-2.440415	46.18472	
10:15:09	-6.733755	38.95367	118.325	1.720645	-5.143188	0.16	3	97	0	6	6.244605	-3.144026	46.0169	
10:15:10	-6.733755	38.95367	118.553	1.757258	1.450909	0.21	3	97	0	6	8.796241	-5.407784	48.64033	
