Date	Latitude(deg) 	Longitude(deg)	hamsl(m)	hafl(m)	climbrate(cm/s)	GroundSpeed(m/s)	Airspeed(m/s)	Mav_Link(%)	Rssi_Link(%)	Throttle	Roll(deg)	Pitch(deg)	Yaw(deg)
09:43:06	0	0	0	0	0	0	0	100	0	0	0	0	0	
09:43:06	0	0	0	0.1399962	-0.443552	0	3	100	0	5	-9.385076	-4.845532	61.25882	
09:43:06	0	0	0	0.08477577	-7.669628	0	3	100	0	5	-9.613068	-4.942429	61.29759	
09:43:06	0	0	0	-0.002988705	-15.27492	0	3	100	0	4	-9.830596	-5.036028	61.38475	
09:43:06	0	0	0	-0.2263499	-29.64312	0	3	100	0	5	-10.04422	-5.101649	61.47646	
09:43:06	0	0	0	-0.5798737	-49.60215	0	3	100	0	4	-10.2416	-5.163604	61.57383	
09:43:07	0	0	0	-0.69165	-54.95726	0	3	100	0	4	-10.43668	-5.211014	61.67309	
09:43:07	0	0	0	-0.4867953	-43.80337	0	3	100	0	5	-10.62494	-5.302988	61.70104	
09:43:07	0	0	0	-0.2503019	-32.08355	0	3	100	0	4	-10.77718	-5.334278	61.74776	
09:43:07	0	0	0	0.06310645	-18.07867	0	3	100	0	4	-10.89327	-5.370466	61.83768	
09:43:07	0	0	0	0.3155266	-8.319204	0	3	100	0	4	-11.00258	-5.410267	61.93681	
09:43:08	0	0	0	0.380357	-9.180677	0	3	100	0	5	-7.723893	-5.361121	62.33694	
09:43:08	0	0	0	0.4323367	-8.716183	0	3	100	0	5	3.295277	-5.045947	62.49732	
09:43:08	0	0	0	0.4090221	-13.18402	0	3	100	0	5	1.932984	-5.206922	61.81679	
09:43:08	0	0	0	0.3809743	-20.61602	0	3	100	0	4	-10.36219	-5.634606	61.04069	
09:43:09	0	0	0	0.3437128	-26.32754	0	3	100	0	5	-18.07049	-8.305884	61.32633	
09:43:09	0	0	0	0.3067208	-31.97527	0	3	100	0	4	-11.09711	-6.347915	61.61996	
09:43:09	0	0	0	0.2654343	-34.72232	0	3	100	0	5	-0.974057	-5.04647	61.66341	
09:43:09	0	0	0	0.2301556	-34.1039	0	3	100	0	5	1.270366	-5.169968	61.35786	
09:43:09	0	0	0	0.1609724	-41.1492	0	3	100	0	5	-5.386009	-5.317325	60.91088	
09:43:10	0	0	0	0.101002	-44.47203	0	3	100	0	4	-12.19227	-5.758235	60.67905	
09:43:10	0	0	0	0.02180515	-47.96497	0	3	100	0	5	-10.16232	-5.510681	60.81612	
09:43:10	0	0	0	-0.04834421	-51.20502	0	3	100	0	4	-10.95939	-5.569597	60.89274	
09:43:10	0	0	0	-0.09328095	-52.99038	0	3	100	0	4	-11.21024	-5.586659	61.00854	
09:43:10	0	0	0	-0.1294256	-54.39143	0	3	100	0	6	-11.19611	-5.614084	61.13284	
09:43:11	0	0	0	-0.171527	-55.77143	0	3	100	0	5	-11.20466	-5.628368	61.20569	
09:43:11	0	0	0	-0.2086924	-57.26157	0	3	100	0	5	-11.26613	-5.671312	61.30616	
09:43:11	0	0	0	-0.2297591	-57.38929	0	3	100	0	4	-11.32934	-5.681982	61.41585	
09:43:11	0	0	0	-0.2468332	-57.20275	0	3	100	0	5	-11.39413	-5.684903	61.52335	
09:43:11	0	0	0	-0.2571452	-56.32279	0	3	100	0	4	-11.46574	-5.685188	61.62399	
09:43:12	0	0	0	-0.2634699	-55.95581	0	3	100	0	5	-11.52154	-5.691072	61.71471	
09:43:12	0	0	0	-0.2293843	-53.38253	0	3	100	0	4	-11.57518	-5.712301	61.79465	
09:43:12	0	0	0	-0.1968373	-50.8783	0	3	100	0	4	-11.62037	-5.726873	61.88177	
09:43:12	0	0	0	-0.1694336	-48.50258	0	3	100	0	4	-11.66461	-5.720566	61.96064	
09:43:12	0	0	0	-0.1457192	-47.3711	0	3	100	0	5	-11.69006	-5.748574	61.96693	
09:43:13	0	0	0	-0.1210307	-45.43685	0	3	100	0	5	-11.73254	-5.74918	62.01645	
09:43:13	0	0	0	-0.0969831	-44.39613	0	3	100	0	4	-11.78921	-5.769518	62.09943	
09:43:13	0	0	0	-0.08329079	-44.2262	0	3	100	0	4	-11.83805	-5.789378	62.19098	
09:43:13	0	0	0	-0.08071994	-43.85666	0	3	100	0	4	-11.87702	-5.785899	62.28198	
09:43:13	0	0	0	-0.07497801	-43.74913	0	3	100	0	4	-11.91427	-5.808014	62.32694	
09:43:14	0	0	0	-0.06743897	-43.48682	0	3	100	0	4	-11.94937	-5.84364	62.4006	
09:43:14	0	0	0	-0.1263168	-46.9724	0	3	100	0	5	-11.89988	-5.806212	62.47681	
09:43:14	0	0	0	-0.2509578	-52.79528	0	3	100	0	4	-11.82528	-5.778308	62.55251	
09:43:14	0	0	0	-0.3336572	-56.05751	0	3	100	0	4	-11.76117	-5.76567	62.58408	
09:43:14	0	0	0	-0.4084046	-58.37772	0	3	100	0	4	-11.67699	-5.746356	62.56877	
09:43:15	0	0	0	-0.4493073	-58.5385	0	3	100	0	5	-11.6052	-5.738008	62.6238	
09:43:15	0	0	0	-0.4497379	-56.94335	0	3	100	0	4	-11.53519	-5.725226	62.67979	
09:43:15	0	0	0	-0.4368794	-54.67003	0	3	100	0	5	-11.48474	-5.72343	62.70461	
09:43:15	0	0	0	-0.4031526	-51.1421	0	3	100	0	5	-11.4158	-5.713284	62.66314	
09:43:15	0	0	0	-0.3851357	-48.9884	0	3	100	0	5	-11.36369	-5.694867	62.71326	
09:43:16	0	0	0	-0.3742318	-47.14903	0	3	100	0	5	-11.30362	-5.661284	62.76587	
09:43:16	0	0	0	-0.380961	-46.19903	0	3	100	0	4	-11.25663	-5.644953	62.81261	
09:43:16	0	0	0	-0.3967116	-45.93094	0	3	100	0	4	-11.2036	-5.614	62.82699	
09:43:16	0	0	0	-0.403116	-45.01228	0	3	100	0	5	-11.15005	-5.584934	62.81096	
09:43:16	0	0	0	-0.4036188	-43.67067	0	3	100	0	5	-11.09762	-5.575074	62.86175	
09:43:17	0	0	0	-0.4254911	-43.68202	0	3	100	0	4	-11.0491	-5.546051	62.9034	
09:43:17	0	0	0	-0.4781406	-45.12981	0	3	100	0	5	-11.01132	-5.518236	62.93672	
09:43:17	0	0	0	-0.5171387	-44.68875	0	3	100	0	4	-10.96751	-5.506669	62.9251	
09:43:17	0	0	0	-0.5426251	-44.34211	0	3	100	0	5	-10.92188	-5.495407	62.93277	
09:43:17	0	0	0	-0.5612072	-43.95924	0	3	100	0	4	-10.87895	-5.463593	62.97194	
09:43:18	0	0	0	-0.5153023	-40.06389	0	3	100	0	5	-10.84293	-5.454382	63.01741	
09:43:18	0	0	0	-0.4704263	-36.49173	0	3	100	0	5	-10.7987	-5.442426	63.0253	
09:43:18	0	0	0	-0.4163251	-32.74905	0	3	100	0	5	-10.75766	-5.439476	63.0176	
09:43:18	0	0	0	-0.3709163	-29.8291	0	3	100	0	4	-10.72019	-5.403523	63.04985	
09:43:18	0	0	0	-0.3331314	-27.86492	0	3	100	0	5	-11.07117	-5.439281	63.07616	
09:43:19	0	0	0	-0.2988579	-25.27857	0	3	100	0	5	-2.457827	-4.972108	63.47975	
09:43:19	0	0	0	-0.3213818	-24.60908	0	3	100	0	5	6.892367	-5.475894	63.31083	
09:43:19	0	0	0	-0.3392273	-26.33638	0	3	100	0	4	-13.16048	-6.003763	61.46859	
09:43:19	0	0	0	-0.3341522	-24.21749	0	3	100	0	5	-15.3887	-7.074445	61.62189	
09:43:20	0	0	0	-0.3161155	-25.0283	0	3	100	0	5	-6.776926	-4.978359	61.97198	
09:43:20	0	0	0	-0.2983241	-21.37857	0	3	100	0	4	5.422683	-4.938222	62.25885	
09:43:20	0	0	0	-0.2563517	-20.37292	0	3	100	0	4	6.129916	-4.949567	61.66804	
09:43:20	0	0	0	-0.2277111	-20.95488	0	3	100	0	4	3.090106	-4.643196	61.08149	
09:43:20	0	0	0	-0.1908213	-19.54819	0	3	100	0	4	-2.291008	-4.529167	60.52353	
09:43:21	0	0	0	-0.1596558	-16.31579	0	3	100	0	4	-1.762786	-4.451322	60.34499	
09:43:21	0	0	0	-0.1503877	-15.09048	0	3	100	0	4	-4.765026	-4.568005	60.09285	
09:43:21	0	0	0	-0.1427821	-15.89875	0	3	100	0	5	-10.33035	-5.099079	59.92562	
09:43:21	0	0	0	-0.09558143	-11.74573	0	3	100	0	5	-7.899149	-4.751715	60.17155	
09:43:21	0	0	0	-0.05457714	-8.846298	0	3	100	0	4	3.946187	-3.994226	60.46717	
09:43:22	0	0	0	-0.02343931	-8.896822	0	3	100	0	5	-1.303558	-4.133751	59.6883	
09:43:22	0	0	0	-0.001964008	-11.04015	0	3	100	0	4	-11.90046	-5.606234	59.32017	
09:43:22	0	0	0	-0.0009745953	-11.46652	0	3	100	0	5	-3.188596	-4.064935	59.76423	
09:43:22	0	0	0	-0.001305539	-12.05264	0	3	100	0	5	-0.9069335	-3.997743	59.39587	
09:43:22	0	0	0	-0.003909552	-13.36904	0	3	100	0	5	-11.45117	-5.337457	58.7788	
09:43:23	0	0	0	-0.009452851	-11.5818	0	3	100	0	4	-8.812692	-4.67861	58.98326	
09:43:23	0	0	0	-0.01923396	-13.33972	0	3	100	0	4	-2.832419	-3.950512	59.0837	
09:43:23	0	0	0	-0.03317054	-12.77155	0	3	100	0	4	-6.833125	-4.385128	59.01814	
09:43:23	0	0	0	-0.05537104	-13.76245	0	3	100	0	4	-5.678688	-4.243676	59.10477	
09:43:23	0	0	0	-0.08503824	-13.51794	0	3	100	0	4	-6.438112	-4.307228	59.01943	
09:43:24	0	0	0	-0.1521605	-15.56576	0	3	100	0	4	-5.786007	-4.205925	59.12563	
09:43:24	0	0	0	-0.2369176	-18.59064	0	3	100	0	5	-5.96096	-4.200435	59.17745	
09:43:24	0	0	0	-0.2940997	-19.9321	0	3	100	0	4	-6.004704	-4.206995	59.23016	
09:43:24	0	0	0	-0.3409615	-20.6871	0	3	100	0	5	-5.906264	-4.182231	59.20912	
09:43:24	0	0	0	-0.3641145	-19.75175	0	3	100	0	4	-5.851481	-4.153558	59.21791	
09:43:25	0	0	0	-0.3563576	-16.39076	0	3	100	0	4	-5.852284	-4.1473	59.26974	
09:43:25	0	0	0	-0.3379084	-12.9702	0	3	100	0	4	-5.854768	-4.113335	59.33493	
09:43:25	0	0	0	-0.3047524	-9.363726	0	3	100	0	5	-5.821333	-4.082502	59.39169	
09:43:25	0	0	0	-0.2882212	-7.291103	0	3	100	0	4	-5.77599	-4.048823	59.33579	
09:43:25	0	0	0	-0.2787284	-5.331861	0	3	100	0	5	-5.754094	-4.047616	59.36016	
09:43:26	0	0	0	-0.2739055	-4.375226	0	3	100	0	4	-5.738531	-4.037282	59.40968	
09:43:26	0	0	0	-0.2736846	-3.592367	0	3	100	0	5	-5.715198	-4.010412	59.4548	
09:43:26	0	0	0	-0.2598526	-2.072283	0	3	100	0	5	-5.694653	-4.006656	59.47346	
09:43:26	0	0	0	-0.2334542	-0.3491324	0	3	100	0	4	-5.672884	-4.002604	59.47055	
09:43:26	0	0	0	-0.2048459	1.702778	0	3	100	0	4	-5.64966	-3.977114	59.52945	
09:43:27	0	0	0	-0.168888	4.634495	0	3	100	0	4	-5.629874	-3.971229	59.57759	
09:43:27	0	0	0	-0.1437947	5.57004	0	3	100	0	4	-5.622003	-3.972083	59.62359	
09:43:27	0	0	0	-0.119686	6.364132	0	3	100	0	5	-5.601448	-3.976952	59.56928	
09:43:27	0	0	0	-0.1001391	7.606649	0	3	100	0	5	-5.502378	-3.918954	59.58908	
09:43:27	0	0	0	-0.05234323	10.32651	0	3	100	0	4	-5.406677	-3.863646	59.62115	
09:43:28	0	0	0	-0.004153377	12.16768	0	3	100	0	5	-5.306283	-3.819957	59.65125	
09:43:28	0	0	0	0.006036064	12.00387	0	3	100	0	4	-5.203453	-3.767029	59.60471	
09:43:28	0	0	0	0.01278132	12.12049	0	3	100	0	4	-5.116954	-3.726802	59.55212	
09:43:28	0	0	0	0.0966718	15.65057	0	3	100	0	4	-5.025288	-3.707863	59.5432	
09:43:28	0	0	0	0.1709027	18.6941	0	3	100	0	4	-4.945235	-3.694068	59.57027	
09:43:29	0	0	0	0.2623792	22.61509	0	3	100	0	5	-4.862803	-3.661915	59.59449	
09:43:29	0	0	0	0.343598	25.3412	0	3	100	0	5	-4.77814	-3.631419	59.52725	
09:43:29	0	0	0	0.3981929	27.02306	0	3	100	0	5	-4.701074	-3.606603	59.53172	
09:43:29	0	0	0	0.4406101	27.45912	0	3	100	0	5	-4.631981	-3.560191	59.54898	
09:43:29	0	0	0	0.4559618	26.16872	0	3	100	0	4	-4.562796	-3.506704	59.56997	
09:43:30	0	0	0	0.4662271	25.2023	0	3	100	0	5	-4.499658	-3.476774	59.58628	
09:43:30	0	0	0	0.474425	24.58419	0	3	100	0	4	-4.428925	-3.452266	59.55049	
09:43:30	0	0	0	0.4785162	23.01374	0	3	100	0	5	-4.363025	-3.439903	59.57211	
09:43:30	0	0	0	0.5212166	24.5338	0	3	100	0	4	-4.311853	-3.410181	59.59518	
09:43:30	0	0	0	0.5609041	25.02249	0	3	100	0	5	-4.249538	-3.379362	59.62111	
09:43:31	0	0	0	0.6328403	27.76859	0	3	100	0	4	-4.201754	-3.360747	59.60929	
09:43:31	0	0	0	0.6909758	29.85532	0	3	100	0	4	-4.146133	-3.334202	59.60606	
09:43:31	0	0	0	0.7511653	31.13799	0	3	100	0	5	-4.100116	-3.306003	59.62805	
09:43:31	0	0	0	0.7970957	31.54316	0	3	100	0	5	-4.058218	-3.313751	59.63899	
09:43:31	0	0	0	0.7857344	28.90532	0	3	100	0	4	-4.018332	-3.290575	59.64717	
09:43:32	0	0	0	0.7708701	26.37088	0	3	100	0	4	-3.96263	-3.286403	59.56935	
09:43:32	0	0	0	0.7586169	24.2495	0	3	100	0	5	-3.923079	-3.292239	59.56224	
09:43:32	0	0	0	0.7446092	21.98437	0	3	100	0	4	-3.887525	-3.291363	59.54328	
09:43:32	0	0	0	0.714907	19.02004	0	3	100	0	5	-3.794727	-3.262365	59.5554	
09:43:32	0	0	0	0.6674183	15.96907	0	3	100	0	5	-3.70756	-3.216746	59.51847	
09:43:33	0	0	0	0.6106337	13.12067	0	3	100	0	4	-3.617935	-3.157084	59.50491	
09:43:33	0	0	0	0.5341794	8.915268	0	3	100	0	4	-3.531151	-3.136142	59.43107	
09:43:33	0	0	0	0.4646319	5.753733	0	3	100	0	5	-3.437234	-3.073718	59.42723	
09:43:33	0	0	0	0.3976637	2.615586	0	3	100	0	4	-3.340993	-3.037104	59.42663	
09:43:33	0	0	0	0.3765205	2.164513	0	3	100	0	5	-3.24933	-2.984612	59.32488	
09:43:34	0	0	0	0.3861358	3.767053	0	3	100	0	4	-3.153678	-2.929608	59.31441	
09:43:34	0	0	0	0.402831	5.337723	0	3	100	0	5	-3.06597	-2.889764	59.31523	
09:43:34	0	0	0	0.4243926	7.603273	0	3	100	0	5	-2.996773	-2.845297	59.31007	
09:43:34	0	0	0	0.3996575	7.339497	0	3	100	0	4	-2.923721	-2.812554	59.24404	
09:43:34	0	0	0	0.3333144	5.122725	0	3	100	0	4	-2.851591	-2.784708	59.21789	
09:43:35	0	0	0	0.2666999	2.415437	0	3	100	0	5	-2.790973	-2.749461	59.22306	
09:43:35	0	0	0	0.1936139	-0.01714863	0	3	100	0	4	-2.72967	-2.714689	59.22957	
09:43:35	0	0	0	0.1624095	-0.08319349	0	3	100	0	4	-2.671252	-2.685292	59.23387	
09:43:35	0	0	0	0.1613777	1.256514	0	3	100	0	4	-2.606343	-2.662897	59.11705	
09:43:35	0	0	0	0.1520344	1.790187	0	3	100	0	4	-2.549848	-2.643902	59.06413	
09:43:36	0	0	0	0.1351873	1.990722	0	3	100	0	5	-2.490881	-2.602704	59.07414	
09:43:36	0	0	0	0.1320513	2.707363	0	3	100	0	4	-2.443224	-2.580758	59.07972	
09:43:36	0	0	0	0.1429949	4.234548	0	3	100	0	5	-2.401059	-2.576022	59.08446	
09:43:36	0	0	0	0.1543317	5.975016	0	3	100	0	4	-2.366426	-2.560515	59.08871	
09:43:36	0	0	0	0.1662571	7.839607	0	3	100	0	4	-2.323848	-2.541324	59.09485	
09:43:37	0	0	0	0.1741187	8.382923	0	3	100	0	4	-2.275849	-2.523091	59.10798	
09:43:37	0	0	0	0.1758955	9.257468	0	3	100	0	5	-2.241358	-2.522466	59.1103	
09:43:37	0	0	0	0.1789704	10.05596	0	3	100	0	4	-2.203922	-2.506552	59.0304	
09:43:37	0	0	0	0.1905221	10.72905	0	3	100	0	4	-2.162005	-2.490348	58.93141	
09:43:37	0	0	0	0.2015648	11.66945	0	3	100	0	4	-2.059017	-2.471708	58.91859	
09:43:38	0	0	0	0.2436488	14.03264	0	3	100	0	4	-1.968331	-2.435635	58.91527	
09:43:38	0	0	0	0.2787401	15.95776	0	3	100	0	4	-1.877758	-2.411316	58.87494	
09:43:38	0	0	0	0.3290006	18.80959	0	3	100	0	4	-1.786467	-2.368572	58.79119	
09:43:38	0	0	0	0.3697304	20.2016	0	3	100	0	5	-1.703269	-2.33111	58.77613	
09:43:38	0	0	0	0.3699979	20.37572	0	3	100	0	4	-1.624471	-2.300058	58.76496	
09:43:39	0	0	0	0.3700706	19.92168	0	3	100	0	4	-1.556043	-2.276538	58.74279	
09:43:39	0	0	0	0.3723936	19.74989	0	3	100	0	5	-1.489276	-2.266944	58.61432	
09:43:39	0	0	0	0.374325	19.59229	0	3	100	0	4	-1.415789	-2.226541	58.52239	
09:43:39	0	0	0	0.3463033	17.4709	0	3	100	0	4	-1.361495	-2.201559	58.49797	
09:43:39	0	0	0	0.3199778	16.04632	0	3	100	0	4	-1.298699	-2.189915	58.49314	
09:43:40	0	0	0	0.3153009	15.69639	0	3	100	0	5	-1.24233	-2.148177	58.434	
09:43:40	0	0	0	0.3106301	14.90238	0	3	100	0	4	-1.178198	-2.100475	58.35834	
09:43:40	0	0	0	0.3359662	16.175	0	3	100	0	4	-1.125555	-2.067542	58.35612	
09:43:40	0	0	0	0.3594409	17.53178	0	3	100	0	4	-1.059654	-2.032608	58.35495	
09:43:40	0	0	0	0.4084244	19.65983	0	3	100	0	5	-1.012589	-2.021524	58.35415	
09:43:41	0	0	0	0.4561621	21.62854	0	3	100	0	4	-0.9566488	-1.969283	58.21948	
09:43:41	0	0	0	0.5035447	23.43916	0	3	100	0	4	-0.9178067	-1.945138	58.20238	
09:43:41	0	0	0	0.5446348	24.25622	0	3	100	0	4	-0.8689505	-1.936104	58.1299	
09:43:41	0	0	0	0.5281633	22.66248	0	3	100	0	4	-0.8308188	-1.895414	58.13602	
09:43:41	0	0	0	0.5125946	21.77635	0	3	100	0	6	-0.7951355	-1.880682	58.12391	
09:43:42	0	0	0	0.5210288	21.14412	0	3	100	0	4	-0.7479409	-1.863625	58.01365	
09:43:42	0	0	0	0.5284588	21.17201	0	3	100	0	4	-0.6957701	-1.84538	58.0061	
09:43:42	0	0	0	0.530145	20.6291	0	3	100	0	4	-0.6570837	-1.830827	58.00768	
09:43:42	0	0	0	0.5249953	19.47928	0	3	100	0	4	-0.6235818	-1.794387	58.00985	
09:43:42	0	0	0	0.533912	19.29117	0	3	100	0	4	-0.5567671	-1.780908	57.95283	
09:43:43	0	0	0	0.5659323	20.92066	0	3	100	0	5	-0.49702	-1.742534	57.85005	
09:43:43	0	0	0	0.5903858	21.38641	0	3	100	0	4	-0.4300988	-1.70044	57.84989	
09:43:43	0	0	0	0.6175338	22.15088	0	3	100	0	4	-0.3607654	-1.67174	57.84366	
09:43:43	0	0	0	0.6052906	20.90234	0	3	100	0	5	-0.3065249	-1.656794	57.83657	
09:43:43	0	0	0	0.5609388	17.96604	0	3	100	0	4	-0.250767	-1.622355	57.77479	
09:43:44	0	0	0	0.5221066	15.59322	0	3	100	0	5	-0.1982281	-1.613746	57.75413	
09:43:44	0	0	0	0.4853983	13.3767	0	3	100	0	4	-0.1385977	-1.581726	57.7541	
09:43:44	0	0	0	0.4464852	11.26886	0	3	100	0	6	-0.09356773	-1.565621	57.75852	
09:43:44	0	0	0	0.3922281	8.962337	0	3	100	0	4	-0.05239967	-1.516881	57.74807	
09:43:44	0	0	0	0.3595578	7.578172	0	3	100	0	5	-0.002862267	-1.477256	57.6907	
09:43:45	0	0	0	0.3332451	6.641265	0	3	100	0	4	0.04248651	-1.456576	57.68126	
09:43:45	0	0	0	0.2970529	5.289234	0	3	100	0	5	0.08215445	-1.416215	57.68064	
09:43:45	0	0	0	0.2552316	3.950214	0	3	100	0	5	0.1123604	-1.390575	57.68242	
09:43:45	0	0	0	0.2039608	2.503876	0	3	100	0	4	0.151355	-1.375752	57.62993	
09:43:45	0	0	0	0.1493304	0.6855941	0	3	100	0	4	0.179951	-1.376508	57.59592	
09:43:46	0	0	0	0.1334315	1.334294	0	3	100	0	5	0.2156749	-1.381416	57.58847	
09:43:46	0	0	0	0.1434216	3.092474	0	3	100	0	5	0.2462696	-1.376009	57.58742	
09:43:46	0	0	0	0.1534738	4.23247	0	3	100	0	4	0.26538	-1.370327	57.55124	
09:43:46	0	0	0	0.1638934	6.193626	0	3	100	0	4	0.2985322	-1.372302	57.48388	
09:43:46	0	0	0	0.1817641	7.959599	0	3	100	0	4	0.3302859	-1.348722	57.47174	
09:43:47	0	0	0	0.2116873	10.03203	0	3	100	0	5	0.3596697	-1.344573	57.46618	
09:43:47	0	0	0	0.237806	12.21165	0	3	100	0	4	0.3887331	-1.303137	57.46981	
09:43:47	0	0	0	0.2500898	13.16909	0	3	100	0	4	0.4098677	-1.30154	57.367	
09:43:47	0	0	0	0.2616368	13.85739	0	3	100	0	5	0.4361884	-1.272882	57.32335	
09:43:47	0	0	0	0.2214986	12.02533	0	3	100	0	5	0.4588132	-1.248261	57.30824	
09:43:48	0	0	0	0.1887968	10.27411	0	3	100	0	4	0.5148939	-1.206908	57.3097	
09:43:48	0	0	0	0.1985859	11.15785	0	3	100	0	5	0.44278	-1.229741	57.28126	
09:43:48	0	0	0	0.2081879	11.80079	0	3	100	0	5	8.788609	-0.6242909	57.62056	
09:43:48	0	0	0	0.2685822	15.56418	0	3	100	0	4	10.02549	-0.9268962	57.33265	
09:43:48	0	0	0	0.324143	15.88178	0	3	100	0	4	-2.07798	-1.454135	56.13521	
09:43:49	0	0	0	0.402903	21.95064	0	3	100	0	5	-7.09476	-3.575428	56.06045	
09:43:49	0	0	0	0.4635839	17.05956	0	3	100	0	4	5.380733	-0.4542174	56.44136	
09:43:49	0	0	0	0.4812607	20.32052	0	3	100	0	5	8.797297	-0.7008363	56.27716	
09:43:49	0	0	0	0.5053154	21.13041	0	3	100	0	5	-0.8851592	-1.291683	55.16286	
09:43:49	0	0	0	0.522248	18.70628	0	3	100	0	4	1.58152	-0.7680894	55.37634	
09:43:50	0	0	0	0.5286818	16.61962	0	3	100	0	5	3.208037	-0.1157249	54.60513	
09:43:50	0	0	0	0.5398954	16.66017	0	3	100	0	4	3.231685	0.251841	54.20987	
09:43:50	0	0	0	0.5497817	17.17603	0	3	100	0	5	3.248306	0.2916459	54.24794	
09:43:50	0	0	0	0.6097361	20.59879	0	3	100	0	4	3.276252	0.3045239	54.29221	
09:43:50	0	0	0	0.6641684	23.04646	0	3	100	0	4	3.289734	0.3274054	54.32662	
09:43:51	0	0	0	0.7252778	25.58716	0	3	100	0	4	3.315245	0.337612	54.24882	
09:43:51	0	0	0	0.7739129	27.34106	0	3	100	0	4	3.331018	0.3242284	54.24913	
09:43:51	-6.733904	38.95322	220.364	0.7201303	23.25078	1.69	3	100	0	5	3.354612	0.3321538	54.28145	
09:43:51	-6.733886	38.95326	217.082	0.6700525	19.90444	1.39	3	100	0	4	3.37239	0.3476439	54.32021	
09:43:51	-6.733887	38.95324	224.081	0.6306238	17.25282	2.09	3	100	0	4	3.407285	0.3403505	54.33862	
09:43:52	-6.733888	38.95323	226.272	0.5979887	15.37336	2.26	3	100	0	4	3.424017	0.3247969	54.33776	
09:43:52	-6.73389	38.95322	229.627	0.5719066	13.45202	1.94	3	100	0	4	3.438416	0.3276825	54.33556	
09:43:52	-6.733891	38.95322	229.821	0.5547901	12.29651	2.03	3	100	0	5	3.458074	0.326718	54.34694	
09:43:52	-6.733896	38.9532	234.405	0.5250389	10.89837	1.95	3	100	0	5	3.460999	0.3302105	54.36845	
09:43:52	-6.733902	38.95319	238.947	0.4803478	8.748322	1.91	3	100	0	5	3.483249	0.3457162	54.30305	
09:43:53	-6.733921	38.95314	248.002	0.4507807	7.495602	1.68	3	100	0	4	3.511207	0.3530937	54.21738	
09:43:53	-6.733938	38.95309	256.546	0.4306296	7.203931	1.45	3	100	0	4	3.526805	0.3579369	54.20598	
09:43:53	-6.733956	38.95305	263.421	0.4146027	7.45808	1.49	3	100	0	4	3.559545	0.3951003	54.22452	
09:43:53	-6.73397	38.95302	269.237	0.4024563	7.923147	1.38	3	100	0	5	3.572741	0.4055997	54.21923	
09:43:53	-6.73399	38.95297	276.014	0.4280692	9.726896	1.04	3	100	0	5	3.577969	0.4066075	54.16557	
09:43:54	-6.734008	38.95293	282.303	0.4833841	12.89691	1.15	3	100	0	4	3.577881	0.3913972	54.19554	
09:43:54	-6.734023	38.95289	287.882	0.5024996	13.81182	0.91	3	100	0	5	3.601936	0.3933466	54.21374	
09:43:54	-6.734034	38.95287	291.694	0.4763381	12.40498	1.22	3	100	0	4	3.629937	0.3771791	54.23342	
09:43:54	-6.734045	38.95284	295.656	0.4447456	10.81472	0.71	3	100	0	4	3.66018	0.400524	54.127	
09:43:54	-6.734054	38.95282	300.022	0.4013835	8.071543	0.65	3	100	0	5	3.685771	0.411132	54.12543	
09:43:55	-6.734061	38.9528	303.252	0.3623457	5.972143	0.45	3	100	0	5	3.708777	0.4350151	54.14241	
09:43:55	-6.734064	38.95279	304.059	0.3267092	5.004267	0.36	3	100	0	4	3.738033	0.4370723	54.16442	
09:43:55	-6.734067	38.95279	305.262	0.2890173	3.424597	0.41	3	100	0	5	4.367743	0.3851656	54.25875	
09:43:55	-6.734067	38.95279	305.229	0.2519141	1.60849	0.51	3	100	0	4	5.636867	0.2595506	54.26929	
09:43:55	-6.734069	38.95279	306.528	0.2312619	1.078116	0.51	3	100	0	5	10.8459	-0.4601186	55.31065	
09:43:56	-6.734068	38.95279	306.448	0.2192676	0.5319632	0.58	3	100	0	4	6.484311	0.1049269	54.63935	
09:43:56	-6.734067	38.95279	306.499	0.2150123	-1.123977	0.47	3	100	0	7	-1.541002	-0.6725	53.36123	
09:43:56	-6.734069	38.95278	307.4	0.2233185	2.527717	0.38	3	100	0	4	-1.788702	-1.970958	53.75902	
09:43:56	-6.73407	38.95278	308.451	0.2415678	-2.927758	0.83	3	100	0	4	7.690156	0.3718316	54.44931	
09:43:57	-6.73407	38.95278	309.03	0.2764584	5.3618	0.56	3	100	0	5	4.605121	0.7326728	54.69785	
09:43:57	-6.73407	38.95278	309.541	0.3097879	8.35759	0.72	3	100	0	4	0.2994289	-0.03785491	54.25306	
09:43:57	-6.734072	38.95278	310.991	0.3457162	10.4307	1.07	3	100	0	4	4.32872	0.5968367	54.79089	
09:43:57	-6.734072	38.95278	311.858	0.3713515	9.328796	1.62	3	100	0	5	7.484778	0.7152982	55.51622	
09:43:57	-6.734072	38.95278	312.304	0.4555163	14.17095	1.62	3	100	0	4	5.310894	0.762968	55.15005	
09:43:57	-6.734073	38.95278	312.631	0.5232715	17.3296	1.16	3	100	0	5	2.145438	0.429386	54.78842	
09:43:58	-6.734075	38.95277	313.172	0.580541	19.77961	0.88	3	100	0	4	5.297875	0.8941565	55.17975	
09:43:58	-6.734074	38.95278	313.217	0.6285679	21.52119	0.97	3	100	0	4	9.485842	0.2559924	55.82617	
09:43:58	-6.734071	38.95278	312.165	0.6128981	20.60039	0.37	3	100	0	4	14.52476	-0.0397558	56.75621	
09:43:58	-6.734069	38.95279	311.234	0.5929272	18.04666	0.55	3	100	0	4	14.09429	-0.03220518	56.87533	
09:43:58	-6.734065	38.9528	310.325	0.5844686	16.15263	1.38	3	100	0	4	9.080412	0.3817762	56.04144	
09:43:59	-6.734062	38.95281	308.781	0.5753108	15.93098	0.38	3	100	0	5	1.712182	-0.1374205	55.27508	
09:43:59	-6.734057	38.95282	306.825	0.5311998	12.74412	0.61	3	100	0	4	-1.923008	-0.8992748	54.99591	
09:43:59	-6.734055	38.95283	305.511	0.4900537	9.96279	0.42	3	100	0	4	-3.001398	-1.241719	55.11348	
09:43:59	-6.734043	38.95285	301.222	0.484461	7.248216	0.82	3	100	0	4	-0.40556	-0.9493552	55.58338	
09:43:59	-6.734036	38.95287	298.336	0.4764661	3.904133	0.64	3	100	0	4	11.28858	0.4979428	56.12383	
09:44:00	-6.734031	38.95289	296.191	0.4070307	-0.3837505	0.77	3	100	0	5	13.38772	0.05793369	56.32192	
09:44:00	-6.734023	38.95291	292.515	0.3443846	-4.133045	0.85	3	100	0	5	6.523464	0.4088125	55.32065	
09:44:00	-6.734019	38.95292	291.223	0.3099458	-4.692132	0.68	3	100	0	4	5.039385	0.3213027	55.22905	
09:44:00	-6.734016	38.95293	289.681	0.2798564	-4.777415	0.75	3	100	0	5	7.16153	0.4707074	55.38308	
09:44:00	-6.734011	38.95294	287.247	0.2783141	-3.18354	0.81	3	100	0	4	4.792942	0.3427558	55.15429	
09:44:01	-6.734006	38.95295	285.517	0.2795079	-2.638667	0.7	3	100	0	4	5.508854	0.4191234	55.097	
09:44:01	-6.734	38.95297	282.481	0.2701219	-1.776223	0.62	3	100	0	5	5.403003	0.4019337	55.12477	
09:44:01	-6.73399	38.953	278.295	0.2639178	-0.9697983	0.63	3	100	0	5	5.299775	0.3687612	55.15921	
09:44:01	-6.733984	38.95301	275.737	0.2785588	0.6729622	0.47	3	100	0	5	5.282516	0.3477593	55.20812	
09:44:01	-6.733978	38.95303	272.609	0.2948901	2.30084	0.68	3	100	0	4	5.287603	0.3535191	55.0847	
09:44:02	-6.733974	38.95304	270.563	0.3007022	2.720689	0.84	3	100	0	4	5.303464	0.348022	55.02285	
09:44:02	-6.733968	38.95306	267.715	0.2945386	2.79029	1.04	3	100	0	4	5.334209	0.3574794	55.06498	
09:44:02	-6.733965	38.95307	266.439	0.2965603	3.522339	0.9	3	100	0	5	5.343862	0.3477624	55.10912	
09:44:02	-6.733964	38.95307	265.395	0.3087945	4.50479	0.66	3	100	0	4	5.359318	0.335521	55.07937	
09:44:02	-6.733963	38.95308	264.514	0.3395796	6.688139	1.02	3	100	0	5	5.380142	0.3175636	55.03014	
09:44:03	-6.73396	38.95308	263.609	0.3870569	9.725319	0.83	3	100	0	4	5.404238	0.3123281	55.04627	
09:44:03	-6.73396	38.95308	263.56	0.4162281	11.51211	0.76	3	100	0	5	5.430576	0.3215719	55.07811	
09:44:03	-6.73396	38.95308	263.073	0.4290723	12.14478	0.9	3	100	0	4	5.431438	0.3120918	55.09342	
09:44:03	-6.73396	38.95308	262.549	0.4477852	11.89334	0.77	3	100	0	4	5.450746	0.3382385	55.07923	
09:44:03	-6.73396	38.95309	262.069	0.4769995	13.16236	0.76	3	100	0	4	5.466342	0.3424958	55.10507	
09:44:04	-6.733961	38.95309	261.709	0.4844545	13.2372	0.42	3	100	0	4	5.475646	0.3219269	55.12272	
09:44:04	-6.733961	38.95309	261.818	0.4724159	11.87952	0.97	3	100	0	8	5.485329	0.3235817	55.1376	
09:44:04	-6.733962	38.95309	261.553	0.4565818	10.37691	0.5	3	100	0	5	5.490418	0.3212982	55.15671	
09:44:04	-6.733961	38.95309	260.803	0.436927	9.431479	0.42	3	100	0	5	5.501256	0.348694	55.00164	
09:44:04	-6.733961	38.95309	260.487	0.412923	8.113142	0.62	3	100	0	4	5.504572	0.3331614	55.00877	
09:44:05	-6.733962	38.95309	260.894	0.3851111	6.661245	0.53	3	100	0	5	5.507846	0.3175448	55.03666	
09:44:05	-6.733962	38.95309	260.647	0.3644814	6.051329	0.64	3	100	0	5	5.517452	0.2895447	55.05202	
09:44:05	-6.733962	38.95309	260.757	0.348842	5.404907	0.56	3	100	0	4	5.524171	0.2691665	54.97629	
09:44:05	-6.733962	38.95309	260.133	0.3317386	4.853446	0.66	3	100	0	4	5.525444	0.2474069	54.90993	
09:44:05	-6.733963	38.95308	261.921	0.3113585	4.406063	0.58	3	100	0	4	5.523276	0.2342569	54.8797	
09:44:06	-6.733963	38.95308	262.218	0.2717082	2.573269	0.26	3	100	0	4	5.524233	0.2108759	54.91105	
09:44:06	-6.733963	38.95308	262.482	0.2051508	-0.1443731	0.5	3	100	0	5	5.531521	0.1927371	54.86055	
09:44:06	-6.733961	38.95309	260.981	0.152967	-2.267338	0.35	3	100	0	5	5.525065	0.1820287	54.81376	
09:44:06	-6.733962	38.95309	261.57	0.112506	-3.81694	0.42	3	100	0	5	5.528427	0.1767287	54.81163	
09:44:06	-6.733963	38.95309	261.726	0.08114378	-4.479756	0.22	3	100	0	4	5.539185	0.161992	54.83376	
09:44:07	-6.733962	38.95309	260.911	0.08310991	-3.024369	0.11	3	100	0	5	5.556089	0.1469186	54.8623	
09:44:07	-6.733961	38.95309	260.172	0.08733733	-1.757864	0.18	3	100	0	4	5.563087	0.1626765	54.75738	
09:44:07	-6.73396	38.95309	260.066	0.1137627	0.3369308	0.48	3	100	0	4	5.58024	0.1664745	54.77195	
09:44:07	-6.733957	38.95309	258.614	0.1367901	2.097504	0.26	3	100	0	4	5.596031	0.1753613	54.79897	
09:44:07	-6.733955	38.9531	257.545	0.1407333	3.114543	0.14	3	100	0	4	8.295718	0.3355166	55.0879	
09:44:08	-6.733953	38.9531	256.242	0.1457139	4.012512	0.26	3	100	0	4	12.52601	-0.05931462	55.18519	
09:44:08	-6.733953	38.9531	256.242	0.1103627	-0.5160898	0.26	3	100	0	4	3.414001	0.01133118	54.01738	
09:44:08	-6.733951	38.95311	253.517	0.0747868	-1.20993	0.22	3	100	0	4	1.057017	-0.5748528	53.98683	
09:44:08	-6.733951	38.95311	253.517	-0.007111989	-6.739894	0.22	3	100	0	4	0.5343605	-0.66469	54.10687	
09:44:08	-6.733949	38.95311	252.636	-0.07425781	-8.531306	0.45	3	100	0	5	-2.37907	-1.392784	54.03768	
09:44:09	-6.73395	38.95311	252.597	-0.08582405	-8.285299	0.44	3	100	0	4	-1.613398	-1.687995	54.23273	
09:44:09	-6.733948	38.95311	251.678	-0.09531435	-7.580348	0.56	3	100	0	5	0.4621189	-3.038402	55.74332	
09:44:09	-6.733946	38.95311	251.129	-0.09009402	2.407645	0.52	3	100	0	4	7.073914	-4.981144	57.25829	
09:44:09	-6.733944	38.95312	250.311	-0.06028145	17.14139	1.36	3	99	0	5	6.968135	-9.056337	61.33742	
09:44:09	-6.733942	38.95312	249.562	-0.01894757	15.40105	1.02	3	99	0	4	-2.124783	-11.0907	68.17072	
09:44:10	-6.733939	38.95313	248.578	0.01211632	11.16278	0.9	3	99	0	5	12.30311	-11.01065	72.31258	
09:44:10	-6.733938	38.95313	248.075	0.06643959	4.271822	0.72	3	99	0	4	-3.474754	-9.207358	74.21594	
09:44:10	-6.73394	38.95312	248.347	0.1916681	2.764518	0.36	3	99	0	5	-2.501686	-8.457581	76.96619	
09:44:11	-6.733938	38.95313	247.149	0.2561345	7.983575	0.55	3	99	0	4	9.386941	-4.507041	77.32706	
09:44:11	-6.733937	38.95313	245.772	0.2733893	3.698328	0.81	3	99	0	4	-7.931663	-5.441835	76.60049	
09:44:11	-6.733935	38.95313	244.942	0.2844433	6.831461	0.98	3	99	0	5	-11.19474	-7.514219	76.95924	
09:44:11	-6.733934	38.95313	243.997	0.3250675	9.105123	0.72	3	99	0	5	-4.103823	-7.472593	77.25568	
09:44:11	-6.733935	38.95313	244.023	0.3573874	7.410554	0.66	3	99	0	5	2.102412	-5.793602	77.20716	
09:44:12	-6.733933	38.95314	242.752	0.3803717	8.173321	0.58	3	99	0	4	-6.716134	-4.863053	76.41913	
09:44:12	-6.733931	38.95314	240.929	0.4085804	10.40779	0.48	3	99	0	4	-7.619093	-9.287143	74.28822	
09:44:12	-6.733929	38.95315	239.576	0.4426002	10.12033	0.83	3	99	0	5	-2.898198	-8.508369	73.14016	
09:44:12	-6.733931	38.95314	241.432	0.4953071	5.960434	0.74	3	99	0	4	0.884635	-1.244069	73.28138	
09:44:12	-6.733931	38.95314	242.022	0.5136201	4.893959	0.28	3	99	0	4	1.404788	0.8012156	74.58701	
09:44:13	-6.73393	38.95314	241.276	0.5279126	10.74807	0.45	3	99	0	4	-0.6156855	-6.490093	73.63247	
09:44:13	-6.733928	38.95314	239.997	0.5332929	12.96254	0.57	3	99	0	4	-1.758849	-14.13308	73.00148	
09:44:13	-6.733926	38.95315	238.112	0.5180675	6.525685	0.26	3	99	0	5	2.103662	-10.89186	72.32342	
09:44:13	-6.733926	38.95314	239.236	0.5022128	-2.384263	0.31	3	99	0	4	7.058781	-2.436156	73.57089	
09:44:13	-6.733926	38.95314	239.451	0.4870325	-4.377688	0.21	3	99	0	5	6.471532	-1.747826	74.62281	
09:44:13	-6.733926	38.95314	240.147	0.4713262	1.382421	0.35	3	99	0	4	3.570197	-9.541237	72.90994	
09:44:14	-6.733925	38.95314	239.436	0.4578235	5.521844	0.18	3	99	0	5	4.312733	-13.53322	71.4911	
09:44:14	-6.733925	38.95314	239.707	0.4557914	0.6629651	0.16	3	99	0	5	10.13133	-5.912107	71.42651	
09:44:14	-6.733926	38.95314	241.082	0.4506221	-5.020427	0.07	3	99	0	4	15.32671	-0.4517373	71.87037	
09:44:14	-6.733924	38.95314	240.612	0.4685059	3.043739	0.22	3	99	0	4	16.98347	-4.754462	71.33492	
09:44:14	-6.733923	38.95314	240.223	0.5086148	11.20684	0.47	3	99	0	4	-2.162436	-8.356249	70.95235	
09:44:15	-6.733919	38.95315	237.943	0.5356004	7.054708	0.52	3	99	0	5	-15.94406	-11.10734	70.85294	
09:44:15	-6.733917	38.95316	237.258	0.542417	3.28724	0.59	3	99	0	4	-16.88151	-10.74833	71.79609	
09:44:15	-6.733915	38.95316	236.845	0.5621887	6.00272	0.52	3	99	0	4	1.932783	-7.192893	72.8235	
09:44:15	-6.733913	38.95316	236.609	0.5881941	0.3893819	0.16	3	99	0	5	19.61398	-3.991906	73.27088	
09:44:15	-6.733912	38.95316	236.263	0.5691498	1.7824	0.22	3	99	0	5	6.986834	-4.158977	71.3773	
09:44:16	-6.733909	38.95317	234.646	0.5192152	3.579242	0.42	3	99	0	5	-18.16975	-8.162445	70.70292	
09:44:16	-6.733906	38.95317	233.554	0.4819876	2.807182	0.79	3	99	0	4	1.576226	-8.334525	73.47898	
09:44:16	-6.733904	38.95317	232.864	0.4591894	-0.8749269	0.45	3	99	0	4	-9.95097	-5.388087	74.22903	
09:44:16	-6.733901	38.95317	231.852	0.4343995	-7.84231	0.28	3	99	0	4	0.9395496	-4.911032	74.49405	
09:44:17	-6.733901	38.95317	232.525	0.3876304	-11.15695	0.79	3	99	0	5	2.687526	-3.384689	73.86327	
09:44:17	-6.733898	38.95318	231.507	0.341762	-18.84711	0.26	3	99	0	4	2.83147	-5.755288	70.8215	
09:44:17	-6.733893	38.95319	229.124	0.3012997	-25.04671	0.69	3	99	0	5	4.367849	-6.280578	66.68005	
09:44:17	-6.733889	38.95319	227.103	0.254901	-36.79665	0.38	3	99	0	5	-1.707026	-6.459842	63.96675	
09:44:17	-6.733883	38.95321	222.952	0.2174814	-27.00846	0.31	3	99	0	5	2.741017	-5.60095	63.07646	
09:44:18	-6.733874	38.95322	217.778	0.2136471	-16.09632	0.34	3	99	0	5	5.430233	-4.272014	62.66156	
09:44:18	-6.733873	38.95322	217.05	0.2290477	-21.36117	0.52	3	99	0	4	3.344764	-2.684002	62.32582	
09:44:18	-6.733869	38.95324	213.117	0.240804	-15.76756	1.09	3	99	0	4	-0.6638789	-2.62027	62.56086	
09:44:18	-6.733869	38.95324	213.117	0.2422419	-3.28147	1.09	3	99	0	5	-2.549775	-1.729109	63.10979	
09:44:18	-6.733869	38.95324	213.117	0.2653778	0.7123197	1.09	3	99	0	5	-2.391344	-1.553441	63.59459	
09:44:19	-6.733869	38.95324	213.117	0.2284836	-1.840117	1.09	3	99	0	4	-2.393281	-1.484795	64.04154	
09:44:19	-6.733869	38.95324	213.117	0.1944424	-4.165627	1.09	3	99	0	4	-2.450778	-1.443645	64.4846	
09:44:19	-6.733869	38.95324	213.117	0.1523762	-7.02561	1.09	3	99	0	5	-2.497336	-1.42168	64.88885	
09:44:19	-6.733869	38.95324	213.117	0.1165529	-9.555406	1.09	3	99	0	4	-2.548053	-1.417144	65.33355	
09:44:19	-6.733869	38.95324	213.117	0.09921977	-10.66493	1.09	3	99	0	5	-2.580853	-1.380442	65.76129	
09:44:20	-6.733869	38.95324	213.117	0.08167617	-11.72054	1.09	3	99	0	4	-2.632663	-1.377107	66.12011	
09:44:20	-6.733867	38.95325	211.441	0.05605863	-13.11915	0.74	3	99	0	4	-2.667534	-1.352362	66.5271	
09:44:20	-6.733866	38.95325	207.389	0.02971668	-14.35447	0.51	3	99	0	4	-2.695418	-1.352429	66.928	
09:44:20	-6.733871	38.95324	206.465	0.05623284	-12.05675	0.19	3	99	0	4	-2.731503	-1.340122	67.32265	
09:44:20	-6.733867	38.95325	203.183	0.08310258	-10.62917	0.35	3	99	0	4	-2.774951	-1.309511	68.06184	
09:44:21	-6.73386	38.95325	201.264	0.08804154	-10.17404	0.52	3	99	0	4	-2.798583	-1.281607	68.44578	
09:44:21	-6.733859	38.95325	200.182	0.1420709	-7.435759	0.56	3	99	0	4	-2.828795	-1.296684	68.82171	
09:44:21	-6.733853	38.95326	197.045	0.1868288	-4.940788	0.59	3	99	0	4	-2.857756	-1.272533	69.18295	
09:44:21	-6.733848	38.95327	193.984	0.219027	-3.635122	0.9	3	99	0	5	-2.880266	-1.278261	69.4613	
09:44:22	-6.733839	38.95329	190.171	0.2294623	-3.673289	1.16	3	99	0	5	-2.897843	-1.262382	69.79173	
09:44:22	-6.733831	38.9533	185.9	0.2189044	-4.316168	1.2	3	99	0	5	-2.93043	-1.253177	70.12233	
09:44:22	-6.733829	38.95332	183.551	0.1894992	-5.841734	1.16	3	99	0	4	-2.948806	-1.229468	70.43999	
09:44:22	-6.733826	38.95333	180.341	0.1538694	-8.337697	1.14	3	99	0	4	-2.973363	-1.220566	70.71873	
09:44:22	-6.733827	38.95333	178.978	0.1150537	-11.04646	0.97	3	99	0	4	-2.991964	-1.19524	70.97511	
09:44:23	-6.733829	38.95333	178.133	0.08370882	-12.0159	1.09	3	99	0	4	-3.006638	-1.181097	71.26548	
09:44:23	-6.733827	38.95334	177.113	0.05828926	-12.83838	1.27	3	99	0	5	-3.017339	-1.19527	71.54071	
09:44:23	-6.733827	38.95335	175.533	0.05107807	-12.54688	1.22	3	99	0	5	-3.040892	-1.189225	71.79832	
09:44:23	-6.733822	38.95336	173.253	0.05562439	-11.91826	1.44	3	99	0	4	-3.059738	-1.203378	72.01801	
09:44:23	-6.733821	38.95337	171.453	0.01381175	-14.23962	1.02	3	99	0	5	-3.082969	-1.197969	72.25432	
09:44:24	-6.733821	38.95337	170.242	-0.06017368	-17.73077	1.16	3	99	0	5	-3.090666	-1.21407	72.49625	
09:44:24	-6.73382	38.95337	169.409	-0.1266906	-20.43622	1.41	3	99	0	5	-3.100841	-1.216229	72.72836	
09:44:24	-6.733819	38.95338	168.648	-0.1778564	-22.41204	1.64	3	99	0	4	-3.122502	-1.232055	72.94611	
09:44:24	-6.73382	38.95338	168.192	-0.1944802	-22.34778	1.33	3	99	0	4	-3.125512	-1.241642	73.08186	
09:44:24	-6.733819	38.95338	166.853	-0.1929942	-21.00866	1.44	3	99	0	5	-3.131564	-1.24464	73.23981	
09:44:25	-6.733819	38.95338	166.311	-0.159776	-17.70222	1.04	3	99	0	5	-3.13118	-1.255909	73.43913	
09:44:25	-6.733819	38.95339	164.874	-0.1079887	-13.55351	1.46	3	99	0	5	-3.132563	-1.259724	73.63658	
09:44:25	-6.733821	38.95338	164.494	-0.07160604	-11.45082	1.14	3	99	0	4	-3.13591	-1.253792	73.71295	
09:44:25	-6.733819	38.95339	162.424	-0.04082379	-9.461884	1.14	3	99	0	4	-3.139148	-1.268879	73.87225	
09:44:25	-6.733814	38.9534	159.278	-0.07203457	-11.13	1.2	3	99	0	5	-3.146279	-1.267822	74.066	
09:44:26	-6.733812	38.95341	157.099	-0.1565326	-14.95737	1.11	3	99	0	5	-3.144693	-1.285976	74.29498	
09:44:26	-6.733809	38.95342	154.949	-0.2204974	-16.97966	1.23	3	99	0	4	-3.139836	-1.277991	74.46776	
09:44:26	-6.733806	38.95343	153.474	-0.2652502	-17.51423	1.09	3	99	0	4	-3.147266	-1.289673	74.66718	
09:44:26	-6.7338	38.95344	150.145	-0.2984175	-17.6646	1.22	3	99	0	4	-3.145023	-1.28213	74.84875	
09:44:26	-6.733794	38.95346	146.831	-0.3201007	-17.787	1.56	3	99	0	4	-3.147366	-1.257648	75.04191	
09:44:27	-6.733789	38.95347	143.971	-0.3379963	-17.91543	1.09	3	99	0	5	-3.146714	-1.264066	75.21604	
09:44:27	-6.733785	38.95348	141.736	-0.2992896	-15.02924	1.16	3	99	0	5	-3.149854	-1.245972	75.29621	
09:44:27	-6.733782	38.95349	139.572	-0.2665946	-12.5664	1.02	3	99	0	4	-3.139498	-1.237215	75.46912	
09:44:27	-6.733783	38.95348	141.884	-0.2166192	-9.078789	1.16	3	99	0	5	-3.142058	-1.22292	75.63665	
09:44:27	-6.73378	38.9535	139.892	-0.1697557	-5.815111	1.05	3	99	0	4	-3.141414	-1.228781	75.81451	
09:44:28	-6.733778	38.9535	139.427	-0.05587499	0.1358817	0.85	3	99	0	4	-3.135372	-1.235704	75.89232	
09:44:28	-6.733776	38.9535	138.2	0.03773107	4.502861	0.96	3	99	0	5	-3.128641	-1.233301	76.03224	
09:44:28	-6.733777	38.9535	138.969	0.1550552	9.456325	0.61	3	99	0	5	-3.13429	-1.245575	76.18858	
09:44:28	-6.733773	38.95351	137.236	0.2583274	13.30511	0.66	3	99	0	4	-3.146999	-1.255377	76.33566	
09:44:28	-6.733769	38.95353	135.587	0.2896649	13.34869	0.97	3	99	0	4	-3.163917	-1.244591	76.44322	
09:44:29	-6.733767	38.95353	135.211	0.3204124	13.07183	0.89	3	99	0	5	-3.153948	-1.261157	76.53587	
09:44:29	-6.733766	38.95353	134.091	0.3382282	12.62421	0.81	3	99	0	5	-3.154931	-1.279341	76.66383	
09:44:29	-6.733764	38.95354	132.65	0.3503184	11.91304	0.36	3	99	0	7	-3.164877	-1.279687	76.80552	
09:44:29	-6.733761	38.95354	130.326	0.3841336	11.93318	0.48	3	99	0	4	-3.160701	-1.283018	76.92757	
09:44:29	-6.733759	38.95355	129.211	0.4104505	10.89886	1.07	3	99	0	4	-3.157408	-1.292307	76.96439	
09:44:30	-6.733759	38.95355	128.787	0.4659965	12.25021	0.48	3	99	0	5	-3.16558	-1.302473	77.02325	
09:44:30	-6.733757	38.95356	127.098	0.513007	13.11659	0.55	3	99	0	5	-3.17357	-1.291302	77.1235	
09:44:30	-6.733755	38.95356	126.186	0.5927684	15.38727	1.05	3	99	0	4	-3.152891	-1.271906	77.3012	
09:44:30	-6.733754	38.95357	125.326	0.6054329	12.24767	1.1	3	99	0	5	-3.163549	-1.297068	77.2974	
09:44:31	-6.733755	38.95357	125.237	0.5560072	7.708579	0.75	3	99	0	4	-3.167538	-1.3253	77.3856	
09:44:31	-6.733756	38.95356	126.638	0.5102193	3.859335	0.72	3	99	0	4	-3.166963	-1.329547	77.48203	
09:44:31	-6.733757	38.95356	127.091	0.4708017	1.230381	0.78	3	99	0	4	-3.166213	-1.321375	77.58524	
09:44:31	-6.733758	38.95356	126.523	0.4239816	-1.421302	0.25	3	99	0	4	-3.15853	-1.321147	77.63512	
09:44:31	-6.733759	38.95356	126.125	0.3721839	-4.252145	0.16	3	99	0	4	-3.145349	-1.330267	77.71365	
09:44:32	-6.733761	38.95356	125.915	0.3563112	-5.018013	0.24	3	99	0	4	-3.140767	-1.327314	77.80446	
09:44:32	-6.733762	38.95355	126.885	0.3733131	-3.955827	0.42	3	99	0	4	-3.137204	-1.324386	77.89169	
09:44:32	-6.733762	38.95356	125.861	0.3677312	-4.386611	0.47	3	99	0	4	-3.127214	-1.331932	77.97771	
09:44:32	-6.733765	38.95354	127.269	0.3430361	-5.749329	0.34	3	99	0	4	-3.113126	-1.329932	77.95866	
09:44:32	-6.733765	38.95355	126.873	0.3137746	-7.510634	0.19	3	99	0	4	-3.108196	-1.351985	78.01988	
09:44:33	-6.733764	38.95355	126.337	0.2805188	-9.738727	0.14	3	99	0	4	-3.1048	-1.357303	78.09086	
09:44:33	-6.733764	38.95355	125.702	0.2465756	-10.77089	0.04	3	99	0	5	-3.09885	-1.360579	78.15881	
09:44:33	-6.733761	38.95356	123.636	0.2085491	-11.9285	0.44	3	99	0	4	-3.094802	-1.354988	78.18721	
09:44:33	-6.733761	38.95356	123.172	0.1724268	-12.99819	0.29	3	99	0	5	-3.093659	-1.348451	78.209	
09:44:33	-6.73376	38.95356	122.306	0.1364913	-14.3218	0.08	3	99	0	4	-3.092803	-1.356003	78.24456	
09:44:34	-6.733759	38.95357	121.567	0.09564767	-15.52268	0.39	3	99	0	4	-3.082561	-1.37151	78.30348	
09:44:34	-6.733758	38.95357	120.772	0.04288525	-16.95531	0.48	3	99	0	5	-3.074712	-1.371578	78.33434	
09:44:34	-6.733758	38.95357	120.475	0.0111701	-17.56519	0.42	3	99	0	5	-3.06733	-1.395771	78.32532	
09:44:34	-6.733757	38.95358	119.297	-0.009280656	-17.10913	0.13	3	99	0	5	-3.059016	-1.381743	78.37861	
09:44:34	-6.733756	38.95358	117.874	0.03376804	-14.0188	0.36	3	99	0	4	-3.049917	-1.370376	78.42442	
09:44:35	-6.733755	38.95358	117.473	0.1124522	-8.71305	0.36	3	99	0	4	-3.043825	-1.366707	78.47269	
09:44:35	-6.733755	38.95358	116.922	0.1806236	-4.874847	0.48	3	99	0	5	-3.037874	-1.3864	78.49527	
09:44:35	-6.733751	38.95359	114.659	0.2522205	-0.9218678	0.52	3	99	0	4	-3.040097	-1.409476	78.48703	
09:44:35	-6.733753	38.95359	115.56	0.331479	3.032239	0.28	3	99	0	5	-3.038103	-1.406498	78.5201	
09:44:35	-6.733755	38.95358	116.968	0.4244032	7.101593	0.19	3	99	0	4	-3.053558	-1.391753	78.56111	
09:44:36	-6.733758	38.95358	118.011	0.5060904	10.50599	0.56	3	99	0	4	-3.056334	-1.384041	78.59467	
09:44:36	-6.733761	38.95357	118.713	0.584449	12.96892	0.75	3	99	0	5	-3.042409	-1.37901	78.54582	
09:44:36	-6.733758	38.95358	117.123	0.6452643	14.53915	0.08	3	99	0	4	-3.037606	-1.381933	78.55659	
09:44:36	-6.733758	38.95358	116.717	0.6322963	12.31828	0.5	3	99	0	4	-3.036988	-1.38909	78.5937	
09:44:36	-6.733757	38.95358	115.2	0.6178302	10.36748	0.13	3	99	0	5	-3.032205	-1.372858	78.6281	
09:44:37	-6.733757	38.95358	115.429	0.5889581	7.231747	0.61	3	99	0	5	-3.022364	-1.386109	78.62882	
09:44:37	-6.733757	38.95358	114.684	0.5629938	4.737267	0.52	3	99	0	4	-3.022038	-1.390537	78.62643	
09:44:37	-6.733756	38.95359	114.08	0.5207376	1.087388	0.29	3	99	0	4	-3.01763	-1.384041	78.6097	
09:44:37	-6.733757	38.95359	113.696	0.4771804	-1.573544	0.21	3	98	0	4	-2.953061	-1.40911	78.665	
09:44:38	-6.733758	38.95359	113.459	0.3526551	-8.29144	0.16	3	98	0	5	-0.07147849	-1.439635	78.78782	
09:44:38	-6.733758	38.95359	112.974	0.282559	-10.63453	0.12	3	98	0	5	-1.074303	-1.500001	79.78328	
09:44:38	-6.733757	38.95359	112.622	0.2299626	-9.641877	0.37	3	98	0	4	-5.47047	-1.061913	79.66283	
09:44:38	-6.733757	38.95359	112.112	0.2063836	-7.474719	0.09	3	98	0	5	-4.692686	0.6653355	79.17439	
09:44:38	-6.733756	38.9536	111.091	0.1854945	-7.501662	0.5	3	98	0	4	0.9008546	0.5182665	80.14471	
09:44:39	-6.733757	38.95359	111.626	0.1525604	-8.322254	0.33	3	98	0	4	-10.43126	0.3891051	81.60475	
09:44:39	-6.733756	38.9536	109.973	0.1270213	-5.544062	0.29	3	98	0	4	-3.684283	0.8784508	81.4381	
09:44:39	-6.733754	38.95361	107.607	0.1344989	-8.497427	0.38	3	98	0	4	6.263226	2.190953	80.77853	
09:44:39	-6.733753	38.95361	106.574	0.1489924	5.509876	0.29	3	98	0	5	1.032084	-0.1987523	80.51341	
09:44:39	-6.733751	38.95361	106.104	0.1488888	5.071588	0.58	3	98	0	4	-6.599971	-2.75436	80.53316	
09:44:40	-6.733749	38.95362	104.326	0.1446669	2.593486	0.63	3	98	0	4	-10.87603	-4.394545	80.74049	
09:44:40	-6.733747	38.95362	102.425	0.1565432	2.600747	0.29	3	98	0	6	-3.915091	-5.096581	81.50178	
09:44:40	-6.733746	38.95362	102.017	0.16194	-2.739596	0.37	3	98	0	5	6.616892	-3.693909	82.34074	
09:44:40	-6.733742	38.95364	99.396	0.2056363	-0.009882543	0.5	3	98	0	5	13.35419	-2.764607	81.79316	
09:44:40	-6.73374	38.95364	97.61	0.2593567	5.607703	0.69	3	98	0	4	14.05122	-3.70659	80.22448	
09:44:41	-6.733738	38.95365	95.334	0.3051058	10.85556	0.52	3	98	0	4	2.279037	-5.636254	78.95436	
09:44:41	-6.733737	38.95366	94.545	0.3593317	17.31541	0.68	3	98	0	5	-8.297153	-8.306504	76.10804	
09:44:41	-6.733735	38.95366	92.618	0.3964136	14.34773	0.58	3	98	0	5	-8.489433	-9.860542	74.60715	
09:44:41	-6.733734	38.95366	93.219	0.4020674	7.760721	0.79	3	98	0	4	-1.256558	-7.766228	76.93398	
09:44:41	-6.733731	38.95367	90.947	0.3873286	0.448904	0.63	3	98	0	4	4.937994	-4.707705	78.97852	
09:44:42	-6.733728	38.95368	88.201	0.3590802	-0.9985771	0.56	3	98	0	5	10.93242	-2.390967	79.36343	
09:44:42	-6.733729	38.95368	88.656	0.3501518	4.017284	0.58	3	98	0	4	3.588194	-3.488899	77.59274	
09:44:42	-6.733726	38.95369	86.137	0.3558879	7.508226	0.56	3	98	0	5	-4.914558	-6.506869	75.71898	
09:44:42	-6.733725	38.95369	85.377	0.3708571	5.711928	0.42	3	98	0	5	-6.629909	-7.782757	75.25674	
09:44:42	-6.733722	38.9537	83.266	0.3779327	0.9324031	0.58	3	98	0	5	0.3563772	-5.911779	76.65819	
09:44:43	-6.733722	38.9537	81.984	0.3865177	-0.7686972	0.69	3	98	0	5	4.640629	-4.160596	77.62479	
09:44:43	-6.733719	38.95371	79.59	0.4024824	3.046211	0.85	3	98	0	4	10.49093	-3.524207	77.57429	
09:44:43	-6.733717	38.95371	78.864	0.4372914	8.321723	0.9	3	98	0	4	4.110751	-5.338249	76.01134	
09:44:43	-6.733716	38.95372	77.749	0.4921367	13.10912	1.04	3	98	0	4	-1.868606	-7.854398	75.4839	
09:44:43	-6.733717	38.95371	78.679	0.5254101	11.0758	0.78	3	98	0	4	-7.883761	-9.3722	75.7942	
09:44:44	-6.733715	38.95372	76.702	0.5438691	7.978821	0.79	3	98	0	4	-5.456259	-8.226085	76.55284	
09:44:44	-6.733715	38.95372	76.696	0.5527593	5.616556	0.58	3	98	0	5	-1.412653	-6.13547	77.1997	
09:44:44	-6.733715	38.95372	77.095	0.5534696	2.648933	0.74	3	98	0	5	1.967049	-5.129103	76.7571	
09:44:44	-6.733715	38.95372	76.757	0.5490991	2.59779	0.58	3	98	0	4	4.667842	-4.939679	75.58027	
09:44:44	-6.733714	38.95372	75.757	0.5482313	7.443054	0.59	3	98	0	5	1.98516	-4.588233	74.41098	
09:44:45	-6.733711	38.95373	73.9	0.5430356	8.57776	0.71	3	98	0	4	-9.73063	-5.599432	72.25884	
09:44:45	-6.73371	38.95373	72.757	0.5244119	6.800319	0.48	3	98	0	4	0.9613663	-2.949703	72.56648	
09:44:45	-6.733712	38.95373	73.08	0.49165	2.177716	0.64	3	98	0	4	5.400939	-0.5566582	73.83786	
09:44:45	-6.733713	38.95373	72.459	0.450548	1.876404	0.61	3	98	0	5	-3.987419	-0.8053299	72.46423	
09:44:45	-6.73371	38.95374	70.435	0.4182707	-0.2018245	0.9	3	98	0	5	-1.872032	-1.52899	72.60683	
09:44:46	-6.733709	38.95374	68.684	0.3924444	-4.632791	0.85	3	98	0	5	11.12167	-0.4326472	75.4038	
09:44:46	-6.733708	38.95375	67.221	0.3649288	-5.542495	0.77	3	98	0	4	5.526498	-0.2252083	74.58957	
09:44:46	-6.733712	38.95374	68.637	0.349147	-5.284559	1.24	3	98	0	5	5.125371	-2.169774	72.6297	
09:44:46	-6.733712	38.95374	67.317	0.331492	-8.143567	0.45	3	98	0	4	6.096843	-2.666524	71.65894	
09:44:46	-6.733709	38.95376	63.966	0.3372287	-6.927244	0.58	3	98	0	5	3.100705	-2.889623	70.74092	
09:44:47	-6.73371	38.95376	63.906	0.3441582	-3.946373	0.79	3	98	0	5	1.300146	-2.85394	71.33002	
09:44:47	-6.733708	38.95376	62.077	0.338901	-2.28522	0.61	3	98	0	5	2.015514	-1.542358	71.98936	
09:44:47	-6.733707	38.95376	61.963	0.3366793	-1.713317	0.85	3	98	0	4	-1.396951	-0.07995732	72.3959	
09:44:47	-6.733705	38.95377	60.032	0.3304519	-0.2449185	0.65	3	98	0	4	-3.091684	-0.1687228	72.49952	
09:44:47	-6.733701	38.95378	57.082	0.3337966	3.846709	0.81	3	98	0	4	-5.921461	-0.2178738	72.60159	
09:44:48	-6.733693	38.9538	52.323	0.3443445	0.9549173	0.85	3	98	0	5	-4.544414	-0.7989048	73.58375	
09:44:48	-6.733687	38.95381	49.073	0.3465405	1.693429	1	3	98	0	5	-6.702774	-1.13103	73.81984	
09:44:48	-6.733686	38.95381	48.96	0.3237913	-1.81906	0.72	3	98	0	5	-4.223928	-1.269201	74.787	
09:44:48	-6.733685	38.95381	49.276	0.3057437	-1.618897	0.69	3	98	0	4	-4.515848	-1.46001	75.11877	
09:44:48	-6.733682	38.95382	46.742	0.3217454	0.01036106	0.62	3	98	0	4	-0.02459474	-1.494227	75.3934	
09:44:49	-6.733682	38.95382	45.772	0.3348949	1.264325	0.88	3	98	0	5	-0.7810214	-1.462728	75.51323	
09:44:49	-6.733683	38.95382	46.134	0.3198917	0.4399741	0.71	3	98	0	5	-0.5956735	-1.449637	75.66129	
09:44:49	-6.733682	38.95382	44.291	0.3062145	-0.5638266	0.62	3	98	0	4	-0.6730821	-1.447573	75.79906	
09:44:49	-6.73368	38.95383	42.677	0.2820273	-2.027009	0.59	3	98	0	2	-0.6378333	-1.441389	75.88435	
09:44:49	-6.73368	38.95382	42.99	0.2633263	-3.227405	0.47	3	98	0	4	-0.6414407	-1.45012	75.94051	
09:44:50	-6.733679	38.95383	41.634	0.2657973	-2.706717	0.57	3	98	0	5	-0.7491957	-1.421931	75.87167	
09:44:50	-6.733679	38.95383	41.064	0.2701686	-0.3876001	0.44	3	98	0	4	-2.846992	-0.867752	75.02058	
09:44:50	-6.73368	38.95383	40.892	0.2935348	8.327813	0.45	3	98	0	4	0.5117062	-0.3859708	73.98888	
09:44:50	-6.733681	38.95383	40.851	0.327011	13.19106	0.19	3	98	0	4	2.537418	-2.666234	73.27969	
09:44:50	-6.73368	38.95383	40.385	0.3591369	7.601861	0.18	3	98	0	4	2.03502	-2.234598	73.81246	
09:44:51	-6.733676	38.95384	37.074	0.3748708	1.42433	0.77	3	98	0	5	0.1032515	-1.565804	72.85121	
09:44:51	-6.733675	38.95384	35.874	0.3690656	-4.167108	0.72	3	98	0	4	2.48737	-2.966393	68.71177	
09:44:51	-6.733671	38.95385	34.644	0.3420972	-6.258637	0.64	3	98	0	5	7.071814	-2.687766	64.0323	
09:44:51	-6.733668	38.95386	31.558	0.3069423	-10.85657	0.41	3	98	0	5	7.782252	-1.467522	59.20887	
09:44:51	-6.733667	38.95386	31.087	0.2674171	1.257618	0.29	3	98	0	4	6.083208	-0.7167732	58.11924	
09:44:52	-6.733667	38.95386	30.481	0.2660681	3.305158	0.37	3	98	0	4	6.880698	-0.6922783	58.82803	
09:44:52	-6.733665	38.95386	29.344	0.271806	3.739774	0.72	3	98	0	5	7.277293	0.1429386	60.26139	
09:44:52	-6.733663	38.95387	28.002	0.2811448	3.796713	0.97	3	98	0	4	2.428555	-0.6166489	59.24368	
09:44:52	-6.733663	38.95387	28.875	0.2932589	5.823025	0.57	3	98	0	4	1.913365	-0.7450612	58.52429	
09:44:52	-6.733661	38.95387	27.166	0.3220364	7.309336	0.79	3	98	0	5	9.72215	-2.489432	59.02708	
09:44:53	-6.733659	38.95388	25.451	0.3655257	6.590609	0.63	3	98	0	4	17.89052	-2.814916	57.38516	
09:44:53	-6.733659	38.95388	23.888	0.3854969	8.629059	0.87	3	98	0	5	7.660502	-1.75227	56.75694	
09:44:53	-6.73366	38.95388	22.962	0.3925969	9.059557	0.51	3	98	0	4	-0.8330281	-0.4120095	56.50517	
09:44:53	-6.733659	38.95388	21.948	0.3989024	8.75688	0.42	3	98	0	5	-3.423809	-0.4267816	56.57185	
09:44:53	-6.733658	38.95388	20.777	0.3967867	2.848828	0.45	3	98	0	4	10.07108	-2.316875	57.53064	
09:44:54	-6.733657	38.95388	20.736	0.3999964	1.307435	1.03	3	98	0	4	16.72919	-2.48983	57.42843	
09:44:54	-6.733655	38.95388	20.329	0.4016447	-0.3861282	1.25	3	98	0	4	7.209429	-1.610881	57.11002	
09:44:54	-6.733652	38.95389	18.647	0.3987134	1.193017	0.85	3	98	0	5	-3.446484	-0.295757	56.34614	
09:44:54	-6.733649	38.9539	17.45	0.3886382	-2.724578	1.1	3	99	0	4	-3.019081	-0.2336641	56.62497	
09:44:54	-6.733648	38.9539	17.179	0.3791713	-3.24948	1.3	3	99	0	5	5.874958	-1.379437	57.65525	
09:44:55	-6.733645	38.9539	15.558	0.3660585	-5.83794	1.05	3	99	0	4	13.11411	-2.347988	58.93621	
09:44:55	-6.733647	38.9539	16.994	0.3831947	11.69917	1.36	3	99	0	4	1.529661	-2.185645	60.77782	
09:44:55	-6.733646	38.9539	16.692	0.4120771	15.78899	1.17	3	99	0	5	-4.968637	-1.935101	60.79647	
09:44:55	-6.73365	38.9539	19.262	0.4459343	13.69361	0.91	3	99	0	5	1.80008	-2.20351	61.26141	
09:44:55	-6.733649	38.9539	18.778	0.473724	13.32225	1.18	3	99	0	5	8.096201	-2.475078	61.07476	
09:44:56	-6.733646	38.9539	17.266	0.4969603	13.86768	1.09	3	99	0	5	8.157835	-2.423822	60.78933	
09:44:56	-6.733645	38.95391	16.747	0.4893265	11.75207	1.27	3	99	0	4	0.04101137	-2.184221	60.61773	
09:44:56	-6.733643	38.95391	14.866	0.4814886	12.49268	1.22	3	99	0	4	-3.176397	-2.030483	59.02938	
09:44:56	-6.733645	38.95391	17.009	0.46721	7.416209	1.65	3	99	0	5	6.817544	-2.482701	59.47791	
09:44:56	-6.733649	38.9539	20.195	0.4541788	9.85915	1.32	3	99	0	4	14.48729	-2.374582	59.14291	
09:44:57	-6.733653	38.95389	23.579	0.4645533	10.165	0.96	3	99	0	4	7.689353	-2.366088	58.74726	
09:44:57	-6.733653	38.9539	23.533	0.4726244	7.911937	0.78	3	99	0	5	-5.236625	-1.991431	59.33766	
09:44:57	-6.733652	38.9539	22.479	0.5531098	9.408635	0.72	3	99	0	5	-1.163787	-1.993844	59.52074	
09:44:57	-6.73365	38.9539	21.099	0.6035218	7.780156	1.18	3	99	0	4	8.942693	-2.288073	59.95932	
09:44:57	-6.733649	38.95391	19.795	0.6318547	12.56822	1.24	3	99	0	4	8.287443	-2.30054	59.79429	
09:44:58	-6.73365	38.95391	21.594	0.653501	11.13997	1.29	3	99	0	4	-4.362557	-1.792028	60.22335	
09:44:58	-6.733648	38.95391	20.234	0.6371052	10.08063	0.97	3	99	0	5	-0.6291184	-1.888161	60.55437	
09:44:58	-6.733648	38.95391	20.419	0.6137922	5.988943	0.95	3	99	0	5	9.59928	-2.294264	60.69006	
09:44:58	-6.73365	38.95391	22.234	0.5773432	4.67141	0.84	3	99	0	4	1.288343	-2.033811	59.93167	
09:44:58	-6.733651	38.9539	24.57	0.5455812	6.526971	0.71	3	99	0	4	0.5216253	-1.933031	60.3547	
09:44:59	-6.733653	38.9539	26.139	0.4948373	0.1676362	0.39	3	99	0	5	1.885526	-2.133213	60.60696	
09:44:59	-6.733656	38.95389	27.642	0.4570472	-1.063488	0.21	3	99	0	4	1.76346	-2.222504	60.75953	
09:44:59	-6.733658	38.95388	29.38	0.3478382	-6.431268	0.19	3	99	0	4	2.006648	-2.281202	60.74594	
09:44:59	-6.733659	38.95388	28.646	0.2410873	-10.68951	0.42	3	99	0	4	1.995338	-2.31129	60.89532	
09:44:59	-6.73366	38.95388	29.57	0.2093536	-10.71359	0.63	3	99	0	5	1.703336	-2.322862	61.00454	
09:45:00	-6.733656	38.95389	29.148	0.1839954	-10.07631	1.35	3	99	0	4	-0.1421551	-2.272026	61.17844	
09:45:00	-6.73365	38.9539	28.82	0.1589425	-10.31732	2.02	3	99	0	4	-0.792816	-2.349109	61.40474	
09:45:00	-6.733643	38.95391	27.777	0.137585	-10.29685	2.6	3	99	0	4	-3.768951	-2.416446	61.8628	
09:45:00	-6.733641	38.95392	30.032	0.1453622	-9.262658	2.73	3	99	0	5	0.01510024	-2.498209	62.20248	
09:45:00	-6.733638	38.95392	32.317	0.1493945	-10.87852	2.42	3	99	0	4	3.511605	-2.612493	62.39761	
09:45:01	-6.733635	38.95392	34.365	0.1397887	-7.932678	2.8	3	99	0	4	8.602922	-2.655195	62.85366	
09:45:01	-6.733634	38.95392	34.8	0.1109954	-8.056151	1.87	3	99	0	5	9.85579	-2.595237	62.51606	
09:45:01	-6.733633	38.95392	34.63	0.1065624	-8.173515	1.12	3	99	0	4	0.3951833	-2.409427	62.34227	
09:45:01	-6.733631	38.95392	34.312	0.1186059	-6.061522	1.52	3	99	0	4	-4.496265	-2.400325	61.7722	
09:45:01	-6.733632	38.95392	34.125	0.1227472	-7.656454	0.34	3	99	0	4	-4.514885	-2.455423	62.09793	
09:45:02	-6.73363	38.95393	31.72	0.1166826	-9.793526	0.87	3	99	0	4	3.262422	-2.61709	62.37295	
09:45:02	-6.733628	38.95394	28.838	0.09866376	-6.159728	0.5	3	99	0	5	11.35787	-2.580048	63.01498	
09:45:02	-6.733627	38.95395	25.606	0.07848809	-6.235871	0.48	3	99	0	5	13.51618	-2.508721	62.65102	
09:45:02	-6.73363	38.95394	25.591	0.05193779	-6.248711	0.68	3	99	0	5	1.87777	-2.467536	62.51147	
09:45:02	-6.733632	38.95393	28.089	0.01714277	-4.668397	0.11	3	99	0	5	-5.187968	-2.397454	62.30721	
09:45:03	-6.733632	38.95393	29.854	0.0006566716	-7.095484	0.68	3	99	0	4	-7.263429	-2.766542	62.42239	
09:45:03	-6.733634	38.95393	30.182	-0.002816423	-8.883087	0.32	3	99	0	4	2.121981	-2.373829	62.86908	
09:45:03	-6.733634	38.95393	30.334	-0.01085511	-5.850739	0.45	3	99	0	5	15.43684	-2.548104	62.23223	
09:45:03	-6.733634	38.95393	29.759	-0.01189845	-5.112381	0.63	3	99	0	4	18.01545	-2.685951	61.91322	
09:45:03	-6.733633	38.95393	29.419	-0.01570152	-2.228724	0.61	3	99	0	4	5.092807	-3.434171	61.89809	
09:45:04	-6.733632	38.95392	31.268	-0.02247945	-3.485785	1.43	3	99	0	4	-7.705054	-2.531548	63.16016	
09:45:04	-6.733632	38.95391	33.335	0.02055845	-0.2733814	1.84	3	99	0	5	-10.01926	-3.855917	63.64288	
09:45:04	-6.733636	38.95391	35.02	0.0911277	-2.851253	0.62	3	99	0	4	3.324486	-2.017182	64.57465	
09:45:04	-6.733637	38.95391	35.544	0.1508601	14.66121	0.72	3	99	0	5	5.590701	-1.966359	64.79489	
09:45:04	-6.733638	38.9539	36.022	0.2245862	14.54222	0.53	3	99	0	4	6.75281	-2.084839	64.70446	
09:45:05	-6.733636	38.95391	35.93	0.2701223	15.31524	0.91	3	99	0	4	-1.278308	-2.669259	63.99788	
09:45:05	-6.733638	38.9539	37.729	0.284158	15.94668	0.53	3	99	0	4	-10.76866	-3.574686	63.17067	
09:45:05	-6.733638	38.9539	40.63	0.3069828	13.98519	0.97	3	99	0	4	-9.758573	-4.793039	64.13982	
09:45:05	-6.73364	38.95388	43.719	0.3332225	6.763583	0.95	3	99	0	4	2.168165	-1.846234	64.35506	
09:45:05	-6.73364	38.95388	43.719	0.3529573	23.49489	0.95	3	99	0	5	10.82721	-1.968431	65.10585	
09:45:06	-6.73364	38.95388	43.719	0.3699302	23.0091	0.95	3	99	0	5	20.19973	-2.523448	64.88902	
09:45:06	-6.73364	38.95388	43.719	0.3855823	26.49943	0.95	3	99	0	4	14.72659	-3.053648	64.21232	
09:45:06	-6.73364	38.95388	43.719	0.4079826	23.65445	0.95	3	99	0	5	1.117316	-2.246137	66.20021	
09:45:06	-6.73364	38.95388	43.719	0.4181013	22.99335	0.95	3	99	0	4	-5.17915	-3.388528	64.38898	
09:45:06	-6.73364	38.95388	43.719	0.4047627	22.06504	0.95	3	99	0	4	-5.321259	-4.586362	64.85867	
09:45:07	-6.73364	38.95388	43.719	0.3823681	11.27996	0.95	3	99	0	4	4.61707	-1.619105	64.78197	
09:45:07	-6.73364	38.95388	43.719	0.3627096	14.76868	0.95	3	99	0	5	10.53725	-2.532056	65.24242	
09:45:07	-6.73364	38.95388	43.719	0.3544655	13.73901	0.95	3	99	0	5	11.99785	-2.595037	65.2608	
09:45:07	-6.73364	38.95388	43.719	0.3741142	12.94074	0.95	3	99	0	4	0.3833026	-3.038658	65.97104	
09:45:07	-6.73364	38.95388	43.719	0.3890159	16.62559	0.95	3	99	0	5	-8.690502	-5.207842	64.71886	
09:45:08	-6.73364	38.95388	43.719	0.4430769	16.36786	0.95	3	99	0	5	-3.04037	-5.405127	64.45104	
09:45:08	-6.73364	38.95388	43.719	0.476435	9.118918	0.95	3	99	0	5	5.065006	-2.597216	64.29861	
09:45:08	-6.73364	38.95388	43.719	0.527738	14.00062	0.95	3	99	0	5	9.103402	-1.913385	66.28853	
09:45:08	-6.73364	38.95388	43.719	0.5720803	17.54485	0.95	3	99	0	4	6.700585	-3.979361	66.94966	
09:45:08	-6.73364	38.95388	43.719	0.5697169	15.94629	0.95	3	99	0	5	-0.3778382	-5.932526	66.56828	
09:45:09	-6.73364	38.95388	43.719	0.5634852	13.73872	0.95	3	99	0	5	-7.333399	-5.33806	63.40851	
09:45:09	-6.73364	38.95388	43.719	0.5563659	10.09155	0.95	3	99	0	5	-4.370049	-4.813126	63.66611	
09:45:09	-6.73364	38.95388	43.719	0.5387505	0.1998666	0.95	3	99	0	4	7.977413	-2.152814	63.74826	
09:45:09	-6.73364	38.95388	43.719	0.4990903	10.56362	0.95	3	99	0	4	15.48826	-2.078731	63.59768	
09:45:10	-6.73364	38.95388	43.719	0.4700712	7.827051	0.95	3	98	0	4	3.283336	-1.965733	64.35496	
09:45:10	-6.73364	38.95388	43.719	0.3030716	-1.744792	0.95	3	98	0	4	-2.610935	-2.4604	62.92778	
09:45:10	-6.73364	38.95388	43.719	0.229049	-3.959727	0.95	3	98	0	4	-1.010338	-3.12384	63.36782	
09:45:10	-6.73364	38.95388	43.719	0.1481936	-14.32765	0.95	3	98	0	5	4.819845	-2.141513	63.64958	
09:45:10	-6.73364	38.95388	43.719	0.07923289	-15.36673	0.95	3	98	0	4	11.67442	-1.984373	63.6255	
09:45:11	-6.73364	38.95388	43.719	0.02277159	-16.52601	0.95	3	98	0	5	9.146165	-1.97701	63.36049	
09:45:11	-6.73364	38.95388	43.719	-0.001322139	-17.52143	0.95	3	98	0	5	-1.024	-2.511098	62.26473	
09:45:11	-6.73364	38.95388	43.719	-0.001167714	-12.44992	0.95	3	98	0	4	-5.65099	-2.789125	59.94987	
09:45:11	-6.73364	38.95388	43.719	-0.0009539986	-18.88128	0.95	3	98	0	4	4.243447	-1.958782	60.46044	
09:45:11	-6.73364	38.95388	43.719	-0.00315387	-13.29875	0.95	3	98	0	5	14.99393	-2.036932	60.77941	
09:45:12	-6.73364	38.95388	43.719	0.02266216	-10.19594	0.95	3	98	0	4	14.46405	-1.848144	60.27003	
09:45:12	-6.733644	38.95387	47.64	0.0619333	-7.217937	0.7	3	98	0	5	-1.918864	-1.698199	60.86037	
09:45:12	-6.733605	38.95383	61.967	0.08540677	-13.43969	0.84	3	98	0	4	-4.670728	-1.698224	61.09122	
09:45:12	-6.733627	38.9538	64.192	0.09516178	-14.23772	0.85	3	98	0	4	3.488431	-1.766047	61.48901	
09:45:12	-6.733638	38.95379	67.592	0.1129121	-8.670557	1.5	3	98	0	4	11.59186	-1.846448	62.31567	
09:45:13	-6.733646	38.95377	72.401	0.1513808	-5.678349	2.09	3	98	0	4	13.46041	-1.780298	62.54344	
09:45:13	-6.73365	38.95377	72.467	0.189855	-2.214486	0.52	3	98	0	5	3.214881	-1.804298	62.68021	
09:45:13	-6.733656	38.95377	75.095	0.2333935	3.287266	0.95	3	98	0	4	-1.265076	-2.448789	61.68931	
09:45:13	-6.733658	38.95376	76.628	0.2697117	4.821046	0.5	3	98	0	4	-2.248835	-2.675659	61.85251	
09:45:13	-6.733665	38.95375	80.721	0.2955889	3.625493	0.72	3	98	0	4	4.30057	-1.658902	62.73924	
09:45:14	-6.733673	38.95375	81.211	0.2946224	2.693341	0.57	3	98	0	4	12.43981	-1.786908	63.46442	
09:45:14	-6.733677	38.95374	83.211	0.2861984	2.565173	0.59	3	98	0	5	15.929	-1.679276	63.23916	
09:45:14	-6.733672	38.95376	79.749	0.2888703	3.637462	0.55	3	98	0	5	6.376258	-1.668336	63.08334	
09:45:14	-6.733674	38.95376	81.266	0.3028858	2.071135	0.5	3	98	0	5	-2.864032	-3.218477	62.47462	
09:45:15	-6.733669	38.95377	78.814	0.3287645	6.712663	0.19	3	98	0	4	-5.793499	-4.597491	62.72965	
09:45:15	-6.733665	38.95378	75.856	0.3869872	0.2017684	0.14	3	98	0	5	10.28357	-1.768667	64.13044	
09:45:15	-6.73367	38.95377	79.828	0.4325758	7.913479	0.36	3	98	0	4	18.43876	-1.777529	63.8936	
09:45:15	-6.733667	38.95377	82.554	0.4694689	9.386064	0.22	3	98	0	4	4.146135	-1.548025	62.6911	
09:45:16	-6.733669	38.95376	84.238	0.4104761	5.749259	0.78	3	98	0	5	-3.793426	-2.727638	61.55755	
09:45:16	-6.733677	38.95374	90.268	0.3928007	6.36153	1.01	3	98	0	2	-5.12311	-3.801427	62.12471	
09:45:16	-6.733677	38.95374	89.969	0.3735921	1.142756	1.12	3	98	0	5	4.349716	-1.946449	63.32464	
09:45:16	-6.73368	38.95374	91.031	0.3409521	3.781564	1.04	3	98	0	5	15.63761	-1.725533	63.77776	
09:45:17	-6.733683	38.95373	93.068	0.3252011	4.412848	0.7	3	98	0	5	18.3371	-1.715165	63.01069	
09:45:17	-6.733685	38.95372	96.098	0.2709788	2.335152	1.33	3	98	0	4	3.168009	-1.694176	62.70923	
09:45:17	-6.733685	38.9537	99.15	0.2220365	1.781714	1.75	3	98	0	4	-6.801302	-4.319808	61.82766	
09:45:17	-6.733682	38.95371	98.573	0.158989	-1.187877	1.56	3	98	0	4	-9.137846	-5.561148	62.51276	
09:45:17	-6.733678	38.95372	95.15	0.0999966	-8.754452	0.77	3	98	0	4	-0.4399543	-3.54988	63.28486	
09:45:18	-6.733676	38.95372	93.291	0.05991604	-13.81426	0.75	3	98	0	4	11.44629	-2.205756	64.0531	
09:45:18	-6.73367	38.95374	88.692	0.03183078	-9.583755	0.94	3	98	0	8	20.45553	-1.949142	63.96185	
09:45:18	-6.733671	38.95374	90.314	0.0751679	-5.121685	0.38	3	98	0	5	15.12947	-1.838991	63.58028	
09:45:18	-6.733672	38.95373	92.362	0.1145419	-2.605199	0.57	3	98	0	4	1.354447	-2.187308	63.52589	
09:45:18	-6.733675	38.95372	95.631	0.1485539	2.174649	0.52	3	98	0	4	-5.73334	-4.031631	62.77429	
09:45:19	-6.733671	38.95373	92.494	0.1857596	4.218082	0.85	3	98	0	5	-5.488775	-4.705032	63.57604	
09:45:19	-6.733672	38.95373	92.055	0.1885152	-1.448089	0.79	3	98	0	5	6.051292	-1.622723	64.3806	
09:45:19	-6.733672	38.95372	92.237	0.1828182	-0.9136606	0.65	3	98	0	4	13.4938	-1.819333	64.44216	
09:45:19	-6.733672	38.95373	92.031	0.1797426	-2.018846	0.82	3	98	0	4	13.43898	-1.847341	63.83561	
