Date	Latitude(deg) 	Longitude(deg)	hamsl(m)	hafl(m)	climbrate(cm/s)	GroundSpeed(m/s)	Airspeed(m/s)	Mav_Link(%)	Rssi_Link(%)	Throttle	Roll(deg)	Pitch(deg)	Yaw(deg)
19:21:26	-6.795895	38.98529	116.815	0	0	0.32	0	100	0	0	3.288002	-15.23893	53.36845	
19:21:26	-6.795888	38.9853	115.759	0.06192588	-1.686317	0.22	3	100	0	99	2.891898	-15.18448	53.61223	
19:21:27	-6.795887	38.98531	115.88	-0.04918405	-9.196736	0.22	3	100	0	100	2.701243	-15.40615	53.81071	
19:21:27	-6.795887	38.98531	115.953	-0.1509365	-15.0282	0.22	3	100	0	100	2.557887	-15.50925	53.98067	
19:21:27	-6.795887	38.98531	115.877	-0.5832036	-37.8021	0.52	3	100	0	100	2.432455	-15.55028	54.14943	
19:21:27	-6.795888	38.98531	115.959	-0.9703979	-55.65631	0.14	3	100	0	100	2.746234	-15.42013	54.18306	
19:21:27	-6.795888	38.98531	115.938	-0.8682914	-46.74738	0.22	3	100	0	100	2.200576	-15.49619	54.45001	
19:21:28	-6.795889	38.98531	116.005	-0.769255	-39.40278	0.39	3	100	0	100	2.099669	-15.48643	54.6381	
19:21:28	-6.795889	38.98531	116.088	-0.5833601	-27.90319	0.06	3	100	0	100	2.016659	-15.38236	54.81385	
19:21:28	-6.795889	38.98531	116.07	-0.4114946	-18.07917	0.25	3	100	0	100	1.544238	-15.96609	55.09012	
19:21:28	-6.795889	38.98531	115.891	-0.2852718	-11.5222	0.26	3	100	0	100	1.243112	-15.95746	55.30837	
19:21:28	-6.795889	38.98531	116	-0.1710485	-5.922543	0.21	3	100	0	100	1.246253	-15.89959	55.45365	
19:21:29	-6.795889	38.98531	116.026	-0.1062767	-3.727155	0.57	3	100	0	100	0.959909	-16.08513	55.67535	
19:21:29	-6.795889	38.98531	116.122	-0.05063743	-2.468041	0.26	3	100	0	100	1.34861	-16.27639	55.71412	
19:21:29	-6.795889	38.98531	116.224	0.01275358	-1.004087	0.51	3	100	0	100	0.8630617	-16.00061	55.95391	
19:21:29	-6.795889	38.98531	116.035	0.06695969	0.8401304	0.25	3	100	0	100	0.1225164	-16.67723	56.31332	
19:21:29	-6.795889	38.98531	116.091	0.05571504	-1.631345	0.31	3	100	0	100	0.06355132	-16.73017	56.4457	
19:21:30	-6.795889	38.98531	116.109	0.04269143	-3.504781	0.12	3	100	0	100	0.3689408	-16.77209	56.48373	
19:21:30	-6.795889	38.98531	116.164	0.04033465	-5.065917	0.26	3	100	0	100	0.3244891	-16.65899	56.5956	
19:21:30	-6.795888	38.98531	116.221	0.03629139	-6.02639	0.22	3	100	0	100	-0.1030104	-16.67393	56.83449	
19:21:30	-6.795887	38.98531	116.184	0.01041343	-8.194266	0.65	3	100	0	100	-0.2344413	-16.62453	57.00338	
19:21:30	-6.795887	38.98531	116.089	-0.01401329	-9.898262	0.09	3	100	0	100	-0.6410066	-16.45204	57.26411	
19:21:31	-6.795888	38.98531	116.166	-0.03059329	-11.21979	0.58	3	100	0	100	-0.01222067	-16.44055	57.24333	
19:21:31	-6.795888	38.98531	116.166	-0.04681443	-12.6365	0.16	3	100	0	100	0.4955989	-16.71411	57.20662	
19:21:31	-6.795888	38.98531	115.958	-0.07265691	-14.11063	0.16	3	100	0	100	0.2234686	-16.45877	57.35744	
19:21:31	-6.795888	38.98531	115.958	-0.1052551	-15.6136	0.38	3	100	0	100	0.08286414	-16.36856	57.51409	
19:21:31	-6.795889	38.98531	115.84	-0.1290566	-17.11169	0.39	3	100	0	100	-0.5382282	-16.04987	57.80472	
19:21:32	-6.795889	38.98531	115.84	-0.1498886	-18.41288	0.39	3	100	0	100	-0.6931859	-16.0521	58.01955	
19:21:32	-6.795888	38.98531	115.997	-0.1767596	-19.42403	0.64	3	100	0	100	-0.7978625	-16.0757	58.20774	
19:21:32	-6.795888	38.98531	115.997	-0.2011685	-20.42598	0.64	3	100	0	100	-0.3128559	-16.74228	57.49332	
19:21:32	0	0	0	-0.2666329	-57.25423	0	3	100	0	100	1.035904	-18.71387	55.47613	
19:21:32	47.43857	-122.3112	58.416	0.9251969	-32.37332	17.97	3	100	0	100	1.517734	-21.11258	53.83192	
19:21:33	47.43857	-122.3112	58.416	12.90016	540.9366	17.97	18.00589	100	0	100	1.437182	-23.34362	52.61611	
19:21:33	47.43857	-122.3112	58.416	21.78016	915.8055	17.97	18.00589	100	0	100	2.462444	-24.58688	51.11533	
19:21:33	47.43857	-122.3112	58.416	31.44022	1265.771	17.97	18.00589	100	0	100	3.556226	-25.74695	49.46177	
19:21:33	47.43857	-122.3112	58.416	38.28062	1468.874	17.97	18.00589	100	0	100	4.652468	-26.81164	47.81895	
19:21:33	47.43857	-122.3112	58.416	44.83907	1620.375	17.97	18.00589	100	0	100	5.756366	-27.80015	46.159	
19:21:34	47.43857	-122.3112	58.416	50.44328	1704.912	17.97	18.00589	100	0	28	6.833261	-28.7244	44.53682	
19:21:34	47.43857	-122.3112	58.416	55.48497	1731.84	17.97	18.00589	100	0	51	7.866856	-29.62104	43.00922	
19:21:34	47.43857	-122.3112	58.416	59.222	1706.265	17.97	18.00589	100	0	43	7.980937	-30.71521	43.30793	
19:21:34	47.43857	-122.3112	58.416	62.17783	1641.672	17.97	18.00589	100	0	35	7.958579	-31.82866	43.86071	
19:21:34	47.43857	-122.3112	58.416	64.42477	1547.436	17.97	18.00589	100	0	32	7.944073	-32.93131	44.38222	
19:21:35	47.43857	-122.3112	58.416	66.07444	1427.634	17.97	18.00589	100	0	31	7.772501	-34.0108	45.1679	
19:21:35	47.43857	-122.3112	58.416	67.07538	1306.453	17.97	18.00589	100	0	33	7.592472	-35.02786	45.94442	
19:21:35	47.43857	-122.3112	58.416	67.7519	1157.614	17.97	18.00589	100	0	37	7.389762	-35.99849	46.74098	
19:21:35	47.43857	-122.3112	58.416	68.02462	985.9297	17.97	18.00589	100	0	42	7.183897	-36.94616	47.54733	
19:21:35	47.43857	-122.3112	58.416	67.94324	842.5951	17.97	18.00589	100	0	46	6.987138	-37.85419	48.33074	
19:21:36	47.43857	-122.3112	58.416	67.53574	666.1204	17.97	18.00589	100	0	54	6.802916	-38.72437	49.08685	
19:21:36	47.43857	-122.3112	58.416	66.91935	506.921	17.97	17.33029	100	0	63	6.610415	-39.58173	49.85776	
19:21:36	47.43857	-122.3112	58.416	66.23166	372.0047	17.97	17.33029	100	0	71	7.078152	-40.32172	49.60423	
19:21:36	47.43857	-122.3112	58.416	65.33635	227.3154	17.97	17.33029	100	0	81	8.486093	-40.88667	47.88963	
19:21:36	47.43857	-122.3112	58.416	64.2312	76.21761	17.97	17.33029	100	0	90	9.841662	-41.41954	46.24244	
19:21:37	47.43857	-122.3112	58.416	63.17868	-49.7035	17.97	17.33029	100	0	100	11.18081	-41.91841	44.59596	
19:21:37	47.43857	-122.3112	58.416	62.182	-156.9026	17.97	17.33029	100	0	100	12.40399	-42.39225	43.09845	
19:21:37	47.43857	-122.3112	58.416	60.97414	-274.6576	17.97	17.33029	100	0	100	12.39495	-43.14255	43.39343	
19:21:37	47.43857	-122.3112	58.416	59.9032	-369.5825	17.97	17.33029	100	0	100	12.03488	-43.94301	44.18375	
19:21:37	47.43857	-122.3112	58.416	58.87394	-453.3757	17.97	17.33029	100	0	100	11.66734	-44.71453	44.98489	
19:21:38	47.43857	-122.3112	58.416	57.98029	-520.6607	17.97	17.33029	100	0	100	11.32397	-45.46041	45.75584	
19:21:38	47.43857	-122.3112	58.416	56.93682	-592.9689	17.97	17.33029	100	0	100	11.00131	-46.18001	46.5058	
19:21:38	47.43857	-122.3112	58.416	56.05841	-648.6614	17.97	17.33029	100	0	100	10.72779	-46.88864	47.18814	
19:21:38	47.43857	-122.3112	58.416	55.24736	-695.6609	17.97	17.33029	100	0	100	10.20474	-47.39955	48.15959	
19:21:38	47.43857	-122.3112	58.416	54.50124	-734.6469	17.97	17.33029	100	0	100	9.679687	-47.88405	49.14082	
19:21:39	47.43857	-122.3112	58.416	53.83338	-765.658	17.97	17.33029	100	0	100	9.162978	-48.3413	50.11712	
19:21:39	47.43857	-122.3112	58.416	53.30626	-787.0744	17.97	17.33029	100	0	100	8.656798	-48.78059	51.08986	
19:21:39	47.43857	-122.3112	58.416	52.72834	-806.8702	17.97	17.33029	100	0	100	9.121274	-49.07508	50.78543	
19:21:39	47.43857	-122.3112	58.416	52.27448	-819.1535	17.97	17.33029	100	0	100	10.43831	-49.23605	49.35053	
19:21:39	47.43857	-122.3112	58.416	51.88808	-826.7188	17.97	17.33029	100	0	100	11.7124	-49.37696	47.94788	
19:21:40	47.43857	-122.3112	58.416	51.59279	-829.9949	17.97	17.33029	100	0	100	12.93404	-49.50103	46.58657	
19:21:40	47.43857	-122.3112	58.416	51.29207	-830.2701	17.97	16.68847	100	0	100	14.12549	-49.60469	45.23336	
19:21:40	47.43857	-122.3112	58.416	51.09661	-827.9397	17.97	16.68847	100	0	100	15.25791	-49.69445	43.92837	
19:21:40	47.43857	-122.3112	58.416	50.92434	-822.9743	17.97	16.68847	100	0	100	16.16347	-49.81817	42.89491	
19:21:40	47.43857	-122.3112	58.416	50.78276	-815.142	17.97	16.68847	100	0	100	15.52229	-50.30572	43.86572	
19:21:41	47.43857	-122.3112	58.416	50.7019	-807.0991	17.97	16.68847	100	0	100	14.88976	-50.7686	44.82533	
19:21:41	47.43857	-122.3112	58.416	50.64521	-796.8928	17.97	16.68847	100	0	100	14.25835	-51.21509	45.79834	
19:21:41	47.43857	-122.3112	58.416	50.61912	-785.7632	17.97	16.68847	100	0	100	13.62939	-51.64454	46.78216	
19:21:41	47.43857	-122.3112	58.416	50.619	-774.0362	17.97	16.68847	100	0	100	13.01227	-52.05289	47.7624	
19:21:41	47.43857	-122.3112	58.416	50.64429	-760.6983	17.97	16.68847	100	0	100	12.42388	-52.44113	48.71826	
19:21:42	47.43857	-122.3112	58.416	50.68582	-748.6242	17.97	16.68847	100	0	29	11.82293	-52.81699	49.70152	
19:21:42	47.43857	-122.3112	58.416	50.74309	-736.2697	17.97	16.68847	100	0	30	11.22735	-53.18036	50.6916	
19:21:42	47.43857	-122.3112	58.416	50.81279	-724.0527	17.97	16.68847	100	0	30	10.65147	-53.52495	51.66781	
19:21:42	47.43857	-122.3112	58.416	50.89149	-712.3088	17.97	16.68847	100	0	29	11.23236	-52.81023	52.99616	
19:21:42	47.43857	-122.3112	58.416	50.97238	-709.493	17.97	16.68847	100	0	28	16.88688	-43.78806	54.67817	
19:21:43	47.43859	-122.3112	58.4	51.1171	-588.2839	17.79	16.68847	100	0	29	21.27067	-29.55985	57.33983	
19:21:43	47.43863	-122.3112	58.558	51.69501	-284.3371	17.17	16.50762	100	0	29	22.71526	-14.44241	60.95631	
19:21:43	47.43866	-122.3112	59.363	52.60799	24.70378	15.38	15.26459	100	0	29	23.5354	-1.547445	66.18705	
19:21:43	47.43869	-122.3112	60.625	54.13375	347.6863	13.03	12.90005	100	0	31	25.54393	7.80707	72.6428	
19:21:43	47.43869	-122.3112	60.625	56.24014	608.1838	13.03	10.2043	100	0	31	27.73792	13.61847	79.58644	
19:21:44	47.43873	-122.3111	64.64	58.40685	739.8166	7.95	10.11178	100	0	33	27.92976	16.28431	87.91731	
19:21:44	47.43874	-122.3111	66.373	60.53149	805.1704	6.82	6.190707	100	0	33	28.56646	16.03648	95.78541	
19:21:44	47.43874	-122.3111	66.373	62.98368	816.6204	6.82	6.455632	100	0	33	26.00339	14.02108	102.9427	
19:21:44	47.43875	-122.3111	67.583	64.90826	797.8528	6.37	6.455632	100	0	33	20.88028	9.705731	109.8249	
19:21:44	47.43875	-122.3111	68.768	66.82141	737.8792	6.14	6.594242	100	0	33	15.79341	5.412096	116.9334	
19:21:45	47.43876	-122.3111	69.636	68.50878	648.6562	6.17	7.03566	100	0	33	11.29542	2.255491	124.8035	
19:21:45	47.43876	-122.3111	70.144	69.7893	567.4515	6.28	7.366932	100	0	33	7.541952	0.3229836	133.6559	
19:21:45	47.43876	-122.311	70.512	70.75336	501.493	6.5	7.574937	100	0	34	4.839526	-0.6828775	143.3804	
19:21:45	47.43876	-122.311	70.486	71.62085	434.7836	6.71	8.089035	100	0	33	3.395223	-1.192573	154.1357	
19:21:45	47.43876	-122.311	70.263	72.17567	381.4139	6.98	8.294644	100	0	33	3.123663	-1.393493	165.4982	
19:21:46	47.43876	-122.311	70.263	72.48812	340.6062	6.98	8.767838	100	0	33	2.281061	-1.050854	177.5647	
19:21:46	47.43876	-122.311	69.378	72.67609	296.7036	7.71	8.528433	100	0	34	-1.934739	1.363775	-169.8653	
19:21:46	47.43875	-122.3109	68.377	72.66396	273.005	8.47	9.295823	100	0	34	-8.492067	5.410589	-157.2974	
19:21:46	47.43874	-122.3109	67.469	72.53768	293.2216	9.27	10.11752	100	0	33	-14.95988	10.00464	-146.811	
19:21:46	47.43873	-122.3109	66.619	72.34772	334.6562	10.11	10.88414	100	0	33	-21.1111	13.86758	-139.2715	
19:21:47	47.43873	-122.3109	66.619	72.08817	360.1082	10.11	11.84386	100	0	33	-26.53527	16.07037	-134.6164	
19:21:47	47.43871	-122.3109	65.761	71.80711	360.0665	10.96	11.84386	100	0	33	-26.48665	14.53013	-133.9952	
19:21:47	47.43869	-122.3108	64.618	71.32544	324.9514	12.04	12.51824	100	0	33	-21.99359	11.15265	-134.7595	
19:21:47	47.43867	-122.3108	63.85	70.79184	258.4215	12.67	13.64282	100	0	34	-16.68526	8.63938	-135.7717	
19:21:48	47.43865	-122.3108	62.952	70.05435	175.035	13.28	14.28006	100	0	33	-11.05592	8.287975	-135.6794	
19:21:48	47.43863	-122.3108	61.883	69.09031	100.6734	13.92	14.9079	100	0	33	-8.569958	8.817878	-133.972	
19:21:48	47.43861	-122.3108	60.89	67.94656	40.47762	14.48	15.5579	100	0	54	-6.911831	9.412537	-131.102	
19:21:48	47.43857	-122.3107	59.017	66.89793	-2.96945	15.5	16.13092	100	0	60	-4.774608	9.581816	-128.5021	
19:21:48	47.43855	-122.3107	57.749	65.66502	-48.24324	16.21	17.17332	100	0	60	-3.514543	8.946457	-126.9064	
19:21:49	47.43852	-122.3107	56.391	64.13025	-101.3194	17.03	17.89168	100	0	60	-2.939456	8.657368	-126.2601	
19:21:49	47.43849	-122.3107	54.961	62.84347	-138.2601	17.91	18.712	100	0	60	-3.050487	8.726698	-126.07	
19:21:49	47.43849	-122.3107	54.961	61.21201	-172.5742	17.91	19.59628	100	0	70	-3.492696	9.334914	-125.8698	
19:21:49	47.43845	-122.3107	53.337	59.88853	-187.2417	18.91	19.59628	100	0	96	-3.673172	10.11213	-125.4363	
19:21:49	47.43842	-122.3107	51.63	58.24197	-193.5008	19.91	20.5838	100	0	99	-3.709254	10.74164	-125.0924	
19:21:50	47.43838	-122.3107	49.926	56.72411	-189.7715	20.94	21.57835	100	0	99	-3.806473	11.20024	-125.0155	
19:21:50	47.43834	-122.3107	48.076	55.39319	-179.6181	22.23	22.59897	100	0	99	-3.84603	11.55412	-124.9372	
19:21:50	47.43827	-122.3107	45.517	53.95446	-159.5302	24.23	23.86904	100	0	98	-3.795183	11.73084	-124.8605	
19:21:50	47.43823	-122.3107	43.72	52.32497	-166.9825	25.52	25.83725	100	0	99	-3.643797	11.51641	-124.8558	
19:21:50	47.43818	-122.3107	42.068	50.80225	-182.2563	26.59	27.10949	100	0	99	-3.208155	11.43171	-124.8874	
19:21:51	47.43813	-122.3107	40.291	48.92765	-214.4951	27.59	28.15679	100	0	99	-2.629645	11.14796	-124.7138	
19:21:51	47.43806	-122.3107	37.571	47.3656	-246.9218	28.89	29.13736	100	0	99	-1.909705	10.64639	-124.3673	
19:21:51	47.438	-122.3107	35.619	45.6566	-290.8533	29.64	30.40642	100	0	99	-1.164622	9.688449	-123.3288	
19:21:51	47.43795	-122.3107	33.638	43.52964	-357.7497	30.32	31.13493	100	0	99	-0.225401	9.03303	-119.7257	
19:21:51	47.43795	-122.3107	33.638	41.19868	-424.887	30.32	31.79525	100	0	99	0.3253125	8.513995	-116.297	
19:21:52	47.4379	-122.3107	31.717	39.27095	-474.6281	30.91	31.79525	100	0	99	0.6131642	8.030083	-112.9129	
19:21:52	47.43784	-122.3108	29.606	36.9222	-533.1237	31.5	32.35772	100	0	99	0.8129384	7.407214	-109.5271	
19:21:52	47.4378	-122.3108	27.634	34.58157	-586.0221	32.02	32.92678	100	0	99	0.7646232	6.79175	-106.6066	
19:21:52	47.43774	-122.3108	25.386	32.28565	-634.4042	32.54	33.42148	100	0	99	0.613602	6.26975	-103.6772	
19:21:52	47.43768	-122.3108	23.124	29.95752	-675.0627	33.02	33.91335	100	0	99	0.5355732	5.778808	-100.8473	
19:21:53	47.43762	-122.3109	20.67	27.52547	-710.7487	33.54	34.3732	100	0	99	0.4862335	5.263628	-98.2597	
19:21:53	47.43756	-122.3109	18.463	24.83566	-742.3963	33.96	34.14445	100	0	99	0.4446462	4.819203	-95.87808	
19:21:53	47.4375	-122.311	16.067	22.39451	-763.968	34.4	34.53492	100	0	99	0.3181035	4.525605	-93.64832	
19:21:53	47.43745	-122.311	13.85	20.04521	-773.616	34.78	34.94126	100	0	99	0.07733344	4.201938	-93.97347	
19:21:53	47.43737	-122.311	10.755	17.75054	-787.8725	35.31	35.2975	100	0	99	-0.118237	4.148213	-94.54218	
19:21:54	47.43731	-122.3111	8.42	15.19884	-751.1596	35.65	35.77866	100	0	99	0.333064	10.02043	-95.08934	
19:21:54	47.43726	-122.3111	6.411	12.96951	-444.2614	36.4	36.08311	100	0	99	-1.069135	17.82774	-95.56989	
19:21:54	47.4372	-122.3112	5.188	11.74668	2.785069	37.19	36.78196	100	0	99	-1.690201	22.08248	-96.10606	
19:21:54	47.43715	-122.3113	5.034	11.06185	299.6726	37.01	37.01091	100	0	99	-0.2083432	20.19721	-94.52868	
19:21:54	47.43709	-122.3113	5.611	10.50115	265.9132	36.54	36.7071	100	0	99	0.1006009	17.09928	-92.73559	
19:21:55	47.43704	-122.3114	6.128	9.88671	99.59893	36.22	36.17548	100	0	99	0.1319029	14.91168	-91.21987	
19:21:55	47.43704	-122.3114	6.128	9.035655	-54.38874	36.22	35.83343	100	0	99	0.51927	14.04847	-90.01096	
19:21:55	47.43699	-122.3115	6.404	8.402552	-107.6637	35.95	35.83343	100	0	98	0.7302718	14.06814	-88.90398	
19:21:55	47.43693	-122.3115	6.499	7.824502	-109.1428	35.76	35.54509	100	0	99	0.7736142	14.27477	-87.97337	
19:21:55	47.43689	-122.3116	6.566	7.397052	-76.82323	35.6	35.32322	100	0	99	0.894548	14.2083	-87.06465	
19:21:56	47.43681	-122.3117	6.85	7.111312	-34.86848	35.33	35.12414	100	0	99	0.9752631	13.95783	-86.10912	
19:21:56	47.43677	-122.3118	7.15	7.025777	4.641457	35.16	34.79094	100	0	99	0.97337	13.80307	-85.284	
19:21:56	47.43673	-122.3118	7.611	7.070914	50.20979	34.94	34.58432	100	0	99	1.009821	13.97255	-84.67439	
19:21:56	47.43668	-122.3119	8.139	7.279253	109.4918	34.69	34.32337	100	0	99	1.156138	14.12361	-84.28463	
19:21:56	47.43663	-122.312	8.818	7.621379	168.4234	34.42	34.04031	100	0	99	1.047889	14.11021	-84.88664	
19:21:57	47.43659	-122.3121	9.559	8.096062	217.2679	34.13	33.72058	100	0	99	1.039035	14.02827	-84.54733	
19:21:57	47.43655	-122.3121	10.378	8.733177	263.5635	33.84	33.39794	100	0	99	1.246599	13.93344	-84.01979	
19:21:57	47.43655	-122.3121	10.378	9.415928	304.4083	33.84	33.07629	100	0	99	1.183183	13.92542	-83.82507	
19:21:57	47.43652	-122.3122	11.257	10.18524	345.431	33.57	33.07629	100	0	99	0.9952931	13.81703	-83.60049	
19:21:57	47.43646	-122.3123	12.736	11.02431	380.7969	33.15	32.77534	100	0	99	1.073821	13.47061	-83.08752	
19:21:58	47.43643	-122.3124	13.658	11.97731	405.7032	32.9	32.30701	100	0	98	1.325905	13.10533	-82.88293	
19:21:58	47.43639	-122.3124	14.727	12.88264	424.3147	32.65	32.02915	100	0	99	1.09298	12.68083	-82.92441	
19:21:58	47.43636	-122.3125	15.819	13.89151	437.7405	32.4	31.75064	100	0	99	0.8528275	11.93283	-82.8838	
19:21:58	47.43633	-122.3126	16.863	15.0883	437.3357	32.19	31.47382	100	0	99	0.7877576	10.85619	-82.74992	
19:21:58	47.43629	-122.3127	17.988	16.11874	417.1812	32.04	31.24326	100	0	99	0.747337	9.837173	-82.75423	
19:21:59	47.43625	-122.3128	19.377	16.98675	397.5449	31.86	31.06675	100	0	99	0.3479271	9.202545	-82.97735	
19:21:59	47.43622	-122.3129	20.259	18.03179	387.6581	31.78	30.85335	100	0	99	-0.7761983	8.908267	-83.15943	
19:21:59	47.43622	-122.3129	20.259	18.92144	400.3035	31.78	30.75598	100	0	99	-1.83424	8.980205	-83.09478	
19:21:59	47.43619	-122.3129	21.024	19.89321	428.4161	31.71	30.75598	100	0	100	-2.452229	9.103987	-83.52737	
19:21:59	47.43619	-122.3129	21.024	21.02746	466.0428	31.71	30.66232	100	0	99	-2.962986	9.23632	-83.62851	
19:22:00	47.43615	-122.313	22.182	22.11742	495.696	31.56	30.66232	100	0	99	-2.77869	9.287506	-83.63625	
19:22:00	47.43612	-122.3131	23.113	23.1091	518.8352	31.45	30.48707	100	0	99	-2.329854	9.100362	-84.01865	
19:22:00	47.43609	-122.3132	24.022	24.25684	535.6458	31.3	30.35854	100	0	98	-2.139249	8.61493	-84.41657	
19:22:00	47.43604	-122.3133	26.008	25.2743	533.9616	31.05	30.19966	100	0	98	-1.938356	7.917585	-84.65193	
19:22:00	47.436	-122.3135	27.455	26.15706	521.1362	30.92	29.91262	100	0	99	-1.916507	7.2092	-84.98876	
19:22:01	47.43598	-122.3135	28.116	27.20613	503.4774	30.88	29.76034	100	0	99	-2.234806	6.333497	-85.31626	
19:22:01	47.43595	-122.3136	29.065	28.1057	485.9028	30.83	29.70298	100	0	99	-2.413932	4.766833	-85.67015	
19:22:01	47.43595	-122.3136	29.065	28.98778	412.08	30.83	29.63752	100	0	99	-1.476697	2.833424	-86.00478	
19:22:01	47.43592	-122.3137	30.095	29.65485	327.5194	30.87	29.63752	100	0	99	-0.7491856	1.424374	-86.26041	
19:22:01	47.43589	-122.3138	30.726	30.18155	262.4388	30.96	29.65775	100	0	100	-0.2018888	0.7510626	-86.65503	
19:22:02	47.43587	-122.3139	31.102	30.68054	242.6533	31.06	29.74128	100	0	97	-0.9272182	0.2354712	-86.97339	
19:22:02	47.43584	-122.3139	31.461	31.21334	226.1064	31.16	29.8244	100	0	99	-2.076512	0.04283297	-87.27171	
19:22:02	47.43582	-122.314	31.704	31.60906	225.9844	31.28	29.9136	100	0	99	-1.904756	0.1388349	-87.48687	
19:22:02	47.4358	-122.3141	31.98	32.03181	242.6859	31.39	30.0189	100	0	99	-0.8474849	0.3392965	-87.87718	
19:22:02	47.43578	-122.3142	32.339	32.44613	264.1355	31.47	30.10883	100	0	99	-0.03712695	0.432748	-88.11864	
19:22:03	47.43575	-122.3143	32.593	32.95176	282.9941	31.54	30.17011	100	0	99	0.4568126	0.4048458	-88.34901	
19:22:03	47.43573	-122.3143	32.98	33.38889	290.487	31.58	30.22618	100	0	99	0.6649132	0.3337415	-88.55773	
19:22:03	47.4357	-122.3145	33.474	33.80278	292.3316	31.66	30.25431	100	0	99	0.6268207	0.2872751	-88.69035	
19:22:03	47.4357	-122.3145	33.474	34.20736	293.5659	31.66	30.30009	100	0	99	0.7534738	0.1847158	-88.81215	
19:22:03	47.43568	-122.3145	33.862	34.62101	297.7554	31.69	30.30009	100	0	99	0.7780765	0.1836441	-88.91817	
19:22:04	47.43566	-122.3146	34.238	35.02468	301.8746	31.73	30.31618	100	0	99	0.7510082	0.2923996	-89.02894	
19:22:04	47.43564	-122.3147	34.51	35.43557	307.903	31.75	30.33618	100	0	99	0.751091	0.3773096	-89.20414	
19:22:04	47.43562	-122.3148	34.946	35.83823	312.4674	31.75	30.33583	100	0	99	0.7520994	0.4025902	-89.35367	
19:22:04	47.43561	-122.3149	35.392	36.21845	314.5355	31.76	30.32602	100	0	99	0.7769029	0.3864672	-89.54183	
19:22:04	47.43561	-122.3149	35.392	36.65316	311.3653	31.76	30.31039	100	0	99	0.7658159	0.3734628	-89.5659	
19:22:05	47.43559	-122.315	35.746	37.0038	307.811	31.77	30.31039	100	0	99	0.8272737	0.4162222	-89.5983	
19:22:05	47.43557	-122.315	36.17	37.39898	304.4347	31.77	30.3043	100	0	99	0.875239	0.4139657	-89.92369	
19:22:05	47.43555	-122.3151	36.674	37.74827	299.928	31.76	30.28635	100	0	99	0.8564799	0.3770697	-90.20813	
19:22:05	47.43554	-122.3153	37.387	38.09901	293.763	31.75	30.26869	100	0	99	0.8526981	0.3370414	-90.31185	
19:22:05	47.43552	-122.3153	37.874	38.54774	293.2975	31.75	30.23674	100	0	99	0.9594982	0.2708198	-90.60088	
19:22:06	47.4355	-122.3154	38.327	38.97397	290.0266	31.73	30.21993	100	0	99	-0.01151117	0.3234746	-91.04193	
19:22:06	47.43549	-122.3155	39.034	39.38931	290.4319	31.72	30.18671	100	0	99	0.06496096	0.4202271	-91.20425	
19:22:06	47.43547	-122.3156	39.521	39.86374	297.0973	31.71	30.14967	100	0	99	0.5584967	0.4297483	-91.447	
19:22:06	47.43546	-122.3157	39.975	40.35568	299.9338	31.69	30.12971	100	0	99	0.7488278	0.4665573	-91.71021	
19:22:06	47.43546	-122.3157	39.975	40.82754	300.5849	31.69	30.09663	100	0	99	0.7922876	0.5122603	-91.96926	
19:22:07	47.43545	-122.3158	40.449	41.26634	299.4659	31.66	30.09663	100	0	99	0.7302598	0.5624664	-92.1828	
19:22:07	47.43544	-122.3159	41.061	41.74292	299.9259	31.64	30.063	100	0	99	0.702141	0.6142896	-92.44318	
19:22:07	47.43542	-122.316	41.997	42.26781	302.2021	31.61	30.02905	100	0	99	0.7008613	0.5868026	-92.64256	
19:22:07	47.43541	-122.3161	42.549	42.81906	302.5563	31.58	29.97678	100	0	99	0.7648663	0.4961128	-92.79987	
19:22:07	47.43541	-122.3161	43.342	43.27804	298.1474	31.56	29.94491	100	0	99	0.7379056	0.4213721	-92.96178	
19:22:08	47.43539	-122.3162	44.06	43.85595	296.3019	31.54	29.90633	100	0	99	0.7831215	0.4613745	-93.06907	
19:22:08	47.43539	-122.3163	44.757	44.43872	300.0428	31.52	29.87622	100	0	99	0.738322	0.5510173	-93.27064	
19:22:08	47.43538	-122.3164	45.776	45.10737	307.0942	31.5	29.84413	100	0	99	0.6975823	0.6317393	-93.41107	
19:22:08	47.43536	-122.3165	46.477	45.76097	316.5372	31.47	29.80751	100	0	99	0.7478207	0.6154382	-93.56526	
19:22:08	47.43536	-122.3166	47.183	46.37262	320.8446	31.45	29.77436	100	0	99	0.7078228	0.5948314	-93.6907	
19:22:09	47.43536	-122.3166	47.183	47.01357	322.4477	31.45	29.74144	100	0	99	0.6800993	0.6225644	-93.83542	
19:22:09	47.43534	-122.3168	48.647	47.80499	329.9569	31.42	29.74144	100	0	99	0.651559	0.721588	-93.97695	
19:22:09	47.43534	-122.3169	49.274	48.52243	338.7103	31.4	29.6909	100	0	99	0.6132197	0.7239605	-94.05138	
19:22:09	47.43533	-122.317	50.437	49.22653	342.5429	31.37	29.65961	100	0	99	0.6218174	0.673057	-94.15338	
19:22:09	47.43532	-122.3171	51.176	49.8874	340.6077	31.35	29.6233	100	0	99	0.6833586	0.6412628	-94.26203	
19:22:10	47.43532	-122.3171	51.176	50.55746	343.4944	31.35	29.59577	100	0	99	0.7456418	0.6357918	-94.3191	
19:22:10	47.43532	-122.3172	51.837	51.2649	346.1779	31.35	29.59577	100	0	99	0.7782565	0.6337748	-94.35452	
19:22:10	47.43531	-122.3173	52.528	52.0087	346.8659	31.33	29.58084	100	0	100	0.6648601	0.641716	-94.5518	
19:22:10	47.43531	-122.3174	53.249	52.75676	350.9349	31.32	29.55847	100	0	99	0.7393704	0.6580944	-94.28643	
19:22:10	47.43531	-122.3174	53.93	53.48122	354.0149	31.3	29.533	100	0	99	0.9637861	0.7048553	-94.72815	
19:22:11	47.4353	-122.3176	54.981	54.1435	357.0785	31.27	29.5123	100	0	99	0.6819952	0.666577	-95.12238	
19:22:11	47.4353	-122.3176	54.981	54.91794	357.2121	31.27	29.46757	100	0	99	0.4994243	0.6285915	-95.09843	
19:22:11	47.4353	-122.3176	55.615	55.6224	354.9741	31.27	29.46757	100	0	99	0.5213188	0.6450998	-95.01884	
19:22:11	47.4353	-122.3177	56.28	56.28106	352.74	31.28	29.45314	100	0	99	0.5443066	0.6645555	-95.26194	
19:22:11	47.4353	-122.3178	56.99	57.00606	354.4598	31.27	29.46039	100	0	99	0.4493453	0.6735101	-95.38774	
19:22:12	47.4353	-122.3179	57.651	57.63647	355.0792	31.27	29.44574	100	0	99	0.3952803	0.6945717	-95.31623	
19:22:12	47.43529	-122.318	58.546	58.35799	353.6628	31.27	29.43308	100	0	99	0.4994428	0.7232409	-95.346	
19:22:12	47.43529	-122.3181	59.324	59.05051	354.6218	31.28	29.42938	100	0	99	0.556263	0.7417807	-95.45497	
19:22:12	47.43529	-122.3182	60.022	59.7613	356.3099	31.28	29.42941	100	0	99	0.4638529	0.691425	-95.56374	
19:22:13	47.43529	-122.3183	60.692	60.38594	353.9189	31.28	29.42069	100	0	99	0.3388272	0.6587964	-95.75951	
19:22:13	47.43529	-122.3184	61.36	61.08453	348.8008	31.29	29.41392	100	0	100	0.1451903	0.641624	-95.96206	
19:22:13	47.43529	-122.3184	61.36	61.70111	343.7329	31.29	29.41908	100	0	99	0.2114125	0.6462828	-95.61259	
19:22:13	47.43529	-122.3185	62.033	62.27666	339.1471	31.3	29.41908	100	0	101	0.5227198	0.6631207	-95.38863	
19:22:13	47.43529	-122.3186	62.676	62.8186	336.4419	31.31	29.4249	100	0	99	0.4804835	0.6651881	-95.72375	
19:22:14	47.43529	-122.3186	63.365	63.41168	333.6504	31.3	29.43209	100	0	99	0.2581543	0.6775023	-95.67133	
19:22:14	47.4353	-122.3187	64.039	64.12878	334.208	31.3	29.41838	100	0	99	0.3041618	0.6979207	-95.60652	
19:22:14	47.4353	-122.3188	64.698	64.77982	335.0648	31.32	29.41589	100	0	99	0.3247494	0.6646931	-95.68545	
19:22:14	47.4353	-122.3189	65.724	65.44786	333.833	31.32	29.42465	100	0	99	0.1485139	0.6560669	-95.69653	
19:22:14	47.4353	-122.319	66.387	66.11333	334.0426	31.33	29.42385	100	0	99	0.08833167	0.6692501	-95.72913	
19:22:15	47.4353	-122.3191	67.048	66.72698	335.4133	31.33	29.4242	100	0	99	0.1989633	0.6811683	-95.72985	
19:22:15	47.43531	-122.3192	67.711	67.47086	337.2191	31.34	29.42522	100	0	99	0.3053324	0.6933714	-95.81019	
19:22:15	47.43531	-122.3193	68.338	68.14212	337.6812	31.33	29.42676	100	0	99	0.3020687	0.7053071	-95.69685	
19:22:15	47.43531	-122.3194	68.869	68.76151	335.7972	31.34	29.41869	100	0	99	0.5988187	0.7206129	-95.64909	
19:22:15	47.43531	-122.3195	69.535	69.29141	332.0148	31.35	29.42089	100	0	99	0.6937675	0.6943766	-95.67111	
19:22:16	47.43532	-122.3196	70.485	69.91885	323.9579	31.35	29.42429	100	0	99	1.02951	0.6401445	-95.55686	
19:22:16	47.43532	-122.3196	70.485	70.3895	315.3471	31.35	29.4203	100	0	99	10.10579	0.7765498	-95.11932	
19:22:16	47.43532	-122.3197	71.026	71.04311	320.6948	31.36	29.4203	100	0	99	21.60055	1.381848	-94.31056	
19:22:16	47.43533	-122.3198	71.989	71.60248	337.7827	31.35	29.42455	100	0	99	31.29372	2.42206	-92.79478	
19:22:16	47.43533	-122.3198	72.305	72.34221	371.8121	31.34	29.40335	100	0	99	36.77493	3.213843	-90.17456	
19:22:17	47.43534	-122.3199	72.961	73.04703	399.0323	31.32	29.38429	100	0	99	39.11553	3.77965	-86.92173	
19:22:17	47.43536	-122.3201	74.118	73.81938	416.0359	31.27	29.33115	100	0	99	40.12718	4.539617	-83.46664	
19:22:17	47.43537	-122.3201	74.947	74.58882	435.0872	31.23	29.22296	100	0	99	40.47272	5.303528	-79.92864	
19:22:17	47.43539	-122.3202	75.724	75.49583	459.6411	31.16	29.13803	100	0	99	40.41318	5.755173	-76.4087	
19:22:17	47.43541	-122.3203	76.608	76.44057	472.793	31.1	29.46346	100	0	99	40.47218	6.150376	-72.94449	
19:22:18	47.43543	-122.3204	77.464	77.21339	475.4791	31.05	29.37927	100	0	99	40.61768	6.412918	-69.63673	
19:22:18	47.43546	-122.3205	78.285	78.08962	470.3322	31	29.31036	100	0	99	40.24406	6.658992	-66.51964	
19:22:18	47.43546	-122.3205	78.285	78.78567	462.841	31	29.2343	100	0	99	40.16719	6.827705	-63.38616	
19:22:18	47.43549	-122.3205	79.154	79.62463	457.6936	30.96	29.2343	100	0	99	40.36143	6.767762	-60.13867	
19:22:18	47.43553	-122.3206	79.996	80.42442	446.019	30.93	29.19085	100	0	99	40.61522	6.685304	-57.03301	
19:22:19	47.43556	-122.3207	80.763	81.26235	425.7859	30.91	29.16846	100	0	99	40.6764	6.679746	-54.00561	
19:22:19	47.4356	-122.3207	81.432	81.99004	408.8981	30.89	29.15773	100	0	99	40.57234	6.680327	-50.82397	
19:22:19	47.43563	-122.3208	82.083	82.66612	395.8323	30.89	29.22693	100	0	99	40.45788	6.70312	-47.53648	
19:22:19	47.43568	-122.3208	82.778	83.28442	383.005	30.9	29.25181	100	0	99	40.44338	6.779279	-44.3353	
19:22:19	47.43575	-122.3209	83.761	83.88571	372.4976	30.92	29.29221	100	0	99	40.68234	6.826476	-41.17854	
19:22:20	47.43579	-122.321	84.343	84.52135	363.427	30.94	29.36941	100	0	99	41.05904	6.80332	-37.91968	
19:22:20	47.43584	-122.321	84.936	85.12752	352.0324	30.95	29.5256	100	0	99	40.89733	6.77422	-34.71723	
19:22:20	47.43589	-122.3211	85.421	85.65694	341.5181	30.97	29.58697	100	0	99	40.74556	6.772578	-31.54003	
19:22:20	47.43597	-122.3211	86.097	86.25191	328.188	31.02	29.65574	100	0	99	40.51915	6.72915	-28.33794	
19:22:20	47.43603	-122.3211	86.628	86.76386	315.6641	31.05	29.7805	100	0	99	40.85582	6.685811	-25.18813	
19:22:21	47.43603	-122.3211	86.628	87.24963	301.0785	31.05	29.96469	100	0	99	40.98328	6.61903	-21.96257	
19:22:21	47.43608	-122.3211	87.084	87.64597	287.341	31.08	29.96469	100	0	99	41.22567	6.590677	-18.74352	
19:22:21	47.43614	-122.3212	87.47	88.10663	272.9764	31.12	30.05617	100	0	99	40.78076	6.607124	-15.48751	
19:22:21	47.43619	-122.3212	87.86	88.45041	261.6438	31.16	30.15412	100	0	99	40.19918	6.710917	-12.26136	
19:22:21	47.43625	-122.3212	88.299	88.84399	255.32	31.19	30.25837	100	0	99	40.22805	6.634761	-8.987285	
19:22:22	47.43631	-122.3212	88.688	89.27193	244.6039	31.23	30.25424	100	0	99	40.40311	6.458462	-5.814837	
19:22:22	47.43637	-122.3212	89.06	89.58643	229.8597	31.26	30.36902	100	0	99	40.47321	6.468143	-2.830888	
19:22:22	47.43642	-122.3212	89.463	89.94093	212.9065	31.3	30.46827	100	0	99	40.2916	6.361795	0.2975555	
19:22:22	47.43649	-122.3212	89.775	90.23502	200.4226	31.33	30.57199	100	0	99	40.24839	6.229179	3.528227	
19:22:22	47.43654	-122.3212	90.021	90.49186	187.5158	31.38	30.68245	100	0	99	40.4364	6.208654	6.75129	
19:22:23	47.43663	-122.3211	90.481	90.70081	176.8982	31.43	30.7941	100	0	99	40.17189	6.30102	9.865217	
19:22:23	47.43663	-122.3211	90.481	90.95407	170.5051	31.43	30.96067	100	0	99	39.57061	6.328162	12.92702	
19:22:23	47.43668	-122.3211	90.707	91.18621	165.027	31.46	30.96067	100	0	99	32.10803	5.522796	15.18678	
19:22:23	47.43674	-122.3211	90.947	91.40673	124.9132	31.49	31.07334	100	0	99	20.4904	4.12464	16.78574	
19:22:23	47.43679	-122.321	91.248	91.49557	59.39005	31.52	31.27259	100	0	99	9.591422	2.679905	18.16436	
19:22:24	47.43687	-122.321	91.432	91.48675	-23.44261	31.6	31.36492	100	0	98	4.30308	1.386553	19.08608	
19:22:24	47.43692	-122.3209	91.36	91.37857	-91.18172	31.69	31.49605	100	0	99	1.995177	0.3747756	19.47316	
19:22:24	47.43697	-122.3209	91.174	91.14709	-152.4598	31.79	31.59478	100	0	99	0.6965402	-0.2657616	19.67202	
19:22:24	47.43702	-122.3209	90.794	90.80318	-194.1564	31.92	31.70559	100	0	99	0.3105961	-0.4956457	20.03109	
19:22:24	47.4371	-122.3208	89.975	90.45684	-207.0469	32.17	31.83805	100	0	99	0.3437871	-0.5197944	20.2204	
19:22:25	47.43715	-122.3207	89.563	90.07265	-205.3391	32.3	32.09106	100	0	99	0.4187479	-0.5412378	20.38152	
19:22:25	47.43715	-122.3207	89.563	89.7057	-198.1283	32.3	32.23249	100	0	99	0.4738595	-0.458627	20.61822	
19:22:25	47.4372	-122.3207	89.115	89.25591	-188.1528	32.46	32.23249	100	0	99	0.4824348	-0.383703	20.66558	
19:22:25	47.43725	-122.3207	88.621	88.86559	-179.0126	32.59	32.39111	100	0	99	0.2810579	-0.3255999	20.76685	
19:22:25	47.43731	-122.3206	88.086	88.46231	-171.1693	32.72	32.52439	100	0	99	0.2850663	-0.2765383	21.21554	
19:22:26	47.43738	-122.3205	87.477	88.11817	-164.1909	32.88	32.66319	100	0	99	0.171956	-0.2564179	21.29528	
19:22:26	47.43743	-122.3205	87.006	87.67869	-158.7574	32.96	32.81915	100	0	99	0.1587487	-0.301777	21.39195	
19:22:26	47.43748	-122.3205	86.618	87.26273	-158.8002	33.04	32.90856	100	0	99	0.3487368	-0.3391614	21.71011	
19:22:26	47.43753	-122.3204	86.321	86.89151	-159.4858	33.09	32.98439	100	0	99	0.5274728	-0.3480113	21.88203	
19:22:26	47.43758	-122.3204	83.467	86.46319	-157.6003	33.14	33.04426	100	0	99	0.4073908	-0.313905	21.88642	
19:22:27	47.43764	-122.3203	85.546	85.69509	-175.1096	33.18	33.0928	100	0	99	0.2440775	-0.2583117	22.12731	
19:22:27	47.4377	-122.3203	85.182	85.30111	-172.6905	33.24	33.141	100	0	99	0.4639892	-0.1471169	22.42412	
19:22:27	47.43777	-122.3202	84.749	84.9739	-159.7684	33.28	33.19584	100	0	99	0.5515888	-0.06901198	22.47157	
19:22:27	47.43782	-122.3202	84.456	84.69513	-148.7396	33.29	33.24167	100	0	99	0.5738685	-0.09913518	22.7334	
19:22:27	47.43788	-122.3201	83.855	84.44083	-145.2897	33.31	33.26311	100	0	99	0.5377451	-0.1202015	23.16294	
19:22:28	47.43788	-122.3201	83.855	84.12771	-142.7159	33.31	33.28499	100	0	98	0.527366	-0.1253915	23.43673	
19:22:28	47.43793	-122.3201	83.961	83.84402	-141.3469	33.33	33.28499	100	0	99	0.1622388	-0.0993292	23.6395	
19:22:28	47.43801	-122.32	83.512	83.60709	-135.0963	33.33	33.30144	100	0	99	0.1038205	-0.02602689	23.88155	
19:22:28	47.43806	-122.3199	83.281	83.36668	-127.0784	33.33	33.31859	100	0	99	0.1475402	-0.01888739	24.092	
19:22:28	47.43811	-122.3199	83.153	83.13763	-122.0905	33.34	33.32648	100	0	99	0.2480636	0.01211917	24.37891	
19:22:29	47.43816	-122.3199	82.974	82.91951	-115.513	33.33	33.3345	100	0	99	0.04767448	0.05769321	24.68297	
19:22:29	47.43821	-122.3198	82.938	82.74677	-109.0402	33.33	33.32879	100	0	99	5.457389	-0.01612732	24.8928	
19:22:29	47.43829	-122.3197	82.908	82.58624	-106.6412	33.3	33.32321	100	0	99	17.46598	0.1784274	25.66704	
19:22:29	47.43834	-122.3197	82.941	82.46107	-83.40113	33.27	33.29852	100	0	99	25.26752	0.4867381	26.67629	
19:22:29	47.4384	-122.3196	83.012	82.41137	-67.3974	33.24	33.2835	100	0	99	17.29411	0.549388	28.03445	
19:22:30	47.43844	-122.3196	83.061	82.39227	-58.2409	33.24	33.27853	100	0	99	8.166356	0.8303676	29.56309	
19:22:30	47.43844	-122.3196	83.061	82.42274	-33.5894	33.24	33.29886	100	0	99	2.84503	0.9378994	30.76177	
19:22:30	47.4385	-122.3195	83.209	82.49081	-21.96242	33.21	33.29886	100	0	99	0.5479602	0.78974	30.96502	
19:22:30	47.43857	-122.3194	83.425	82.57116	-25.13902	33.14	33.28343	100	0	99	-0.07049494	0.4821073	30.96351	
19:22:30	47.43861	-122.3194	83.598	82.66341	-35.21703	33.1	33.22468	100	0	99	-0.09107826	0.2208551	31.3431	
19:22:31	47.43866	-122.3193	83.697	82.75318	-42.54005	33.09	33.18929	100	0	99	0.0405115	0.06138258	31.6379	
19:22:31	47.4387	-122.3193	83.798	82.84704	-41.47163	33.07	33.17236	100	0	99	0.1003966	-0.002559803	31.74122	
19:22:31	47.43875	-122.3192	83.846	82.92864	-34.72787	33.06	33.16037	100	0	99	0.05711747	0.02951309	31.87184	
19:22:31	47.43875	-122.3192	83.846	83.0407	-21.76119	33.06	33.14708	100	0	99	0.0259951	0.1186368	32.14045	
19:22:31	47.43875	-122.3192	83.846	83.17293	-6.52954	33.06	33.14708	100	0	99	-0.005294525	0.2093331	32.34333	
19:22:32	47.43875	-122.3192	83.846	83.29764	6.253508	33.06	33.14708	100	0	99	-0.03635238	0.2996677	32.49103	
19:22:32	47.43875	-122.3192	83.846	83.42144	17.70123	33.06	33.14708	100	0	99	-0.06741888	0.3900456	32.59884	
19:22:32	47.43882	-122.3192	84.022	83.52995	26.87065	33.06	33.14708	100	0	99	-0.0938419	0.4840162	32.67144	
19:22:32	47.43904	-122.3189	84.574	83.67345	38.72946	32.97	33.14798	100	0	99	-0.02714573	0.544698	32.83979	
19:22:32	47.43904	-122.3189	84.574	83.84299	49.40249	32.97	33.06458	100	0	99	0.3870589	0.5585361	32.9628	
19:22:33	47.43911	-122.3188	84.828	84.07703	53.60871	32.92	33.06458	100	0	99	0.2977605	0.3046944	33.15496	
19:22:33	47.43916	-122.3188	84.986	84.29262	50.97055	32.9	33.02032	100	0	99	0.2094243	0.1677952	33.43055	
19:22:33	47.43916	-122.3188	84.986	84.52168	48.3889	32.9	33.00038	100	0	99	0.1102334	0.07406633	33.56865	
19:22:33	47.43927	-122.3186	85.229	84.70082	49.24192	32.84	33.00038	100	0	99	0.1122903	0.2114893	33.69668	
19:22:33	47.43931	-122.3186	85.314	84.88801	60.85265	32.83	32.95118	100	0	99	0.1421337	0.2986947	33.98056	
19:22:34	47.43937	-122.3185	85.498	85.08599	69.96962	32.81	32.93828	100	0	99	0.1464203	0.3341526	34.22563	
19:22:34	47.43941	-122.3185	85.585	85.27596	76.03146	32.79	32.92658	100	0	99	0.1554997	0.297016	34.57188	
19:22:34	47.43941	-122.3185	85.585	85.4428	76.99812	32.79	32.90746	100	0	99	0.2646692	0.2418511	34.91625	
19:22:34	47.43941	-122.3185	85.585	85.60901	75.96144	32.79	32.90746	100	0	99	0.3947927	0.1846351	35.09944	
19:22:34	47.43941	-122.3185	85.585	85.75388	72.74942	32.79	32.90746	100	0	99	0.5246012	0.1273982	35.2337	
19:22:35	47.43941	-122.3185	85.585	85.84427	68.88214	32.79	32.90746	100	0	99	0.6542143	0.07022989	35.33183	
19:22:35	47.43941	-122.3185	85.585	85.91853	63.61081	32.79	32.90746	100	0	99	0.783711	0.01317429	35.40331	
19:22:35	47.43941	-122.3185	85.585	85.97246	56.92834	32.79	32.90746	100	0	99	0.9131421	-0.04375177	35.45507	
19:22:35	47.43941	-122.3185	85.585	85.99572	51.66582	32.79	32.90746	100	0	99	1.04254	-0.1005474	35.49229	
19:22:35	47.43941	-122.3185	85.585	85.99572	51.66582	32.79	32.90746	100	0	99	1.172573	-0.1575044	35.51886	
19:22:36	47.43941	-122.3185	85.585	85.99572	51.66582	32.79	32.90746	100	0	99	1.301959	-0.2140677	35.53732	
19:22:36	47.43941	-122.3185	85.585	85.99572	51.66582	32.79	32.90746	100	0	99	1.432	-0.2708165	35.54994	
19:22:36	47.43941	-122.3185	85.585	85.99572	51.66582	32.79	32.90746	100	0	99	1.56205	-0.327481	35.55812	
19:22:36	47.43941	-122.3185	85.585	85.99572	51.66582	32.79	32.90746	100	0	99	1.691466	-0.3837927	35.56301	
19:22:36	47.43941	-122.3185	85.585	85.99572	51.66582	32.79	32.90746	100	0	99	1.821541	-0.4403257	35.56545	
19:22:37	47.43948	-122.3184	85.802	85.99572	51.66582	32.78	32.90746	100	0	99	1.863729	-0.5066069	35.68169	
19:22:37	47.44007	-122.3176	87.744	86.03156	48.69328	32.73	32.89409	100	0	99	0.9248124	-0.3947432	36.07551	
19:22:37	47.44007	-122.3176	87.744	86.11991	51.98082	32.73	32.47084	100	0	99	0.2365475	0.08814776	36.42102	
19:22:37	47.44013	-122.3175	88.021	86.5875	92.82413	32.75	32.47084	100	0	99	-0.3350902	0.5346233	36.69552	
19:22:37	47.44013	-122.3175	88.021	87.05785	130.3091	32.75	32.48962	100	0	99	-0.6084674	0.7910507	37.02192	
19:22:38	47.44021	-122.3174	88.38	87.54931	157.7308	32.73	32.48962	100	0	99	-0.7520394	0.8162242	37.31876	
19:22:38	47.44021	-122.3174	88.38	87.98927	170.6418	32.73	32.46869	100	0	98	-0.6908292	0.7834394	37.49316	
19:22:38	47.44021	-122.3174	88.38	88.41934	175.4148	32.73	32.46869	100	0	99	-0.6309269	0.7494332	37.57723	
19:22:38	47.44021	-122.3174	88.38	88.77765	175.8746	32.73	32.46869	100	0	99	-0.5716732	0.7144334	37.59139	
19:22:38	47.44021	-122.3174	88.38	89.09367	172.1024	32.73	32.46869	100	0	99	-0.5133507	0.6791057	37.5538	
19:22:39	47.44021	-122.3174	88.38	89.31491	165.5853	32.73	32.46869	100	0	99	-0.4551537	0.643318	37.4778	
19:22:39	47.4403	-122.3173	88.949	89.481	156.8263	32.65	32.46869	100	0	99	-0.432934	0.5319872	37.53479	
19:22:39	47.44057	-122.317	90.624	89.63445	144.8626	32.51	32.38661	100	0	99	-0.5632831	0.5014071	37.81626	
19:22:39	47.44062	-122.3169	90.809	90.00095	143.6192	32.5	32.24323	100	0	99	-0.5895697	0.5894632	38.08981	
19:22:39	47.44066	-122.3169	90.989	90.39905	151.0886	32.49	32.23709	100	0	99	-0.5121144	0.5687751	38.25774	
19:22:40	47.4407	-122.3168	91.166	90.77533	155.1937	32.49	32.23034	100	0	99	-0.4526352	0.4949078	38.4135	
19:22:40	47.44075	-122.3168	91.355	91.11662	154.5812	32.49	32.22297	100	0	99	-0.4127466	0.4301904	38.55219	
19:22:40	47.44082	-122.3167	91.669	91.41399	151.6511	32.47	32.22297	100	0	98	-0.3544958	0.4122091	38.85348	
19:22:40	47.44086	-122.3166	91.856	91.69164	150.801	32.47	32.20884	100	0	99	-0.1657484	0.4342866	39.10704	
19:22:41	47.44086	-122.3166	91.856	91.94441	151.1785	32.47	32.20821	100	0	99	-0.2511134	0.4651897	39.06852	
19:22:41	47.44091	-122.3165	92.051	92.23077	152.1398	32.47	32.20821	100	0	99	-0.3860753	0.4910037	39.24269	
19:22:41	47.44095	-122.3165	92.141	92.45554	151.3459	32.48	32.20639	100	0	99	-0.3391684	0.4956939	39.45664	
19:22:41	47.44099	-122.3164	92.353	92.67137	148.5683	32.47	32.21316	100	0	99	-0.2230886	0.4577256	39.5395	
19:22:41	47.44106	-122.3164	92.614	92.88347	141.9455	32.46	32.2058	100	0	99	-0.3032396	0.4197209	39.6595	
19:22:42	47.4411	-122.3163	92.833	93.06323	134.91	32.46	32.20404	100	0	99	-0.3019887	0.4369261	39.97845	
19:22:42	47.44115	-122.3162	92.963	93.22699	131.8051	32.46	32.20291	100	0	99	-0.2508379	0.4914037	40.0326	
19:22:42	47.4412	-122.3162	93.14	93.42039	130.1594	32.45	32.20235	100	0	99	-0.2962452	0.5287076	40.04533	
19:22:42	47.4412	-122.3162	93.14	93.57378	127.4618	32.45	32.19284	100	0	98	-0.1954262	0.3576556	40.42487	
19:22:42	47.44131	-122.316	93.492	93.70844	115.8674	32.44	32.19284	100	0	99	-0.2207478	0.2822993	40.43263	
19:22:43	47.44136	-122.316	93.612	93.8345	104.5813	32.45	32.18979	100	0	99	-0.2116131	0.3233577	40.50875	
19:22:43	47.44136	-122.316	93.612	93.96085	100.8853	32.45	32.19518	100	0	99	-0.1898438	0.4019798	40.72362	
19:22:43	47.4414	-122.3159	93.729	94.07851	100.7589	32.45	32.19518	100	0	99	-0.3078359	0.453215	40.81417	
19:22:43	47.44144	-122.3158	93.872	94.19188	99.02361	32.45	32.19425	100	0	99	-0.2571607	0.5027626	41.00401	
19:22:43	47.44149	-122.3158	94.002	94.30462	97.4695	32.45	32.19976	100	0	99	-0.07961613	0.489365	41.14557	
19:22:44	47.44153	-122.3157	94.127	94.41517	94.31503	32.44	32.19848	100	0	98	-0.04702574	0.4381651	41.13052	
19:22:44	47.44157	-122.3157	94.279	94.53603	87.33479	32.43	32.19	100	0	99	-0.2058517	0.3636377	41.30653	
19:22:44	47.44162	-122.3156	94.348	94.63773	79.21497	32.43	32.18122	100	0	99	-0.2327739	0.3061854	41.41241	
19:22:44	47.44168	-122.3155	94.534	94.71807	71.08282	32.42	32.18704	100	0	98	-0.1648431	0.3309191	41.47011	
19:22:44	47.4417	-122.3155	94.604	94.79201	68.17661	32.42	32.17817	100	0	99	-0.1177086	0.3754618	41.7019	
19:22:45	47.44177	-122.3154	94.811	94.87434	66.70358	32.43	32.17756	100	0	99	-0.06895328	0.4742945	41.81985	
19:22:45	47.44181	-122.3154	94.952	94.94659	68.18829	32.43	32.19056	100	0	99	-0.09831214	0.4838142	41.8512	
19:22:45	47.44185	-122.3153	95.063	95.06289	67.87978	32.42	32.18927	100	0	99	-0.002537074	0.3942407	42.30629	
19:22:45	47.44192	-122.3152	95.261	95.17117	61.21981	32.42	32.18857	100	0	99	0.2242364	0.3596127	42.43622	
19:22:45	47.44192	-122.3152	95.261	95.26408	55.91829	32.42	32.18716	100	0	99	0.2246772	0.3504083	42.32332	
19:22:46	47.44197	-122.3151	95.389	95.35519	54.26695	32.41	32.18716	100	0	99	0.07485843	0.373736	42.54058	
19:22:46	47.44201	-122.3151	95.57	95.46033	53.2928	32.41	32.17905	100	0	99	0.04955328	0.3916561	42.84159	
19:22:46	47.44205	-122.315	95.625	95.58076	54.20219	32.42	32.18567	100	0	99	0.07494222	0.3853267	43.04169	
19:22:46	47.44209	-122.315	95.756	95.6769	53.1207	32.42	32.19236	100	0	99	0.06187122	0.4007958	43.05317	
19:22:46	47.44216	-122.3149	96.083	95.78545	52.27199	32.4	32.19196	100	0	99	0.0121631	0.4137824	43.1215	
19:22:47	47.4422	-122.3148	96.255	95.89613	52.61285	32.41	32.18455	100	0	99	-0.02329675	0.3993455	43.31128	
19:22:47	47.44225	-122.3148	96.538	96.03681	53.72427	32.41	32.19166	100	0	99	-0.02542681	0.3727761	43.54387	
19:22:47	47.44229	-122.3147	96.733	96.21199	54.67062	32.41	32.19894	100	0	99	-0.05801958	0.3363122	43.62463	
19:22:47	47.44233	-122.3147	96.902	96.37762	55.26481	32.41	32.1993	100	0	97	0.08337114	0.3431591	43.7109	
19:22:47	47.44233	-122.3147	96.902	96.54973	58.38756	32.41	32.19994	100	0	99	0.193825	0.4031556	44.04324	
19:22:48	47.44238	-122.3146	97.146	96.72824	63.96184	32.41	32.19994	100	0	99	0.2418313	0.4526138	44.13717	
19:22:48	47.44242	-122.3145	97.29	96.92542	69.73007	32.41	32.20064	100	0	99	0.1204296	0.4412835	44.1057	
19:22:48	47.44249	-122.3144	97.625	97.1018	71.6581	32.4	32.20168	100	0	100	0.09713357	0.3903546	44.34544	
19:22:48	47.44253	-122.3144	97.842	97.29378	71.343	32.4	32.19698	100	0	99	0.1303985	0.3616335	44.5769	
19:22:48	47.44257	-122.3143	98.049	97.52224	73.50772	32.41	32.20527	100	0	99	0.1316053	0.3786983	44.70887	
19:22:49	47.44261	-122.3142	98.232	97.77184	78.14466	32.4	32.21433	100	0	99	0.1138296	0.4473067	44.76361	
19:22:49	47.44266	-122.3142	98.376	97.9932	84.58791	32.41	32.20951	100	0	99	0.0559291	0.4922032	44.9253	
19:22:49	47.44266	-122.3142	98.376	98.20965	89.40845	32.41	32.21909	100	0	99	0.05015096	0.4767936	45.18687	
19:22:49	47.44271	-122.3141	98.561	98.40434	89.50956	32.41	32.21909	100	0	99	0.1736544	0.4470988	45.30752	
19:22:49	47.44275	-122.314	98.712	98.58189	88.52461	32.4	32.22209	100	0	99	0.2608466	0.387486	45.44956	
19:22:50	47.44284	-122.3139	98.98	98.77203	85.67194	32.4	32.21808	100	0	99	0.1849593	0.3213892	45.62961	
19:22:50	47.44284	-122.3139	98.98	98.95542	81.46105	32.4	32.2182	100	0	99	0.2517085	0.3289104	45.70086	
19:22:50	47.44288	-122.3138	99.113	99.10728	79.73072	32.4	32.2182	100	0	99	0.2391651	0.3669168	45.94411	
19:22:50	47.44292	-122.3138	99.245	99.25961	80.82577	32.39	32.223	100	0	99	0.2880835	0.3884987	46.12716	
19:22:50	47.44298	-122.3137	99.431	99.40596	80.31815	32.4	32.22079	100	0	99	0.2900602	0.4060116	46.13808	
19:22:51	47.44302	-122.3136	99.568	99.54491	79.65955	32.4	32.2345	100	0	99	0.2412529	0.3748204	46.34109	
19:22:51	47.44306	-122.3136	99.707	99.66862	77.09266	32.41	32.23308	100	0	99	0.2259781	0.3124284	46.68266	
19:22:51	47.4431	-122.3135	99.854	99.81301	71.601	32.41	32.2445	100	0	99	0.2908287	0.2867565	46.79929	
19:22:51	47.44315	-122.3134	99.988	99.92775	68.76808	32.4	32.24947	100	0	100	0.2609389	0.3056352	46.83031	
19:22:51	47.44321	-122.3133	100.186	100.0598	67.70392	32.42	32.25074	100	0	99	0.2080161	0.3737618	47.04287	
19:22:52	47.44324	-122.3133	100.301	100.1808	69.30807	32.43	32.26667	100	0	99	0.2014106	0.4414182	47.24009	
19:22:52	47.44324	-122.3133	100.301	100.3154	72.38969	32.43	32.28012	100	0	99	0.2245054	0.4570001	47.49078	
19:22:52	47.44328	-122.3132	100.36	100.4462	73.04111	32.42	32.28012	100	0	99	0.2474237	0.4093864	47.63748	
19:22:52	47.44333	-122.3131	100.526	100.5596	67.81084	32.42	32.27972	100	0	98	0.2945726	0.2735615	47.82551	
19:22:52	47.44339	-122.313	100.732	100.6458	59.54932	32.43	32.28177	100	0	99	0.3051775	0.1571139	47.99266	
19:22:53	47.44343	-122.313	100.836	100.7463	49.8113	32.43	32.29421	100	0	99	0.1692624	0.1663341	48.13919	
19:22:53	47.44347	-122.3129	100.955	100.8276	48.52875	32.45	32.30251	100	0	99	0.1315392	0.2428126	48.33378	
19:22:53	47.44347	-122.3129	100.955	100.9171	51.09505	32.45	32.31878	100	0	99	-0.406796	0.3123758	48.40392	
19:22:53	47.44353	-122.3128	101.028	101.0148	54.22982	32.46	32.31878	100	0	99	-0.3734887	0.3722374	48.54417	
19:22:53	47.44356	-122.3127	101.143	101.1137	55.64495	32.47	32.33163	100	0	99	-0.1001877	0.4267348	48.73085	
19:22:54	47.44356	-122.3127	101.143	101.2195	57.63729	32.47	32.34599	100	0	99	0.1767763	0.4150043	48.78576	
19:22:54	47.4436	-122.3127	101.289	101.3255	56.95877	32.47	32.34599	100	0	99	0.2164283	0.3845146	48.85469	
19:22:54	47.44364	-122.3126	101.395	101.4223	54.21441	32.47	32.35419	100	0	99	0.1272929	0.3607817	49.10113	
19:22:54	47.4437	-122.3125	101.556	101.5265	51.94765	32.48	32.34996	100	0	99	0.1114836	0.3395915	49.22105	
19:22:54	47.44374	-122.3124	101.71	101.6261	49.71078	32.48	32.36455	100	0	99	0.2715544	0.3469447	49.50591	
19:22:55	47.44378	-122.3124	101.803	101.7327	49.37396	32.48	32.36886	100	0	99	0.3372833	0.384938	49.5403	
19:22:55	47.44382	-122.3123	101.832	101.8374	50.53124	32.48	32.37194	100	0	99	0.2867391	0.451059	49.71697	
19:22:55	47.44387	-122.3122	102.014	101.9226	52.17951	32.48	32.37691	100	0	99	0.3079796	0.4999731	49.99004	
19:22:55	47.44387	-122.3122	102.014	102.0425	55.27268	32.48	32.38108	100	0	99	0.4757794	0.4837299	50.1638	
19:22:55	47.44391	-122.3121	102.128	102.1553	54.33688	32.47	32.38108	100	0	99	0.4983011	0.422653	50.28061	
19:22:56	47.44398	-122.312	102.394	102.2588	50.54209	32.47	32.38075	100	0	99	0.3756132	0.3794166	50.38295	
19:22:56	47.44402	-122.312	102.534	102.3778	46.77253	32.48	32.3874	100	0	99	0.2654985	0.3016444	50.60013	
19:22:56	47.44408	-122.3118	102.719	102.4696	42.48389	32.48	32.39432	100	0	99	0.2566031	0.3877396	50.89714	
19:22:56	47.44412	-122.3118	102.793	102.5618	45.46183	32.48	32.40739	100	0	99	0.405438	0.4269128	51.03721	
19:22:56	47.44412	-122.3118	102.793	102.6821	48.6617	32.48	32.40913	100	0	99	0.3765978	0.4163681	51.20277	
19:22:57	47.44412	-122.3118	102.793	102.7929	47.90885	32.48	32.40913	100	0	99	0.1288391	0.3909327	51.2991	
19:22:57	47.44419	-122.3116	103.006	102.8777	45.37463	32.49	32.40913	100	0	99	0.1450756	0.3522126	51.57661	
19:22:57	47.44423	-122.3116	103.173	102.9747	44.13739	32.5	32.42782	100	0	99	0.3519975	0.2843155	51.81248	
19:22:57	47.44428	-122.3114	103.357	103.0867	41.10582	32.5	32.43455	100	0	99	0.3746863	0.2880733	51.83294	
19:22:57	47.44428	-122.3114	103.357	103.1749	40.54217	32.5	32.44658	100	0	99	0.2175531	0.4141348	51.98922	
19:22:58	47.44434	-122.3114	103.541	103.298	48.46562	32.51	32.44658	100	0	99	0.239528	0.4689783	52.29031	
19:22:58	47.44439	-122.3112	103.724	103.4397	53.89742	32.52	32.45366	100	0	99	0.3460664	0.4121294	52.46001	
19:22:58	47.44442	-122.3112	103.86	103.5699	53.60691	32.52	32.47676	100	0	99	0.302615	0.3611481	52.47546	
19:22:58	47.44447	-122.3111	104.055	103.6981	51.30105	32.53	32.47357	100	0	99	0.2497535	0.3328222	52.59898	
19:22:58	47.44451	-122.311	104.186	103.8359	50.8754	32.53	32.48626	100	0	99	0.3174907	0.3012448	53.13631	
19:22:59	47.44454	-122.3109	104.315	103.9766	50.9364	32.54	32.49288	100	0	99	0.4795681	0.2799867	53.35752	
19:22:59	47.44458	-122.3109	104.444	104.1213	50.62529	32.53	32.50222	100	0	99	0.4538758	0.2504384	53.1961	
19:22:59	47.44461	-122.3108	104.572	104.2534	50.25379	32.53	32.50256	100	0	99	0.6135987	0.2385274	53.52648	
19:22:59	47.44465	-122.3107	104.692	104.3717	50.82695	32.54	32.50961	100	0	99	0.5474862	0.286327	53.79809	
19:22:59	47.44469	-122.3107	104.813	104.5058	54.13157	32.55	32.51997	100	0	99	0.3335174	0.4421623	53.87539	
19:23:00	47.44472	-122.3106	104.975	104.6446	62.48423	32.55	32.5332	100	0	99	0.1485191	0.4851321	54.08156	
19:23:00	47.44472	-122.3106	104.975	104.7926	67.15648	32.55	32.53868	100	0	99	0.244819	0.4665436	54.26669	
19:23:00	47.44475	-122.3105	105.108	104.9336	66.23686	32.55	32.53868	100	0	99	0.2623093	0.4409427	54.39475	
19:23:00	47.4448	-122.3104	105.307	105.1035	65.24083	32.55	32.54163	100	0	99	0.06769116	0.3905478	54.54673	
19:23:00	47.44484	-122.3103	105.424	105.2596	63.41668	32.55	32.54245	100	0	99	0.08052114	0.4227065	54.84158	
19:23:01	47.44487	-122.3103	105.549	105.4028	63.59135	32.56	32.54893	100	0	99	0.1616704	0.454038	55.09545	
19:23:01	47.4449	-122.3102	105.632	105.5258	65.32355	32.56	32.5582	100	0	99	0.2257292	0.4119236	55.14131	
19:23:01	47.44493	-122.3101	105.761	105.6687	62.74947	32.56	32.56522	100	0	98	0.2057881	0.3756235	55.18696	
19:23:01	47.44498	-122.31	106.013	105.765	59.75438	32.57	32.56413	100	0	99	0.1683355	0.3479685	55.44132	
19:23:01	47.44502	-122.3099	106.141	105.8791	57.35826	32.57	32.57568	100	0	99	0.2195241	0.3180624	55.62461	
19:23:02	47.44505	-122.3099	106.243	106.0091	56.23348	32.58	32.58376	100	0	99	0.2721538	0.2591903	55.7345	
19:23:02	47.44505	-122.3099	106.243	106.1451	53.10988	32.58	32.59215	100	0	99	0.2683184	0.2328874	55.93437	
19:23:02	47.4451	-122.3098	106.399	106.2486	51.41357	32.59	32.59215	100	0	99	0.3432011	0.2470646	56.19647	
19:23:02	47.44513	-122.3097	106.501	106.3848	53.03842	32.6	32.61056	100	0	99	0.3371441	0.2986577	56.33996	
19:23:02	47.44516	-122.3096	106.574	106.5049	55.94484	32.59	32.61968	100	0	99	0.2879635	0.3262396	56.69502	
19:23:03	47.44519	-122.3095	106.686	106.6062	57.62573	32.59	32.62056	100	0	99	0.2844654	0.3092674	56.86282	
19:23:03	47.44523	-122.3095	106.803	106.7265	56.04272	32.6	32.6251	100	0	99	0.205003	0.2669872	56.85494	
19:23:03	47.44526	-122.3094	106.977	106.8363	53.44352	32.6	32.63341	100	0	99	0.05789524	0.2034655	57.05443	
19:23:03	47.4453	-122.3093	107.092	106.9205	49.5619	32.61	32.63871	100	0	99	0.0807033	0.1722727	57.33658	
19:23:03	47.44534	-122.3092	107.158	107.0216	47.43637	32.62	32.6514	100	0	99	0.2079002	0.2221906	57.48307	
19:23:04	47.44534	-122.3092	107.158	107.1269	49.91042	32.62	32.66255	100	0	99	0.2607417	0.2839903	57.58541	
19:23:04	47.44538	-122.3091	107.341	107.213	52.56321	32.62	32.66255	100	0	99	0.2420602	0.2773342	57.67949	
19:23:04	47.44541	-122.309	107.49	107.3322	52.98874	32.62	32.67484	100	0	99	0.2487248	0.2676588	57.95133	
19:23:04	47.44546	-122.3089	107.608	107.4508	52.55923	32.64	32.67811	100	0	99	0.3266463	0.3169683	58.20952	
19:23:04	47.44549	-122.3089	107.715	107.5681	55.28639	32.63	32.69777	100	0	99	0.3674736	0.3288478	58.26769	
19:23:05	47.44549	-122.3089	107.715	107.6828	56.08079	32.63	32.6956	100	0	99	0.4793617	0.2442126	58.43592	
19:23:05	47.44552	-122.3088	107.831	107.7786	51.19402	32.64	32.6956	100	0	99	0.3632295	0.2250893	58.66359	
19:23:05	47.44557	-122.3087	108.193	107.8894	48.91966	32.64	32.70369	100	0	99	0.3516403	0.28744	58.87019	
19:23:05	47.44559	-122.3086	108.31	108.0139	53.03522	32.65	32.71017	100	0	99	0.3143613	0.3186717	58.93678	
19:23:05	47.44563	-122.3085	108.472	108.1612	57.30667	32.65	32.71912	100	0	98	0.06499551	0.2215129	58.96504	
19:23:06	47.44566	-122.3084	108.591	108.3051	53.16072	32.66	32.72843	100	0	98	0.05646369	0.2291888	59.4	
19:23:06	47.44569	-122.3083	108.796	108.4652	54.0243	32.67	32.73809	100	0	99	0.1908501	0.2906143	59.62396	
19:23:06	47.44573	-122.3082	109.045	108.5863	57.42039	32.67	32.74947	100	0	99	0.1761303	0.3651005	59.65421	
19:23:06	47.44573	-122.3082	109.045	108.7633	63.82897	32.67	32.75787	100	0	99	0.1793257	0.3835766	59.83467	
19:23:06	47.44577	-122.3082	109.217	108.9211	67.22964	32.68	32.75787	100	0	99	0.2531615	0.3508961	60.17567	
19:23:07	47.4458	-122.308	109.456	109.1038	68.38238	32.68	32.77335	100	0	99	0.3579805	0.3114106	60.48515	
19:23:07	47.4458	-122.308	109.456	109.2573	67.24934	32.68	32.77982	100	0	99	0.307793	0.1889886	60.48553	
19:23:07	47.44585	-122.3079	109.697	109.4127	61.8138	32.67	32.77982	100	0	99	0.05427223	0.1740543	60.80933	
19:23:07	47.44585	-122.3079	109.697	109.5813	62.38771	32.67	32.77254	100	0	99	0.142887	0.2440247	61.02041	
19:23:08	47.44588	-122.3078	109.874	109.739	66.64722	32.69	32.77254	100	0	99	0.2171759	0.2525317	61.1129	
19:23:08	47.44592	-122.3077	110.103	109.9264	69.647	32.7	32.78916	100	0	99	0.207027	0.2259121	61.25164	
19:23:08	47.44595	-122.3077	110.259	110.1047	70.27669	32.71	32.81026	100	0	99	0.245155	0.3505908	61.41207	
19:23:08	47.44598	-122.3076	110.365	110.2746	77.05624	32.72	32.81856	100	0	99	0.2467268	0.4116777	61.62635	
19:23:08	47.44601	-122.3075	110.451	110.4434	80.85305	32.72	32.83176	100	0	99	0.2902912	0.4211802	61.70757	
19:23:09	47.44604	-122.3074	110.555	110.6022	81.70575	32.72	32.84073	100	0	99	0.1815863	0.3888229	61.82985	
19:23:09	47.44607	-122.3073	110.653	110.7502	79.46292	32.72	32.83657	100	0	99	-0.05356707	0.3472883	62.09174	
19:23:09	47.4461	-122.3073	110.771	110.8632	75.98269	32.72	32.84169	100	0	99	0.03624315	0.3027267	62.31236	
19:23:09	47.44614	-122.3071	110.897	110.9933	71.66573	32.72	32.84712	100	0	99	0.1551793	0.2729319	62.43684	
19:23:09	47.44616	-122.3071	110.97	111.1035	68.53181	32.71	32.8532	100	0	99	0.2256743	0.2710662	62.48607	
19:23:10	47.4462	-122.307	111.073	111.2031	66.47457	32.72	32.84562	100	0	99	0.2021084	0.306163	62.57452	
19:23:10	47.44622	-122.3069	111.154	111.3005	66.24815	32.71	32.85678	100	0	99	0.2044073	0.3463998	62.75508	
19:23:10	47.44625	-122.3068	111.249	111.3854	66.44576	32.73	32.85451	100	0	100	0.23303	0.4019574	62.94032	
19:23:10	47.44625	-122.3068	111.249	111.4849	66.15327	32.73	32.87006	100	0	99	0.2389745	0.3841276	63.18668	
19:23:10	47.44628	-122.3067	111.358	111.5695	63.36538	32.74	32.87006	100	0	99	0.2123926	0.3403213	63.33058	
19:23:11	47.4463	-122.3067	111.47	111.6394	59.17744	32.74	32.88162	100	0	99	0.2019554	0.2941605	63.46221	
19:23:11	47.44634	-122.3065	111.689	111.7363	54.97612	32.73	32.88436	100	0	99	0.2212113	0.2502005	63.60605	
19:23:11	47.44637	-122.3065	111.836	111.8294	51.73444	32.73	32.88478	100	0	99	0.1638436	0.2508913	63.94798	
19:23:11	47.44641	-122.3063	112.038	111.9171	51.07452	32.74	32.88815	100	0	99	0.3325578	0.3003699	64.08579	
19:23:11	47.44643	-122.3063	112.167	112.036	53.84958	32.73	32.90279	100	0	99	0.4249236	0.4086875	63.8974	
19:23:12	47.44646	-122.3062	112.301	112.1767	61.01178	32.73	32.89868	100	0	99	0.1983153	0.5200785	64.14194	
19:23:12	47.44648	-122.3061	112.448	112.3198	68.22375	32.74	32.90005	100	0	99	0.0855571	0.4913169	64.5669	
19:23:12	47.44651	-122.306	112.627	112.4498	66.41236	32.75	32.91265	100	0	99	0.1806352	0.4003114	64.62976	
19:23:12	47.44653	-122.3059	112.807	112.5972	62.51829	32.74	32.92143	100	0	99	0.03953869	0.2630033	64.66789	
19:23:12	47.44658	-122.3058	113.026	112.7244	56.97884	32.74	32.91461	100	0	100	0.0299423	0.2047146	64.9702	
19:23:13	47.44658	-122.3058	113.026	112.8729	54.0363	32.74	32.92132	100	0	99	0.2935962	0.2343917	65.12282	
19:23:13	47.44659	-122.3058	113.165	112.9947	55.71089	32.75	32.92132	100	0	99	0.3200158	0.2861569	65.19592	
19:23:13	47.44662	-122.3057	113.267	113.1506	60.39556	32.74	32.93085	100	0	99	0.180043	0.3434578	65.33837	
19:23:13	47.44665	-122.3056	113.436	113.2746	64.26787	32.75	32.92749	100	0	99	0.03207436	0.2663959	65.55653	
19:23:13	47.44665	-122.3056	113.436	113.4303	60.06484	32.75	32.93513	100	0	99	-0.05338663	0.17424	65.65827	
19:23:14	47.44671	-122.3054	113.766	113.5599	54.6571	32.76	32.93513	100	0	99	-0.02623395	0.1648248	65.85183	
19:23:14	47.44673	-122.3053	113.879	113.6886	54.67572	32.76	32.95156	100	0	99	0.2106244	0.1846074	65.95138	
19:23:14	47.44676	-122.3052	114.01	113.8137	56.64501	32.77	32.95679	100	0	99	0.1851577	0.2157138	66.02169	
19:23:14	47.44678	-122.3051	114.124	113.9366	58.64135	32.77	32.96952	100	0	99	0.07691818	0.2246414	66.26823	
19:23:14	47.4468	-122.305	114.259	114.0593	61.0371	32.78	32.97138	100	0	98	0.05724614	0.2706078	66.63214	
19:23:15	47.44683	-122.305	114.4	114.1977	63.75622	32.78	32.98272	100	0	99	0.2931632	0.2857792	67.06222	
19:23:15	47.44686	-122.3049	114.544	114.3351	65.82336	32.77	32.99059	100	0	99	0.4168548	0.3253978	66.7813	
19:23:15	47.44688	-122.3048	114.685	114.4861	68.57827	32.76	32.98059	100	0	99	0.2100991	0.3769917	66.89265	
19:23:15	47.44688	-122.3048	114.685	114.6253	71.86147	32.76	32.98048	100	0	99	0.196781	0.3393883	67.26018	
19:23:15	47.4469	-122.3047	114.811	114.7684	69.94554	32.78	32.98048	100	0	99	0.2921478	0.247767	67.49421	
19:23:16	47.44694	-122.3046	115.02	114.8886	66.08708	32.77	32.99422	100	0	98	0.3938443	0.3386356	67.46619	
19:23:16	47.44696	-122.3045	115.134	115.0293	68.02792	32.77	32.99491	100	0	99	0.3437814	0.3969026	67.59657	
19:23:16	47.44699	-122.3044	115.354	115.1824	71.14615	32.79	33.00077	100	0	99	0.3326422	0.370298	67.93661	
19:23:16	47.44701	-122.3043	115.514	115.3223	70.18163	32.78	33.01876	100	0	99	0.3331116	0.3177662	68.05865	
19:23:16	47.44701	-122.3043	115.514	115.4496	68.03019	32.78	33.0159	100	0	96	0.3102922	0.2724907	68.18139	
19:23:17	47.44704	-122.3042	115.737	115.597	65.13461	32.77	33.0159	100	0	99	0.3749469	0.2285478	68.32509	
19:23:17	47.44707	-122.3041	115.88	115.7292	63.53866	32.77	33.01172	100	0	99	0.2376019	0.2541249	68.4585	
19:23:17	47.44709	-122.304	116.013	115.8848	65.30798	32.78	33.01295	100	0	99	0.1495609	0.3138934	68.69611	
19:23:17	47.44711	-122.3039	116.147	116.0143	68.6602	32.79	33.02382	100	0	98	0.1860702	0.304256	68.86191	
19:23:17	47.44714	-122.3038	116.28	116.1699	69.75514	32.79	33.03493	100	0	99	0.2350665	0.2408867	69.04704	
19:23:18	47.44717	-122.3037	116.547	116.2923	66.6911	32.79	33.03683	100	0	99	0.2615215	0.2061099	69.19016	
19:23:18	47.44719	-122.3036	116.739	116.4523	64.72829	32.79	33.04483	100	0	99	0.3160823	0.2244346	69.22863	
19:23:18	47.4472	-122.3036	116.916	116.6036	66.10392	32.79	33.04406	100	0	99	0.1420371	0.2619497	69.49792	
19:23:18	47.44722	-122.3035	117.106	116.7653	69.39095	32.8	33.04997	100	0	84	0.234763	0.2904455	69.70422	
19:23:18	47.44725	-122.3034	117.305	116.9129	71.8952	32.77	33.05923	100	0	78	0.4052334	0.1813033	69.81078	
19:23:19	47.44725	-122.3034	117.305	117.0817	68.82574	32.77	33.03701	100	0	78	0.5065103	-0.02352575	70.1088	
19:23:19	47.44728	-122.3033	117.594	117.2437	58.92126	32.54	33.03701	100	0	78	0.6598803	-0.145932	70.286	
19:23:19	47.4473	-122.3032	117.745	117.4112	51.93133	32.33	32.80648	100	0	78	0.6437039	-0.2250914	70.3471	
19:23:19	47.4473	-122.3032	117.745	117.5628	49.63555	32.33	32.59519	100	0	78	0.4235525	-0.4224248	70.59186	
