Date	Latitude(deg) 	Longitude(deg)	hamsl(m)	hafl(m)	climbrate(cm/s)	GroundSpeed(m/s)	Airspeed(m/s)	Mav_Link(%)	Rssi_Link(%)	Throttle	Roll(deg)	Pitch(deg)	Yaw(deg)
17:28:59	0	0	0	0	0	0	0	100	0	0	0.9367118	-16.06495	58.65193	
17:28:59	0	0	0	0.1823772	-1.246594	0	3	100	0	99	0.9421933	-16.06243	58.63201	
17:28:59	0	0	0	0.1812267	-2.177036	0	3	100	0	100	0.9486545	-16.04578	58.62284	
17:28:59	0	0	0	-0.1077516	-18.52312	0	3	100	0	100	0.9648585	-16.03833	58.59946	
17:28:59	0	0	0	-0.3686461	-31.53929	0	3	100	0	100	0.9732978	-16.04033	58.59442	
17:29:00	0	0	0	-0.4965871	-36.80367	0	3	100	0	100	0.9695287	-16.04486	58.58337	
17:29:00	0	0	0	-0.6206434	-40.73318	0	3	100	0	100	0.9600247	-16.04216	58.5734	
17:29:00	0	0	0	-0.6403589	-38.67701	0	3	100	0	100	0.9546841	-16.02518	58.56269	
17:29:00	0	0	0	-0.5157777	-30.3443	0	3	100	0	100	0.9483294	-16.04114	58.55931	
17:29:00	0	0	0	-0.3533993	-20.3097	0	3	100	0	100	0.9402752	-16.0511	58.55122	
17:29:01	0	0	0	-0.1491451	-8.990439	0	3	100	0	100	0.9396631	-16.05082	58.54435	
17:29:01	0	0	0	0.02499099	-0.4049062	0	3	100	0	100	0.9417695	-16.0424	58.55033	
17:29:01	0	0	0	0.1700251	5.921697	0	3	100	0	100	0.9431159	-16.05112	58.54705	
17:29:01	0	0	0	0.2879117	10.31458	0	3	100	0	100	0.9599	-16.06664	58.52591	
17:29:01	0	0	0	0.3753485	12.74533	0	3	100	0	100	0.9701928	-16.06368	58.48907	
17:29:02	0	0	0	0.5042539	17.21631	0	3	100	0	100	0.980785	-16.09787	58.45919	
17:29:02	0	0	0	0.629442	21.63893	0	3	100	0	100	0.9870369	-16.085	58.43453	
17:29:02	0	0	0	0.7625322	25.60204	0	3	100	0	100	0.9896251	-16.09686	58.40573	
17:29:02	0	0	0	0.854982	26.96626	0	3	100	0	100	0.9889817	-16.11701	58.38653	
17:29:02	0	0	0	0.9497459	27.85745	0	3	100	0	100	0.9963208	-16.12194	58.36973	
17:29:03	0	0	0	1.019905	27.31031	0	3	100	0	100	1.008227	-16.09249	58.34159	
17:29:03	0	0	0	1.035637	23.63288	0	3	100	0	100	1.02553	-16.10569	58.31495	
17:29:03	0	0	0	1.01822	19.77524	0	3	100	0	100	1.021647	-16.09859	58.29623	
17:29:03	0	0	0	1.006625	16.09871	0	3	100	0	100	1.015911	-16.09429	58.26844	
17:29:03	0	0	0	0.9971836	12.78146	0	3	100	0	100	1.014287	-16.09398	58.24302	
17:29:04	0	0	0	0.9902208	10.3652	0	3	100	0	100	1.029372	-16.0949	58.22404	
17:29:04	0	0	0	0.9856457	7.309283	0	3	100	0	100	1.046821	-16.1034	58.19762	
17:29:04	0	0	0	0.9831589	5.415765	0	3	100	0	100	1.05564	-16.10815	58.17465	
17:29:04	0	0	0	0.9855477	3.278728	0	3	100	0	100	1.062098	-16.1072	58.15623	
17:29:04	0	0	0	0.9830721	1.352278	0	3	100	0	100	1.055856	-16.10947	58.14484	
17:29:05	0	0	0	0.9772142	-0.2056594	0	3	100	0	100	1.057881	-16.09338	58.12828	
17:29:05	0	0	0	0.9695189	-1.757161	0	3	100	0	100	1.055961	-16.08482	58.12461	
17:29:05	0	0	0	0.9074504	-5.600704	0	3	100	0	100	1.06228	-16.0876	58.13677	
17:29:05	0	0	0	0.8509402	-8.546704	0	3	100	0	100	1.061255	-16.06188	58.13929	
17:29:05	0	0	0	0.7579308	-13.46067	0	3	100	0	100	1.070523	-16.06526	58.12467	
17:29:06	0	0	0	0.6636485	-17.87993	0	3	100	0	100	1.094937	-16.05544	58.10655	
17:29:06	0	0	0	0.6039326	-20.42214	0	3	100	0	100	1.114472	-16.04298	58.0846	
17:29:06	0	0	0	0.5463305	-22.35065	0	3	100	0	100	1.117401	-16.04077	58.07574	
17:29:06	0	0	0	0.5316014	-22.30485	0	3	100	0	100	1.119854	-16.05132	58.05124	
17:29:06	0	0	0	0.5205086	-21.32136	0	3	100	0	100	1.114622	-16.06632	58.024	
17:29:07	0	0	0	0.5153618	-20.60205	0	3	100	0	100	1.115089	-16.0701	57.99165	
17:29:07	0	0	0	0.5129921	-19.39839	0	3	100	0	100	1.119884	-16.06278	57.95297	
17:29:07	0	0	0	0.4483499	-21.54915	0	3	100	0	100	1.116238	-16.03048	57.93121	
17:29:07	0	0	0	0.3917963	-23.45931	0	3	100	0	100	1.119213	-16.01614	57.93153	
17:29:07	0	0	0	0.377781	-22.81248	0	3	100	0	100	1.113961	-16.0177	57.92904	
17:29:08	0	0	0	0.3686786	-21.88151	0	3	100	0	100	1.107649	-16.00656	57.90736	
17:29:08	0	0	0	0.4178652	-18.15538	0	3	100	0	100	1.104719	-16.0114	57.89256	
17:29:08	0	0	0	0.4643057	-14.91976	0	3	100	0	100	1.098523	-16.01668	57.8689	
17:29:08	0	0	0	0.5312707	-11.42747	0	3	100	0	100	1.094255	-16.00391	57.86621	
17:29:08	0	0	0	0.5976352	-7.659875	0	3	100	0	100	1.09117	-16.0185	57.85268	
17:29:09	0	0	0	0.6126891	-6.47836	0	3	100	0	100	1.074541	-16.03666	57.83749	
17:29:09	0	0	0	0.6269615	-5.77154	0	3	100	0	100	1.087267	-16.02375	57.82331	
17:29:09	0	0	0	0.5821405	-8.406548	0	3	100	0	100	1.10052	-16.01557	57.80838	
17:29:09	0	0	0	0.5405719	-11.14037	0	3	100	0	100	1.099013	-16.01792	57.78431	
17:29:09	0	0	0	0.5236331	-11.46945	0	3	100	0	100	1.089886	-16.01236	57.75973	
17:29:10	0	0	0	0.5074744	-12.00372	0	3	100	0	100	1.074218	-16.02953	57.76744	
17:29:10	0	0	0	0.4852733	-12.91788	0	3	100	0	100	1.067782	-16.03851	57.77078	
17:29:10	0	0	0	0.454952	-14.23374	0	3	100	0	100	1.075263	-16.03334	57.75317	
17:29:10	0	0	0	0.4342609	-14.4531	0	3	100	0	100	1.070412	-16.04249	57.75034	
17:29:10	0	0	0	0.4245161	-14.0481	0	3	100	0	100	1.087159	-16.02546	57.74465	
17:29:11	0	0	0	0.4270351	-13.73052	0	3	100	0	100	1.082746	-16.01862	57.74046	
17:29:11	0	0	0	0.4360006	-12.22762	0	3	100	0	100	1.080017	-16.01436	57.73739	
17:29:11	0	0	0	0.4435062	-10.80879	0	3	100	0	100	1.062243	-16.01134	57.74231	
17:29:11	0	0	0	0.4484508	-10.06751	0	3	100	0	100	1.064901	-16.02901	57.74183	
17:29:11	0	0	0	0.4631025	-9.283316	0	3	100	0	100	1.068678	-16.00697	57.7315	
17:29:12	0	0	0	0.4914214	-8.058546	0	3	100	0	100	1.07399	-16.00049	57.727	
17:29:12	0	0	0	0.4973311	-7.907962	0	3	100	0	100	1.075812	-15.98596	57.72107	
17:29:12	0	0	0	0.4807169	-8.989685	0	3	100	0	100	1.05823	-15.98522	57.72847	
17:29:12	0	0	0	0.4721332	-9.18228	0	3	100	0	100	1.065913	-15.98709	57.72667	
17:29:12	0	0	0	0.4757105	-8.773767	0	3	100	0	100	1.060069	-15.99384	57.71642	
17:29:13	0	0	0	0.44599	-10.61229	0	3	100	0	100	1.072782	-15.96245	57.71153	
17:29:13	0	0	0	0.4026545	-12.46194	0	3	100	0	100	1.073285	-15.94086	57.70731	
17:29:13	0	0	0	0.3457309	-14.45845	0	3	100	0	100	1.070905	-15.941	57.70956	
17:29:13	0	0	0	0.2955708	-16.2439	0	3	100	0	100	1.070218	-15.95396	57.70745	
17:29:13	0	0	0	0.2497407	-17.60728	0	3	100	0	100	1.061093	-15.96954	57.7009	
17:29:14	0	0	0	0.2160295	-18.27807	0	3	100	0	100	1.052397	-15.97999	57.69107	
17:29:14	0	0	0	0.1914136	-18.42459	0	3	100	0	100	1.047462	-15.97095	57.68791	
17:29:14	0	0	0	0.1811835	-18.04734	0	3	100	0	100	1.053006	-15.96407	57.6781	
17:29:14	0	0	0	0.1916029	-16.27984	0	3	100	0	100	1.067814	-15.97171	57.6706	
17:29:14	0	0	0	0.2226251	-13.98306	0	3	100	0	100	1.063387	-15.97074	57.67212	
17:29:15	0	0	0	0.2517587	-11.87683	0	3	100	0	100	1.064657	-15.97916	57.64468	
17:29:15	0	0	0	0.2080163	-13.20636	0	3	100	0	100	1.05061	-15.97603	57.64493	
17:29:15	0	0	0	0.161443	-14.5721	0	3	100	0	100	1.049501	-15.97506	57.63111	
17:29:15	0	0	0	0.2010549	-11.80045	0	3	100	0	100	1.043468	-15.97891	57.62037	
17:29:15	0	0	0	0.2423966	-9.00428	0	3	100	0	100	1.042907	-15.96903	57.6108	
