Date	Latitude(deg) 	Longitude(deg)	hamsl(m)	hafl(m)	climbrate(cm/s)	GroundSpeed(m/s)	Airspeed(m/s)	Mav_Link(%)	Rssi_Link(%)	Throttle	Roll(deg)	Pitch(deg)	Yaw(deg)
10:09:10	-6.733779	38.95365	130.002	0	0	0.18	0	100	0	0	5.989599	-3.851455	-126.2114	
10:09:10	-6.733779	38.95365	130.029	1.170425	-0.408785	0.14	3	100	0	6	5.766852	-3.958921	-126.175	
10:09:10	-6.733778	38.95364	133.875	1.06501	-7.837906	0.5	3	100	0	6	5.557537	-3.660697	-126.0634	
10:09:11	-6.733777	38.95364	133.777	0.9013714	-17.75779	0.26	3	100	0	6	6.307847	-4.045969	-126.0177	
10:09:11	-6.733777	38.95364	133.811	0.6254694	-32.82048	0.16	3	100	0	6	6.094816	-3.70844	-125.9607	
10:09:11	-6.733777	38.95364	133.713	0.2590015	-51.03492	0.37	3	100	0	6	5.983578	-3.988272	-125.9346	
10:09:11	-6.733777	38.95364	133.745	0.1905095	-51.17163	0.09	3	100	0	6	5.501507	-3.689369	-125.9021	
10:09:11	-6.733777	38.95364	133.79	0.3870609	-37.92109	0.42	3	100	0	6	5.980884	-4.021305	-125.8586	
10:09:12	-6.733777	38.95364	133.747	0.6195197	-23.76691	0.06	3	100	0	6	5.458563	-3.833704	-125.792	
10:09:12	-6.733777	38.95364	133.661	0.8820025	-10.0619	0.13	3	100	0	6	5.939656	-3.957446	-125.8255	
10:09:12	-6.733777	38.95364	133.58	1.087654	0.03643371	0.09	3	100	0	6	5.819041	-4.053765	-125.79	
10:09:12	-6.733777	38.95364	133.471	1.251572	7.061675	0.14	3	100	0	6	5.984497	-3.9295	-125.6936	
10:09:12	-6.733777	38.95364	133.41	1.368276	10.81423	0.16	3	100	0	6	5.759534	-3.737766	-125.6129	
10:09:13	-6.733778	38.95364	133.325	1.450107	12.49916	0.28	3	100	0	6	5.645789	-3.822164	-125.6208	
10:09:13	-6.733778	38.95364	133.161	1.513616	13.36075	0.12	3	100	0	6	5.466127	-3.626321	-125.6316	
10:09:13	-6.733778	38.95364	133.093	1.57816	13.31569	0.18	3	100	0	6	5.693447	-3.595095	-125.6736	
10:09:13	-6.733778	38.95364	133.16	1.585888	11.00074	0.08	3	100	0	6	5.906473	-3.583619	-125.6175	
10:09:13	-6.733778	38.95364	133.171	1.540295	5.434356	0.19	3	100	0	6	5.847253	-3.701474	-125.6039	
10:09:14	-6.733778	38.95364	133.098	1.49105	0.4840258	0.22	3	100	0	6	5.948138	-3.684079	-125.6055	
10:09:14	-6.733778	38.95364	133.09	1.433208	-4.632476	0.19	3	100	0	6	5.965913	-3.63062	-125.6059	
10:09:14	-6.733778	38.95364	133.082	1.383013	-8.196388	0.07	3	100	0	6	5.841721	-3.745378	-125.4916	
10:09:14	-6.733778	38.95364	132.992	1.365249	-10.88968	0.11	3	100	0	6	5.603137	-3.580504	-125.4114	
10:09:14	-6.733779	38.95364	132.846	1.346313	-12.78649	0.04	3	100	0	6	5.523272	-3.609916	-125.4341	
10:09:15	-6.733779	38.95364	132.731	1.33106	-14.82492	0.21	3	100	0	6	5.552213	-3.634854	-125.4733	
10:09:15	-6.73378	38.95364	132.741	1.31743	-15.61943	0.09	3	100	0	6	5.442964	-3.687325	-125.5015	
10:09:15	-6.733779	38.95364	132.696	1.269035	-17.7184	0.25	3	100	0	6	5.668798	-3.468723	-125.3542	
10:09:15	-6.733779	38.95364	132.518	1.225039	-19.93059	0.42	3	100	0	6	5.855498	-3.392019	-125.3923	
10:09:15	-6.73378	38.95364	132.609	1.176512	-22.30868	0.21	3	100	0	6	5.459733	-3.380264	-125.4267	
10:09:16	-6.73378	38.95364	132.652	1.134255	-23.19873	0.06	3	100	0	6	6.100965	-3.426964	-125.5087	
10:09:16	-6.733779	38.95364	132.545	1.097202	-23.90937	0.01	3	100	0	6	5.884325	-3.566397	-125.4025	
10:09:16	-6.733779	38.95364	132.52	1.06865	-24.59897	0.12	3	100	0	6	5.913473	-3.54382	-125.3936	
10:09:16	-6.733779	38.95364	132.464	1.08469	-22.59009	0.07	3	100	0	6	5.958838	-3.416078	-125.4225	
10:09:16	-6.733779	38.95364	132.497	1.105099	-20.37568	0.09	3	100	0	6	5.891761	-3.452902	-125.4433	
10:09:17	-6.733779	38.95364	132.558	1.119481	-19.26224	0.14	3	100	0	6	5.97789	-3.550629	-125.4343	
10:09:17	-6.733779	38.95364	132.596	1.135315	-17.73113	0.19	3	100	0	6	5.901718	-3.666274	-125.3672	
10:09:17	-6.733779	38.95364	132.592	1.103532	-18.91798	0.09	3	100	0	6	5.811009	-3.370176	-125.3812	
10:09:17	-6.73378	38.95364	132.804	1.075501	-20.05815	0.33	3	100	0	6	5.711605	-3.524834	-125.4136	
10:09:17	-6.733781	38.95364	132.907	1.029744	-21.43991	0.09	3	100	0	6	5.50534	-3.42084	-125.4312	
10:09:18	-6.733781	38.95364	133.001	0.9864205	-23.3485	0.22	3	100	0	6	5.781063	-3.633605	-125.3189	
10:09:18	-6.733782	38.95364	133.233	0.9651161	-23.48446	0.19	3	100	0	6	5.837674	-3.777623	-125.3216	
10:09:18	-6.733782	38.95364	133.247	0.9483995	-23.1484	0.29	3	100	0	6	5.770125	-3.737985	-125.3251	
10:09:18	-6.733782	38.95364	133.356	0.8912377	-25.13122	0.06	3	100	0	6	6.043135	-3.69984	-125.3479	
10:09:18	-6.733782	38.95364	133.561	0.8407715	-26.9848	0.06	3	100	0	6	5.796472	-3.534457	-125.2555	
10:09:19	-6.733782	38.95364	133.742	0.799603	-28.19035	0.31	3	100	0	6	5.726665	-3.414507	-125.2533	
10:09:19	-6.733783	38.95364	133.857	0.7602208	-29.04272	0.08	3	100	0	6	5.50632	-3.327108	-125.2858	
10:09:19	-6.733783	38.95364	133.946	0.7436155	-28.68594	0.14	3	100	0	6	5.759676	-3.501507	-125.3661	
10:09:19	-6.733783	38.95364	134.099	0.7548639	-26.08052	0.18	3	100	0	6	5.790902	-3.556377	-125.3981	
10:09:19	-6.733784	38.95363	134.158	0.7894559	-23.063	0.18	3	100	0	6	5.912856	-3.595517	-125.3005	
10:09:20	-6.733784	38.95363	134.301	0.859684	-18.03674	0.13	3	100	0	6	5.751008	-3.501093	-125.2517	
10:09:20	-6.733784	38.95363	134.343	0.9113559	-14.36245	0.06	3	100	0	6	5.823671	-3.310077	-125.2909	
10:09:20	-6.733783	38.95363	134.412	0.9509363	-12.50212	0.13	3	100	0	6	5.892326	-3.350404	-125.3372	
10:09:20	-6.733783	38.95363	134.448	0.9764267	-11.05808	0.07	3	100	0	6	5.975919	-3.403829	-125.313	
10:09:20	-6.733782	38.95363	134.44	0.9893839	-10.3652	0.26	3	100	0	6	5.748457	-3.258309	-125.29	
10:09:21	-6.733783	38.95364	134.333	0.9926615	-10.05724	0.21	3	100	0	6	5.578682	-3.252726	-125.3315	
10:09:21	-6.733783	38.95364	134.304	0.9845525	-10.7462	0.25	3	100	0	6	5.635922	-3.263781	-125.3907	
10:09:21	-6.733783	38.95364	134.096	0.9916974	-9.699435	0.22	3	100	0	6	5.679497	-3.04232	-125.464	
10:09:21	-6.733784	38.95364	133.974	1.018442	-8.53851	0.19	3	100	0	6	5.718042	-3.282945	-125.3831	
10:09:21	-6.733784	38.95364	133.947	1.042398	-7.861548	0.06	3	100	0	6	5.996995	-3.047594	-125.4266	
10:09:22	-6.733784	38.95364	134.013	1.064439	-6.992833	0.19	3	100	0	6	5.859756	-3.16735	-125.4679	
10:09:22	-6.733784	38.95364	134.01	1.070667	-6.872421	0.04	3	100	0	6	5.793384	-3.30989	-125.5013	
10:09:22	-6.733784	38.95364	134.053	1.064378	-7.266689	0.25	3	100	0	6	5.833607	-3.081127	-125.5079	
10:09:22	-6.733784	38.95364	134.082	1.097772	-5.623366	0.11	3	100	0	6	5.761821	-3.042547	-125.5117	
10:09:22	-6.733784	38.95364	134.133	1.15255	-3.378127	0.13	3	100	0	6	6.048417	-3.134581	-125.5811	
10:09:23	-6.733785	38.95364	134.401	1.17091	-3.416154	0.09	3	100	0	6	5.883917	-3.074979	-125.6071	
10:09:23	-6.733785	38.95364	134.556	1.158925	-4.908034	0.19	3	100	0	6	5.978214	-3.122182	-125.661	
10:09:23	-6.733785	38.95364	134.761	1.133635	-6.550628	0.17	3	100	0	6	6.111444	-3.211862	-125.6766	
10:09:23	-6.733785	38.95364	134.665	1.092545	-8.664423	0.26	3	100	0	6	6.06383	-3.101622	-125.7037	
10:09:23	-6.733785	38.95364	134.652	1.052593	-10.73192	0.24	3	100	0	6	6.044868	-3.331417	-125.721	
10:09:24	-6.733785	38.95364	134.712	1.020974	-11.91547	0.09	3	100	0	6	5.769216	-3.301518	-125.7245	
10:09:24	-6.733784	38.95364	134.684	0.9933046	-13.24978	0.52	3	100	0	6	6.048217	-2.979149	-125.6734	
10:09:24	-6.733784	38.95364	134.731	0.9690003	-13.95305	0.35	3	100	0	6	6.302553	-2.868145	-125.7038	
10:09:24	-6.733784	38.95364	135.008	0.9479482	-14.79906	0.26	3	100	0	6	6.098842	-3.256002	-125.7253	
10:09:24	-6.733784	38.95364	135.205	0.9285083	-16.00536	0.11	3	100	0	6	5.925573	-3.192797	-125.738	
10:09:25	-6.733785	38.95364	135.251	0.9077995	-16.27814	0.79	3	100	0	6	5.674933	-3.039111	-125.7302	
10:09:25	-6.733786	38.95364	135.427	0.8761585	-17.76908	0.57	3	100	0	6	5.151253	-3.004916	-125.6665	
10:09:25	-6.733787	38.95364	135.547	0.845479	-18.13176	0.12	3	100	0	6	5.589725	-3.083313	-125.7688	
10:09:25	-6.733787	38.95364	135.817	0.793372	-19.42294	0.12	3	100	0	6	6.098413	-3.009408	-125.8513	
10:09:25	-6.733787	38.95364	135.846	0.7446735	-20.68089	0.18	3	100	0	6	6.05086	-2.950567	-125.8909	
10:09:26	-6.733786	38.95364	135.938	0.7463982	-19.30992	0.17	3	100	0	6	6.388292	-2.912749	-125.8157	
10:09:26	-6.733786	38.95364	135.992	0.750357	-17.91977	0.19	3	100	0	6	6.331555	-2.785728	-125.8256	
10:09:26	-6.733785	38.95364	135.93	0.7455313	-17.37342	0.44	3	100	0	6	6.368837	-2.790685	-125.8766	
10:09:26	-6.733785	38.95364	135.969	0.7428756	-16.60711	0.39	3	100	0	6	6.508284	-2.877929	-125.9164	
10:09:26	-6.733784	38.95364	135.91	0.7575164	-14.97116	0.26	3	100	0	6	6.383327	-2.83613	-125.8591	
10:09:27	-6.733784	38.95364	135.944	0.7739034	-13.7672	0.22	3	100	0	6	6.247745	-2.855832	-125.8091	
10:09:27	-6.733784	38.95364	136.053	0.7742386	-12.92708	0.09	3	100	0	6	6.146149	-2.888822	-125.8334	
10:09:27	-6.733784	38.95364	136.197	0.7759718	-12.12366	0.24	3	100	0	6	5.986662	-3.012337	-125.8672	
10:09:27	-6.733784	38.95364	136.032	0.7924772	-10.90534	0.45	3	100	0	5	6.045082	-2.867846	-125.8984	
10:09:27	-6.733785	38.95364	135.791	0.8099849	-9.31044	0.39	3	100	0	6	6.224276	-2.389458	-125.8188	
10:09:28	-6.733786	38.95364	135.811	0.8228071	-8.070978	0.19	3	100	0	6	5.886126	-2.640066	-125.848	
10:09:28	-6.733786	38.95364	135.929	0.8378734	-6.958038	0.19	3	100	0	6	5.980338	-2.440984	-125.9397	
10:09:28	-6.733787	38.95364	135.968	0.8588262	-5.86973	0.13	3	100	0	6	6.059869	-2.395137	-126.0394	
10:09:28	-6.733787	38.95364	135.886	0.8775326	-5.349698	0.18	3	100	0	6	6.235771	-2.291723	-126.0462	
10:09:28	-6.733788	38.95364	135.723	0.8913912	-5.157688	0.55	3	100	0	6	6.034837	-2.484785	-126.0628	
10:09:29	-6.733788	38.95364	135.591	0.9040062	-5.124804	0.36	3	100	0	6	6.12477	-2.596717	-126.1181	
10:09:29	-6.733789	38.95364	135.518	0.9190935	-4.389759	0.19	3	100	0	6	6.324507	-2.32759	-126.2044	
10:09:29	-6.733789	38.95364	135.454	0.9322016	-3.64297	0.14	3	100	0	6	6.152972	-2.492664	-126.2359	
10:09:29	-6.733789	38.95364	135.329	0.9823632	-1.214099	0.14	3	100	0	3	6.192039	-2.319899	-126.1859	
10:09:29	-6.733789	38.95364	135.21	1.069507	2.183259	0.11	3	100	0	6	6.076873	-2.440373	-126.2431	
10:09:30	-6.733789	38.95364	135.201	1.101036	2.779598	0.21	3	100	0	6	5.963329	-2.532366	-126.3068	
10:09:30	-6.73379	38.95364	135.096	1.103276	2.040126	0.36	3	100	0	6	6.077417	-2.373756	-126.3995	
10:09:30	-6.73379	38.95364	135.028	1.088051	0.3076433	0.17	3	100	0	6	6.222974	-2.373946	-126.3952	
10:09:30	-6.73379	38.95364	134.862	1.061916	-2.000117	0.11	3	100	0	5	6.067011	-2.545987	-126.4209	
10:09:30	-6.73379	38.95364	134.769	1.042509	-3.72641	0.12	3	100	0	6	6.174273	-2.414638	-126.4774	
10:09:31	-6.733791	38.95364	134.614	1.024728	-5.133317	0.22	3	100	0	6	6.138917	-2.386613	-126.5356	
10:09:31	-6.733791	38.95364	134.458	1.028997	-4.406654	0.22	3	100	0	6	6.157033	-2.370651	-126.5993	
10:09:31	-6.733791	38.95365	134.269	1.054262	-2.844998	0.03	3	100	0	6	6.207378	-2.509649	-126.5473	
10:09:31	-6.733791	38.95365	134.114	1.067345	-2.880633	0.13	3	100	0	3	6.15448	-2.76221	-126.5537	
10:09:31	-6.733792	38.95365	133.936	1.065589	-2.963977	0.14	3	100	0	6	6.154924	-2.807488	-126.5845	
10:09:32	-6.733792	38.95365	133.854	1.047775	-4.299901	0.16	3	100	0	6	6.095109	-2.678602	-126.6087	
10:09:32	-6.733792	38.95365	133.627	1.019714	-6.579728	0.22	3	100	0	6	6.045055	-2.846871	-126.5618	
10:09:32	-6.733793	38.95365	133.428	0.9965085	-8.440065	0.09	3	100	0	6	6.011288	-3.053631	-126.5299	
10:09:32	-6.733793	38.95365	133.325	0.9781194	-8.638775	0.24	3	100	0	6	5.858441	-2.855844	-126.5604	
10:09:32	-6.733794	38.95365	133.302	0.9546037	-9.571039	0.14	3	100	0	6	5.882955	-2.82695	-126.6223	
10:09:33	-6.733794	38.95365	133.115	0.9229236	-11.32422	0.04	3	100	0	6	5.940958	-2.999735	-126.6711	
10:09:33	-6.733794	38.95365	132.968	0.9046389	-11.25215	0.09	3	100	0	6	5.836052	-2.883616	-126.6519	
10:09:33	-6.733794	38.95365	132.762	0.8991799	-10.98309	0.02	3	100	0	6	5.829987	-2.885109	-126.6228	
10:09:33	-6.733794	38.95366	132.61	0.8817659	-11.69515	0.07	3	100	0	6	5.812366	-2.941412	-126.6514	
10:09:33	-6.733794	38.95366	132.54	0.8446168	-13.07829	0.19	3	100	0	6	5.883933	-2.989999	-126.7007	
10:09:34	-6.733795	38.95366	132.44	0.8148142	-14.22763	0.11	3	100	0	4	5.8435	-3.009023	-126.6418	
10:09:34	-6.733795	38.95366	132.242	0.8057635	-14.03086	0.03	3	100	0	6	5.698306	-2.922796	-126.6015	
10:09:34	-6.733796	38.95366	132.109	0.7989646	-13.37331	0.09	3	100	0	6	5.715798	-2.921971	-126.6557	
10:09:34	-6.733797	38.95366	131.933	0.8086266	-11.83312	0.09	3	100	0	6	5.768632	-2.850123	-126.7137	
10:09:34	-6.733797	38.95366	131.801	0.817959	-11.0099	0.35	3	100	0	6	5.813592	-2.601256	-126.7535	
10:09:35	-6.733797	38.95366	131.768	0.8228688	-10.32428	0.18	3	100	0	6	5.65672	-2.643205	-126.6988	
10:09:35	-6.733798	38.95366	131.605	0.8287296	-9.250339	0.04	3	100	0	6	5.626419	-2.871112	-126.7587	
10:09:35	-6.733798	38.95366	131.606	0.8559296	-7.801382	0.07	3	100	0	6	5.743052	-2.894748	-126.8145	
10:09:35	-6.733799	38.95366	131.458	0.8825775	-6.321351	0.13	3	100	0	6	5.710008	-2.800409	-126.8348	
10:09:35	-6.733799	38.95366	131.36	0.9310001	-3.96544	0.14	3	100	0	6	5.696744	-2.767499	-126.7744	
10:09:36	-6.733799	38.95366	131.2	0.9742818	-1.730869	0.16	3	100	0	5	5.655488	-2.744904	-126.7961	
10:09:36	-6.733799	38.95366	131.097	0.9759686	-2.291567	0.35	3	100	0	6	5.470216	-2.665388	-126.8496	
10:09:36	-6.733799	38.95366	131.052	0.977052	-2.29794	0.07	3	100	0	6	5.556626	-2.752165	-126.9269	
10:09:36	-6.733799	38.95366	130.847	0.9812913	-2.357322	0.14	3	100	0	6	5.708268	-2.82134	-126.958	
10:09:36	-6.733799	38.95366	130.77	0.9846207	-2.886483	0.11	3	100	0	6	5.689901	-2.908019	-126.8429	
10:09:37	-6.733798	38.95366	130.558	0.9747188	-3.655723	0.42	3	100	0	6	5.574978	-2.762973	-126.8686	
10:09:37	-6.733798	38.95366	130.467	0.9652389	-4.340719	0.09	3	100	0	6	5.487285	-2.707063	-126.9317	
10:09:37	-6.733798	38.95366	130.36	0.9554058	-4.606569	0.33	3	100	0	6	5.644771	-2.7121	-127.0134	
10:09:37	-6.733798	38.95366	130.241	0.9455899	-5.213207	0.25	3	100	0	6	5.832734	-2.639164	-126.8988	
10:09:37	-6.733798	38.95366	130.17	0.9450453	-5.058967	0.72	3	100	0	6	5.566092	-2.609839	-126.8964	
10:09:38	-6.733799	38.95366	130.314	0.9447483	-4.811125	1.01	3	100	0	6	4.984724	-2.498013	-126.9649	
10:09:38	-6.733799	38.95366	130.564	0.9556671	-4.165596	1.16	3	100	0	6	4.760288	-2.417738	-127.0917	
10:09:38	-6.7338	38.95366	130.723	0.9658177	-3.627893	1.14	3	100	0	6	4.679278	-2.503337	-127.1154	
10:09:38	-6.733801	38.95366	130.809	0.9924514	-2.865418	1.07	3	100	0	6	4.739615	-2.524887	-127.1569	
10:09:38	-6.733801	38.95366	130.846	1.019317	-1.386952	0.65	3	100	0	6	4.996258	-2.629727	-127.2938	
10:09:39	-6.733802	38.95367	130.534	1.028081	-1.73549	0.13	3	100	0	6	5.658695	-2.924968	-127.3996	
10:09:39	-6.733801	38.95367	130.344	1.014322	-2.654801	0.17	3	100	0	6	5.811736	-2.874487	-127.3814	
10:09:39	-6.733801	38.95367	130.22	0.9997517	-3.517307	0.24	3	100	0	6	5.736489	-3.04095	-127.2255	
10:09:39	-6.733802	38.95367	130.092	0.9831004	-4.18417	0.24	3	100	0	6	5.721004	-3.176431	-127.2084	
10:09:39	-6.733802	38.95367	129.915	0.9812434	-4.263968	0.09	3	100	0	6	5.739944	-3.085672	-127.2115	
10:09:40	-6.733801	38.95367	129.593	0.98573	-4.860596	0.31	3	100	0	6	5.829589	-3.184467	-127.2378	
10:09:40	-6.733801	38.95367	129.376	0.9794836	-5.280285	0.36	3	100	0	6	5.834251	-2.86753	-127.1458	
10:09:40	-6.7338	38.95367	129.031	0.9669057	-6.028175	0.29	3	100	0	6	5.989686	-2.806925	-127.1654	
10:09:40	-6.733799	38.95367	128.475	0.9582174	-6.548206	0.07	3	100	0	6	5.923151	-3.006368	-127.1683	
10:09:40	-6.733798	38.95367	127.868	0.9537864	-6.457289	0.09	3	100	0	6	5.730801	-3.111898	-127.1753	
10:09:41	-6.733797	38.95367	127.601	0.9541974	-6.321262	0.12	3	100	0	6	5.664938	-3.171307	-127.163	
10:09:41	-6.733797	38.95367	127.123	0.9632128	-5.398705	0.21	3	100	0	6	5.802272	-3.124247	-127.0828	
10:09:41	-6.733796	38.95368	126.898	0.9665753	-4.806046	0.21	3	100	0	6	5.871919	-2.975088	-127.0688	
10:09:41	-6.733795	38.95367	126.866	0.9654056	-4.5896	0.24	3	100	0	6	5.674909	-3.113364	-127.0851	
10:09:41	-6.733795	38.95367	126.8	0.9409828	-5.921062	0.33	3	100	0	6	5.712991	-3.268781	-127.1037	
10:09:42	-6.733796	38.95367	126.691	0.9047478	-7.039742	0.87	3	100	0	6	5.339157	-3.559484	-126.9872	
10:09:42	-6.733797	38.95367	126.645	0.8643723	-8.513762	0.69	3	100	0	6	5.532948	-3.708594	-126.9309	
10:09:42	-6.733797	38.95367	126.639	0.8228847	-10.30877	0.33	3	100	0	6	5.552563	-3.400607	-126.9087	
10:09:42	-6.733797	38.95367	126.292	0.790166	-11.81031	0.26	3	100	0	6	5.714261	-2.960007	-126.9424	
10:09:42	-6.733796	38.95368	126.123	0.7585887	-12.50126	0.19	3	100	0	6	5.904029	-2.954207	-126.9919	
10:09:43	-6.733796	38.95367	126.072	0.7607701	-10.62202	0.32	3	100	0	6	5.887386	-3.17081	-126.9114	
10:09:43	-6.733796	38.95368	125.935	0.8051612	-7.613269	0.13	3	100	0	6	5.785905	-3.161226	-126.9202	
10:09:43	-6.733796	38.95368	125.84	0.8667654	-4.113871	0.08	3	100	0	6	5.737602	-3.007183	-126.9474	
10:09:43	-6.733796	38.95367	126.079	0.9301351	-0.7787886	0.07	3	100	0	6	5.723772	-2.930851	-126.984	
10:09:43	-6.733795	38.95367	125.888	0.9865893	1.714731	0.89	3	100	0	6	5.953348	-3.472557	-126.9725	
10:09:44	-6.733795	38.95367	125.57	0.9947437	1.721517	0.14	3	100	0	6	5.801327	-2.964634	-126.9268	
10:09:44	-6.733795	38.95367	125.357	1.00042	1.063409	0.35	3	100	0	6	5.639838	-2.917439	-126.9647	
10:09:44	-6.733795	38.95368	124.969	1.024871	2.897761	0.19	3	100	0	6	5.560682	-2.549596	-127.002	
10:09:44	-6.733794	38.95368	124.744	1.046283	2.796635	0.06	3	100	0	6	5.508944	-2.551625	-127.0266	
10:09:44	-6.733794	38.95368	124.448	1.063409	3.211107	0.29	3	100	0	6	5.460813	-2.427609	-126.9973	
10:09:45	-6.733794	38.95368	124.231	1.079062	3.009255	0.19	3	100	0	6	5.33204	-2.543852	-127.0844	
10:09:45	-6.733794	38.95368	123.96	1.124864	4.961264	0.12	3	100	0	6	5.525427	-2.692886	-127.1759	
10:09:45	-6.733794	38.95368	123.616	1.169509	6.437358	0.29	3	100	0	6	5.309054	-2.798969	-127.2158	
10:09:45	-6.733794	38.95368	123.547	1.198017	6.651893	0.19	3	100	0	6	5.300442	-2.653263	-127.1254	
10:09:45	-6.733793	38.95368	123.324	1.222759	7.527649	0.06	3	100	0	6	5.427347	-2.645703	-127.1812	
10:09:46	-6.733792	38.95368	123.069	1.239375	7.584283	0.21	3	100	0	6	5.607834	-2.597429	-127.2575	
10:09:46	-6.733791	38.95368	122.891	1.252895	7.570868	0.22	3	100	0	6	5.610279	-2.523479	-127.3099	
10:09:46	-6.73379	38.95368	122.635	1.248079	6.497478	0.08	3	100	0	6	5.46139	-2.684703	-127.3011	
10:09:46	-6.73379	38.95368	122.567	1.242213	5.874221	0.09	3	100	0	6	5.522032	-2.840692	-127.3261	
10:09:46	-6.733789	38.95368	122.299	1.212049	3.75796	0.48	3	100	0	6	5.111897	-2.807827	-127.3658	
10:09:47	-6.733789	38.95368	122.015	1.189311	2.214338	0.14	3	100	0	6	5.260894	-2.771665	-127.4592	
10:09:47	-6.733789	38.95368	121.989	1.196796	1.846112	0.08	3	100	0	5	5.510701	-2.865606	-127.52	
10:09:47	-6.733789	38.95368	121.993	1.202947	1.456344	0.5	3	100	0	6	5.546032	-3.232902	-127.5029	
10:09:47	-6.733789	38.95368	121.988	1.214462	2.228904	0.01	3	100	0	6	5.527848	-2.944604	-127.4901	
10:09:47	-6.733789	38.95368	122.131	1.224787	2.411826	0.31	3	100	0	6	5.28449	-2.698185	-127.5163	
10:09:48	-6.733789	38.95368	122.036	1.218471	1.086494	0.12	3	100	0	6	5.333281	-2.792023	-127.5794	
10:09:48	-6.733789	38.95368	121.794	1.211967	0.4932411	0.21	3	100	0	6	5.671726	-2.729651	-127.594	
10:09:48	-6.733789	38.95368	121.772	1.211438	-0.04973707	0.32	3	100	0	6	5.850837	-2.847086	-127.5163	
10:09:48	-6.733788	38.95368	121.489	1.210257	-0.2685446	0.32	3	100	0	6	5.516919	-3.045254	-127.5105	
10:09:48	-6.733789	38.95368	121.345	1.182343	-1.742036	0.11	3	100	0	6	5.389682	-2.961215	-127.5302	
10:09:49	-6.733789	38.95368	121.44	1.121444	-4.644083	0.45	3	100	0	6	5.208311	-3.03682	-127.5394	
10:09:49	-6.733789	38.95368	121.489	1.061548	-7.229984	0.08	3	100	0	6	5.352018	-2.83193	-127.4865	
10:09:49	-6.733788	38.95368	121.258	0.9978129	-9.635541	0.29	3	100	0	6	5.68551	-2.901594	-127.5531	
10:09:49	-6.733788	38.95368	121.258	0.9600797	-10.98033	0.29	3	100	0	5	5.620564	-3.183015	-127.5792	
10:09:49	-6.733787	38.95368	120.927	0.9361532	-11.47995	0.34	3	100	0	6	5.301755	-2.731422	-127.5832	
10:09:50	-6.733787	38.95368	120.701	0.9146648	-11.83118	0.29	3	100	0	6	5.426391	-2.536396	-127.5313	
10:09:50	-6.733786	38.95368	120.646	0.8960119	-11.75047	0.19	3	100	0	7	5.322935	-2.564528	-127.5682	
10:09:50	-6.733786	38.95368	120.698	0.8889847	-10.88674	0.39	3	100	0	5	5.199197	-2.831932	-127.6383	
10:09:50	-6.733786	38.95368	120.38	0.8921664	-9.648685	0.31	3	100	0	6	5.263493	-3.196908	-127.6866	
10:09:51	-6.733785	38.95368	120.299	0.9276542	-7.286305	0.09	3	100	0	6	5.320911	-2.603961	-127.6612	
10:09:51	-6.733785	38.95368	120.356	0.9895716	-3.311317	0.11	3	100	0	6	5.335328	-2.820742	-127.6021	
10:09:51	-6.733784	38.95368	120.108	1.050594	-0.1092688	0.48	3	100	0	6	5.265834	-2.823932	-127.6368	
10:09:51	-6.733784	38.95368	120.074	1.109601	2.359036	0.02	3	100	0	6	5.016192	-2.428513	-127.6999	
10:09:51	-6.733784	38.95368	120.115	1.133061	3.161197	0.29	3	100	0	6	5.261075	-2.624048	-127.8132	
10:09:52	-6.733783	38.95368	120.093	1.135965	2.682103	0.25	3	100	0	6	5.075355	-2.802548	-127.7087	
10:09:52	-6.733783	38.95368	120.044	1.12454	2.00303	0.14	3	100	0	6	5.277017	-2.954111	-127.7704	
10:09:52	-6.733782	38.95368	120.005	1.105924	0.5706071	0.22	3	100	0	6	5.294279	-2.894778	-127.807	
10:09:52	-6.733782	38.95368	120.09	1.092013	-0.005513639	0.18	3	100	0	6	5.30217	-2.971271	-127.8505	
10:09:52	-6.733782	38.95368	119.957	1.082677	-0.3974891	0.26	3	100	0	6	5.376546	-2.95964	-127.8247	
10:09:52	-6.733782	38.95368	120.06	1.081994	-0.3812237	0.56	3	100	0	6	5.272383	-3.046419	-127.7831	
10:09:53	-6.733781	38.95368	120.153	1.089267	0.3795577	0.63	3	100	0	6	5.432346	-3.274895	-127.8091	
10:09:53	-6.733781	38.95368	120.19	1.106839	0.7978349	0.34	3	100	0	6	5.486351	-3.388649	-127.8078	
10:09:53	-6.733781	38.95368	120.232	1.133036	2.353387	0.66	3	100	0	6	5.274175	-3.199134	-127.7923	
10:09:53	-6.733781	38.95368	120.126	1.155995	2.920301	0.42	3	100	0	6	5.391191	-3.42336	-127.6893	
10:09:53	-6.73378	38.95368	120.179	1.178313	3.918637	0.87	3	100	0	6	5.394135	-3.236751	-127.6568	
10:09:54	-6.73378	38.95368	120.175	1.198372	5.132854	0.71	3	100	0	6	5.500985	-3.47386	-127.6722	
10:09:54	-6.73378	38.95368	120.115	1.212746	5.416121	0.98	3	100	0	7	5.416241	-3.352729	-127.6433	
10:09:54	-6.733779	38.95368	120.134	1.224921	5.560266	0.09	3	100	0	6	5.401521	-3.543672	-127.6205	
10:09:54	-6.733779	38.95368	120.399	1.259699	6.937694	0.12	3	100	0	6	5.263844	-2.779749	-127.5943	
10:09:54	-6.733779	38.95368	120.495	1.290088	7.564777	0.32	3	100	0	6	5.152483	-2.71259	-127.6542	
10:09:55	-6.733778	38.95368	120.492	1.321689	8.406184	0.42	3	100	0	6	5.512784	-2.568347	-127.7264	
10:09:55	-6.733778	38.95368	120.491	1.348751	9.062282	0.81	3	100	0	6	5.704399	-2.659465	-127.7797	
10:09:55	-6.733778	38.95368	120.433	1.355166	8.075499	0.22	3	100	0	6	5.274724	-3.219285	-127.6705	
10:09:55	-6.733777	38.95368	120.279	1.358441	7.228622	0.11	3	100	0	6	5.478109	-2.603952	-127.6635	
10:09:55	-6.733776	38.95368	120.138	1.348184	5.83078	0.04	3	100	0	6	5.303375	-2.552968	-127.7091	
10:09:56	-6.733776	38.95368	120.151	1.338948	4.867889	0.42	3	100	0	6	5.438684	-2.562149	-127.7712	
10:09:56	-6.733776	38.95368	120.2	1.331974	3.970438	0.11	3	100	0	6	5.506202	-3.041004	-127.707	
10:09:56	-6.733775	38.95368	120.199	1.324804	3.189661	0.19	3	100	0	6	5.33135	-2.742372	-127.6783	
10:09:56	-6.733774	38.95368	120.024	1.255299	-0.9199331	0.22	3	100	0	6	5.460461	-2.439736	-127.7485	
10:09:56	-6.733774	38.95368	119.905	1.190906	-4.643558	0.25	3	100	0	6	5.570572	-3.167621	-127.7954	
10:09:57	-6.733774	38.95368	119.822	1.119559	-8.339543	0.79	3	100	0	6	5.571272	-3.303813	-127.7755	
10:09:57	-6.733773	38.95368	119.818	1.054507	-11.65125	0.39	3	100	0	6	5.694484	-3.745406	-127.6284	
10:09:57	-6.733773	38.95368	120.03	1.022471	-12.70807	0.74	3	100	0	6	5.425288	-3.420665	-127.5631	
10:09:57	-6.733771	38.95368	120.164	0.9951007	-13.20977	0.34	3	100	0	6	5.838855	-3.48412	-127.5816	
10:09:58	-6.733771	38.95368	120.118	1.080409	-7.396436	0.7	3	100	0	6	5.581154	-3.288967	-127.5502	
10:09:58	-6.733771	38.95368	120.016	1.159454	-2.701866	0.19	3	100	0	6	5.384656	-3.845052	-127.4307	
10:09:58	-6.73377	38.95368	120.196	1.265968	2.936186	0.48	3	100	0	6	5.119877	-3.488739	-127.2873	
10:09:58	-6.73377	38.95368	120.487	1.36174	7.315641	0.61	3	100	0	6	5.520609	-3.810023	-127.3277	
10:09:58	-6.733769	38.95368	120.545	1.422158	9.97909	0.38	3	100	0	6	5.880892	-3.778441	-127.3238	
10:09:59	-6.733769	38.95368	120.54	1.441303	10.14845	0.14	3	100	0	6	5.371934	-3.731678	-127.2532	
10:09:59	-6.733769	38.95368	120.584	1.440773	9.058444	0.47	3	100	0	6	5.286965	-3.391217	-127.1752	
10:09:59	-6.733767	38.95368	120.322	1.416001	6.721691	0.24	3	100	0	6	4.973126	-3.181975	-127.1873	
10:09:59	-6.733767	38.95368	120.454	1.386648	3.731722	0.42	3	100	0	6	5.631169	-3.442016	-127.2608	
10:09:59	-6.733765	38.95368	120.446	1.351342	1.203271	0.22	3	100	0	6	5.780203	-3.65345	-127.263	
10:10:00	-6.733764	38.95368	120.631	1.32477	-0.1164581	0.18	3	100	0	6	5.693396	-3.542867	-127.1248	
10:10:00	-6.733763	38.95368	120.584	1.298614	-1.528985	0.24	3	100	0	6	5.29623	-3.410449	-127.0675	
10:10:00	-6.733762	38.95368	120.416	1.275008	-2.199769	0.32	3	100	0	6	5.462667	-3.627284	-127.0809	
10:10:00	-6.733761	38.95368	120.471	1.253629	-3.238548	0.19	3	100	0	6	5.781188	-3.507599	-127.1008	
10:10:00	-6.733761	38.95368	120.796	1.258216	-2.68133	0.29	3	100	0	6	5.541308	-3.576339	-127.045	
10:10:01	-6.73376	38.95368	120.874	1.286964	-1.123959	0.16	3	100	0	6	5.155732	-3.539306	-126.8909	
10:10:01	-6.733759	38.95368	121.03	1.326941	1.650919	0.29	3	100	0	6	5.631748	-3.407187	-126.9303	
10:10:01	-6.733758	38.95368	121.011	1.378545	4.275388	0.42	3	100	0	6	5.259014	-3.198842	-126.9363	
10:10:01	-6.733757	38.95368	121.039	1.423331	6.01014	0.19	3	100	0	6	5.867382	-3.707963	-126.9998	
10:10:01	-6.733757	38.95368	121.222	1.455387	6.98208	0.53	3	100	0	6	5.761156	-3.541711	-126.8264	
10:10:02	-6.733755	38.95368	121.632	1.463099	6.935153	0.35	3	100	0	6	6.042469	-3.768617	-126.7837	
10:10:02	-6.733755	38.95368	121.715	1.456398	5.81976	0.38	3	100	0	6	5.561618	-3.261975	-126.7516	
10:10:02	-6.733755	38.95368	121.997	1.456542	4.917734	0.45	3	100	0	6	5.021004	-4.234872	-126.7379	
10:10:02	-6.733754	38.95368	122.155	1.46215	4.472422	0.25	3	100	0	6	5.871606	-3.725114	-126.7091	
10:10:02	-6.733754	38.95368	122.14	1.473366	3.738183	0.34	3	100	0	6	4.680792	-4.148266	-126.558	
10:10:03	-6.733754	38.95368	122.207	1.489285	3.816101	0.33	3	100	0	6	4.737996	-4.455644	-126.5739	
10:10:03	-6.733753	38.95368	122.368	1.498842	3.708772	0.16	3	100	0	6	4.908326	-4.479752	-126.5794	
10:10:03	-6.733752	38.95368	122.521	1.502431	2.899746	0.34	3	100	0	6	4.977056	-4.260149	-126.5589	
10:10:03	-6.733751	38.95368	122.66	1.503578	1.987115	0.24	3	100	0	6	5.250621	-4.019421	-126.5017	
10:10:03	-6.73375	38.95368	122.552	1.493242	1.15761	0.7	3	100	0	6	5.111	-4.230539	-126.4639	
10:10:04	-6.733749	38.95368	122.649	1.482998	0.08220714	0.14	3	100	0	6	5.009213	-4.9896	-126.4169	
10:10:04	-6.733749	38.95368	122.833	1.43803	-2.319348	0.14	3	100	0	6	4.779212	-4.422925	-126.3553	
10:10:04	-6.733749	38.95368	123.213	1.397107	-4.217052	0.16	3	100	0	6	4.864995	-4.474914	-126.2682	
10:10:04	-6.733747	38.95368	123.603	1.368119	-5.562955	0.13	3	100	0	6	5.044487	-4.303525	-126.2175	
10:10:04	-6.733747	38.95368	123.871	1.338539	-7.140188	0.13	3	100	0	6	5.038903	-4.510125	-126.2013	
10:10:05	-6.733747	38.95368	124.098	1.337787	-6.610839	0.26	3	100	0	6	4.779634	-4.330071	-126.1688	
10:10:05	-6.733746	38.95368	124.181	1.337957	-6.329008	0.29	3	100	0	6	4.702271	-4.270627	-126.1537	
10:10:05	-6.733745	38.95368	124.24	1.355306	-5.41361	0.09	3	100	0	6	5.192794	-4.5875	-126.0544	
10:10:05	-6.733744	38.95368	124.393	1.369666	-4.339303	0.26	3	100	0	6	5.104954	-4.435353	-126.0152	
10:10:05	-6.733743	38.95368	124.531	1.341078	-5.962176	0.19	3	100	0	6	5.204506	-4.545991	-126.001	
10:10:06	-6.733742	38.95368	124.555	1.315975	-6.69354	0.52	3	100	0	6	5.12976	-4.515654	-125.9638	
10:10:06	-6.733742	38.95368	124.735	1.33355	-5.501102	0.52	3	100	0	6	5.4106	-4.66199	-125.857	
10:10:06	-6.733741	38.95368	125.076	1.348292	-4.602896	0.29	3	100	0	6	5.548117	-4.345976	-125.7586	
10:10:06	-6.73374	38.95368	125.089	1.3372	-4.960721	0.39	3	100	0	6	5.287041	-4.280194	-125.7318	
10:10:06	-6.73374	38.95368	125.031	1.328132	-5.07017	0.14	3	100	0	6	5.245492	-4.445812	-125.7265	
10:10:07	-6.733739	38.95368	124.784	1.321328	-5.299417	0.35	3	100	0	6	4.909364	-4.261851	-125.7048	
10:10:07	-6.733739	38.95368	124.529	1.315391	-5.121092	0.52	3	100	0	6	4.943612	-4.426685	-125.61	
10:10:07	-6.733738	38.95368	124.703	1.268458	-6.945138	0.04	3	100	0	6	5.622009	-4.3537	-125.6449	
10:10:07	-6.733737	38.95368	124.633	1.231194	-7.911959	0.61	3	100	0	6	5.320082	-4.087727	-125.6087	
10:10:07	-6.733737	38.95368	124.663	1.190757	-9.463108	0.17	3	100	0	6	5.698468	-4.294591	-125.6402	
10:10:08	-6.733737	38.95368	124.834	1.155443	-10.38172	0.36	3	100	0	6	5.438282	-4.050476	-125.4989	
10:10:08	-6.733736	38.95368	125.017	1.111818	-11.99663	0.56	3	100	0	6	5.596754	-4.153858	-125.5026	
10:10:08	-6.733735	38.95368	125.133	1.069448	-13.32318	0.29	3	100	0	6	5.785262	-4.231655	-125.5	
10:10:08	-6.733735	38.95368	125.303	1.060894	-12.36996	0.14	3	100	0	6	5.536371	-4.048491	-125.4724	
10:10:08	-6.733735	38.95368	125.081	1.095423	-9.254234	0.29	3	100	0	6	5.291831	-4.079143	-125.433	
10:10:09	-6.733735	38.95368	125.043	1.136805	-6.578875	0.24	3	100	0	6	5.046201	-4.329992	-125.4143	
10:10:09	-6.733735	38.95368	125.079	1.190272	-3.796689	0.26	3	100	0	6	5.191888	-4.210858	-125.4233	
10:10:09	-6.733735	38.95368	125.519	1.238757	-1.36784	0.14	3	100	0	6	5.35744	-4.080523	-125.4492	
10:10:09	-6.733735	38.95368	125.533	1.286727	1.018952	0.24	3	100	0	6	5.223166	-4.015216	-125.4557	
10:10:09	-6.733735	38.95368	125.655	1.34027	3.727214	0.64	3	100	0	6	5.476485	-3.993412	-125.3493	
10:10:10	-6.733734	38.95368	125.777	1.411499	6.532063	0.21	3	100	0	6	5.78849	-3.979541	-125.3371	
10:10:10	-6.733734	38.95369	125.584	1.478636	9.076946	0.16	3	100	0	6	5.234052	-3.870895	-125.3107	
10:10:10	-6.733734	38.95368	125.665	1.558692	12.19024	0.48	3	100	0	6	5.224562	-3.81286	-125.3528	
10:10:10	-6.733734	38.95368	125.672	1.595255	12.81482	0.17	3	100	0	6	5.507115	-3.96969	-125.3519	
10:10:10	-6.733734	38.95368	125.691	1.578321	10.69254	0.22	3	100	0	6	5.029834	-3.770024	-125.2845	
10:10:11	-6.733734	38.95368	125.782	1.564737	9.0355	0.42	3	100	0	6	5.308685	-3.629935	-125.3487	
10:10:11	-6.733735	38.95369	125.86	1.55832	8.503445	0.09	3	100	0	6	4.727902	-3.500943	-125.3805	
10:10:11	-6.733735	38.95369	125.857	1.549616	7.486758	0.53	3	100	0	6	5.046546	-3.539282	-125.487	
10:10:11	-6.733735	38.95369	125.892	1.539158	6.210608	0.04	3	100	0	6	4.740186	-3.689936	-125.4393	
10:10:11	-6.733735	38.95369	126.078	1.527674	5.388162	0.22	3	100	0	6	5.210649	-3.501077	-125.5227	
10:10:12	-6.733734	38.95369	126.066	1.515788	4.326449	0.19	3	100	0	6	5.325059	-3.331029	-125.6037	
10:10:12	-6.733733	38.95369	125.942	1.51136	3.932363	0.26	3	100	0	6	5.590883	-3.657518	-125.6745	
10:10:12	-6.733733	38.95369	125.755	1.513473	3.138058	0.14	3	100	0	6	5.562397	-3.686299	-125.6514	
10:10:12	-6.733733	38.95369	125.677	1.539687	4.678874	0.68	3	100	0	6	5.070662	-3.522222	-125.6177	
10:10:12	-6.733733	38.95369	125.329	1.599043	7.071704	0.14	3	100	0	6	4.744889	-3.402908	-125.6886	
10:10:13	-6.733733	38.95369	125.154	1.664286	10.05681	0.21	3	100	0	6	5.222987	-3.573281	-125.8006	
10:10:13	-6.733733	38.95369	125.122	1.746972	13.21544	0.09	3	100	0	5	5.361759	-3.478057	-125.8641	
10:10:13	-6.733732	38.95369	124.884	1.812467	15.13576	0.06	3	100	0	6	5.154218	-3.646809	-125.8676	
10:10:13	-6.733731	38.95369	124.656	1.757411	10.62565	0.62	3	100	0	6	5.376904	-3.66484	-125.938	
10:10:13	-6.73373	38.95369	124.423	1.704789	6.781059	0.52	3	100	0	6	5.802937	-3.850143	-125.9681	
10:10:14	-6.733729	38.95369	124.34	1.648266	3.403574	0.36	3	100	0	6	5.640119	-3.824368	-125.9484	
10:10:14	-6.733729	38.95369	124.19	1.590153	-0.4835948	0.62	3	100	0	6	5.491222	-3.85097	-125.8841	
10:10:14	-6.733728	38.95369	124.129	1.555972	-1.892269	0.29	3	100	0	6	5.635703	-3.952436	-125.8328	
10:10:14	-6.733728	38.95369	124.078	1.525787	-3.157863	0.29	3	100	0	6	5.419081	-3.756564	-125.8153	
10:10:14	-6.733727	38.95369	124.058	1.510366	-3.902454	0.41	3	100	0	6	5.343515	-3.817001	-125.838	
10:10:15	-6.733727	38.95369	124.078	1.495066	-4.731995	0.25	3	100	0	6	5.416502	-3.678942	-125.816	
10:10:15	-6.733727	38.95369	124.02	1.501467	-4.248167	0.17	3	100	0	6	4.960272	-3.456224	-125.6807	
10:10:15	-6.733727	38.95369	123.931	1.5077	-3.700701	0.29	3	100	0	6	5.003196	-3.573051	-125.7455	
10:10:15	-6.733727	38.95369	123.982	1.458056	-5.783617	0.08	3	100	0	6	5.011449	-3.652405	-125.8138	
10:10:15	-6.733727	38.95369	124.042	1.417991	-7.393037	0.35	3	100	0	6	5.226317	-3.426352	-125.8852	
10:10:16	-6.733726	38.95369	124.043	1.401875	-6.990525	0.22	3	100	0	6	5.475735	-3.499174	-125.7962	
10:10:16	-6.733726	38.95369	124.106	1.388793	-7.119675	0.14	3	100	0	6	5.260676	-3.397115	-125.8059	
10:10:16	-6.733725	38.95369	124.154	1.381137	-7.078187	0.74	3	100	0	6	5.261516	-3.54348	-125.8807	
10:10:16	-6.733725	38.95369	124.104	1.375676	-6.684165	0.38	3	100	0	6	5.787591	-3.816815	-125.9284	
10:10:16	-6.733725	38.95369	124.058	1.376345	-6.073174	0.17	3	100	0	6	5.433729	-3.672023	-125.8548	
10:10:17	-6.733725	38.95369	123.989	1.378014	-5.550683	0.01	3	100	0	6	5.282373	-3.488149	-125.8293	
10:10:17	-6.733725	38.95369	123.954	1.368708	-5.808142	0.22	3	100	0	6	5.194214	-3.389176	-125.8897	
10:10:17	-6.733725	38.95369	123.996	1.361326	-5.283871	0.22	3	100	0	6	5.136868	-3.441876	-125.9581	
10:10:17	-6.733725	38.95369	123.882	1.348822	-5.386589	0.09	3	100	0	6	5.115879	-3.233814	-126.0346	
10:10:17	-6.733725	38.95369	123.769	1.339107	-4.967992	0.21	3	100	0	6	5.197033	-3.439611	-125.9261	
10:10:18	-6.733726	38.95369	123.672	1.34042	-4.14078	0.82	3	100	0	6	4.869156	-3.393652	-125.9048	
10:10:18	-6.733727	38.95369	123.742	1.343282	-3.132863	0.55	3	100	0	6	4.833236	-3.421184	-126.0101	
10:10:18	-6.733726	38.95369	123.761	1.327584	-4.274828	0.35	3	100	0	6	5.686667	-3.698541	-126.106	
10:10:18	-6.733726	38.95369	123.915	1.285409	-6.021224	0.57	3	100	0	6	5.648499	-3.634085	-126.0643	
10:10:18	-6.733725	38.95369	124.056	1.244606	-6.624325	0.26	3	100	0	6	5.815701	-3.57964	-126.003	
10:10:19	-6.733725	38.95369	124.271	1.200903	-8.060618	0.14	3	100	0	6	5.515859	-3.337566	-125.9951	
10:10:19	-6.733725	38.95369	124.475	1.172446	-9.157928	0.09	3	100	0	5	5.354966	-3.079506	-126.0501	
10:10:19	-6.733725	38.95369	124.48	1.155106	-9.280473	0.32	3	100	0	6	5.115655	-3.065612	-126.1255	
10:10:19	-6.733725	38.95369	124.336	1.153119	-8.318405	0.19	3	100	0	6	5.124062	-3.017928	-126.0965	
10:10:19	-6.733724	38.95369	124.325	1.164172	-6.809886	0.45	3	100	0	6	5.26203	-3.129476	-126.1511	
10:10:20	-6.733725	38.95369	124.258	1.179082	-5.714359	0.41	3	100	0	6	4.830276	-2.993978	-126.2274	
10:10:20	-6.733726	38.95369	124.277	1.202246	-3.552172	0.24	3	100	0	6	4.881345	-3.080492	-126.3318	
10:10:20	-6.733726	38.95369	124.317	1.241092	-1.371209	0.17	3	100	0	6	5.085913	-3.057114	-126.3565	
10:10:20	-6.733727	38.95369	124.276	1.299868	1.50579	0.16	3	100	0	6	5.223824	-3.095755	-126.4276	
10:10:20	-6.733727	38.95369	124.373	1.348726	3.95072	0.22	3	100	0	6	5.074343	-3.330582	-126.4815	
10:10:21	-6.733727	38.95369	124.466	1.389419	5.377638	0.03	3	100	0	6	5.13204	-3.33922	-126.5464	
10:10:21	-6.733727	38.95369	124.57	1.425165	6.739782	0.17	3	100	0	6	5.303567	-3.218624	-126.6067	
10:10:21	-6.733727	38.95369	124.633	1.459065	7.272808	0.11	3	100	0	6	5.382239	-3.290118	-126.5124	
10:10:21	-6.733727	38.95369	124.669	1.482961	7.894364	0.37	3	100	0	6	5.238073	-3.058791	-126.5089	
10:10:21	-6.733727	38.95369	124.681	1.498078	7.501987	0.29	3	100	0	6	4.988843	-2.843043	-126.5891	
10:10:22	-6.733727	38.95369	124.565	1.506745	6.479819	0.22	3	100	0	6	4.941692	-3.041195	-126.6816	
10:10:22	-6.733727	38.95368	124.727	1.506745	5.701601	0.31	3	100	0	6	4.974813	-3.001269	-126.7338	
10:10:22	-6.733727	38.95368	124.821	1.475239	3.550893	0.22	3	100	0	6	5.159619	-2.97117	-126.7768	
10:10:22	-6.733727	38.95368	124.966	1.416468	-0.01718677	0.06	3	100	0	5	5.430799	-2.971539	-126.8538	
10:10:22	-6.733727	38.95368	125.024	1.385846	-1.70305	0.21	3	100	0	6	5.260465	-3.092721	-126.8987	
10:10:23	-6.733727	38.95368	124.972	1.381551	-1.618929	0.33	3	100	0	6	5.308348	-3.299117	-126.9481	
10:10:23	-6.733727	38.95368	124.992	1.378283	-1.423584	0.13	3	100	0	6	5.380373	-3.159888	-126.8838	
10:10:23	-6.733727	38.95368	124.865	1.345893	-3.109133	0.18	3	100	0	6	5.314873	-2.925067	-126.8888	
10:10:23	-6.733726	38.95368	124.694	1.316878	-4.068028	0.28	3	100	0	6	5.37187	-2.879248	-126.9489	
10:10:23	-6.733725	38.95368	124.668	1.313779	-3.581192	0.51	3	100	0	6	5.547561	-2.850083	-127.019	
10:10:24	-6.733725	38.95368	124.623	1.311769	-3.146586	0.19	3	100	0	6	5.620333	-3.048488	-126.9967	
10:10:24	-6.733724	38.95368	124.588	1.27119	-4.8435	0.37	3	100	0	5	5.458541	-3.138582	-126.8881	
10:10:24	-6.733723	38.95368	124.533	1.235389	-6.45209	0.08	3	100	0	6	5.458156	-3.068137	-126.9213	
10:10:24	-6.733723	38.95368	124.573	1.19709	-7.467347	0.11	3	100	0	6	5.198236	-3.146326	-126.9556	
10:10:24	-6.733723	38.95368	124.583	1.161561	-8.218548	0.26	3	100	0	6	5.234623	-3.169656	-126.9762	
10:10:25	-6.733723	38.95368	124.641	1.172883	-6.169669	0.38	3	100	0	6	5.194932	-3.300599	-126.9482	
10:10:25	-6.733723	38.95368	124.644	1.185564	-4.436762	0.08	3	100	0	6	5.007749	-3.328544	-126.976	
10:10:25	-6.733722	38.95368	124.668	1.209419	-2.962996	0.41	3	100	0	6	5.345329	-3.038258	-127.0654	
10:10:25	-6.733722	38.95368	124.693	1.231299	-1.617708	0.22	3	100	0	6	5.48848	-2.992568	-127.1144	
10:10:25	-6.733722	38.95368	124.754	1.243722	-0.9584794	0.08	3	100	0	6	5.295395	-3.126555	-127.0412	
10:10:26	-6.733722	38.95368	124.848	1.25637	-0.4360639	0.22	3	100	0	6	5.198213	-3.157507	-127.0278	
10:10:26	-6.733722	38.95368	124.915	1.303704	1.85111	0.19	3	100	0	6	5.229376	-3.209551	-127.0727	
10:10:26	-6.733722	38.95368	124.987	1.345812	3.942172	0.38	3	100	0	6	5.41357	-3.020226	-127.121	
10:10:26	-6.733721	38.95368	125.029	1.371803	5.013853	0.26	3	100	0	6	5.417445	-2.794026	-127.1678	
10:10:26	-6.733721	38.95368	125.046	1.396277	5.446723	0.12	3	100	0	6	5.285804	-2.90412	-127.1282	
10:10:27	-6.73372	38.95368	125.07	1.3997	4.93054	0.16	3	100	0	6	5.241089	-3.130421	-127.1495	
10:10:27	-6.73372	38.95368	125.029	1.40179	4.555416	0.16	3	100	0	6	5.224957	-3.046072	-127.2061	
10:10:27	-6.73372	38.95368	125.033	1.339364	0.6725436	0.18	3	100	0	6	5.271153	-3.03535	-127.2681	
10:10:27	-6.733719	38.95367	125.14	1.282576	-1.960753	0.12	3	100	0	6	5.202714	-3.170962	-127.1406	
10:10:27	-6.733718	38.95367	125.116	1.249511	-3.312884	0.18	3	100	0	6	5.239776	-3.076792	-127.1629	
10:10:28	-6.733718	38.95367	125.092	1.216409	-5.037382	0.28	3	100	0	6	5.181298	-3.160203	-127.199	
10:10:28	-6.733718	38.95367	125.099	1.21567	-4.768974	0.19	3	100	0	6	4.930892	-3.183342	-127.2252	
10:10:28	-6.733717	38.95367	125.221	1.258287	-1.389941	0.45	3	100	0	6	5.212534	-2.92377	-127.2243	
10:10:28	-6.733716	38.95367	125.162	1.309362	1.252132	0.18	3	100	0	6	5.357073	-2.822127	-127.2255	
10:10:28	-6.733716	38.95367	125.136	1.376945	4.868464	0.24	3	100	0	6	5.000792	-2.79988	-127.2724	
10:10:29	-6.733715	38.95366	125.169	1.41787	6.148884	0.31	3	100	0	6	4.851274	-2.857723	-127.345	
10:10:29	-6.733715	38.95366	125.25	1.444846	7.017245	0.22	3	100	0	6	4.90896	-2.80185	-127.4043	
10:10:29	-6.733715	38.95366	125.311	1.47183	7.340932	0.06	3	100	0	6	5.110432	-2.826266	-127.3457	
10:10:29	-6.733714	38.95366	125.457	1.499447	8.176187	0.26	3	100	0	6	5.102562	-2.851312	-127.3983	
10:10:29	-6.733714	38.95366	125.46	1.510348	8.0839	0.37	3	100	0	6	4.9434	-2.757171	-127.4723	
10:10:30	-6.733714	38.95366	125.51	1.50685	7.308763	0.21	3	100	0	6	4.984813	-2.774344	-127.5742	
10:10:30	-6.733713	38.95366	125.425	1.468456	4.072241	0.24	3	100	0	6	5.154727	-2.794991	-127.5812	
10:10:30	-6.733712	38.95366	125.61	1.384508	-0.4177346	0.22	3	100	0	6	5.234847	-2.758089	-127.59	
10:10:30	-6.733712	38.95366	125.573	1.338767	-2.22973	0.16	3	100	0	6	5.330229	-2.872999	-127.6608	
10:10:30	-6.733711	38.95366	125.624	1.341968	-1.301056	0.26	3	100	0	6	5.466465	-3.106737	-127.7007	
10:10:31	-6.733711	38.95366	125.598	1.353633	-1.144943	0.09	3	100	0	6	5.425436	-3.185306	-127.6978	
10:10:31	-6.733711	38.95366	125.67	1.372116	-0.4484623	0.21	3	100	0	6	5.383433	-3.193365	-127.5671	
10:10:31	-6.733711	38.95366	125.662	1.37433	-0.2678592	0.26	3	100	0	6	5.436642	-3.264767	-127.551	
10:10:31	-6.733712	38.95366	125.816	1.362733	-1.087148	0.37	3	100	0	6	5.567636	-3.264597	-127.5597	
10:10:31	-6.733712	38.95366	125.778	1.379041	0.05432749	0.18	3	100	0	6	5.491407	-3.196341	-127.5525	
10:10:32	-6.733712	38.95366	125.807	1.430637	2.909076	0.56	3	100	0	6	5.702368	-3.257524	-127.4934	
10:10:32	-6.733711	38.95366	125.745	1.464524	4.165178	0.06	3	100	0	6	5.772555	-3.149907	-127.4301	
10:10:32	-6.733711	38.95366	125.842	1.478534	4.609294	0.14	3	100	0	6	5.5447	-2.920032	-127.4123	
10:10:32	-6.73371	38.95366	125.843	1.506058	5.465137	0.03	3	100	0	6	5.588644	-2.899347	-127.4461	
10:10:32	-6.73371	38.95366	125.808	1.561232	7.926134	0.36	3	100	0	6	5.759314	-2.85586	-127.4861	
10:10:33	-6.73371	38.95366	125.789	1.605001	9.406376	0.11	3	100	0	6	5.802096	-2.805051	-127.4656	
10:10:33	-6.73371	38.95366	125.78	1.660104	11.10908	0.19	3	100	0	6	5.454577	-2.859556	-127.4796	
10:10:33	-6.73371	38.95366	125.803	1.707482	12.29738	0.14	3	100	0	6	5.408759	-2.789294	-127.5189	
10:10:33	-6.733709	38.95366	125.843	1.764133	13.89634	0.21	3	100	0	6	5.4851	-2.66606	-127.5742	
10:10:33	-6.733709	38.95365	125.881	1.808761	14.96462	0.07	3	100	0	6	5.472928	-2.713187	-127.4902	
10:10:34	-6.733709	38.95365	125.971	1.780652	12.08151	0.31	3	100	0	6	5.332485	-2.784357	-127.4998	
10:10:34	-6.73371	38.95365	126.106	1.752512	9.351871	0.17	3	100	0	6	5.371391	-2.922741	-127.5544	
10:10:34	-6.73371	38.95365	126.203	1.665416	4.1025	0.22	3	100	0	6	5.574234	-3.069159	-127.59	
10:10:34	-6.73371	38.95365	126.194	1.577088	-1.115654	0.12	3	100	0	6	5.655679	-2.879673	-127.5829	
10:10:34	-6.73371	38.95365	126.136	1.504175	-4.469358	0.26	3	100	0	6	5.766259	-2.79442	-127.5219	
10:10:35	-6.73371	38.95365	126.14	1.439275	-7.544261	0.25	3	100	0	6	5.529707	-2.927476	-127.5221	
10:10:35	-6.73371	38.95365	126.275	1.444081	-7.192459	0.21	3	100	0	6	5.38057	-2.826246	-127.5471	
10:10:35	-6.73371	38.95365	126.236	1.449086	-6.108715	0.14	3	100	0	6	5.411504	-2.928128	-127.6006	
10:10:35	-6.73371	38.95365	126.137	1.462971	-4.842968	0.12	3	100	0	6	5.411484	-3.042374	-127.5077	
10:10:35	-6.73371	38.95365	125.987	1.475551	-3.751149	0.29	3	100	0	6	5.793335	-3.166835	-127.5074	
10:10:36	-6.73371	38.95365	125.726	1.429656	-5.752229	0.36	3	100	0	6	5.657353	-3.090207	-127.4897	
10:10:36	-6.733711	38.95365	125.531	1.389157	-6.736821	0.36	3	100	0	6	5.389132	-2.935463	-127.5194	
10:10:36	-6.733711	38.95365	125.214	1.297672	-11.33101	0.21	3	100	0	6	5.420626	-2.848925	-127.9003	
10:10:36	-6.733712	38.95365	124.915	1.22433	-14.5673	0.39	3	100	0	6	8.079734	-2.904767	-128.2607	
10:10:36	-6.733712	38.95365	124.814	1.168733	-16.67416	0.06	3	100	0	6	3.660013	-3.155857	-128.0172	
10:10:37	-6.733712	38.95365	124.747	1.122859	-18.21712	0.24	3	100	0	6	4.571071	-2.5046	-126.0002	
10:10:37	-6.733712	38.95365	124.652	1.123591	-15.7494	0.29	3	100	0	6	9.313147	-2.980703	-126.1809	
10:10:37	-6.733712	38.95365	124.596	1.128667	-13.68023	0.44	3	100	0	4	10.26036	-3.435389	-125.5298	
10:10:37	-6.733713	38.95365	124.546	1.150297	-12.36792	0.01	3	100	0	6	3.067376	-3.025686	-125.6742	
10:10:37	-6.733713	38.95365	124.49	1.173312	-10.51061	0.19	3	100	0	6	3.708574	-2.84282	-125.6482	
10:10:38	-6.733714	38.95365	124.467	1.214245	-8.07798	0.04	3	100	0	6	9.403111	-2.87183	-126.0379	
10:10:38	-6.733714	38.95365	124.401	1.288301	-3.925099	0.19	3	100	0	6	14.15642	-3.216572	-125.1457	
10:10:38	-6.733714	38.95365	124.213	1.335563	-2.518244	0.21	3	100	0	6	11.40889	-3.103672	-125.0873	
10:10:38	-6.733714	38.95365	124.159	1.381081	-0.6027803	0.17	3	100	0	6	3.119922	-2.945614	-125.5986	
10:10:38	-6.733714	38.95365	124.059	1.392979	0.4456132	0.19	3	100	0	6	4.093293	-3.143946	-125.5106	
10:10:39	-6.733714	38.95365	123.841	1.387688	-0.5951846	0.17	3	100	0	6	4.144305	-2.914626	-125.6322	
10:10:39	-6.733714	38.95365	123.701	1.349768	-2.157182	0.16	3	100	0	6	4.171742	-3.081487	-125.6376	
10:10:39	-6.733715	38.95365	123.588	1.295284	-4.829594	0.18	3	100	0	6	4.185927	-3.167907	-125.7318	
10:10:39	-6.733715	38.95365	123.568	1.249091	-7.323995	0.14	3	100	0	6	4.081043	-2.914879	-125.8268	
10:10:39	-6.733715	38.95365	123.476	1.209349	-9.205427	0.17	3	100	0	6	4.174455	-3.001611	-125.9492	
10:10:40	-6.733714	38.95365	123.35	1.195145	-9.409444	0.08	3	100	0	6	4.214051	-3.04661	-125.9383	
10:10:40	-6.733715	38.95365	123.381	1.205307	-8.083019	0.09	3	100	0	6	4.177812	-3.022925	-125.967	
10:10:40	-6.733715	38.95365	123.251	1.219006	-6.850285	0.22	3	100	0	6	4.052483	-2.969138	-126.0535	
10:10:40	-6.733715	38.95365	123.113	1.239452	-5.002662	0.29	3	100	0	6	4.142245	-3.173841	-126.1675	
10:10:40	-6.733715	38.95365	122.84	1.246404	-4.597045	0.14	3	100	0	6	4.170104	-3.067647	-126.1969	
10:10:41	-6.733715	38.95365	122.74	1.24738	-3.465491	0.09	3	100	0	6	4.302981	-3.065497	-126.2349	
10:10:41	-6.733715	38.95365	122.61	1.235706	-3.481286	0.08	3	100	0	6	4.421647	-3.063404	-126.3248	
10:10:41	-6.733715	38.95365	122.551	1.216437	-4.086454	0.21	3	100	0	6	4.433977	-3.184154	-126.399	
10:10:41	-6.733715	38.95364	122.413	1.214476	-3.633094	0.13	3	100	0	6	4.353745	-3.171155	-126.4596	
10:10:41	-6.733715	38.95364	122.277	1.230282	-2.393325	0.14	3	100	0	6	4.392316	-3.169952	-126.4107	
10:10:42	-6.733715	38.95364	122.176	1.248137	-1.439891	0.14	3	100	0	6	4.547116	-3.118497	-126.4514	
10:10:42	-6.733715	38.95364	122.086	1.271217	0.08452556	0.22	3	100	0	6	4.342534	-2.880966	-126.506	
10:10:42	-6.733715	38.95364	122.006	1.291226	1.021537	0.28	3	100	0	6	4.462219	-2.658728	-126.6047	
10:10:42	-6.733715	38.95364	121.912	1.310053	1.65022	0.06	3	100	0	6	4.537968	-2.808796	-126.6934	
10:10:43	-6.733715	38.95364	121.898	1.326323	2.178436	0.12	3	100	0	6	4.588357	-2.887961	-126.6588	
10:10:43	-6.733715	38.95364	121.732	1.290932	-0.2327816	0.16	3	100	0	6	4.519577	-2.784714	-126.7026	
10:10:43	-6.733716	38.95364	121.522	1.258947	-1.599462	0.22	3	100	0	6	4.430894	-2.700026	-126.7743	
10:10:43	-6.733716	38.95364	121.39	1.207289	-4.079797	0.22	3	100	0	6	4.586739	-2.672186	-126.8663	
10:10:43	-6.733716	38.95364	121.39	1.160785	-6.286052	0.22	3	100	0	6	4.403715	-2.769295	-126.8645	
10:10:43	-6.733716	38.95364	121.196	1.124165	-7.811114	0.42	3	100	0	6	4.475181	-2.830064	-126.9211	
10:10:44	-6.733716	38.95364	121.065	1.08419	-8.87125	0.11	3	100	0	6	4.821418	-3.226847	-126.9874	
10:10:44	-6.733716	38.95364	120.944	1.118971	-6.528987	0.22	3	100	0	6	4.769146	-3.119368	-126.9882	
10:10:44	-6.733717	38.95364	120.811	1.152023	-4.122711	0.35	3	100	0	6	4.519583	-3.180906	-126.9691	
10:10:44	-6.733717	38.95364	120.686	1.174534	-2.212177	0.26	3	100	0	6	4.602361	-3.359303	-126.8545	
10:10:44	-6.733717	38.95364	120.578	1.196449	-0.4197882	0.16	3	100	0	6	4.476559	-3.266356	-126.8521	
10:10:45	-6.733717	38.95364	120.429	1.188973	-0.4912595	0.19	3	100	0	6	4.566903	-3.152263	-126.8866	
10:10:45	-6.733717	38.95364	120.317	1.182688	-0.6461817	0.03	3	100	0	6	4.660732	-3.164432	-126.9116	
10:10:45	-6.733718	38.95364	120.181	1.177992	-0.8581115	0.04	3	100	0	6	4.688189	-2.990816	-126.7759	
10:10:45	-6.733718	38.95364	120.102	1.173864	-0.8916041	0.06	3	100	0	6	4.657915	-2.908438	-126.7789	
10:10:45	-6.733718	38.95364	120.019	1.134504	-2.949136	0.03	3	100	0	8	4.690271	-2.915898	-126.8251	
10:10:46	-6.733718	38.95364	119.918	1.099462	-4.192389	0.03	3	100	0	6	4.721977	-2.821356	-126.8696	
10:10:46	-6.733718	38.95364	119.822	1.119262	-2.995801	0.14	3	100	0	6	4.744889	-2.819817	-126.8199	
10:10:46	-6.733718	38.95364	119.706	1.137191	-1.953646	0.04	3	100	0	6	4.669279	-2.955983	-126.7222	
10:10:46	-6.733718	38.95364	119.603	1.123695	-2.877496	0.02	3	100	0	6	4.693607	-2.839033	-126.7681	
10:10:46	-6.733718	38.95364	119.409	1.111279	-3.698893	0.11	3	100	0	6	4.755431	-2.807959	-126.8278	
10:10:47	-6.733718	38.95364	119.358	1.10079	-3.751112	0.22	3	100	0	6	4.764909	-2.928082	-126.8774	
10:10:47	-6.733718	38.95364	119.299	1.091047	-4.679236	0.08	3	100	0	6	4.759025	-2.701078	-126.8354	
10:10:47	-6.733719	38.95364	119.27	1.122565	-2.827107	0.08	3	100	0	6	4.798652	-2.899938	-126.8786	
10:10:47	-6.733719	38.95364	119.139	1.151749	-0.8899766	0.09	3	100	0	6	4.720944	-2.861121	-126.9101	
10:10:48	-6.733719	38.95364	119.026	1.160868	0.004975602	0.13	3	100	0	7	4.723813	-2.974581	-126.9527	
10:10:48	-6.73372	38.95364	118.965	1.151904	-1.058623	0.13	3	100	0	6	4.822756	-3.065619	-126.9427	
10:10:48	-6.733721	38.95364	118.873	1.154132	-1.130969	0.08	3	100	0	6	4.671043	-2.933294	-126.8303	
10:10:48	-6.733721	38.95364	118.72	1.167244	-0.2219184	0.04	3	100	0	6	4.719416	-2.941631	-126.878	
10:10:48	-6.733721	38.95364	118.636	1.173435	-0.08659264	0.21	3	100	0	6	4.751749	-2.868094	-126.917	
10:10:49	-6.733722	38.95364	118.645	1.175388	0.2951437	0.26	3	100	0	6	4.884496	-2.75396	-126.9621	
10:10:49	-6.733722	38.95364	118.556	1.20151	2.011105	0.09	3	100	0	6	4.811705	-3.177582	-126.9135	
10:10:49	-6.733722	38.95364	118.578	1.239429	3.547139	0.22	3	100	0	6	4.787757	-2.993474	-126.9148	
10:10:49	-6.733722	38.95363	118.572	1.260805	4.623602	0.11	3	100	0	6	4.816771	-3.167392	-126.9521	
10:10:49	-6.733722	38.95363	118.521	1.268046	4.450822	0.31	3	100	0	6	4.866711	-3.038773	-126.9723	
10:10:50	-6.733723	38.95363	118.556	1.285389	5.208147	0.24	3	100	0	6	4.851481	-3.345276	-126.8731	
10:10:50	-6.733724	38.95363	118.507	1.311323	5.965815	0.21	3	100	0	6	4.847734	-3.39751	-126.8139	
10:10:50	-6.733724	38.95363	118.38	1.346641	7.580741	0.21	3	100	0	6	4.810688	-3.351015	-126.8074	
10:10:50	-6.733725	38.95363	118.235	1.389471	8.70302	0.24	3	100	0	6	4.828467	-3.319842	-126.8243	
10:10:50	-6.733726	38.95363	118.164	1.435977	10.13443	0.04	3	100	0	6	4.775812	-3.347296	-126.8148	
10:10:51	-6.733727	38.95363	118.106	1.482654	11.79004	0.06	3	100	0	6	4.760893	-3.178211	-126.7014	
10:10:51	-6.733727	38.95363	118.073	1.514987	11.68556	0.04	3	100	0	6	4.803296	-3.056417	-126.7225	
10:10:51	-6.733727	38.95363	118.125	1.537589	12.05792	0.19	3	100	0	6	4.787519	-3.056037	-126.7459	
10:10:51	-6.733728	38.95363	118.059	1.56701	11.76122	0.17	3	100	0	6	4.743873	-3.201282	-126.7716	
10:10:51	-6.733729	38.95363	118.055	1.60154	12.686	0.11	3	100	0	6	4.692488	-3.194106	-126.6685	
10:10:51	-6.733729	38.95363	118.137	1.644982	13.70387	0.12	3	100	0	6	4.758707	-2.981841	-126.6816	
10:10:52	-6.733729	38.95362	118.146	1.694937	14.76348	0.21	3	100	0	6	4.823437	-2.969465	-126.7352	
10:10:52	-6.73373	38.95362	118.147	1.726455	14.75301	0.14	3	100	0	6	4.763673	-3.280102	-126.7654	
10:10:52	-6.73373	38.95362	118.136	1.746124	14.63588	0.07	3	100	0	6	4.544249	-3.125035	-126.728	
10:10:52	-6.733731	38.95362	118.051	1.760928	13.58971	0.11	3	100	0	6	4.680025	-3.022423	-126.7109	
10:10:53	-6.733731	38.95362	118.175	1.751997	11.41696	0.06	3	100	0	6	4.79254	-3.040523	-126.7283	
10:10:53	-6.733731	38.95362	118.308	1.741355	9.822072	0.09	3	100	0	6	4.756631	-3.045005	-126.7473	
10:10:53	-6.733732	38.95362	118.378	1.726037	8.315248	0.12	3	100	0	5	4.675273	-3.146429	-126.7749	
10:10:53	-6.733732	38.95362	118.382	1.710737	6.22235	0.08	3	100	0	6	4.699257	-2.94038	-126.6515	
10:10:53	-6.733732	38.95362	118.381	1.686935	3.926924	0.19	3	100	0	6	4.783694	-3.009714	-126.6378	
10:10:54	-6.733733	38.95362	118.413	1.6646	2.615188	0.26	3	100	0	6	4.733981	-3.220664	-126.6693	
10:10:54	-6.733734	38.95362	118.489	1.654658	1.497272	0.04	3	100	0	6	4.740864	-3.333717	-126.6898	
10:10:54	-6.733734	38.95362	118.522	1.644565	0.4825686	0.13	3	100	0	6	4.701908	-3.066491	-126.6493	
10:10:54	-6.733734	38.95362	118.525	1.623054	-0.7520961	0.35	3	100	0	6	4.705808	-3.250515	-126.5811	
10:10:54	-6.733734	38.95362	118.435	1.607044	-1.129433	0.19	3	100	0	6	5.061662	-3.000783	-126.5934	
10:10:55	-6.733734	38.95362	118.408	1.580549	-2.458244	0.24	3	100	0	6	4.945617	-3.173917	-126.6176	
10:10:55	-6.733734	38.95362	118.413	1.561284	-3.094226	0.29	3	100	0	6	4.941524	-3.02844	-126.6358	
10:10:55	-6.733734	38.95362	118.496	1.590174	-1.832513	0.17	3	100	0	6	5.019797	-3.074582	-126.5493	
10:10:55	-6.733735	38.95362	118.57	1.615647	-0.8368939	0.02	3	100	0	6	4.729239	-3.318452	-126.5126	
10:10:55	-6.733735	38.95362	118.501	1.600951	-1.510535	0.29	3	100	0	6	4.704343	-3.177268	-126.5467	
10:10:56	-6.733735	38.95362	118.495	1.587793	-1.996282	0.07	3	100	0	6	4.359065	-2.904523	-126.5706	
10:10:56	-6.733735	38.95361	118.482	1.547087	-3.876802	0.26	3	100	0	6	4.615991	-3.05579	-126.6141	
10:10:56	-6.733735	38.95361	118.502	1.510787	-5.518524	0.06	3	100	0	6	4.855972	-3.082046	-126.5955	
10:10:56	-6.733735	38.95361	118.564	1.458745	-7.661744	0.38	3	100	0	6	4.668293	-3.117604	-126.6113	
10:10:56	-6.733735	38.95361	118.566	1.412419	-9.584514	0.12	3	100	0	6	4.460143	-2.673427	-126.645	
10:10:57	-6.733736	38.95361	118.372	1.391706	-9.611787	0.14	3	100	0	6	4.252989	-3.070529	-126.6386	
10:10:57	-6.733736	38.95361	118.127	1.37483	-9.715362	0.51	3	100	0	6	4.774635	-3.477034	-126.4547	
10:10:57	-6.733736	38.95361	118.177	1.37053	-10.22402	0.08	3	100	0	6	8.614728	-2.875286	-126.5064	
10:10:57	-6.733736	38.95361	118.076	1.3665	-9.935106	0.26	3	100	0	6	15.8968	-3.480579	-126.0698	
10:10:57	-6.733737	38.95361	118.058	1.350423	-9.920912	0.18	3	100	0	6	9.096048	-3.057585	-125.901	
10:10:58	-6.733737	38.95361	118.116	1.31681	-11.03474	0.71	3	100	0	6	5.112731	-3.654661	-126.8252	
10:10:58	-6.733737	38.95361	118.095	1.274111	-14.18599	0.22	3	100	0	6	4.899331	-2.806507	-126.8276	
10:10:58	-6.733737	38.95361	117.964	1.228531	-15.42872	0.32	3	100	0	6	4.568163	-3.809776	-126.8755	
10:10:58	-6.733737	38.95361	117.952	1.221652	-14.31857	0.29	3	100	0	6	4.81564	-3.621683	-126.8984	
10:10:58	-6.733737	38.95361	117.992	1.237909	-12.3975	0.19	3	100	0	6	4.540824	-3.744864	-126.9032	
10:10:59	-6.733737	38.95361	117.979	1.268275	-9.360645	0.29	3	100	0	6	4.942507	-3.761093	-126.8625	
10:10:59	-6.733737	38.95361	117.939	1.309927	-6.593075	0.66	3	100	0	5	4.9228	-3.559986	-126.8306	
10:10:59	-6.733737	38.95361	118.065	1.348046	-3.950721	0.63	3	100	0	6	4.543836	-3.267262	-126.8345	
10:10:59	-6.733737	38.95361	118.07	1.38374	-0.9507064	0.17	3	100	0	6	4.705551	-3.214656	-126.9014	
10:10:59	-6.733737	38.95361	118.099	1.408801	0.5584305	0.39	3	100	0	6	4.979969	-3.838262	-126.8376	
10:11:00	-6.733737	38.95361	118.122	1.421797	1.124568	0.11	3	100	0	6	4.781908	-3.617119	-126.7707	
10:11:00	-6.733737	38.95361	118.207	1.439264	1.765921	0.32	3	100	0	6	4.936185	-3.877664	-126.7855	
10:11:00	-6.733737	38.95361	118.313	1.457206	2.635439	0.16	3	100	0	4	5.250499	-3.690981	-126.8048	
10:11:00	-6.733737	38.95361	118.41	1.472771	3.397029	0.08	3	100	0	6	4.900471	-3.793091	-126.7288	
10:11:00	-6.733737	38.95361	118.375	1.486448	3.459059	0.33	3	100	0	5	4.992665	-3.832651	-126.638	
10:11:01	-6.733737	38.95361	118.41	1.472103	2.047688	0.22	3	100	0	6	4.719923	-3.660542	-126.6131	
10:11:01	-6.733737	38.95361	118.446	1.442702	0.7421094	0.45	3	100	0	6	4.899729	-3.664662	-126.6445	
10:11:01	-6.733738	38.95361	118.457	1.422258	-0.3783937	0.17	3	100	0	6	4.717455	-3.457549	-126.6572	
10:11:01	-6.733737	38.95361	118.463	1.411313	-0.4211251	0.37	3	100	0	6	5.120523	-3.750992	-126.5723	
10:11:01	-6.733738	38.95361	118.499	1.38249	-1.651962	0.53	3	100	0	6	4.950979	-3.553847	-126.5388	
10:11:02	-6.733738	38.95361	118.465	1.340651	-3.521065	0.24	3	100	0	6	4.565316	-3.672843	-126.5382	
10:11:02	-6.733738	38.95361	118.493	1.329667	-4.405738	0.21	3	100	0	6	4.824372	-3.776948	-126.5827	
10:11:02	-6.733738	38.95361	118.591	1.351059	-3.254052	0.22	3	100	0	6	4.939397	-3.686493	-126.5393	
10:11:02	-6.733738	38.95361	118.617	1.369735	-1.440854	0.19	3	100	0	6	5.081079	-3.628565	-126.5087	
10:11:02	-6.733738	38.95361	118.661	1.40317	0.2925411	0.16	3	100	0	6	4.905059	-3.705975	-126.5037	
10:11:03	-6.733738	38.95361	118.774	1.433975	2.078815	0.31	3	100	0	6	4.916958	-4.037276	-126.5064	
10:11:03	-6.733738	38.95361	118.901	1.491317	5.022179	0.04	3	100	0	6	4.723632	-3.891038	-126.4885	
10:11:03	-6.733739	38.95361	118.884	1.549706	7.875281	0.45	3	100	0	6	4.953912	-3.945972	-126.3292	
10:11:03	-6.733739	38.95361	118.925	1.572885	8.554466	0.14	3	100	0	6	4.535972	-4.160975	-126.2626	
10:11:03	-6.733738	38.95361	118.989	1.593217	8.975059	0.08	3	100	0	6	4.969095	-3.826267	-126.2965	
10:11:04	-6.733738	38.95361	118.989	1.577027	7.525566	0.26	3	100	0	6	4.892541	-3.818911	-126.3022	
10:11:04	-6.733737	38.95361	118.998	1.559295	5.588021	0.19	3	100	0	6	4.664382	-3.651275	-126.2223	
10:11:04	-6.733737	38.95361	119.106	1.531749	3.774069	0.14	3	100	0	6	4.955826	-3.748042	-126.2195	
10:11:04	-6.733737	38.95361	119.122	1.501074	2.07059	0.14	3	100	0	6	4.709716	-3.974682	-126.1941	
10:11:04	-6.733737	38.95361	119.087	1.509853	1.604933	0.28	3	100	0	6	4.550267	-3.801486	-126.2042	
10:11:05	-6.733737	38.95361	119.115	1.519225	2.440821	0.22	3	100	0	6	4.519556	-3.900814	-126.2238	
10:11:05	-6.733737	38.95361	119.083	1.582716	4.988113	0.19	3	100	0	6	4.973145	-3.573869	-126.096	
10:11:05	-6.733737	38.9536	119.138	1.633633	7.125951	0.26	3	100	0	6	4.915176	-3.9199	-126.0919	
10:11:05	-6.733737	38.9536	119.291	1.636582	6.3728	0.01	3	100	0	6	4.635508	-3.883332	-126.0815	
10:11:05	-6.733737	38.9536	119.476	1.637981	5.819172	0.25	3	100	0	6	4.789931	-3.702968	-126.1051	
10:11:06	-6.733737	38.9536	119.693	1.63792	4.850881	0.11	3	100	0	6	4.511488	-3.593141	-126.0723	
10:11:06	-6.733737	38.9536	119.758	1.636365	4.040195	0.29	3	100	0	6	4.667675	-3.595284	-126.0714	
10:11:06	-6.733737	38.9536	119.958	1.6096	2.942244	0.26	3	100	0	6	5.081856	-3.477664	-126.1294	
10:11:06	-6.733736	38.9536	119.992	1.586226	1.893523	0.11	3	100	0	6	5.03896	-3.754951	-126.1381	
10:11:06	-6.733736	38.9536	120.171	1.581014	1.575912	0.14	3	100	0	6	4.917356	-3.598371	-126.1444	
10:11:07	-6.733736	38.9536	120.134	1.575422	1.495861	0.19	3	100	0	6	4.903422	-3.605439	-126.1374	
10:11:07	-6.733736	38.9536	120.147	1.566728	0.7645606	0.16	3	100	0	6	4.624858	-3.568012	-126.1361	
10:11:07	-6.733736	38.9536	120.196	1.559314	0.414292	0.48	3	100	0	6	4.798294	-3.441248	-126.2103	
10:11:07	-6.733736	38.9536	120.317	1.572324	1.009083	0.26	3	100	0	6	4.540564	-3.699123	-126.2628	
10:11:07	-6.733736	38.9536	120.444	1.613637	2.936133	0.29	3	100	0	6	5.215189	-3.760612	-126.1796	
10:11:08	-6.733736	38.9536	120.468	1.650283	4.913295	0.22	3	100	0	6	5.136501	-3.409709	-126.1559	
10:11:08	-6.733736	38.9536	120.56	1.685991	6.730632	0.14	3	100	0	6	5.097664	-3.565647	-126.1841	
10:11:08	-6.733736	38.9536	120.728	1.693392	6.320228	0.03	3	100	0	6	5.036746	-3.789286	-126.1875	
10:11:08	-6.733737	38.9536	121.062	1.685418	5.067936	0.79	3	100	0	6	4.971902	-3.723243	-126.1961	
10:11:08	-6.733739	38.9536	121.354	1.677377	4.294846	1.89	3	100	0	6	3.992449	-3.559664	-126.1191	
10:11:09	-6.733741	38.9536	121.707	1.670093	3.298434	0.85	3	100	0	6	3.531653	-3.440315	-126.2218	
10:11:09	-6.733741	38.9536	121.894	1.65495	2.116977	0.52	3	100	0	6	4.628334	-3.462526	-126.381	
10:11:09	-6.733739	38.9536	122.078	1.630025	0.2579161	0.72	3	100	0	6	5.457847	-3.314406	-126.4671	
10:11:09	-6.733738	38.9536	122.109	1.600289	-1.637443	0.48	3	100	0	6	5.433459	-3.143129	-126.422	
10:11:09	-6.733737	38.9536	122.176	1.562024	-3.41583	0.25	3	100	0	6	5.075661	-3.277209	-126.4151	
10:11:10	-6.733737	38.9536	122.411	1.54583	-4.052703	0.45	3	100	0	6	5.133231	-3.530638	-126.4462	
10:11:10	-6.733736	38.9536	122.394	1.545886	-3.663374	0.21	3	100	0	6	5.104677	-3.466282	-126.4518	
10:11:10	-6.733736	38.9536	122.309	1.557572	-2.603919	0.14	3	100	0	6	4.547655	-3.698893	-126.4125	
10:11:10	-6.733736	38.9536	122.246	1.575207	-1.568182	0.36	3	100	0	6	4.7241	-3.687221	-126.325	
10:11:10	-6.733735	38.9536	122.407	1.604875	-0.08700579	0.22	3	100	0	6	4.51592	-3.549959	-126.3366	
10:11:11	-6.733735	38.9536	122.473	1.640542	1.998074	0.09	3	100	0	6	4.750513	-3.682693	-126.4008	
10:11:11	-6.733735	38.9536	122.45	1.668766	3.223013	0.14	3	100	0	6	4.933568	-4.09527	-126.4169	
