Date	Latitude(deg) 	Longitude(deg)	hamsl(m)	hafl(m)	climbrate(cm/s)	GroundSpeed(m/s)	Airspeed(m/s)	Mav_Link(%)	Rssi_Link(%)	Throttle	Roll(deg)	Pitch(deg)	Yaw(deg)
19:31:35	0	0	0	0	0	0	0	100	0	0	0	0	0	
19:31:35	0	0	0	0.2245717	-0.215435	0	3	100	0	5	1.031495	-15.65966	58.63877	
19:31:35	0	0	0	0.2218119	-2.752099	0	3	100	0	4	1.009871	-15.67677	58.70963	
19:31:36	0	0	0	-0.04488719	-18.14008	0	3	100	0	4	0.9790714	-15.69295	58.78155	
19:31:36	0	0	0	-0.2852595	-30.54924	0	3	100	0	4	0.9502879	-15.70579	58.8626	
19:31:36	0	0	0	-0.2822733	-29.13859	0	3	100	0	4	0.922236	-15.74089	58.92964	
19:31:36	0	0	0	0.01596871	-12.48258	0	3	100	0	4	0.9116295	-15.76486	58.9765	
19:31:36	0	0	0	0.3150699	2.656892	0	3	100	0	4	0.8886923	-15.76395	59.04292	
19:31:37	0	0	0	0.6299791	17.29656	0	3	100	0	4	0.8816445	-15.7768	59.09042	
19:31:37	0	0	0	0.8543186	25.67201	0	3	100	0	4	0.8660518	-15.79181	59.13604	
19:31:37	0	0	0	0.9932886	29.06566	0	3	100	0	6	0.84613	-15.81059	59.18866	
19:31:37	0	0	0	1.058598	27.82946	0	3	100	0	5	0.8297309	-15.83348	59.24185	
19:31:37	0	0	0	1.055653	23.04561	0	3	100	0	4	0.8156406	-15.86858	59.28551	
19:31:38	0	0	0	1.042773	19.01042	0	3	100	0	5	0.8023134	-15.87305	59.31985	
19:31:38	0	0	0	1.016728	13.84111	0	3	100	0	4	0.7891865	-15.89536	59.35376	
19:31:38	0	0	0	0.9726334	8.336636	0	3	100	0	4	0.7787745	-15.88952	59.37778	
19:31:38	0	0	0	0.916808	2.601396	0	3	100	0	4	0.7671303	-15.87775	59.41404	
19:31:38	0	0	0	0.8538516	-2.628902	0	3	100	0	4	0.7674596	-15.89437	59.44424	
19:31:39	0	0	0	0.802991	-6.730799	0	3	100	0	5	0.7655261	-15.9009	59.47162	
19:31:39	0	0	0	0.6942148	-13.06006	0	3	100	0	4	0.7572799	-15.91079	59.49689	
19:31:39	0	0	0	0.5577907	-20.72226	0	3	100	0	4	0.7549211	-15.92068	59.52315	
19:31:39	0	0	0	0.4624459	-25.06441	0	3	100	0	4	0.7415968	-15.92401	59.55821	
19:31:39	0	0	0	0.4066564	-27.6651	0	3	100	0	4	0.7312323	-15.94689	59.59192	
19:31:40	0	0	0	0.354078	-29.17939	0	3	100	0	4	0.7271786	-15.95463	59.61637	
19:31:40	0	0	0	0.2879128	-30.80472	0	3	100	0	4	0.721988	-15.95928	59.62544	
19:31:40	0	0	0	0.2598643	-30.97809	0	3	100	0	4	0.7326712	-15.96852	59.63785	
19:31:40	0	0	0	0.2525779	-29.96947	0	3	100	0	4	0.7414674	-15.96424	59.65433	
19:31:40	0	0	0	0.2496115	-28.24072	0	3	100	0	4	0.7264991	-15.98467	59.6615	
19:31:41	0	0	0	0.2503541	-27.042	0	3	100	0	4	0.7291514	-15.98505	59.66635	
19:31:41	0	0	0	0.2530384	-26.10316	0	3	100	0	4	0.7239595	-16.01253	59.67474	
19:31:41	0	0	0	0.1879624	-28.16493	0	3	100	0	5	0.7184511	-16.01534	59.6701	
19:31:41	0	0	0	0.1314602	-29.78509	0	3	100	0	4	0.7182251	-16.01588	59.67255	
19:31:41	0	0	0	0.09739088	-29.55651	0	3	100	0	4	0.7294401	-15.998	59.67605	
19:31:42	0	0	0	0.07285488	-29.39249	0	3	100	0	4	0.7413216	-15.99744	59.66928	
19:31:42	0	0	0	0.0246136	-30.73386	0	3	100	0	4	0.7448217	-15.98626	59.65794	
19:31:42	0	0	0	-0.0126599	-30.66773	0	3	100	0	4	0.7454897	-15.98236	59.66221	
19:31:42	0	0	0	-0.06276842	-31.38737	0	3	100	0	4	0.7390953	-15.97441	59.68146	
19:31:42	0	0	0	-0.1031282	-31.28142	0	3	100	0	4	0.7359269	-15.98061	59.70298	
19:31:43	0	0	0	-0.09034345	-28.36187	0	3	100	0	4	0.7257487	-15.98226	59.7147	
19:31:43	0	0	0	-0.07443774	-25.61581	0	3	100	0	5	0.7259364	-15.9848	59.7254	
19:31:43	0	0	0	-0.08748068	-25.04722	0	3	100	0	4	0.7316946	-15.97923	59.735	
19:31:43	0	0	0	-0.09622411	-24.42681	0	3	100	0	4	0.7416397	-15.97511	59.74551	
19:31:43	0	0	0	-0.05362294	-20.93359	0	3	100	0	4	0.7365893	-15.9821	59.76019	
19:31:44	0	0	0	-0.009498629	-17.57097	0	3	100	0	4	0.741676	-15.9843	59.75892	
19:31:44	0	0	0	0.053089	-13.77327	0	3	100	0	4	0.7531853	-15.98956	59.75964	
19:31:44	0	0	0	0.1107264	-10.53034	0	3	100	0	4	0.7606293	-15.99328	59.76104	
19:31:44	0	0	0	0.1750292	-7.255285	0	3	100	0	4	0.7619157	-15.99255	59.74637	
19:31:44	0	0	0	0.2450574	-4.430889	0	3	100	0	4	0.785271	-16.00159	59.73174	
19:31:45	0	0	0	0.2646179	-3.911084	0	3	100	0	4	0.7898525	-16.00658	59.72525	
19:31:45	0	0	0	0.2811248	-3.450361	0	3	100	0	4	0.8054491	-16.00833	59.7132	
19:31:45	0	0	0	0.2523104	-5.640996	0	3	100	0	4	0.8107926	-15.99554	59.70951	
19:31:45	0	0	0	0.2249687	-7.696269	0	3	100	0	4	0.8099722	-15.97851	59.70375	
19:31:45	0	0	0	0.2316252	-7.713382	0	3	100	0	4	0.8028613	-15.9634	59.69859	
19:31:46	0	0	0	0.2367056	-7.534432	0	3	100	0	4	0.8121464	-15.95069	59.69017	
19:31:46	0	0	0	0.2647663	-6.434618	0	3	100	0	4	0.8107696	-15.96999	59.69135	
19:31:46	0	0	0	0.3066606	-3.797007	0	3	100	0	4	0.826563	-15.98241	59.68856	
19:31:46	0	0	0	0.3603035	-1.319196	0	3	100	0	4	0.8244314	-16.0133	59.68496	
19:31:46	0	0	0	0.4092939	0.4875047	0	3	100	0	4	0.83612	-16.01723	59.65886	
19:31:47	0	0	0	0.4453395	2.159334	0	3	100	0	4	0.8409549	-16.02913	59.63848	
19:31:47	0	0	0	0.4715748	2.445175	0	3	100	0	4	0.8520887	-16.02953	59.62424	
19:31:47	0	0	0	0.4816662	2.121091	0	3	100	0	4	0.8584064	-16.02439	59.60723	
19:31:47	0	0	0	0.4782945	0.7577083	0	3	100	0	4	0.867028	-16.00977	59.5862	
19:31:47	0	0	0	0.4643186	-0.8184862	0	3	100	0	4	0.8701599	-16.00976	59.56068	
19:31:48	0	0	0	0.44237	-2.573737	0	3	100	0	4	0.8783374	-15.986	59.5471	
19:31:48	0	0	0	0.4358198	-3.466394	0	3	100	0	4	0.9033682	-15.98036	59.51309	
19:31:48	0	0	0	0.4466796	-2.963107	0	3	100	0	4	0.901281	-15.96381	59.49566	
19:31:48	0	0	0	0.4640085	-2.859702	0	3	100	0	4	0.9190547	-15.95142	59.4791	
19:31:48	0	0	0	0.4883113	-1.911144	0	3	100	0	5	0.9342496	-15.94032	59.46294	
19:31:49	0	0	0	0.4656537	-3.934773	0	3	100	0	4	0.9426987	-15.94406	59.44247	
19:31:49	0	0	0	0.4012938	-7.718587	0	3	100	0	4	0.9549662	-15.94367	59.42065	
19:31:49	0	0	0	0.3386583	-10.94182	0	3	100	0	4	0.9525369	-15.95341	59.40738	
19:31:49	0	0	0	0.2777695	-13.71449	0	3	100	0	4	0.9574015	-15.96499	59.38369	
19:31:49	0	0	0	0.2578969	-13.47163	0	3	100	0	5	0.9510602	-15.95979	59.3719	
19:31:50	0	0	0	0.2725953	-11.96253	0	3	100	0	4	0.9480478	-15.95784	59.35316	
19:31:50	0	0	0	0.3309219	-8.488249	0	3	100	0	5	0.9470175	-15.95141	59.3336	
19:31:50	0	0	0	0.4129759	-3.987306	0	3	100	0	4	0.9562097	-15.96937	59.30679	
19:31:50	0	0	0	0.5032426	0.5287753	0	3	100	0	5	0.9762679	-15.96116	59.29852	
19:31:50	0	0	0	0.5696637	3.428517	0	3	100	0	4	0.9900411	-15.95171	59.28241	
19:31:51	0	0	0	0.6403014	5.690619	0	3	100	0	4	0.9777867	-15.93132	59.28325	
19:31:51	0	0	0	0.5904739	1.834107	0	3	100	0	4	0.9622707	-15.93728	59.28301	
19:31:51	0	0	0	0.5438824	-1.150882	0	3	100	0	5	0.971176	-15.95065	59.27861	
19:31:51	0	0	0	0.5302015	-2.547551	0	3	100	0	5	0.9632033	-15.94616	59.27784	
19:31:51	0	0	0	0.5165005	-3.739401	0	3	100	0	4	0.9600487	-15.9399	59.25445	
19:31:52	0	0	0	0.4455562	-7.352237	0	3	100	0	4	0.9776956	-15.93113	59.23998	
19:31:52	0	0	0	0.3824596	-9.999705	0	3	100	0	3	0.9684651	-15.9305	59.21461	
19:31:52	0	0	0	0.3053174	-13.4095	0	3	100	0	4	0.978159	-15.9389	59.19152	
19:31:52	0	0	0	0.2371796	-16.67711	0	3	100	0	4	0.9825049	-15.91437	59.17332	
19:31:52	0	0	0	0.187839	-18.61423	0	3	100	0	5	0.9898907	-15.89394	59.14144	
19:31:53	0	0	0	0.1438666	-19.82057	0	3	100	0	4	0.9983215	-15.8776	59.10601	
19:31:53	0	0	0	0.1725442	-16.95246	0	3	100	0	4	1.025245	-15.86769	59.08131	
19:31:53	0	0	0	0.201642	-14.17124	0	3	100	0	4	1.067332	-15.85768	59.05564	
19:31:53	0	0	0	0.2237571	-12.07774	0	3	100	0	4	1.079842	-15.86158	59.04066	
19:31:53	0	0	0	0.2500257	-10.26079	0	3	100	0	5	1.084843	-15.85825	59.01795	
19:31:54	0	0	0	0.2911095	-7.841381	0	3	100	0	5	1.084164	-15.85512	59.00359	
19:31:54	0	0	0	0.3288282	-5.860827	0	3	100	0	4	1.080459	-15.84694	58.98173	
19:31:54	0	0	0	0.3565789	-3.940402	0	3	100	0	4	1.078177	-15.82161	58.97144	
19:31:54	0	0	0	0.3881751	-1.831066	0	3	100	0	4	1.087761	-15.8085	58.95586	
19:31:54	0	0	0	0.3776976	-2.606066	0	3	100	0	4	1.091642	-15.80519	58.95804	
19:31:55	0	0	0	0.3678568	-3.292986	0	3	100	0	5	1.087026	-15.80265	58.96297	
19:31:55	0	0	0	0.3326978	-4.798416	0	3	100	0	4	1.078176	-15.82021	58.94435	
19:31:55	0	0	0	0.3011219	-6.636403	0	3	100	0	4	1.079047	-15.82997	58.94653	
19:31:55	0	0	0	0.2542014	-8.708383	0	3	100	0	4	1.088528	-15.84066	58.93177	
19:31:55	0	0	0	0.2166407	-10.00544	0	3	100	0	3	1.079852	-15.84772	58.935	
19:31:56	0	0	0	0.1833123	-10.99153	0	3	100	0	4	1.084629	-15.85373	58.91399	
19:31:56	0	0	0	0.165596	-11.50523	0	3	100	0	4	1.077228	-15.84871	58.91333	
19:31:56	0	0	0	0.1611592	-11.75224	0	3	100	0	4	1.07864	-15.85423	58.90885	
19:31:56	0	0	0	0.1781753	-9.98845	0	3	100	0	5	1.083793	-15.84839	58.89919	
19:31:56	0	0	0	0.1889696	-8.613116	0	3	100	0	4	1.08965	-15.83888	58.87376	
19:31:57	0	0	0	0.1970634	-7.823126	0	3	100	0	4	1.089057	-15.8203	58.84756	
19:31:57	0	0	0	0.2220851	-6.376052	0	3	100	0	4	1.088988	-15.80379	58.82755	
19:31:57	0	0	0	0.2620243	-4.091747	0	3	100	0	4	1.093715	-15.79568	58.81198	
19:31:57	0	0	0	0.2926627	-2.887068	0	3	100	0	4	1.089089	-15.80193	58.81132	
19:31:57	0	0	0	0.3137903	-1.337641	0	3	100	0	4	1.087271	-15.78694	58.8113	
19:31:58	0	0	0	0.3370091	-0.4798952	0	3	100	0	4	1.074709	-15.77033	58.81047	
19:31:58	0	0	0	0.3546707	-0.01836251	0	3	100	0	4	1.074037	-15.77692	58.80528	
19:31:58	0	0	0	0.3521768	-0.7788265	0	3	100	0	4	1.077188	-15.78274	58.79363	
19:31:58	0	0	0	0.3318416	-2.218626	0	3	100	0	4	1.066338	-15.80962	58.80397	
19:31:58	0	0	0	0.3253825	-3.023491	0	3	100	0	4	1.077297	-15.80094	58.79141	
19:31:59	0	0	0	0.3282201	-3.061084	0	3	100	0	4	1.085541	-15.77851	58.77398	
19:31:59	0	0	0	0.3184513	-3.916254	0	3	100	0	4	1.094973	-15.74473	58.76009	
19:31:59	0	0	0	0.2979114	-4.759766	0	3	100	0	4	1.096044	-15.72129	58.75937	
19:31:59	0	0	0	0.2798211	-5.842441	0	3	100	0	4	1.096228	-15.71921	58.74487	
19:31:59	0	0	0	0.2686171	-6.514942	0	3	100	0	4	1.090241	-15.71073	58.73998	
19:32:00	0	0	0	0.2608146	-6.618773	0	3	100	0	4	1.082999	-15.71407	58.72701	
19:32:00	0	0	0	0.2590817	-6.392284	0	3	100	0	4	1.087658	-15.70347	58.71608	
19:32:00	0	0	0	0.2633521	-5.990151	0	3	100	0	4	1.102305	-15.69648	58.71328	
19:32:00	0	0	0	0.2722329	-5.371366	0	3	100	0	5	1.090377	-15.69954	58.72049	
19:32:01	0	0	0	0.2805374	-4.540899	0	3	100	0	4	1.09098	-15.6822	58.71617	
19:32:01	0	0	0	0.2826244	-4.990089	0	3	100	0	4	1.079503	-15.67995	58.72789	
19:32:01	0	0	0	0.2840797	-4.56115	0	3	100	0	4	1.090386	-15.67177	58.73652	
19:32:01	0	0	0	0.2922411	-4.019845	0	3	100	0	4	1.08448	-15.64666	58.73544	
19:32:01	0	0	0	0.2998208	-3.306154	0	3	100	0	4	1.087759	-15.63434	58.73856	
19:32:02	0	0	0	0.2662683	-5.734004	0	3	100	0	4	1.070773	-15.62562	58.75402	
19:32:02	0	0	0	0.2324431	-7.263755	0	3	100	0	4	1.075869	-15.61665	58.76426	
19:32:02	0	0	0	0.1877791	-9.108107	0	3	100	0	4	1.072785	-15.62403	58.76781	
19:32:02	0	0	0	0.1516128	-10.65032	0	3	100	0	4	1.069915	-15.63117	58.7792	
19:32:02	0	0	0	0.145302	-10.12423	0	3	100	0	4	1.075911	-15.64988	58.76714	
19:32:03	0	0	0	0.1419162	-9.201943	0	3	100	0	4	1.072741	-15.6438	58.76654	
19:32:03	0	0	0	0.1484409	-7.385952	0	3	100	0	5	1.058641	-15.66898	58.75925	
19:32:03	0	0	0	0.1573673	-6.109523	0	3	100	0	4	1.05758	-15.67737	58.74613	
19:32:03	0	0	0	0.1784069	-4.287781	0	3	100	0	5	1.055776	-15.68779	58.74304	
19:32:03	0	0	0	0.1990029	-2.999089	0	3	100	0	4	1.047674	-15.66979	58.74644	
19:32:04	0	0	0	0.1867839	-3.941481	0	3	100	0	4	1.03784	-15.65815	58.7484	
19:32:04	0	0	0	0.1760113	-4.62926	0	3	100	0	4	1.030892	-15.67297	58.74504	
19:32:04	0	0	0	0.1770693	-5.1006	0	3	100	0	4	1.025429	-15.66877	58.74011	
19:32:04	0	0	0	0.1772646	-5.138386	0	3	100	0	4	1.03084	-15.6657	58.74263	
19:32:04	0	0	0	0.1777255	-5.331748	0	3	100	0	4	1.018276	-15.66877	58.73206	
19:32:05	0	0	0	0.1777829	-5.18033	0	3	100	0	4	1.012683	-15.66305	58.73476	
19:32:05	0	0	0	0.1688996	-5.132792	0	3	100	0	4	1.012738	-15.64872	58.73697	
19:32:05	0	0	0	0.1610976	-5.486246	0	3	100	0	4	1.009612	-15.63858	58.75066	
19:32:05	0	0	0	0.1444618	-6.36818	0	3	100	0	4	1.014754	-15.63466	58.73851	
19:32:05	0	0	0	0.1264756	-6.984627	0	3	100	0	4	1.016238	-15.64018	58.73613	
19:32:06	0	0	0	0.07798042	-9.180697	0	3	100	0	4	1.023647	-15.6382	58.73228	
19:32:06	0	0	0	0.00776815	-12.29604	0	3	100	0	4	1.014684	-15.62715	58.73742	
19:32:06	0	0	0	-0.04460759	-14.15184	0	3	100	0	4	1.009307	-15.6355	58.73872	
19:32:06	0	0	0	-0.07126046	-14.50604	0	3	100	0	4	1.004699	-15.62515	58.73273	
19:32:06	0	0	0	-0.1010795	-14.7107	0	3	100	0	4	1.010677	-15.64047	58.72649	
19:32:07	0	0	0	-0.1350521	-14.6401	0	3	100	0	5	1.012312	-15.64298	58.72015	
19:32:07	0	0	0	-0.1436375	-14.0124	0	3	100	0	4	1.014362	-15.62327	58.70825	
19:32:07	0	0	0	-0.1316186	-12.4378	0	3	100	0	4	1.010132	-15.62298	58.70822	
19:32:07	0	0	0	-0.1158128	-10.44071	0	3	100	0	4	1.011155	-15.60804	58.70295	
19:32:07	0	0	0	-0.09349908	-7.903073	0	3	100	0	4	1.016235	-15.61027	58.69975	
19:32:08	0	0	0	-0.0699736	-6.182186	0	3	100	0	4	1.010278	-15.62375	58.69728	
19:32:08	0	0	0	-0.05202461	-5.36662	0	3	100	0	5	1.004769	-15.61635	58.69136	
19:32:08	0	0	0	-0.02725534	-3.770337	0	3	100	0	4	0.9788539	-15.61999	58.69833	
19:32:08	0	0	0	0.003455644	-2.164907	0	3	100	0	4	0.9576057	-15.6345	58.7153	
19:32:08	0	0	0	0.01759893	-1.108987	0	3	100	0	4	0.962618	-15.65539	58.71888	
19:32:09	0	0	0	0.02228781	-0.9651045	0	3	100	0	4	0.9711307	-15.66769	58.71475	
19:32:09	0	0	0	0.03576135	-0.2197441	0	3	100	0	5	0.980958	-15.67816	58.71513	
19:32:09	0	0	0	0.0623599	0.8639718	0	3	100	0	4	0.9689872	-15.65926	58.73426	
19:32:09	0	0	0	0.09217342	1.987596	0	3	100	0	4	0.9665385	-15.6759	58.74	
19:32:09	0	0	0	0.1163085	1.660866	0	3	100	0	4	0.9775323	-15.67911	58.74266	
19:32:10	0	0	0	0.1348461	2.096908	0	3	100	0	4	0.9745281	-15.69448	58.73945	
19:32:10	0	0	0	0.1427418	2.335107	0	3	100	0	4	0.9652899	-15.6959	58.7368	
19:32:10	0	0	0	0.1456683	1.908058	0	3	100	0	4	0.9479065	-15.69938	58.73504	
19:32:10	0	0	0	0.143968	1.515241	0	3	100	0	4	0.9538123	-15.6892	58.73413	
19:32:10	0	0	0	0.1422659	1.53842	0	3	100	0	4	0.9580957	-15.67092	58.73818	
19:32:11	0	0	0	0.1044045	-1.17249	0	3	100	0	5	0.9666151	-15.66893	58.72562	
19:32:11	0	0	0	0.06857735	-3.756921	0	3	100	0	4	0.9730954	-15.67453	58.72895	
19:32:11	0	0	0	0.07611486	-3.549029	0	3	100	0	4	0.9878188	-15.67633	58.72135	
19:32:11	0	0	0	0.08270431	-3.323785	0	3	100	0	5	0.9914256	-15.67628	58.71427	
19:32:11	0	0	0	0.05747131	-4.741078	0	3	100	0	4	0.9813868	-15.6643	58.7191	
19:32:12	0	0	0	0.03013624	-5.962568	0	3	100	0	4	0.9873844	-15.6615	58.71496	
19:32:12	0	0	0	0.0227205	-6.065481	0	3	100	0	5	0.9817787	-15.65919	58.71936	
19:32:12	0	0	0	0.01645919	-6.060887	0	3	100	0	4	0.9895388	-15.67588	58.71123	
19:32:12	0	0	0	-0.008605979	-6.608356	0	3	100	0	4	0.9905066	-15.66793	58.70711	
19:32:12	0	0	0	-0.02959312	-7.387611	0	3	100	0	5	0.9875775	-15.66828	58.71871	
19:32:13	0	0	0	-0.09357428	-10.28411	0	3	100	0	4	0.9985435	-15.67047	58.70867	
19:32:13	0	0	0	-0.1505417	-12.42989	0	3	100	0	4	1.010955	-15.6639	58.69971	
19:32:13	0	0	0	-0.1839706	-13.50563	0	3	100	0	4	1.006982	-15.65002	58.69442	
19:32:13	0	0	0	-0.2126672	-14.11725	0	3	100	0	4	1.022371	-15.62819	58.69191	
19:32:13	0	0	0	-0.1963845	-11.68044	0	3	100	0	5	1.028045	-15.62867	58.68946	
19:32:14	0	0	0	-0.1784213	-9.743662	0	3	100	0	4	1.045075	-15.63257	58.69336	
19:32:14	0	0	0	-0.1712978	-8.80966	0	3	100	0	4	1.061087	-15.63399	58.68555	
19:32:14	0	0	0	-0.163783	-7.427046	0	3	100	0	4	1.064353	-15.63765	58.6772	
19:32:14	0	0	0	-0.126422	-4.347353	0	3	100	0	4	1.055384	-15.65856	58.68042	
19:32:14	0	0	0	-0.09516621	-2.861119	0	3	100	0	4	1.042104	-15.65897	58.66898	
19:32:15	0	0	0	-0.0529093	-0.654219	0	3	100	0	4	1.065829	-15.6511	58.66309	
19:32:15	0	0	0	-0.01820963	1.715718	0	3	100	0	4	1.066813	-15.63299	58.66372	
19:32:15	0	0	0	0.001857826	2.471334	0	3	100	0	4	1.073053	-15.6275	58.65701	
19:32:15	0	0	0	0.02338467	3.52587	0	3	100	0	4	1.080619	-15.6443	58.64852	
19:32:15	0	0	0	0.04593565	4.695694	0	3	100	0	4	1.072487	-15.64373	58.63986	
19:32:16	0	0	0	0.06723864	5.502296	0	3	100	0	4	1.060847	-15.6423	58.63246	
19:32:16	0	0	0	0.1002725	6.579611	0	3	100	0	4	1.050681	-15.62937	58.63588	
19:32:16	0	0	0	0.1524653	8.889876	0	3	100	0	4	1.055966	-15.61827	58.62807	
19:32:16	0	0	0	0.1918865	10.14432	0	3	100	0	4	1.048785	-15.61837	58.64043	
19:32:16	0	0	0	0.2211586	10.59453	0	3	100	0	4	1.037319	-15.61696	58.63306	
19:32:17	0	0	0	0.2627356	11.46444	0	3	100	0	5	1.04417	-15.60759	58.64346	
19:32:17	0	0	0	0.3064027	12.82876	0	3	100	0	4	1.049666	-15.6011	58.63496	
19:32:17	0	0	0	0.3394065	13.4325	0	3	100	0	4	1.042626	-15.6028	58.63838	
19:32:17	0	0	0	0.3682519	13.42764	0	3	100	0	5	1.040105	-15.61846	58.63176	
19:32:17	0	0	0	0.3942118	12.75141	0	3	100	0	5	1.042186	-15.61577	58.63006	
19:32:18	0	0	0	0.4115015	12.72719	0	3	100	0	4	1.054521	-15.60202	58.62235	
19:32:18	0	0	0	0.4261222	11.95334	0	3	100	0	4	1.04179	-15.59766	58.62607	
19:32:18	0	0	0	0.4339208	11.34888	0	3	100	0	4	1.03137	-15.6094	58.63806	
19:32:18	0	0	0	0.4219837	10.05871	0	3	100	0	4	1.024621	-15.59602	58.64123	
19:32:18	0	0	0	0.3982714	7.859482	0	3	100	0	4	1.017814	-15.5732	58.65301	
19:32:19	0	0	0	0.3784145	6.015902	0	3	100	0	4	1.016235	-15.56143	58.64677	
19:32:19	0	0	0	0.3619997	4.248826	0	3	100	0	4	1.002277	-15.566	58.66819	
19:32:19	0	0	0	0.3457544	2.616426	0	3	100	0	4	0.9934145	-15.56537	58.68026	
19:32:19	0	0	0	0.3289767	1.062076	0	3	100	0	4	0.9873083	-15.56186	58.68862	
19:32:19	0	0	0	0.3044756	-0.2458812	0	3	100	0	4	0.9868851	-15.55668	58.7164	
19:32:20	0	0	0	0.2617735	-2.805362	0	3	100	0	4	0.9873989	-15.56237	58.72467	
19:32:20	0	0	0	0.2434911	-3.154456	0	3	100	0	4	0.9816128	-15.55255	58.7369	
19:32:20	0	0	0	0.243336	-2.890908	0	3	100	0	4	0.9792579	-15.56703	58.72918	
19:32:20	0	0	0	0.2435798	-2.664607	0	3	100	0	5	0.9824016	-15.58192	58.72404	
19:32:20	0	0	0	0.2097564	-4.039174	0	3	100	0	4	0.9806933	-15.60048	58.71773	
19:32:21	0	0	0	0.1823286	-5.319087	0	3	100	0	5	0.9845464	-15.62127	58.71412	
19:32:21	0	0	0	0.1438096	-6.661937	0	3	100	0	4	0.9904583	-15.6229	58.70146	
19:32:21	0	0	0	0.1102885	-7.784784	0	3	100	0	4	0.994758	-15.61153	58.69339	
19:32:21	0	0	0	0.0910393	-8.658106	0	3	100	0	4	1.003457	-15.61647	58.70176	
19:32:21	0	0	0	0.07340758	-8.607587	0	3	100	0	4	0.999751	-15.60235	58.70479	
19:32:22	0	0	0	0.06568889	-8.362304	0	3	100	0	4	0.9910229	-15.60267	58.71337	
19:32:22	0	0	0	0.05956255	-8.070971	0	3	100	0	4	0.9918314	-15.60852	58.7138	
19:32:22	0	0	0	0.06728484	-7.396127	0	3	100	0	4	0.9818303	-15.62928	58.70948	
19:32:22	0	0	0	0.07611319	-6.089622	0	3	100	0	4	0.9804204	-15.63317	58.70244	
19:32:22	0	0	0	0.06221078	-6.002488	0	3	100	0	4	0.9931745	-15.63477	58.68867	
19:32:23	0	0	0	0.05261221	-5.824062	0	3	100	0	4	1.007773	-15.65119	58.67466	
19:32:23	0	0	0	0.03654668	-6.443707	0	3	100	0	4	1.009297	-15.63277	58.66843	
19:32:23	0	0	0	0.02365013	-6.604096	0	3	100	0	4	1.016186	-15.63137	58.6575	
19:32:23	0	0	0	0.02744482	-5.438859	0	3	100	0	4	1.012079	-15.62639	58.64627	
19:32:23	0	0	0	0.03199236	-4.429899	0	3	100	0	4	1.00993	-15.64142	58.62562	
19:32:24	0	0	0	0.06477139	-3.114218	0	3	100	0	4	1.014877	-15.64363	58.62046	
19:32:24	0	0	0	0.09690244	-1.586023	0	3	100	0	4	1.018216	-15.62411	58.63125	
19:32:24	0	0	0	0.144277	0.9977662	0	3	100	0	4	1.018372	-15.61385	58.63293	
19:32:24	0	0	0	0.186893	2.95871	0	3	100	0	4	1.023452	-15.62487	58.62086	
19:32:24	0	0	0	0.2560479	6.314202	0	3	100	0	5	1.024617	-15.63882	58.61847	
19:32:25	0	0	0	0.318025	8.885955	0	3	100	0	4	1.029832	-15.63279	58.60507	
19:32:25	0	0	0	0.3015815	6.872593	0	3	100	0	4	1.021706	-15.65106	58.60971	
19:32:25	0	0	0	0.2814253	5.0245	0	3	100	0	4	1.018995	-15.63944	58.60124	
19:32:25	0	0	0	0.2154165	0.9662015	0	3	100	0	4	1.040511	-15.66221	58.59216	
19:32:25	0	0	0	0.1183675	-3.951982	0	3	100	0	4	1.046793	-15.67013	58.59138	
19:32:26	0	0	0	0.01613669	-8.557795	0	3	100	0	4	1.038663	-15.67179	58.58625	
19:32:26	0	0	0	-0.08942582	-12.97899	0	3	100	0	4	1.038691	-15.69241	58.56792	
19:32:26	0	0	0	-0.1375888	-14.08255	0	3	100	0	4	1.042669	-15.69092	58.5559	
19:32:26	0	0	0	-0.1568314	-13.92978	0	3	100	0	4	1.056308	-15.68843	58.54117	
19:32:26	0	0	0	-0.1498782	-11.85694	0	3	100	0	4	1.062615	-15.66767	58.5332	
19:32:27	0	0	0	-0.1201501	-8.849274	0	3	100	0	4	1.069666	-15.65855	58.53103	
19:32:27	0	0	0	-0.08593296	-6.239276	0	3	100	0	4	1.06565	-15.66575	58.52453	
19:32:27	0	0	0	-0.04879687	-3.701635	0	3	100	0	4	1.062283	-15.64843	58.51339	
19:32:27	0	0	0	-0.008504493	-1.277488	0	3	100	0	4	1.066127	-15.64379	58.51353	
19:32:27	0	0	0	0.03446503	1.278582	0	3	100	0	4	1.074399	-15.64104	58.50312	
19:32:28	0	0	0	0.08160497	3.462653	0	3	100	0	4	1.073885	-15.62371	58.5012	
19:32:28	0	0	0	0.1270885	5.324534	0	3	100	0	4	1.087093	-15.62494	58.50588	
19:32:28	0	0	0	0.1861762	8.259363	0	3	100	0	4	1.093024	-15.63143	58.49248	
19:32:28	0	0	0	0.2443846	10.48225	0	3	100	0	4	1.100723	-15.64403	58.4751	
19:32:28	0	0	0	0.2813727	11.187	0	3	100	0	4	1.115987	-15.64052	58.45523	
19:32:29	0	0	0	0.3060733	11.47823	0	3	100	0	4	1.12135	-15.62871	58.44999	
19:32:29	0	0	0	0.3338569	11.69258	0	3	100	0	4	1.133129	-15.62919	58.43116	
19:32:29	0	0	0	0.3622835	11.97201	0	3	100	0	4	1.135507	-15.63813	58.43063	
19:32:29	0	0	0	0.377549	11.36355	0	3	100	0	5	1.139717	-15.63709	58.41811	
19:32:29	0	0	0	0.3735286	9.413419	0	3	100	0	4	1.135452	-15.63986	58.41653	
19:32:30	0	0	0	0.3558456	7.089624	0	3	100	0	5	1.132756	-15.63704	58.40376	
19:32:30	0	0	0	0.3276972	4.75397	0	3	100	0	4	1.119763	-15.63753	58.40557	
19:32:30	0	0	0	0.2998213	2.543267	0	3	100	0	4	1.125404	-15.6418	58.40279	
19:32:30	0	0	0	0.298063	2.110775	0	3	100	0	4	1.130009	-15.62668	58.41796	
19:32:31	0	0	0	0.2958087	1.577607	0	3	100	0	4	1.128292	-15.6206	58.40961	
19:32:31	0	0	0	0.3209293	2.708944	0	3	100	0	5	1.128829	-15.60841	58.40491	
19:32:31	0	0	0	0.3430788	3.55848	0	3	100	0	4	1.138093	-15.60158	58.39738	
19:32:31	0	0	0	0.354662	3.556183	0	3	100	0	4	1.137142	-15.60848	58.37537	
19:32:31	0	0	0	0.3649839	3.621829	0	3	100	0	4	1.130064	-15.61088	58.37925	
19:32:32	0	0	0	0.3525793	2.140035	0	3	100	0	4	1.142534	-15.61433	58.37381	
19:32:32	0	0	0	0.3402555	1.096674	0	3	100	0	4	1.134169	-15.62135	58.35641	
19:32:32	0	0	0	0.3160055	-0.3056693	0	3	100	0	5	1.135926	-15.59802	58.34944	
19:32:32	0	0	0	0.2944656	-1.19066	0	3	100	0	4	1.127628	-15.60772	58.35485	
19:32:32	0	0	0	0.2559839	-3.39372	0	3	100	0	4	1.129836	-15.59568	58.35305	
19:32:33	0	0	0	0.2207895	-5.681358	0	3	100	0	5	1.116336	-15.59873	58.34915	
19:32:33	0	0	0	0.2010222	-6.369169	0	3	100	0	4	1.105609	-15.60823	58.35269	
19:32:33	0	0	0	0.1802928	-6.786328	0	3	100	0	4	1.10922	-15.61728	58.35278	
19:32:33	0	0	0	0.196965	-5.933951	0	3	100	0	4	1.10143	-15.60515	58.36097	
19:32:33	0	0	0	0.2124749	-4.7526	0	3	100	0	4	1.093126	-15.61948	58.36261	
19:32:34	0	0	0	0.2328633	-3.507971	0	3	100	0	4	1.091312	-15.63448	58.35432	
19:32:34	0	0	0	0.2521213	-2.567652	0	3	100	0	4	1.076466	-15.64931	58.35983	
19:32:34	0	0	0	0.2763245	-1.264118	0	3	100	0	4	1.066681	-15.6511	58.36512	
19:32:34	0	0	0	0.298309	-0.1841611	0	3	100	0	4	1.05183	-15.63758	58.37546	
19:32:34	0	0	0	0.3438426	2.564873	0	3	100	0	4	1.046375	-15.63368	58.37589	
19:32:35	0	0	0	0.3849364	4.270422	0	3	100	0	4	1.054673	-15.63159	58.38148	
19:32:35	0	0	0	0.4090392	4.698915	0	3	100	0	4	1.053089	-15.62949	58.37953	
19:32:35	0	0	0	0.4300889	5.470434	0	3	100	0	5	1.052177	-15.61743	58.37431	
19:32:35	0	0	0	0.4283905	4.507988	0	3	100	0	4	1.055122	-15.63135	58.36179	
19:32:35	0	0	0	0.4128819	3.085585	0	3	100	0	4	1.056949	-15.61892	58.36414	
19:32:36	0	0	0	0.405395	2.910584	0	3	100	0	4	1.039611	-15.61507	58.36581	
19:32:36	0	0	0	0.4056087	2.95285	0	3	100	0	4	1.047487	-15.62345	58.37224	
19:32:36	0	0	0	0.3871687	1.235397	0	3	100	0	5	1.048175	-15.64375	58.3732	
19:32:36	0	0	0	0.355092	-0.9133036	0	3	100	0	4	1.058536	-15.65012	58.36014	
19:32:36	0	0	0	0.3158816	-2.810948	0	3	100	0	4	1.060087	-15.66283	58.34562	
19:32:37	0	0	0	0.283226	-4.340666	0	3	100	0	4	1.04884	-15.67668	58.34611	
19:32:37	0	0	0	0.2274296	-7.075605	0	3	100	0	4	1.050817	-15.67777	58.34848	
19:32:37	0	0	0	0.1565229	-10.23617	0	3	100	0	4	1.033154	-15.68235	58.34724	
19:32:37	0	0	0	0.04862946	-15.19819	0	3	100	0	4	1.021161	-15.67763	58.3582	
19:32:37	0	0	0	-0.07367112	-20.1442	0	3	100	0	4	1.00598	-15.67882	58.36722	
19:32:38	0	0	0	-0.1838713	-23.82484	0	3	100	0	4	1.008317	-15.68343	58.35685	
19:32:38	0	0	0	-0.2781568	-26.34436	0	3	100	0	4	1.019747	-15.68113	58.33519	
19:32:38	0	0	0	-0.3290725	-25.94109	0	3	100	0	4	1.025303	-15.68296	58.33083	
19:32:38	0	0	0	-0.3525968	-24.82975	0	3	100	0	4	1.024227	-15.67608	58.31905	
19:32:38	0	0	0	-0.3428935	-21.87738	0	3	100	0	5	1.028397	-15.66268	58.31881	
19:32:39	0	0	0	-0.3057738	-17.98872	0	3	100	0	4	1.019383	-15.65935	58.32211	
19:32:39	0	0	0	-0.2831669	-15.74821	0	3	100	0	4	1.012439	-15.64766	58.33143	
19:32:39	0	0	0	-0.2750865	-14.27551	0	3	100	0	4	1.012839	-15.62532	58.32985	
19:32:39	0	0	0	-0.2687453	-12.24409	0	3	100	0	5	1.012021	-15.63389	58.33837	
19:32:39	0	0	0	-0.2663488	-10.69729	0	3	100	0	4	1.016386	-15.63035	58.32464	
19:32:40	0	0	0	-0.2632448	-9.535998	0	3	100	0	4	1.027751	-15.62819	58.33059	
19:32:40	0	0	0	-0.2599835	-8.401187	0	3	100	0	4	1.032389	-15.61831	58.32516	
19:32:40	0	0	0	-0.2537726	-6.9909	0	3	100	0	2	1.024628	-15.61721	58.34032	
19:32:40	0	0	0	-0.2932322	-8.197013	0	3	100	0	5	1.029478	-15.60734	58.34348	
19:32:40	0	0	0	-0.3279379	-9.09563	0	3	100	0	4	1.030292	-15.60411	58.36727	
19:32:41	0	0	0	-0.3482189	-9.777843	0	3	100	0	4	1.024862	-15.6139	58.36623	
19:32:41	0	0	0	-0.3696103	-10.006	0	3	100	0	4	1.012953	-15.59896	58.38335	
19:32:41	0	0	0	-0.3701772	-9.458687	0	3	100	0	4	1.0276	-15.58723	58.38034	
19:32:41	0	0	0	-0.3686739	-8.1668	0	3	100	0	4	1.027695	-15.59432	58.38702	
19:32:41	0	0	0	-0.3606411	-6.979388	0	3	100	0	4	1.017586	-15.60001	58.38778	
19:32:42	0	0	0	-0.3512435	-5.361347	0	3	100	0	5	1.029892	-15.60042	58.38597	
19:32:42	0	0	0	-0.343157	-4.59791	0	3	100	0	4	1.031801	-15.59148	58.40088	
19:32:42	0	0	0	-0.3362346	-3.930391	0	3	100	0	4	1.039737	-15.60035	58.39954	
19:32:42	0	0	0	-0.3613886	-4.830717	0	3	100	0	4	1.035108	-15.60247	58.38968	
19:32:42	0	0	0	-0.3806133	-4.984647	0	3	100	0	4	1.030848	-15.60869	58.40817	
19:32:43	0	0	0	-0.3849977	-4.82815	0	3	100	0	4	1.055929	-15.61939	58.40401	
19:32:43	0	0	0	-0.3876994	-4.659791	0	3	100	0	5	1.05226	-15.61803	58.40905	
19:32:43	0	0	0	-0.3471445	-2.755896	0	3	100	0	4	1.056223	-15.60496	58.41677	
19:32:43	0	0	0	-0.3146387	-1.305399	0	3	100	0	4	1.052638	-15.62608	58.42971	
19:32:43	0	0	0	-0.2388765	3.079396	0	3	100	0	4	1.043861	-15.62485	58.42635	
19:32:44	0	0	0	-0.170219	6.294985	0	3	100	0	4	1.035775	-15.63292	58.42617	
19:32:44	0	0	0	-0.1490393	6.600283	0	3	100	0	4	1.029296	-15.63807	58.43469	
19:32:44	0	0	0	-0.1317079	6.658269	0	3	100	0	4	1.024663	-15.64347	58.43797	
19:32:44	0	0	0	-0.1137191	6.592726	0	3	100	0	4	1.029664	-15.64292	58.42891	
19:32:44	0	0	0	-0.09863003	6.920758	0	3	100	0	4	1.031473	-15.63466	58.43338	
19:32:45	0	0	0	-0.03812464	9.9028	0	3	100	0	4	1.020101	-15.63914	58.43652	
19:32:45	0	0	0	0.01682555	12.27912	0	3	100	0	4	1.02044	-15.63231	58.44936	
19:32:45	0	0	0	0.04320212	12.23907	0	3	100	0	4	1.028305	-15.65863	58.44268	
19:32:45	0	0	0	0.04526695	10.82553	0	3	100	0	4	1.022734	-15.65419	58.43546	
19:32:45	0	0	0	0.065217	10.77508	0	3	100	0	4	1.002128	-15.64997	58.44954	
19:32:46	0	0	0	0.1015386	11.84598	0	3	100	0	4	1.009297	-15.64956	58.44321	
19:32:46	0	0	0	0.09888832	10.19571	0	3	100	0	4	1.012904	-15.65907	58.43529	
19:32:46	0	0	0	0.06164103	6.767999	0	3	100	0	4	1.013693	-15.65176	58.43195	
19:32:46	0	0	0	0.02389693	4.369553	0	3	100	0	4	1.005681	-15.63752	58.42927	
19:32:46	0	0	0	-0.01244741	2.23057	0	3	100	0	4	1.002035	-15.63151	58.43636	
19:32:47	0	0	0	-0.04818201	0.2376426	0	3	100	0	5	1.004231	-15.62304	58.43801	
19:32:47	0	0	0	-0.08317651	-2.009136	0	3	100	0	5	0.9958181	-15.63445	58.44455	
19:32:47	0	0	0	-0.1122278	-3.400738	0	3	100	0	4	0.9889011	-15.63781	58.46203	
19:32:47	0	0	0	-0.1414493	-4.968276	0	3	100	0	4	0.9870312	-15.62488	58.46704	
19:32:47	0	0	0	-0.185411	-7.029614	0	3	100	0	4	0.9827213	-15.60227	58.47173	
19:32:48	0	0	0	-0.2353587	-8.853093	0	3	100	0	4	0.9891303	-15.59852	58.47452	
19:32:48	0	0	0	-0.2452546	-8.429879	0	3	100	0	4	0.9956845	-15.60516	58.48251	
19:32:48	0	0	0	-0.2264386	-6.143414	0	3	100	0	4	0.9936378	-15.61565	58.49499	
19:32:48	0	0	0	-0.2132324	-5.099722	0	3	100	0	4	0.9859387	-15.62263	58.49735	
19:32:48	0	0	0	-0.2036174	-3.960523	0	3	100	0	4	0.9919912	-15.61794	58.50038	
19:32:49	0	0	0	-0.1831479	-2.658542	0	3	100	0	4	0.9803616	-15.63631	58.51095	
19:32:49	0	0	0	-0.1561065	-0.8657241	0	3	100	0	4	0.9718173	-15.64522	58.5105	
19:32:49	0	0	0	-0.109029	2.066953	0	3	100	0	4	0.9758005	-15.66631	58.51146	
19:32:49	0	0	0	-0.04511963	5.412609	0	3	100	0	4	0.9788869	-15.65018	58.50618	
19:32:49	0	0	0	0.02383796	9.161058	0	3	100	0	5	0.9870135	-15.65134	58.49132	
19:32:50	0	0	0	0.09595962	12.20793	0	3	100	0	4	0.9837332	-15.66508	58.49308	
19:32:50	0	0	0	0.1586499	13.87591	0	3	100	0	4	0.9931538	-15.64046	58.48851	
19:32:50	0	0	0	0.1189804	10.35573	0	3	100	0	4	1.000605	-15.64209	58.49418	
19:32:50	0	0	0	0.08115476	7.604509	0	3	100	0	4	1.013074	-15.64893	58.49181	
19:32:50	0	0	0	0.08109196	7.352173	0	3	100	0	4	1.015004	-15.6546	58.48918	
19:32:51	0	0	0	0.08032355	6.893314	0	3	100	0	4	1.019653	-15.64461	58.4669	
19:32:51	0	0	0	0.01792948	2.436926	0	3	100	0	4	1.023974	-15.64452	58.47113	
19:32:51	0	0	0	-0.03471826	-0.7691491	0	3	100	0	4	1.022918	-15.64816	58.47262	
19:32:51	0	0	0	-0.06273051	-2.490689	0	3	100	0	4	1.033915	-15.61815	58.47307	
19:32:51	0	0	0	-0.08875186	-3.963356	0	3	100	0	4	1.032006	-15.58639	58.46289	
19:32:52	0	0	0	-0.09856946	-4.548794	0	3	100	0	4	1.029276	-15.59136	58.46371	
19:32:52	0	0	0	-0.1072419	-4.370543	0	3	100	0	4	1.029041	-15.58724	58.46384	
19:32:52	0	0	0	-0.08188242	-2.65817	0	3	100	0	4	1.025473	-15.58014	58.46933	
19:32:52	0	0	0	-0.05832313	-0.9299521	0	3	100	0	5	1.025052	-15.56414	58.48898	
19:32:52	0	0	0	-0.04793745	-0.487004	0	3	100	0	4	1.031911	-15.56792	58.49844	
19:32:53	0	0	0	-0.03832512	0.2721774	0	3	100	0	4	1.033955	-15.57627	58.49974	
19:32:53	0	0	0	-0.02893754	0.5545254	0	3	100	0	4	1.031499	-15.56709	58.49087	
19:32:53	0	0	0	-0.01853629	1.124251	0	3	100	0	4	1.039965	-15.57134	58.49137	
19:32:53	0	0	0	0.02239627	3.568774	0	3	100	0	4	1.038382	-15.57219	58.50145	
19:32:53	0	0	0	0.06022971	6.010399	0	3	100	0	5	1.047606	-15.56466	58.50438	
19:32:54	0	0	0	0.09986009	7.269574	0	3	100	0	4	1.043315	-15.56365	58.5081	
19:32:54	0	0	0	0.1345596	8.898152	0	3	100	0	4	1.025425	-15.57228	58.51704	
19:32:54	0	0	0	0.1918781	11.69966	0	3	100	0	5	1.030983	-15.5748	58.52341	
19:32:54	0	0	0	0.2422675	13.21959	0	3	100	0	4	1.021547	-15.57695	58.52866	
19:32:54	0	0	0	0.255239	12.75655	0	3	100	0	4	1.025093	-15.55325	58.53315	
19:32:55	0	0	0	0.2645934	12.05126	0	3	100	0	4	1.016299	-15.55898	58.54547	
19:32:55	0	0	0	0.2623216	10.36794	0	3	100	0	5	1.024075	-15.55157	58.56024	
19:32:55	0	0	0	0.2519045	9.059243	0	3	100	0	3	1.017084	-15.54773	58.58551	
19:32:55	0	0	0	0.2441829	7.757396	0	3	100	0	4	1.021549	-15.53465	58.59067	
19:32:55	0	0	0	0.2423156	6.295602	0	3	100	0	4	1.027245	-15.52292	58.58816	
19:32:56	0	0	0	0.2158597	4.400029	0	3	100	0	5	1.024205	-15.53563	58.59067	
19:32:56	0	0	0	0.1808764	2.780233	0	3	100	0	4	1.021389	-15.56213	58.58992	
19:32:56	0	0	0	0.1518267	0.6761315	0	3	100	0	5	1.017822	-15.57003	58.58849	
19:32:56	0	0	0	0.1386596	-0.3182663	0	3	100	0	4	1.019391	-15.55912	58.60595	
19:32:56	0	0	0	0.1322666	-0.9421273	0	3	100	0	4	1.00998	-15.55085	58.63033	
19:32:57	0	0	0	0.1328351	-1.322755	0	3	100	0	4	1.004631	-15.55233	58.6479	
19:32:57	0	0	0	0.1126333	-3.218098	0	3	100	0	5	1.019925	-15.53562	58.64884	
19:32:57	0	0	0	0.080984	-4.723652	0	3	100	0	4	1.020055	-15.538	58.65107	
19:32:57	0	0	0	0.04487465	-5.63133	0	3	100	0	4	1.011326	-15.53326	58.64546	
19:32:58	0	0	0	0.005543541	-6.640429	0	3	100	0	5	1.014968	-15.53443	58.64684	
19:32:58	0	0	0	-0.04398865	-8.589563	0	3	100	0	4	1.00238	-15.52977	58.64471	
19:32:58	0	0	0	-0.10297	-10.74286	0	3	100	0	4	0.9966108	-15.51457	58.64293	
19:32:58	0	0	0	-0.137234	-11.28131	0	3	100	0	5	0.9987736	-15.51991	58.63249	
19:32:58	0	0	0	-0.1494348	-10.41487	0	3	100	0	4	0.9955848	-15.53119	58.63367	
19:32:59	0	0	0	-0.1526177	-9.583439	0	3	100	0	4	0.9972569	-15.5387	58.63518	
19:32:59	0	0	0	-0.1474886	-7.988366	0	3	100	0	4	1.009164	-15.54169	58.6245	
19:32:59	0	0	0	-0.115444	-5.451138	0	3	100	0	4	1.012187	-15.54623	58.63815	
19:32:59	0	0	0	-0.06096948	-2.276512	0	3	100	0	4	1.022403	-15.54632	58.64484	
19:32:59	0	0	0	-0.009446639	0.6809368	0	3	100	0	4	1.012645	-15.56903	58.63652	
19:33:00	0	0	0	0.04054572	3.485309	0	3	100	0	4	1.02011	-15.55237	58.63204	
19:33:00	0	0	0	0.08506182	5.291588	0	3	100	0	4	1.024559	-15.5554	58.63778	
19:33:00	0	0	0	0.1334156	7.490545	0	3	100	0	4	1.021193	-15.55907	58.64393	
19:33:00	0	0	0	0.1851798	9.096574	0	3	100	0	4	1.017959	-15.56683	58.65141	
19:33:00	0	0	0	0.2273848	10.76203	0	3	100	0	4	1.019093	-15.56336	58.66371	
19:33:01	0	0	0	0.2682761	11.72193	0	3	100	0	4	1.012826	-15.58917	58.65995	
19:33:01	0	0	0	0.3143781	13.21524	0	3	100	0	5	1.013437	-15.63042	58.65001	
19:33:01	0	0	0	0.3582161	14.25171	0	3	100	0	4	1.017235	-15.61404	58.62868	
19:33:01	0	0	0	0.3821096	14.4532	0	3	100	0	5	1.026978	-15.59911	58.61876	
19:33:01	0	0	0	0.4019488	14.80389	0	3	100	0	5	1.042197	-15.58353	58.61052	
19:33:02	0	0	0	0.4054596	13.8836	0	3	100	0	4	1.041941	-15.58523	58.60783	
19:33:02	0	0	0	0.4063402	12.77562	0	3	100	0	4	1.044631	-15.60384	58.60795	
19:33:02	0	0	0	0.3636699	9.838531	0	3	100	0	4	1.050388	-15.61439	58.59599	
19:33:02	0	0	0	0.3185745	6.623186	0	3	100	0	4	1.048212	-15.59803	58.59876	
19:33:02	0	0	0	0.2658974	3.467129	0	3	100	0	4	1.047537	-15.57258	58.59456	
19:33:03	0	0	0	0.2219033	0.6079547	0	3	100	0	4	1.045769	-15.57333	58.5924	
19:33:03	0	0	0	0.2078429	0.08800945	0	3	100	0	4	1.032912	-15.56894	58.59566	
19:33:03	0	0	0	0.191889	-0.9279526	0	3	100	0	4	1.032693	-15.55398	58.60033	
19:33:03	0	0	0	0.1749694	-1.582621	0	3	100	0	4	1.030061	-15.54171	58.59989	
19:33:03	0	0	0	0.1572019	-1.93734	0	3	100	0	4	1.023651	-15.56975	58.61029	
19:33:04	0	0	0	0.138016	-2.681469	0	3	100	0	4	1.025536	-15.58143	58.60896	
19:33:04	0	0	0	0.1209913	-3.131062	0	3	100	0	4	1.024462	-15.58379	58.60798	
19:33:04	0	0	0	0.1287652	-2.536874	0	3	100	0	4	1.027354	-15.60605	58.60889	
19:33:04	0	0	0	0.1362484	-1.654032	0	3	100	0	5	1.033455	-15.60712	58.60741	
19:33:04	0	0	0	0.2177471	2.188402	0	3	100	0	4	1.03803	-15.6021	58.62261	
19:33:05	0	0	0	0.2907389	5.312315	0	3	100	0	4	1.037084	-15.615	58.62313	
19:33:05	0	0	0	0.3699432	9.002153	0	3	100	0	4	1.031703	-15.63404	58.61839	
19:33:05	0	0	0	0.4535	12.33872	0	3	100	0	4	1.02697	-15.62965	58.61267	
19:33:05	0	0	0	0.523239	15.08141	0	3	100	0	4	1.023705	-15.63177	58.6053	
19:33:05	0	0	0	0.5801769	16.59022	0	3	100	0	4	1.023999	-15.64059	58.60154	
19:33:06	0	0	0	0.5954922	16.13961	0	3	100	0	5	1.026928	-15.63575	58.60896	
19:33:06	0	0	0	0.5825059	13.54408	0	3	100	0	5	1.031291	-15.61805	58.60511	
19:33:06	0	0	0	0.5458196	10.60872	0	3	100	0	4	1.026274	-15.63315	58.59868	
19:33:06	0	0	0	0.4962123	7.478081	0	3	100	0	4	1.023463	-15.61437	58.60114	
19:33:06	0	0	0	0.4368596	3.965248	0	3	100	0	4	1.032654	-15.59352	58.59426	
19:33:07	0	0	0	0.3696686	0.4808047	0	3	100	0	5	1.035919	-15.58727	58.58483	
19:33:07	0	0	0	0.3203226	-2.359661	0	3	100	0	5	1.032349	-15.59695	58.57954	
19:33:07	0	0	0	0.2858469	-3.875265	0	3	100	0	4	1.037448	-15.60003	58.57003	
19:33:07	0	0	0	0.2480927	-5.27421	0	3	100	0	4	1.035107	-15.59051	58.58219	
19:33:07	0	0	0	0.2049483	-7.057888	0	3	100	0	4	1.020471	-15.60254	58.57891	
19:33:08	0	0	0	0.1364622	-9.636378	0	3	100	0	4	1.026599	-15.62572	58.56782	
19:33:08	0	0	0	0.04247243	-13.94851	0	3	100	0	4	1.033537	-15.62441	58.56185	
19:33:08	0	0	0	-0.04889533	-17.58725	0	3	100	0	4	1.018041	-15.61703	58.56815	
19:33:08	0	0	0	-0.1332284	-20.40295	0	3	100	0	5	1.010516	-15.60393	58.57351	
19:33:08	0	0	0	-0.1979052	-21.72127	0	3	100	0	4	1.013771	-15.60723	58.57672	
19:33:09	0	0	0	-0.2615273	-22.8812	0	3	100	0	4	1.023825	-15.61673	58.57544	
19:33:09	0	0	0	-0.2938519	-22.48139	0	3	100	0	4	1.023122	-15.62871	58.58685	
19:33:09	0	0	0	-0.3035797	-21.52577	0	3	100	0	5	1.035443	-15.64481	58.59178	
19:33:09	0	0	0	-0.3056761	-19.16862	0	3	100	0	4	1.035365	-15.64146	58.59287	
19:33:09	0	0	0	-0.2981886	-16.89308	0	3	100	0	4	1.040665	-15.62273	58.58535	
19:33:10	0	0	0	-0.2889534	-15.15715	0	3	100	0	4	1.037649	-15.6145	58.59195	
19:33:10	0	0	0	-0.3519619	-16.12391	0	3	100	0	4	1.047777	-15.61299	58.58774	
19:33:10	0	0	0	-0.3996159	-17.35858	0	3	100	0	4	1.046722	-15.62144	58.58477	
19:33:10	0	0	0	-0.3985548	-15.88087	0	3	100	0	4	1.060526	-15.60818	58.58174	
19:33:10	0	0	0	-0.3948835	-14.31185	0	3	100	0	5	1.059344	-15.61222	58.57989	
19:33:11	0	0	0	-0.3450592	-10.20055	0	3	100	0	5	1.053839	-15.61305	58.5779	
19:33:11	0	0	0	-0.3018067	-7.27055	0	3	100	0	4	1.047766	-15.62958	58.58063	
19:33:11	0	0	0	-0.3068817	-6.674536	0	3	100	0	4	1.046353	-15.64002	58.56518	
19:33:11	0	0	0	-0.3094455	-5.56904	0	3	100	0	4	1.046707	-15.64676	58.55832	
19:33:11	0	0	0	-0.3069913	-5.064374	0	3	100	0	4	1.049547	-15.65466	58.54436	
19:33:12	0	0	0	-0.304069	-4.503838	0	3	100	0	4	1.037605	-15.64258	58.54214	
19:33:12	0	0	0	-0.263949	-2.431743	0	3	100	0	4	1.023709	-15.62654	58.54453	
19:33:12	0	0	0	-0.2271849	-0.2325094	0	3	100	0	4	1.027329	-15.60187	58.54586	
19:33:12	0	0	0	-0.1902382	1.862945	0	3	100	0	4	1.007775	-15.6019	58.55838	
19:33:12	0	0	0	-0.1599738	3.054545	0	3	100	0	4	1.011009	-15.60363	58.55997	
19:33:13	0	0	0	-0.09962407	5.76205	0	3	100	0	4	1.016731	-15.62324	58.55329	
19:33:13	0	0	0	-0.05080625	7.677952	0	3	100	0	4	0.9975504	-15.61462	58.57391	
19:33:13	0	0	0	0.01359006	10.3121	0	3	100	0	4	0.9899805	-15.61143	58.5765	
19:33:13	0	0	0	0.06539334	11.94056	0	3	100	0	5	0.9952172	-15.62858	58.57449	
19:33:13	0	0	0	0.08183879	11.29899	0	3	100	0	4	0.9944516	-15.64419	58.5713	
19:33:14	0	0	0	0.09256954	10.40734	0	3	100	0	4	0.9958182	-15.66341	58.56193	
19:33:14	0	0	0	0.08025958	8.678589	0	3	100	0	4	1.026659	-15.70031	58.5452	
19:33:14	0	0	0	0.06718846	7.026706	0	3	100	0	4	1.036056	-15.70622	58.52555	
19:33:14	0	0	0	0.03045012	3.966353	0	3	100	0	5	1.022361	-15.69351	58.53326	
19:33:14	0	0	0	-0.001089531	1.930957	0	3	100	0	4	1.000111	-15.70481	58.53766	
19:33:15	0	0	0	-0.01366863	1.504806	0	3	100	0	4	1.006863	-15.7283	58.52289	
19:33:15	0	0	0	0.00373731	2.214292	0	3	100	0	4	1.007903	-15.75189	58.52452	
19:33:15	0	0	0	0.008511383	2.189605	0	3	100	0	4	1.018721	-15.74505	58.5187	
19:33:15	0	0	0	-0.001164921	1.064131	0	3	100	0	4	1.020516	-15.73753	58.51147	
19:33:15	0	0	0	-0.0004339684	0.8254879	0	3	100	0	4	1.028961	-15.71945	58.49898	
19:33:16	0	0	0	0.01419517	1.223301	0	3	100	0	4	1.029371	-15.73926	58.48434	
19:33:16	0	0	0	0.01222631	1.08052	0	3	100	0	4	1.03442	-15.72291	58.47214	
19:33:16	0	0	0	-0.001323105	0.1570609	0	3	100	0	5	1.03519	-15.70925	58.47173	
19:33:16	0	0	0	-0.0145224	-0.7084	0	3	100	0	4	1.032346	-15.69655	58.4696	
19:33:16	0	0	0	-0.0265299	-1.292109	0	3	100	0	3	1.026599	-15.67686	58.45703	
19:33:17	0	0	0	-0.07334189	-3.741509	0	3	100	0	4	1.031673	-15.67719	58.45086	
19:33:17	0	0	0	-0.1510883	-7.415233	0	3	100	0	4	1.021161	-15.68076	58.45105	
19:33:17	0	0	0	-0.2229038	-10.70278	0	3	100	0	4	1.014414	-15.6904	58.4624	
19:33:17	0	0	0	-0.2890162	-13.14525	0	3	100	0	4	1.020228	-15.71386	58.46988	
19:33:17	0	0	0	-0.3448128	-14.5458	0	3	100	0	4	1.079296	-15.70958	58.22154	
19:33:18	0	0	0	-0.3901165	-87.11402	0	3	100	0	5	1.593944	-15.08606	56.30033	
19:33:18	47.43814	-122.3112	0.02	-0.557485	-91.43717	0	3	100	0	4	2.044771	-13.27067	54.28535	
19:33:18	47.43814	-122.3112	0.019	-0.6195685	-89.07368	0	3	100	0	4	2.426873	-12.17439	52.2519	
19:33:18	47.43814	-122.3112	0.019	-0.6593403	-85.42552	0	3	100	0	4	2.737618	-11.81949	50.28288	
19:33:18	47.43814	-122.3112	0.019	-0.6896912	-80.50999	0	3	100	0	4	3.001908	-11.67646	48.41208	
19:33:19	47.43814	-122.3112	0.019	-0.7021294	-76.19955	0	3	100	0	4	3.226331	-11.31825	46.6741	
19:33:19	47.43814	-122.3112	0.019	-0.7043822	-70.36399	0	3	100	0	3	3.424452	-10.71624	44.92636	
19:33:19	47.43814	-122.3112	0.02	-0.6952449	-64.4957	0	3	100	0	4	3.575967	-10.01033	43.25402	
19:33:19	47.43814	-122.3112	0.019	-0.6765536	-58.36674	0	3	100	0	5	3.685184	-9.420172	41.65376	
19:33:19	47.43814	-122.3112	0.019	-0.6497117	-52.04133	0	3	100	0	5	3.768816	-8.925344	40.08963	
19:33:20	47.43814	-122.3112	0.019	-0.6187578	-46.17034	0	3	100	0	4	3.83036	-8.489546	38.60394	
19:33:20	47.43814	-122.3112	0.019	-0.5759156	-39.30992	0	3	100	0	4	3.864445	-8.04806	37.20163	
19:33:20	47.43814	-122.3112	0.02	-0.5321992	-33.1716	0	3	100	0	4	3.873875	-7.595338	35.88371	
19:33:20	47.43814	-122.3112	0.02	-0.4862103	-27.35426	0	3	100	0	4	3.865262	-7.160309	34.60817	
19:33:20	47.43814	-122.3112	0.02	-0.4371521	-21.68199	0	3	100	0	4	3.842487	-6.76495	33.3941	
19:33:21	47.43814	-122.3112	0.02	-0.3928231	-16.92834	0	3	100	0	4	3.806406	-6.390646	32.24207	
19:33:21	47.43814	-122.3112	0.02	-0.3381286	-11.47928	0	3	100	0	4	3.759939	-6.046881	31.1141	
19:33:21	47.43814	-122.3112	0.02	-0.2883742	-6.771995	0	3	100	0	4	3.704043	-5.725167	30.04788	
19:33:21	47.43814	-122.3112	0.02	-0.2443784	-2.954652	0	3	100	0	4	3.64122	-5.406649	29.01719	
19:33:21	47.43814	-122.3112	0.02	-0.1920586	1.309178	0	3	100	0	4	3.571045	-5.100338	28.02954	
19:33:22	47.43814	-122.3112	0.02	-0.1520905	4.37885	0	3	100	0	5	3.49398	-4.804809	27.07227	
19:33:22	47.43814	-122.3112	0.02	-0.1091218	7.504103	0	3	100	0	4	3.414998	-4.535312	26.12562	
19:33:22	47.43814	-122.3112	0.02	-0.06879655	10.27042	0	3	100	0	4	3.32237	-4.289102	25.33743	
19:33:22	47.43814	-122.3112	0.02	-0.02750037	12.92774	0	3	100	0	5	3.213248	-4.053043	24.72038	
19:33:22	47.43814	-122.3112	0.02	0.003989683	14.82923	0	3	100	0	4	3.092819	-3.825303	24.23193	
19:33:23	47.43814	-122.3112	0.02	0.03615056	16.65445	0	3	100	0	4	2.965003	-3.604739	23.84009	
19:33:23	47.43814	-122.3112	0.02	0.06883624	18.4234	0	3	100	0	4	2.854908	-3.357159	23.08815	
19:33:23	47.43814	-122.3112	0.02	0.09471069	19.77225	0	3	100	0	4	2.755291	-3.136266	22.2369	
19:33:23	47.43814	-122.3112	0.02	0.1166925	20.75111	0	3	100	0	4	2.670103	-2.952228	21.42651	
19:33:23	47.43814	-122.3112	0.02	0.1398405	21.67762	0	3	100	0	4	2.588515	-2.784062	20.6404	
19:33:24	47.43814	-122.3112	0.02	0.1585927	22.4019	0	3	100	0	4	2.507632	-2.618675	19.87582	
19:33:24	47.43814	-122.3112	0.02	0.1732489	22.82628	0	3	100	0	4	2.418412	-2.425822	19.03759	
19:33:24	47.43814	-122.3112	0.02	0.1885916	23.18062	0	3	100	0	4	2.313753	-2.200488	18.07492	
19:33:24	47.43814	-122.3112	0.02	0.2004725	23.3773	0	3	100	0	4	2.206232	-1.988698	17.18845	
19:33:24	47.43814	-122.3112	0.02	0.2104106	23.4761	0	3	100	0	4	2.091151	-1.783605	16.4343	
19:33:25	47.43814	-122.3112	0.02	0.2178735	23.49211	0	3	100	0	4	1.970554	-1.58353	15.77762	
19:33:25	47.43814	-122.3112	0.02	0.225262	23.43223	0	3	100	0	5	1.84521	-1.386281	15.18969	
19:33:25	47.43814	-122.3112	0.02	0.2305259	23.31301	0	3	100	0	4	1.716669	-1.191996	14.65485	
19:33:25	47.43814	-122.3112	0.02	0.2342073	23.16182	0	3	100	0	5	1.586241	-1.001012	14.16154	
19:33:25	47.43814	-122.3112	0.02	0.2355383	23.0856	0	3	100	0	4	1.454211	-0.8106141	13.58179	
19:33:26	47.43814	-122.3112	0.02	0.2372999	23.09152	0	3	100	0	4	1.321561	-0.6247784	12.8249	
19:33:26	47.43814	-122.3112	0.02	0.2395791	23.07325	0	3	100	0	5	1.200751	-0.4968728	12.08416	
19:33:26	47.43814	-122.3112	0.02	0.2416138	22.83257	0	3	100	0	4	1.095137	-0.3941498	11.31504	
19:33:26	47.43814	-122.3112	0.02	0.2425788	22.53996	0	3	100	0	4	1.008319	-0.2883705	10.5741	
19:33:26	47.43814	-122.3112	0.02	0.2428066	22.27025	0	3	100	0	4	0.9271801	-0.1784374	9.84466	
19:33:27	47.43814	-122.3112	0.02	0.242647	22.12029	0	3	100	0	4	0.848289	-0.07404072	9.13204	
19:33:27	47.43814	-122.3112	0.02	0.2421579	21.91155	0	3	100	0	4	0.7704504	0.02496053	8.441779	
19:33:27	47.43814	-122.3112	0.02	0.2413218	21.66384	0	3	100	0	4	0.6947765	0.1162608	7.776355	
19:33:27	47.43814	-122.3112	0.02	0.2403855	21.48291	0	3	100	0	4	0.6210452	0.2019473	7.133398	
19:33:27	47.43814	-122.3112	0.02	0.2388686	21.14968	0	3	100	0	4	0.5499186	0.2857101	6.517642	
19:33:28	47.43814	-122.3112	0.02	0.2372813	20.92211	0	3	100	0	4	0.4811088	0.3598256	5.913492	
19:33:28	47.43814	-122.3112	0.02	0.2355681	20.68877	0	3	100	0	4	0.4152606	0.4147791	5.321299	
19:33:28	47.43814	-122.3112	0.02	0.2339	20.46859	0	3	100	0	4	0.3523822	0.4685754	4.7557	
19:33:28	47.43814	-122.3112	0.02	0.2316305	20.10055	0	3	100	0	4	0.2891155	0.5352595	4.199993	
19:33:28	47.43814	-122.3112	0.02	0.2294064	19.84355	0	3	100	0	4	0.2298016	0.600836	3.667691	
19:33:29	47.43814	-122.3112	0.02	0.2270046	19.50471	0	3	100	0	5	0.1728534	0.6635623	3.154678	
19:33:29	47.43814	-122.3112	0.02	0.2245351	19.22182	0	3	100	0	4	0.1165015	0.7233427	2.643764	
19:33:29	47.43814	-122.3112	0.02	0.2218018	18.75984	0	3	100	0	4	0.05067445	0.7858089	2.073882	
19:33:29	47.43814	-122.3112	0.02	0.2189423	18.50125	0	3	100	0	4	-0.01285803	0.8444632	1.524567	
19:33:29	47.43814	-122.3112	0.02	0.216378	18.26885	0	3	100	0	4	-0.07413749	0.8994817	0.992091	
19:33:30	47.43814	-122.3112	0.02	0.2133777	17.99332	0	3	100	0	5	-0.1340659	0.9518673	0.47311	
19:33:30	47.43814	-122.3112	0.02	0.2106128	17.73649	0	3	100	0	5	-0.1916093	1.002494	-0.02950077	
19:33:30	47.43814	-122.3112	0.02	0.20791	17.42322	0	3	100	0	4	-0.2471798	1.050003	-0.5212828	
19:33:30	47.43814	-122.3112	0.02	0.2053669	17.15944	0	3	100	0	5	-0.3002498	1.090808	-0.99984	
19:33:31	47.43814	-122.3112	0.02	0.202085	16.7571	0	3	100	0	5	-0.3496701	1.123302	-1.45653	
19:33:31	47.43814	-122.3112	0.02	0.1993313	16.42292	0	3	100	0	4	-0.398919	1.159782	-1.904003	
19:33:31	47.43814	-122.3112	0.02	0.1960216	16.16689	0	3	100	0	4	-0.4452394	1.198061	-2.330769	
19:33:31	47.43814	-122.3112	0.02	0.1934102	15.96007	0	3	100	0	4	-0.4908638	1.238131	-2.748704	
19:33:31	47.43814	-122.3112	0.02	0.1903783	15.71505	0	3	100	0	4	-0.531818	1.27369	-3.151529	
19:33:32	47.43814	-122.3112	0.02	0.1877311	15.49584	0	3	100	0	4	-0.5721795	1.301904	-3.543071	
19:33:32	47.43814	-122.3112	0.02	0.1851366	15.27746	0	3	100	0	4	-0.6109024	1.322775	-3.91748	
19:33:32	47.43814	-122.3112	0.02	0.1825537	14.9462	0	3	100	0	4	-0.646754	1.351383	-4.283745	
19:33:32	47.43814	-122.3112	0.02	0.1799329	14.73424	0	3	100	0	4	-0.6818603	1.382186	-4.641639	
19:33:32	47.43814	-122.3112	0.02	0.1773739	14.51861	0	3	100	0	4	-0.7157462	1.412376	-4.986845	
19:33:33	47.43814	-122.3112	0.02	0.1751276	14.32531	0	3	100	0	4	-0.7475922	1.440402	-5.318514	
19:33:33	47.43814	-122.3112	0.02	0.1725058	14.09914	0	3	100	0	4	-0.7780129	1.470281	-5.637634	
19:33:33	47.43814	-122.3112	0.02	0.1701514	13.89169	0	3	100	0	4	-0.8066337	1.495098	-5.949785	
19:33:33	47.43814	-122.3112	0.02	0.1678683	13.68929	0	3	100	0	4	-0.8338841	1.519425	-6.252226	
19:33:33	47.43814	-122.3112	0.02	0.1658803	13.51086	0	3	100	0	4	-0.8609195	1.540917	-6.545397	
19:33:34	47.43814	-122.3112	0.02	0.1634372	13.28752	0	3	100	0	4	-0.8861573	1.563661	-6.824419	
19:33:34	47.43814	-122.3112	0.02	0.1615284	13.11239	0	3	100	0	4	-0.9099811	1.584597	-7.096375	
19:33:34	47.43814	-122.3112	0.02	0.1593942	12.91787	0	3	100	0	4	-0.933296	1.602373	-7.355903	
19:33:34	47.43814	-122.3112	0.02	0.1571201	12.71113	0	3	100	0	5	-0.9502816	1.613277	-7.596019	
19:33:34	47.43814	-122.3112	0.02	0.1550759	12.52588	0	3	100	0	4	-0.965055	1.621321	-7.817354	
19:33:35	47.43814	-122.3112	0.02	0.1530911	12.34744	0	3	100	0	4	-0.9794512	1.628235	-8.035666	
19:33:35	47.43814	-122.3112	0.02	0.1513562	12.19303	0	3	100	0	4	-0.992865	1.635842	-8.246841	
19:33:35	47.43814	-122.3112	0.02	0.1492548	12.00717	0	3	100	0	5	-1.005908	1.643561	-8.447099	
19:33:35	47.43814	-122.3112	0.02	0.1474176	11.84396	0	3	100	0	4	-1.018185	1.646214	-8.640431	
19:33:35	47.43814	-122.3112	0.02	0.1457791	11.69676	0	3	100	0	4	-1.029473	1.65317	-8.832506	
19:33:36	47.43814	-122.3112	0.02	0.1438113	11.51892	0	3	100	0	4	-1.040082	1.660722	-9.012835	
19:33:36	47.43814	-122.3112	0.02	0.1422202	11.37339	0	3	100	0	4	-1.050657	1.667997	-9.200071	
19:33:36	47.43814	-122.3112	0.02	0.140335	11.20173	0	3	100	0	5	-1.060036	1.674965	-9.367525	
19:33:36	47.43814	-122.3112	0.02	0.1385913	11.04123	0	3	100	0	4	-1.069322	1.681888	-9.53	
19:33:36	47.43814	-122.3112	0.02	0.1370781	10.90126	0	3	100	0	4	-1.077291	1.687757	-9.685547	
19:33:37	47.43814	-122.3112	0.02	0.1352887	10.73609	0	3	100	0	4	-1.085539	1.69336	-9.840464	
19:33:37	47.43814	-122.3112	0.02	0.1337025	10.59138	0	3	100	0	4	-1.093441	1.699409	-9.99731	
19:33:37	47.43814	-122.3112	0.02	0.1321333	10.44779	0	3	100	0	4	-1.101009	1.703419	-10.14185	
19:33:37	47.43814	-122.3112	0.02	0.1305442	10.30139	0	3	100	0	4	-1.10753	1.708869	-10.27751	
19:33:37	47.43814	-122.3112	0.02	0.1290233	10.16186	0	3	100	0	4	-1.113319	1.713876	-10.40768	
19:33:38	47.43814	-122.3112	0.02	0.1275237	10.003	0	3	100	0	5	-1.118982	1.718675	-10.53675	
19:33:38	47.43814	-122.3112	0.02	0.1260703	9.802146	0	3	100	0	5	-1.12457	1.723548	-10.66992	
19:33:38	47.43814	-122.3112	0.02	0.1242876	9.654479	0	3	100	0	4	-1.129459	1.728409	-10.78825	
19:33:38	47.43814	-122.3112	0.02	0.1228926	9.538749	0	3	100	0	4	-1.134082	1.732876	-10.90131	
19:33:38	47.43814	-122.3112	0.02	0.1212201	9.398874	0	3	100	0	4	-1.138815	1.736963	-11.02448	
19:33:39	47.43814	-122.3112	0.02	0.1197723	9.276099	0	3	100	0	4	-1.142333	1.741441	-11.12769	
19:33:39	47.43814	-122.3112	0.02	0.1184963	9.166173	0	3	100	0	4	-1.145944	1.74578	-11.22898	
19:33:39	47.43814	-122.3112	0.02	0.1169613	9.031397	0	3	100	0	3	-1.149512	1.749381	-11.33442	
19:33:39	47.43814	-122.3112	0.02	0.1157622	8.925208	0	3	100	0	5	-1.144209	1.74445	-11.37329	
19:33:39	47.43814	-122.3112	0.02	0.1143112	8.796511	0	3	100	0	4	-1.135197	1.734965	-11.38693	
19:33:40	47.43814	-122.3112	0.02	0.1129411	8.561749	0	3	100	0	4	-1.126635	1.725821	-11.41103	
19:33:40	47.43814	-122.3112	0.02	0.1116142	8.464155	0	3	100	0	4	-1.118076	1.716998	-11.42145	
19:33:40	47.43814	-122.3112	0.02	0.1102265	8.363122	0	3	100	0	4	-1.110216	1.70881	-11.43613	
19:33:40	47.43814	-122.3112	0.02	0.1087822	8.258328	0	3	100	0	4	-1.10207	1.700361	-11.44669	
19:33:40	47.43814	-122.3112	0.02	0.1076772	8.177883	0	3	100	0	5	-1.095028	1.692745	-11.47413	
19:33:41	47.43814	-122.3112	0.02	0.1063983	8.082972	0	3	100	0	4	-1.087367	1.686186	-11.4805	
19:33:41	47.43814	-122.3112	0.02	0.1052801	7.997308	0	3	100	0	5	-1.081785	1.678688	-11.52033	
19:33:41	47.43814	-122.3112	0.02	0.1042234	7.915951	0	3	100	0	4	-1.078744	1.669494	-11.64851	
19:33:41	47.43814	-122.3112	0.02	0.1033088	7.843987	0	3	100	0	4	-1.077577	1.659076	-11.84196	
19:33:41	47.43814	-122.3112	0.02	0.1022386	7.759362	0	3	100	0	4	-1.077753	1.647816	-12.08208	
19:33:42	47.43814	-122.3112	0.02	0.1013109	7.683301	0	3	100	0	4	-1.07403	1.6394	-12.20977	
19:33:42	47.43814	-122.3112	0.02	0.1004112	7.607799	0	3	100	0	4	-1.066924	1.631706	-12.18449	
19:33:42	47.43814	-122.3112	0.02	0.0995245	7.530892	0	3	100	0	4	-1.059782	1.627773	-12.16346	
19:33:42	47.43814	-122.3112	0.02	0.09876144	7.462551	0	3	100	0	4	-1.05425	1.62357	-12.16407	
19:33:42	47.43814	-122.3112	0.02	0.09792653	7.386094	0	3	100	0	4	-1.04794	1.620186	-12.14264	
19:33:43	47.43814	-122.3112	0.02	0.09709377	7.307981	0	3	100	0	4	-1.041828	1.616846	-12.13208	
19:33:43	47.43814	-122.3112	0.02	0.09618966	7.223204	0	3	100	0	4	-1.036065	1.613334	-12.11775	
19:33:43	47.43814	-122.3112	0.02	0.0953749	7.143619	0	3	100	0	5	-1.031482	1.610021	-12.1005	
19:33:43	47.43814	-122.3112	0.02	0.09457255	7.065386	0	3	100	0	4	-1.026775	1.606775	-12.08692	
19:33:43	47.43814	-122.3112	0.02	0.09384968	6.994848	0	3	100	0	4	-1.021972	1.604908	-12.07723	
19:33:44	47.43814	-122.3112	0.02	0.09305319	6.917006	0	3	100	0	4	-1.017963	1.59895	-12.07217	
19:33:44	47.43814	-122.3112	0.02	0.09226365	6.839508	0	3	100	0	4	-1.012888	1.59567	-12.05549	
19:33:44	47.43814	-122.3112	0.02	0.09147145	6.760919	0	3	100	0	4	-1.008575	1.5929	-12.04291	
19:33:44	47.43814	-122.3112	0.02	0.09061094	6.675877	0	3	100	0	4	-0.9949542	1.580465	-11.94494	
19:33:44	47.43814	-122.3112	0.02	0.08983112	6.60096	0	3	100	0	4	-0.9786079	1.563808	-11.83119	
19:33:45	47.43814	-122.3112	0.02	0.08905804	6.5284	0	3	100	0	4	-0.9625615	1.547966	-11.72509	
19:33:45	47.43814	-122.3112	0.02	0.08829275	6.457683	0	3	100	0	4	-0.9475654	1.53461	-11.61577	
19:33:45	47.43814	-122.3112	0.02	0.08754206	6.388619	0	3	100	0	4	-0.9333833	1.52113	-11.52134	
19:33:45	47.43814	-122.3112	0.02	0.08679755	6.319669	0	3	100	0	4	-0.9201893	1.50763	-11.41966	
19:33:45	47.43814	-122.3112	0.02	0.08607308	6.252762	0	3	100	0	4	-0.9073663	1.494616	-11.31901	
19:33:46	47.43814	-122.3112	0.02	0.08542337	6.192552	0	3	100	0	4	-0.8956881	1.483063	-11.23127	
19:33:46	47.43814	-122.3112	0.02	0.08464151	6.119557	0	3	100	0	4	-0.8852909	1.470741	-11.14002	
19:33:46	47.43814	-122.3112	0.02	0.0839499	6.054116	0	3	100	0	4	-0.8742258	1.460261	-11.0471	
19:33:46	47.43814	-122.3112	0.02	0.08325045	5.988299	0	3	100	0	4	-0.8628749	1.448464	-10.96218	
19:33:46	47.43814	-122.3112	0.02	0.08257076	5.92537	0	3	100	0	5	-0.8527811	1.436904	-10.88027	
19:33:47	47.43814	-122.3112	0.02	0.08189238	5.862114	0	3	100	0	4	-0.8440324	1.42528	-10.80443	
19:33:47	47.43814	-122.3112	0.02	0.08122803	5.799286	0	3	100	0	4	-0.8351798	1.41391	-10.73369	
19:33:47	47.43814	-122.3112	0.02	0.08063126	5.74301	0	3	100	0	4	-0.8275801	1.402915	-10.65642	
19:33:47	47.43814	-122.3112	0.02	0.07992075	5.675172	0	3	100	0	4	-0.8186768	1.392855	-10.5835	
19:33:47	47.43814	-122.3112	0.02	0.07933039	5.618857	0	3	100	0	4	-0.8107848	1.383825	-10.5126	
19:33:48	47.43814	-122.3112	0.02	0.07869902	5.55951	0	3	100	0	4	-0.8039554	1.376266	-10.44402	
19:33:48	47.43814	-122.3112	0.02	0.07800114	5.493489	0	3	100	0	4	-0.8020409	1.367558	-10.3763	
19:33:48	47.43814	-122.3112	0.02	0.0774502	5.440219	0	3	100	0	4	-0.7952403	1.360955	-10.31365	
19:33:48	47.43814	-122.3112	0.02	0.07676379	5.372887	0	3	100	0	5	-0.7889307	1.354362	-10.24506	
19:33:48	47.43814	-122.3112	0.02	0.07613827	5.310959	0	3	100	0	4	-0.7826571	1.347693	-10.18498	
19:33:49	47.43814	-122.3112	0.02	0.07550666	5.190998	0	3	100	0	5	-0.7736986	1.340725	-10.12826	
19:33:49	47.43814	-122.3112	0.02	0.0746697	5.032372	0	3	100	0	4	-0.766547	1.333233	-10.0751	
19:33:49	47.43814	-122.3112	0.02	0.07387045	4.903825	0	3	100	0	4	-0.7624676	1.329054	-10.02606	
19:33:49	47.43814	-122.3112	0.02	0.07285978	4.813198	0	3	100	0	4	-0.7566128	1.323278	-9.960416	
19:33:49	47.43814	-122.3112	0.02	0.07193695	4.766184	0	3	100	0	4	-0.7427806	1.306656	-9.810962	
19:33:50	47.43814	-122.3112	0.02	0.07102944	4.719846	0	3	100	0	5	-0.728405	1.290308	-9.664308	
19:33:50	47.43814	-122.3112	0.02	0.07033636	4.684056	0	3	100	0	4	-0.7155208	1.271815	-9.530548	
19:33:50	47.43814	-122.3112	0.02	0.06958739	4.646038	0	3	100	0	4	-0.7026345	1.255812	-9.403402	
19:33:50	47.43814	-122.3112	0.02	0.06897823	4.61494	0	3	100	0	4	-0.6902711	1.239068	-9.271289	
19:33:50	47.43814	-122.3112	0.02	0.06842746	4.58495	0	3	100	0	4	-0.6814206	1.219419	-9.14298	
19:33:51	47.43814	-122.3112	0.02	0.06791943	4.555802	0	3	100	0	4	-0.6689862	1.210093	-9.024219	
19:33:51	47.43814	-122.3112	0.02	0.0674023	4.450218	0	3	100	0	4	-0.6566864	1.196128	-8.904382	
19:33:51	47.43814	-122.3112	0.02	0.06689703	4.426766	0	3	100	0	5	-0.6481833	1.183296	-8.801682	
19:33:51	47.43814	-122.3112	0.02	0.06634059	4.399309	0	3	100	0	4	-0.6388439	1.168674	-8.690211	
19:33:51	47.43814	-122.3112	0.02	0.065874	4.374529	0	3	100	0	4	-0.6299171	1.156312	-8.585116	
19:33:52	47.43814	-122.3112	0.02	0.06545405	4.350657	0	3	100	0	5	-0.6216855	1.143938	-8.48702	
19:33:52	47.43814	-122.3112	0.02	0.06507704	4.32791	0	3	100	0	4	-0.614107	1.132868	-8.388462	
19:33:52	47.43814	-122.3112	0.02	0.06472107	4.303566	0	3	100	0	4	-0.6068404	1.123854	-8.302105	
19:33:52	47.43814	-122.3112	0.02	0.06441834	4.357574	0	3	100	0	4	-0.600313	1.106824	-8.210595	
19:33:52	47.43814	-122.3112	0.02	0.06423567	4.330251	0	3	100	0	4	-0.5932362	1.096499	-8.120452	
19:33:53	47.43814	-122.3112	0.02	0.06405286	4.302541	0	3	100	0	4	-0.586949	1.085522	-8.035933	
19:33:53	47.43814	-122.3112	0.02	0.06380523	4.265813	0	3	100	0	4	-0.5806307	1.07468	-7.950633	
19:33:53	47.43814	-122.3112	0.02	0.06355975	4.230618	0	3	100	0	4	-0.5748408	1.064549	-7.872132	
19:33:53	47.43814	-122.3112	0.02	0.06329485	4.193765	0	3	100	0	5	-0.570519	1.055515	-7.796921	
19:33:53	47.43814	-122.3112	0.02	0.0630058	4.154146	0	3	100	0	4	-0.5628735	1.046783	-7.725263	
19:33:54	47.43814	-122.3112	0.02	0.06269396	4.112398	0	3	100	0	4	-0.5598803	1.038244	-7.662556	
19:33:54	47.43814	-122.3112	0.02	0.06239392	4.073531	0	3	100	0	4	-0.5562605	1.029322	-7.599183	
19:33:54	47.43814	-122.3112	0.02	0.06201676	4.026462	0	3	100	0	4	-0.5522988	1.020315	-7.532988	
19:33:54	47.43814	-122.3112	0.02	0.06168552	3.985842	0	3	100	0	4	-0.5485415	1.01261	-7.473559	
19:33:54	47.43814	-122.3112	0.02	0.06130747	3.940459	0	3	100	0	4	-0.5427385	1.003258	-7.392888	
19:33:55	47.43814	-122.3112	0.02	0.06087161	3.889293	0	3	100	0	4	-0.532472	0.9887632	-7.274341	
19:33:55	47.43814	-122.3112	0.02	0.06049882	3.847127	0	3	100	0	4	-0.5218713	0.9724458	-7.147757	
19:33:55	47.43814	-122.3112	0.02	0.06004013	3.796848	0	3	100	0	4	-0.512589	0.9557471	-7.026036	
19:33:55	47.43814	-122.3112	0.02	0.05960942	3.751808	0	3	100	0	4	-0.5036111	0.940671	-6.904975	
19:33:55	47.43814	-122.3112	0.02	0.05923118	3.712902	0	3	100	0	5	-0.4947357	0.9258742	-6.787563	
19:33:56	47.43814	-122.3112	0.02	0.05875541	3.665451	0	3	100	0	4	-0.4861094	0.9112765	-6.67495	
19:33:56	47.43814	-122.3112	0.02	0.05832937	3.624412	0	3	100	0	4	-0.4779522	0.8972164	-6.565201	
19:33:56	47.43814	-122.3112	0.02	0.05794644	3.587984	0	3	100	0	4	-0.4708337	0.8846223	-6.462229	
19:33:56	47.43814	-122.3112	0.02	0.05752462	3.548945	0	3	100	0	4	-0.464038	0.8720312	-6.361315	
19:33:56	47.43814	-122.3112	0.02	0.05711251	3.510517	0	3	100	0	4	-0.4574165	0.860046	-6.264521	
19:33:57	47.43814	-122.3112	0.02	0.05666393	3.468491	0	3	100	0	4	-0.4515001	0.8494462	-6.172266	
19:33:57	47.43814	-122.3112	0.02	0.05626458	3.431102	0	3	100	0	5	-0.4454118	0.8385113	-6.080273	
19:33:57	47.43814	-122.3112	0.02	0.05586458	3.393483	0	3	100	0	4	-0.4397936	0.8274086	-5.992943	
19:33:57	47.43814	-122.3112	0.02	0.05551346	3.360622	0	3	100	0	4	-0.4348938	0.8159199	-5.915323	
19:33:57	47.43814	-122.3112	0.02	0.0551259	3.323912	0	3	100	0	4	-0.4304395	0.8058404	-5.832684	
19:33:58	47.43814	-122.3112	0.02	0.05470292	3.283503	0	3	100	0	4	-0.4256687	0.7956161	-5.754	
19:33:58	47.43814	-122.3112	0.02	0.05432435	3.247361	0	3	100	0	4	-0.4210098	0.7871474	-5.678169	
19:33:58	47.43814	-122.3112	0.02	0.05398135	3.215136	0	3	100	0	4	-0.4163498	0.7797984	-5.605178	
19:33:58	47.43814	-122.3112	0.02	0.05350049	3.079519	0	3	100	0	4	-0.4119152	0.7715508	-5.538065	
19:33:59	47.43814	-122.3112	0.02	0.05292366	3.043553	0	3	100	0	5	-0.4086926	0.7648244	-5.485379	
19:33:59	47.43814	-122.3112	0.02	0.05248067	3.015743	0	3	100	0	4	-0.4052995	0.7576897	-5.436445	
19:33:59	47.43814	-122.3112	0.02	0.05202238	2.985902	0	3	100	0	4	-0.401598	0.7499505	-5.37231	
19:33:59	47.43814	-122.3112	0.02	0.05159318	2.95714	0	3	100	0	4	-0.3984816	0.7423093	-5.310766	
19:33:59	47.43814	-122.3112	0.02	0.05119581	2.929461	0	3	100	0	4	-0.3956938	0.7377603	-5.250187	
19:34:00	47.43814	-122.3112	0.02	0.0507793	2.899058	0	3	100	0	4	-0.3912155	0.7285079	-5.17285	
19:34:00	47.43814	-122.3112	0.02	0.05042358	2.871978	0	3	100	0	4	-0.3842359	0.7156051	-5.070377	
19:34:00	47.43814	-122.3112	0.02	0.05008218	2.845714	0	3	100	0	4	-0.3766325	0.7061648	-4.969347	
19:34:00	47.43814	-122.3112	0.02	0.04979013	2.822936	0	3	100	0	4	-0.3690997	0.6927089	-4.873424	
19:34:00	47.43814	-122.3112	0.02	0.04945043	2.795692	0	3	100	0	4	-0.3627623	0.681678	-4.78136	
19:34:01	47.43814	-122.3112	0.02	0.04915255	2.771023	0	3	100	0	4	-0.356904	0.6699246	-4.690566	
19:34:01	47.43814	-122.3112	0.02	0.04885921	2.746175	0	3	100	0	4	-0.3513368	0.6587781	-4.610978	
19:34:01	47.43814	-122.3112	0.02	0.04859846	2.723863	0	3	100	0	4	-0.3457407	0.6490746	-4.525069	
19:34:01	47.43814	-122.3112	0.02	0.0482985	2.697911	0	3	100	0	4	-0.3408783	0.638285	-4.445044	
19:34:01	47.43814	-122.3112	0.02	0.04805864	2.676409	0	3	100	0	3	-0.3363467	0.6285488	-4.366475	
19:34:02	47.43814	-122.3112	0.02	0.04777141	2.649805	0	3	100	0	4	-0.3312709	0.6192285	-4.291158	
19:34:02	47.43814	-122.3112	0.02	0.04751499	2.625277	0	3	100	0	4	-0.3274035	0.6115205	-4.216482	
19:34:02	47.43814	-122.3112	0.02	0.04727531	2.60122	0	3	100	0	5	-0.32336	0.597984	-4.147728	
19:34:02	47.43814	-122.3112	0.02	0.04699196	2.572397	0	3	100	0	4	-0.3190111	0.5908491	-4.079895	
