Date	Latitude(deg) 	Longitude(deg)	hamsl(m)	hafl(m)	climbrate(cm/s)	GroundSpeed(m/s)	Airspeed(m/s)	Mav_Link(%)	Rssi_Link(%)	Throttle	Roll(deg)	Pitch(deg)	Yaw(deg)
10:01:06	-6.728651	38.94613	132.319	0	0	0.04	0	100	0	0	0	0	0	
10:01:07	-6.728651	38.94613	132.312	0.1214097	-0.6487111	0.04	3	100	0	6546	-1.184203	-1.145179	16.84068	
10:01:07	-6.728648	38.94613	131.521	0.142027	-2.464518	0.04	3	100	0	6546	-1.16901	-1.157147	16.8173	
10:01:07	-6.728648	38.94613	131.507	0.1552903	-4.594589	0	3	100	0	6546	-1.140873	-1.181275	16.77777	
10:01:07	-6.728647	38.94613	131.48	0.04822015	-12.78842	0.12	3	100	0	6546	-0.7968401	-1.182103	16.78682	
10:01:07	-6.728647	38.94613	131.488	-0.05322581	-19.71342	0.11	3	100	0	6546	-0.6652896	-1.149532	16.72278	
10:01:07	-6.728647	38.94613	131.474	0.2234298	-5.846789	0.03	3	100	0	6546	-0.9262288	-1.15752	16.63637	
10:01:08	-6.728647	38.94613	131.472	0.4450098	4.009978	0.04	3	100	0	6546	-0.7498958	-1.157292	16.50592	
10:01:08	-6.728647	38.94613	131.461	0.6502779	12.02983	0.09	3	100	0	6546	-0.6335272	-1.216109	16.44358	
10:01:08	-6.728647	38.94613	131.465	0.8281923	17.61139	0.19	3	100	0	6546	-0.5364773	-1.32911	16.41378	
10:01:08	-6.728647	38.94613	131.458	0.7645543	10.08856	0.18	3	100	0	6546	-0.7307416	-1.223197	16.36101	
10:01:09	-6.728646	38.94613	131.473	0.6996221	2.903429	0.13	3	100	0	6546	-0.1650176	-1.194414	16.29481	
10:01:09	-6.728646	38.94613	131.491	0.6477371	-3.239872	0.03	3	100	0	6546	-0.01116195	-1.177579	16.21949	
10:01:09	-6.728646	38.94613	131.479	0.5997719	-7.880653	0.09	3	100	0	6546	-0.2047501	-1.08898	16.12374	
10:01:09	-6.728646	38.94613	131.508	0.5055509	-14.73879	0.04	3	100	0	6546	-0.3840016	-1.096275	16.01143	
10:01:09	-6.728646	38.94613	131.535	0.4182477	-20.45324	0.03	3	100	0	6544	-0.1883217	-1.10747	15.96875	
10:01:09	-6.728646	38.94613	131.523	0.335828	-25.5715	0.22	3	100	0	6546	-0.003555239	-0.9864286	15.92011	
10:01:10	-6.728646	38.94613	131.52	0.2662266	-29.22708	0.09	3	100	0	6546	-0.6200677	-1.102382	15.85724	
10:01:10	-6.728646	38.94613	131.527	0.1632218	-34.3704	0.14	3	100	0	6546	-0.7813759	-1.05141	15.83171	
10:01:10	-6.728646	38.94613	131.525	0.06205463	-39.25214	0.06	3	100	0	6546	-0.2249499	-1.066919	15.77895	
10:01:10	-6.728646	38.94613	131.508	-0.02193596	-42.58828	0.13	3	100	0	6546	-0.3489794	-1.070457	15.69303	
10:01:10	-6.728646	38.94613	131.522	-0.07467248	-43.5182	0.11	3	100	0	6546	-0.5009774	-1.08443	15.69972	
10:01:11	-6.728646	38.94613	131.517	-0.1108646	-43.33108	0.08	3	100	0	6546	-0.5650362	-1.138011	15.703	
10:01:11	-6.728646	38.94613	131.524	-0.1359445	-42.49277	0.17	3	100	0	6545	-0.9299784	-1.169217	15.66047	
10:01:11	-6.728646	38.94613	131.554	-0.1178839	-39.98002	0.18	3	100	0	6546	-0.7247384	-1.130247	15.64088	
10:01:11	-6.728646	38.94613	131.527	-0.07446106	-36.09684	0.14	3	100	0	6546	-0.46799	-1.063385	15.53456	
10:01:12	-6.728646	38.94613	131.502	0.00741829	-30.80399	0.12	3	100	0	6546	-0.7662035	-1.150054	15.56033	
10:01:12	-6.728645	38.94613	131.495	0.1088546	-24.92726	0.11	3	100	0	6546	-0.9147677	-1.225125	15.55802	
10:01:12	-6.728645	38.94613	131.494	0.1744348	-21.89436	0.13	3	100	0	6546	-1.008116	-1.147852	15.49616	
10:01:12	-6.728645	38.94613	131.492	0.2166386	-19.63173	0.16	3	100	0	6546	-1.270494	-1.053764	15.57219	
10:01:12	-6.728645	38.94613	131.497	0.2480329	-18.63641	0.09	3	100	0	6546	-1.294419	-1.081565	15.60842	
10:01:12	-6.728645	38.94613	131.508	0.2681153	-18.27055	0.11	3	100	0	6546	-1.232854	-1.111624	15.66093	
10:01:13	-6.728644	38.94613	131.507	0.2841706	-17.98159	0.07	3	100	0	6546	-1.63633	-1.183223	15.59442	
10:01:13	-6.728644	38.94613	131.483	0.2988449	-17.73108	0.04	3	100	0	6546	-1.798096	-1.125746	15.63578	
10:01:13	-6.728644	38.94613	131.483	0.2931917	-18.40273	0.04	3	100	0	6546	-1.395829	-1.177856	15.63404	
10:01:13	-6.728643	38.94613	131.477	0.2760164	-19.70246	0.14	3	100	0	6545	-1.540823	-1.24943	15.63146	
10:01:13	-6.728643	38.94613	131.477	0.2719065	-19.86195	0.14	3	100	0	6546	-0.868205	-1.227104	15.64074	
10:01:14	-6.728643	38.94613	131.41	0.2754932	-19.66192	0.06	3	100	0	6546	-0.515965	-1.166935	15.62199	
10:01:14	-6.728642	38.94613	131.392	0.2712168	-19.81655	0.07	3	100	0	6546	-0.8981091	-1.235987	15.59282	
10:01:14	-6.728642	38.94613	131.403	0.2590077	-20.62962	0.04	3	100	0	6546	-0.7671852	-1.255581	15.59899	
10:01:14	-6.728642	38.94613	131.409	0.2367641	-21.72622	0	3	100	0	6546	-0.69721	-1.181591	15.53847	
10:01:15	-6.728642	38.94613	131.425	0.2079104	-22.32478	0.04	3	100	0	6546	-1.207825	-1.155783	15.50542	
10:01:15	-6.728642	38.94613	131.424	0.1830699	-23.3515	0.06	3	100	0	6546	-0.9876842	-1.205234	15.5833	
10:01:15	-6.728642	38.94613	131.404	0.1180093	-26.64582	0.07	3	100	0	6546	-1.142416	-1.210581	15.59483	
10:01:15	-6.728642	38.94613	131.411	0.06021886	-28.78738	0.04	3	100	0	6546	-0.9786655	-1.100315	15.61424	
10:01:15	-6.728641	38.94613	131.403	0.02593222	-30.10836	0.07	3	100	0	6546	-0.9241196	-1.159417	15.58135	
10:01:15	-6.728641	38.94613	131.389	-0.003485681	-30.61785	0.09	3	100	0	6546	-1.244601	-1.087272	15.52948	
10:01:16	-6.728641	38.94614	131.392	0.02971629	-28.31817	0.08	3	100	0	6546	-1.338896	-1.044534	15.50276	
10:01:16	-6.728641	38.94614	131.41	0.06093933	-26.27838	0.04	3	100	0	6546	-1.476024	-1.1937	15.5499	
10:01:16	-6.728641	38.94614	131.41	0.04390649	-26.51379	0.04	3	100	0	6546	-1.861527	-1.182858	15.55521	
10:01:16	-6.72864	38.94614	131.395	0.03159955	-26.28127	0.04	3	100	0	6546	-1.933564	-1.181723	15.62	
10:01:16	-6.72864	38.94614	131.395	0.03659927	-24.82135	0.04	3	100	0	6546	-1.95925	-1.202543	15.72552	
10:01:17	-6.72864	38.94614	131.384	0.04242256	-23.84664	0.22	3	100	0	6546	-2.242398	-1.232395	15.73325	
10:01:17	-6.72864	38.94614	131.384	0.03634314	-23.30472	0.22	3	100	0	6546	-1.80741	-1.24568	15.80846	
10:01:17	-6.728639	38.94614	131.312	0.03230816	-22.73865	0.08	3	100	0	6546	-1.985822	-1.140874	15.84991	
10:01:17	-6.728639	38.94614	131.246	0.04939197	-21.73389	0.42	3	100	0	6546	-1.847807	-1.121825	15.87821	
10:01:17	-6.728639	38.94614	131.127	0.06514001	-20.62401	0.02	3	100	0	6546	-1.507555	-1.398702	15.86445	
10:01:18	-6.728638	38.94614	131.105	0.1122264	-17.61762	0.16	3	100	0	6548	-1.711787	-1.367867	15.8801	
10:01:18	-6.728638	38.94614	131.105	0.154677	-15.92386	0.16	3	100	0	6546	-1.712246	-1.296863	15.90053	
10:01:18	-6.728638	38.94614	131.102	0.2181819	-12.56645	0.18	3	100	0	6546	-1.719775	-1.273136	15.98856	
10:01:18	-6.728638	38.94614	131.097	0.2887736	-9.053707	0.06	3	100	0	6546	-1.957135	-1.323758	15.9928	
10:01:19	-6.728638	38.94614	131.142	0.3162974	-7.817076	0.13	3	100	0	6546	-1.628663	-1.359609	15.96989	
10:01:19	-6.728638	38.94614	131.137	0.34084	-6.742723	0.14	3	100	0	6546	-0.9173887	-1.372757	15.95026	
10:01:19	-6.728638	38.94614	131.112	0.3697566	-6.082633	0.04	3	100	0	6546	-1.382882	-1.23348	15.93191	
10:01:19	-6.728638	38.94614	131.128	0.3940599	-5.706962	0.08	3	100	0	6546	-1.136604	-1.221055	15.88983	
10:01:19	-6.728637	38.94614	131.123	0.3951615	-6.594818	0.06	3	100	0	6546	-1.229316	-1.283736	15.88611	
10:01:20	-6.728637	38.94614	131.111	0.3942709	-7.642084	0.09	3	100	0	6546	-1.561119	-1.329789	15.89318	
10:01:20	-6.728637	38.94614	131.081	0.3571716	-9.845895	0.13	3	100	0	6546	-1.533905	-1.372533	15.87461	
10:01:20	-6.728636	38.94614	131.04	0.2893252	-14.35553	0.26	3	100	0	6546	-1.589374	-1.377962	15.891	
10:01:20	-6.728636	38.94614	131.029	0.1974859	-19.296	0.11	3	100	0	6546	-1.633564	-1.103891	15.93071	
10:01:21	-6.728636	38.94614	131.026	0.08734727	-24.0345	0.04	3	100	0	6546	-1.26656	-1.131918	15.94935	
10:01:21	-6.728636	38.94614	131.009	0.009265346	-27.4465	0.04	3	100	0	6546	-1.590966	-1.211451	15.92288	
10:01:21	-6.728636	38.94614	130.992	-0.0466608	-29.13593	0.03	3	100	0	6546	-1.695077	-1.277862	15.9525	
10:01:22	-6.728636	38.94614	130.951	-0.0860335	-30.57418	0.04	3	100	0	6546	-1.18407	-1.272418	15.97603	
10:01:22	-6.728635	38.94614	130.96	-0.1131988	-30.26719	0.13	3	100	0	6546	-1.480863	-1.209746	15.91331	
10:01:22	-6.728635	38.94614	130.958	-0.1282371	-28.95013	0.09	3	100	0	6546	-1.891769	-1.348544	15.95333	
10:01:22	-6.728635	38.94614	130.952	-0.135186	-28.0921	0.08	3	100	0	6546	-1.362911	-1.171314	15.93321	
10:01:22	-6.728635	38.94614	130.964	-0.1464573	-27.46707	0.04	3	100	0	6548	-1.460738	-1.088027	15.92716	
10:01:22	-6.728635	38.94614	130.972	-0.1634154	-26.84336	0.06	3	100	0	6546	-1.854688	-1.145534	15.97676	
10:01:23	-6.728635	38.94614	130.954	-0.1616329	-26.09753	0.09	3	100	0	6546	-1.495112	-1.195845	15.97998	
10:01:23	-6.728634	38.94614	130.975	-0.1429655	-23.97019	0.13	3	100	0	6546	-1.67378	-1.211454	15.94234	
10:01:23	-6.728634	38.94614	130.986	-0.1136518	-21.06814	0.04	3	100	0	6546	-1.871031	-1.271621	15.96342	
10:01:23	-6.728634	38.94614	130.96	-0.07225402	-18.51888	0.09	3	100	0	6546	-1.328722	-1.178	15.92451	
10:01:24	-6.728634	38.94614	130.941	-0.04881827	-17.33929	0.12	3	100	0	6546	-1.498174	-1.261408	15.9136	
10:01:24	-6.728634	38.94614	130.907	-0.0406953	-16.94197	0.09	3	100	0	6546	-1.847069	-1.097602	15.8969	
10:01:24	-6.728634	38.94614	130.874	-0.01777548	-15.04365	0.04	3	100	0	6546	-1.593677	-1.157701	15.94296	
10:01:24	-6.728634	38.94614	130.85	0.0102288	-13.39795	0.13	3	100	0	6546	-1.421431	-1.176952	15.88376	
10:01:24	-6.728634	38.94614	130.829	0.03421194	-12.49009	0.03	3	100	0	6546	-1.584473	-1.037217	15.92862	
10:01:25	-6.728634	38.94614	130.809	0.05063063	-11.63064	0.11	3	100	0	6546	-1.33901	-1.133241	15.94765	
10:01:25	-6.728634	38.94614	130.792	0.07269654	-10.61667	0.04	3	100	0	6546	-1.556719	-1.097745	15.90193	
10:01:25	-6.728634	38.94614	130.771	0.0965055	-9.837266	0.04	3	100	0	6546	-1.461779	-1.187485	15.93903	
10:01:25	-6.728634	38.94614	130.763	0.1159014	-8.771877	0.06	3	100	0	6546	-1.523389	-1.219399	15.88265	
10:01:25	-6.728634	38.94614	130.743	0.1132223	-9.370806	0.06	3	100	0	6546	-1.593589	-1.251904	15.90466	
10:01:26	-6.728634	38.94614	130.743	0.110349	-9.830927	0.12	3	100	0	6546	-1.624442	-1.250639	15.95737	
10:01:26	-6.728634	38.94614	130.728	0.08856797	-11.06099	0.06	3	100	0	6546	-1.48177	-1.263683	15.9585	
10:01:26	-6.728634	38.94614	130.712	0.068407	-12.38848	0.04	3	100	0	6546	-1.407447	-1.189794	15.93737	
10:01:26	-6.728634	38.94614	130.708	0.03962922	-13.88894	0.06	3	100	0	6546	-1.473858	-1.055355	15.94017	
10:01:27	-6.728634	38.94614	130.698	0.01394689	-14.88224	0.03	3	100	0	6546	-1.3496	-1.079756	15.8875	
10:01:27	-6.728634	38.94614	130.695	-0.1081758	-20.9334	0.09	3	100	0	6546	-1.182943	-1.131354	15.88498	
10:01:27	-6.728634	38.94614	130.692	-0.2169969	-25.57566	0.06	3	100	0	6546	-1.155742	-1.029182	15.86642	
10:01:27	-6.728634	38.94614	130.697	-0.2718918	-26.79388	0	3	100	0	6546	-1.264553	-1.109415	15.87699	
10:01:27	-6.728634	38.94614	130.691	-0.3100066	-27.5565	0.09	3	100	0	6546	-1.107663	-1.083639	15.83678	
10:01:28	-6.728634	38.94614	130.669	-0.2694181	-23.73168	0.02	3	100	0	6546	-1.382211	-1.120783	15.85179	
10:01:28	-6.728634	38.94614	130.657	-0.2290449	-20.08135	0.21	3	100	0	6546	-1.314714	-1.057965	15.83313	
10:01:28	-6.728634	38.94614	130.626	-0.1318382	-13.79638	0.04	3	100	0	6546	-1.090262	-1.174834	15.80366	
10:01:29	-6.728634	38.94614	130.6	-0.04362592	-9.653356	0.14	3	100	0	6544	-1.763096	-1.066804	15.75672	
10:01:29	-6.728634	38.94614	130.579	0.009639791	-7.024718	0.12	3	100	0	6546	-1.982192	-1.102556	15.80097	
10:01:29	-6.728634	38.94614	130.545	0.0577131	-4.764651	0.01	3	100	0	6546	-1.869054	-1.059023	15.79345	
10:01:29	-6.728634	38.94614	130.522	0.1056478	-2.861596	0.07	3	100	0	6546	-2.18679	-1.032789	15.8437	
10:01:29	-6.728634	38.94614	130.505	0.1486742	-0.6915113	0.11	3	100	0	6546	-3.208744	-0.9961489	15.91716	
10:01:29	-6.728634	38.94614	130.472	0.2090155	1.582718	0.17	3	100	0	6546	-2.39776	-1.088071	16.05385	
10:01:30	-6.728634	38.94614	130.443	0.2620821	3.270871	0.04	3	100	0	6546	-2.315545	-0.9422601	16.12202	
10:01:30	-6.728634	38.94614	130.426	0.3280981	4.17019	0.03	3	99	0	6547	-2.12902	-1.067129	16.20296	
10:01:30	-6.728635	38.94614	130.39	0.329464	3.200698	0.03	3	99	0	6546	-2.216781	-1.018505	16.17162	
10:01:30	-6.728635	38.94614	130.407	0.3285794	2.048271	0.16	3	99	0	6546	-2.410944	-1.029889	16.2299	
10:01:30	-6.728635	38.94614	130.392	0.3363729	1.447505	0.14	3	99	0	6546	-1.752646	-1.089408	16.18949	
10:01:31	-6.728635	38.94614	130.417	0.358119	1.275134	0.09	3	99	0	6546	-2.114543	-0.9385523	16.20178	
10:01:31	-6.728635	38.94614	130.407	0.3598297	0.5741401	0.13	3	99	0	6546	-1.6193	-1.091077	16.21508	
10:01:31	-6.728635	38.94614	130.378	0.3463325	-1.337612	0.04	3	99	0	6546	-0.9124702	-1.159725	16.15611	
10:01:31	-6.728635	38.94614	130.34	0.3375056	-2.263136	0.04	3	99	0	6546	-1.754646	-1.108478	16.10987	
10:01:31	-6.728635	38.94614	130.363	0.334456	-2.89565	0.04	3	99	0	6546	-1.528928	-1.140807	16.07646	
10:01:32	-6.728635	38.94614	130.312	0.2892762	-5.974901	0.11	3	99	0	6546	-1.31743	-1.133068	16.03442	
10:01:32	-6.728635	38.94614	130.262	0.2215761	-9.104339	0.07	3	99	0	6546	-1.25528	-1.081589	16.05275	
10:01:32	-6.728635	38.94614	130.23	0.1710989	-11.79062	0.11	3	99	0	6546	-1.048765	-1.079949	16.00721	
10:01:32	-6.728635	38.94614	130.204	0.1357773	-13.39093	0.02	3	99	0	6546	-1.385714	-1.015155	15.95614	
10:01:32	-6.728635	38.94614	130.184	0.0876182	-15.23652	0.04	3	99	0	6546	-1.309899	-1.102532	15.91777	
10:01:33	-6.728635	38.94614	130.179	0.03800505	-17.7899	0.07	3	99	0	6546	-1.187019	-1.122285	15.9055	
10:01:33	-6.728635	38.94614	130.163	-0.002305192	-18.77067	0.04	3	99	0	6546	-1.378014	-1.04747	15.93985	
10:01:33	-6.728636	38.94614	130.145	-0.03152411	-19.27285	0.07	3	99	0	6546	-1.162193	-1.135592	15.87574	
10:01:33	-6.728636	38.94614	130.137	-0.04791147	-19.15998	0.01	3	99	0	6546	-1.276542	-1.070528	15.80184	
10:01:34	-6.728636	38.94614	130.128	-0.05540086	-18.09651	0.03	3	99	0	6546	-1.233772	-1.110479	15.75737	
10:01:34	-6.728636	38.94614	130.135	-0.02187194	-14.9864	0.09	3	99	0	6546	-1.229411	-1.085508	15.73845	
10:01:34	-6.728636	38.94614	130.141	0.03544722	-10.73672	0.11	3	99	0	6546	-1.364479	-1.136762	15.7672	
10:01:34	-6.728636	38.94614	130.15	0.1017981	-6.947371	0.09	3	99	0	6546	-1.369651	-1.022108	15.79332	
10:01:34	-6.728637	38.94614	130.142	0.1707526	-2.954184	0.01	3	99	0	6545	-1.391129	-1.054643	15.82257	
10:01:34	-6.728637	38.94614	130.133	0.1998875	-2.11902	0.03	3	99	0	6546	-1.357258	-1.13289	15.74597	
10:01:35	-6.728637	38.94614	130.145	0.1910169	-3.335691	0.11	3	99	0	6546	-1.368613	-1.141006	15.71875	
10:01:35	-6.728637	38.94614	130.144	0.1725794	-4.833993	0.04	3	99	0	6546	-1.517777	-1.070011	15.74597	
10:01:35	-6.728637	38.94614	130.122	0.1358905	-7.280225	0.09	3	99	0	6546	-1.461635	-1.046731	15.73225	
10:01:35	-6.728637	38.94614	130.122	0.1050105	-8.466176	0.14	3	99	0	6546	-1.508285	-1.061955	15.75094	
10:01:35	-6.728637	38.94614	130.134	0.07680697	-9.889365	0.01	3	99	0	6546	-1.489786	-0.9912896	15.75662	
10:01:36	-6.728637	38.94614	130.143	0.05091593	-10.94449	0.04	3	99	0	6546	-1.657221	-1.054768	15.76878	
10:01:36	-6.728637	38.94614	130.172	0.02854261	-11.76529	0.09	3	99	0	6546	-1.855683	-1.055519	15.78757	
10:01:36	-6.728637	38.94614	130.204	0.01120557	-12.21463	0.11	3	99	0	6546	-1.760717	-1.099709	15.7928	
10:01:37	-6.728637	38.94614	130.235	0.02550495	-10.90095	0.04	3	99	0	6546	-1.555386	-1.130994	15.73236	
10:01:37	-6.728637	38.94614	130.247	0.03730673	-9.88153	0.06	3	99	0	6546	-1.620187	-1.080146	15.71905	
10:01:37	-6.728637	38.94614	130.254	0.110974	-5.716908	0.04	3	99	0	6546	-1.538939	-1.072413	15.69338	
10:01:37	-6.728637	38.94614	130.232	0.1777157	-2.2369	0.14	3	99	0	6546	-1.569733	-0.9893872	15.71959	
10:01:37	-6.728638	38.94614	130.221	0.2427419	1.018373	0.14	3	99	0	6546	-1.986518	-0.8938975	15.71046	
10:01:37	-6.728638	38.94614	130.223	0.2954023	2.485282	0.09	3	99	0	6546	-1.655103	-1.131027	15.68723	
10:01:37	-6.728638	38.94614	130.231	0.3163243	2.897229	0.16	3	99	0	6546	-1.682838	-1.111337	15.69916	
10:01:38	-6.728638	38.94614	130.204	0.3333764	2.782521	0.07	3	99	0	6546	-1.629714	-1.091561	15.7029	
10:01:38	-6.728638	38.94614	130.178	0.3542625	2.969584	0.17	3	99	0	6546	-1.712613	-1.048915	15.68881	
10:01:38	-6.728638	38.94614	130.157	0.3697632	2.895125	0.19	3	99	0	6546	-1.464437	-1.249587	15.7117	
10:01:38	-6.728638	38.94614	130.079	0.3478769	0.8756058	0.11	3	99	0	6546	-0.9705416	-1.203906	15.69673	
10:01:38	-6.728638	38.94614	130.066	0.3267642	-0.4385	0.12	3	99	0	6546	-1.411934	-1.004006	15.7179	
10:01:39	-6.728638	38.94614	130.063	0.2484284	-5.178619	0.12	3	99	0	6546	-1.506304	-1.177368	15.68679	
10:01:39	-6.728638	38.94614	130.054	0.1755493	-9.468247	0.04	3	99	0	6546	-1.615772	-0.9949161	15.71152	
10:01:39	-6.728638	38.94614	130.028	0.1455335	-10.27916	0.18	3	99	0	6546	-1.684922	-1.091339	15.71886	
10:01:40	-6.728638	38.94614	129.997	0.121484	-10.97761	0.01	3	99	0	6546	-1.294044	-0.8649625	15.65061	
10:01:40	-6.728638	38.94614	129.978	0.1241838	-9.87674	0.31	3	99	0	6546	-1.105274	-1.032469	15.5884	
10:01:40	-6.728638	38.94614	129.888	0.1285255	-8.74804	0.04	3	99	0	6546	-0.6549433	-1.120709	15.50263	
10:01:40	-6.728638	38.94614	129.881	0.1200245	-8.685333	0.04	3	99	0	6546	-0.9387841	-1.069431	15.48082	
10:01:40	-6.728638	38.94614	129.908	0.1132071	-8.57445	0.19	3	99	0	6546	-0.9020478	-1.095794	15.45909	
10:01:40	-6.728639	38.94614	129.894	0.1144408	-8.370448	0.04	3	99	0	6546	-0.778864	-0.9389755	15.46583	
10:01:40	-6.728639	38.94614	129.9	0.1244489	-7.555603	0.04	3	99	0	6546	-0.9413046	-1.141193	15.4015	
10:01:41	-6.728639	38.94614	129.899	0.1395173	-6.500313	0.09	3	99	0	6546	-0.9698128	-1.139123	15.36518	
10:01:41	-6.728639	38.94614	129.903	0.1621814	-5.260998	0.09	3	99	0	6546	-1.291889	-1.228258	15.38278	
10:01:41	-6.728639	38.94614	129.891	0.2079418	-2.957951	0.19	3	99	0	6546	-1.080299	-1.09789	15.37554	
10:01:41	-6.728639	38.94614	129.885	0.2793651	0.2076029	0.06	3	99	0	6546	-1.14667	-0.99036	15.28841	
10:01:41	-6.728639	38.94614	129.886	0.2864673	0.1524433	0.03	3	99	0	6546	-1.087215	-1.144175	15.2306	
10:01:42	-6.728639	38.94614	129.889	0.2601494	-1.214663	0.06	3	99	0	6546	-1.034799	-1.161965	15.18586	
10:01:42	-6.728639	38.94614	129.898	0.2547622	-1.293354	0.04	3	99	0	6546	-1.144038	-1.148277	15.18218	
10:01:42	-6.728639	38.94614	129.91	0.2608532	-1.404253	0.06	3	99	0	6546	-1.26189	-1.144741	15.24063	
10:01:42	-6.728639	38.94614	129.909	0.2585077	-2.06053	0.03	3	99	0	6546	-1.564239	-1.111203	15.23204	
10:01:42	-6.728639	38.94614	129.905	0.2441448	-2.967348	0.02	3	99	0	6546	-1.143234	-1.063982	15.2087	
10:01:42	-6.728639	38.94614	129.885	0.2328262	-2.806981	0.12	3	99	0	6546	-1.250745	-1.0945	15.1209	
10:01:43	-6.728639	38.94614	129.854	0.2204197	-3.567718	0.03	3	99	0	6546	-1.38585	-1.151325	15.06584	
10:01:43	-6.728639	38.94614	129.838	0.2084309	-4.073989	0.04	3	99	0	6546	-1.39155	-1.13888	15.01277	
10:01:43	-6.728638	38.94614	129.833	0.195555	-4.660175	0.03	3	99	0	6546	-1.257787	-1.132268	15.00081	
10:01:43	-6.728638	38.94614	129.811	0.1733087	-5.861772	0.08	3	99	0	6546	-1.744298	-1.098371	15.01037	
10:01:43	-6.728638	38.94614	129.811	0.1459482	-7.065409	0.04	3	99	0	6546	-1.273083	-1.040158	15.03887	
10:01:44	-6.728639	38.94614	129.795	0.1632854	-5.611083	0.14	3	99	0	6546	-1.597293	-1.019238	15.02582	
10:01:44	-6.728639	38.94614	129.755	0.2028166	-3.138455	0.07	3	99	0	6546	-1.327495	-0.9716561	15.00764	
10:01:44	-6.728639	38.94614	129.731	0.2179569	-2.481015	0.02	3	99	0	6546	-1.075263	-1.055294	14.96	
10:01:44	-6.728639	38.94614	129.713	0.1942294	-3.538428	0.02	3	99	0	6546	-1.126524	-1.141786	14.90784	
10:01:44	-6.728639	38.94614	129.711	0.1799484	-4.907697	0.11	3	99	0	6546	-1.607575	-1.101945	14.94501	
10:01:44	-6.728639	38.94614	129.708	0.1781813	-4.253261	0.11	3	99	0	6546	-1.002441	-1.013983	15.01807	
10:01:45	-6.728639	38.94614	129.683	0.1773604	-4.508004	0.03	3	99	0	6546	-1.544075	-1.042733	15.05384	
10:01:45	-6.728639	38.94614	129.661	0.1388021	-6.418922	0.08	3	99	0	6546	-1.619732	-1.149283	15.03974	
10:01:45	-6.728639	38.94614	129.654	0.1034394	-8.581497	0.14	3	99	0	6546	-0.8727865	-1.223906	14.9965	
10:01:45	-6.728639	38.94614	129.649	0.1121608	-7.222752	0.04	3	99	0	6546	-1.456006	-1.281719	14.91723	
10:01:45	-6.728639	38.94614	129.622	0.1209777	-5.99124	0.09	3	99	0	6546	-1.342332	-1.206082	14.87869	
10:01:46	-6.728639	38.94614	129.581	0.1321342	-4.749507	0.11	3	99	0	6546	-1.284961	-1.187972	14.90673	
10:01:46	-6.728639	38.94614	129.546	0.1426501	-4.610297	0.21	3	99	0	6546	-1.424269	-1.081597	14.9487	
10:01:46	-6.728639	38.94614	129.544	0.163315	-3.760116	0.09	3	99	0	6546	-1.434958	-0.9462121	15.00345	
10:01:46	-6.728639	38.94614	129.543	0.1821546	-2.65723	0.21	3	99	0	6546	-1.332441	-1.182641	15.00087	
10:01:46	-6.728639	38.94614	129.552	0.2044159	-1.098884	0.07	3	99	0	6546	-1.220129	-1.150436	14.96838	
10:01:47	-6.728639	38.94614	129.537	0.2233455	-0.00265186	0.09	3	99	0	6546	-1.382276	-0.9820265	14.93693	
10:01:47	-6.728639	38.94614	129.548	0.2472738	0.4766286	0.08	3	99	0	6546	-1.25862	-1.060314	14.97314	
10:01:47	-6.728639	38.94614	129.549	0.2675946	1.244839	0.14	3	99	0	6546	-1.37846	-1.064772	14.96541	
10:01:47	-6.72864	38.94614	129.523	0.2458694	-0.1926963	0.04	3	99	0	6546	-1.294415	-0.9885384	14.9467	
10:01:47	-6.728639	38.94614	129.53	0.2275939	-1.226703	0.09	3	99	0	6546	-1.281335	-1.100034	14.9269	
10:01:48	-6.728639	38.94614	129.58	0.1980415	-2.237872	0.34	3	99	0	6546	-1.090141	-1.135684	14.89735	
10:01:48	-6.72864	38.94614	129.596	0.1705372	-3.923434	0.12	3	99	0	6546	-1.044283	-1.071019	14.88658	
10:01:48	-6.72864	38.94614	129.581	0.1931388	-2.87935	0.03	3	99	0	6546	-1.30425	-1.008876	14.86875	
10:01:48	-6.72864	38.94614	129.584	0.2130703	-1.911307	0.06	3	99	0	6546	-1.353365	-0.9973019	14.94325	
10:01:48	-6.72864	38.94614	129.588	0.2819495	1.502965	0.08	3	99	0	6546	-1.479696	-0.9796031	14.89977	
10:01:48	-6.72864	38.94614	129.612	0.3381234	4.485188	0.08	3	99	0	6546	-1.510971	-1.000106	14.90056	
10:01:49	-6.72864	38.94614	129.633	0.3238588	2.787537	0.08	3	99	0	6546	-1.551996	-1.057236	14.89812	
10:01:49	-6.72864	38.94614	129.66	0.3089282	1.229835	0.07	3	99	0	6546	-1.476155	-1.019622	14.94312	
10:01:49	-6.728641	38.94614	129.681	0.2242078	-3.555859	0.09	3	99	0	6546	-1.373162	-1.04686	14.96695	
10:01:49	-6.728641	38.94614	129.714	0.1542224	-6.620386	0.19	3	99	0	6546	-1.322685	-1.04258	14.98686	
10:01:49	-6.72864	38.94614	129.734	0.09912509	-9.057681	0.09	3	99	0	6546	-1.275077	-1.186712	14.96819	
10:01:49	-6.728641	38.94614	129.765	0.0710146	-9.82183	0.07	3	99	0	6546	-1.390395	-1.044329	15.04016	
10:01:50	-6.728641	38.94614	129.782	0.07121318	-9.173934	0.02	3	99	0	6546	-1.349467	-0.9355485	14.99359	
10:01:50	-6.728641	38.94614	129.802	0.1089924	-6.48876	0.13	3	99	0	6546	-1.390389	-1.036086	14.98338	
10:01:50	-6.728641	38.94614	129.828	0.1714777	-3.119045	0.06	3	99	0	6546	-1.378961	-1.048869	15.01052	
10:01:51	-6.728641	38.94614	129.828	0.2407754	0.7063567	0.09	3	99	0	6546	-1.31973	-0.9064659	15.06347	
10:01:51	-6.728641	38.94614	129.792	0.2471823	-0.2334975	0.11	3	99	0	6546	-1.219229	-0.9574938	15.10143	
10:01:51	-6.728641	38.94614	129.784	0.1766903	-4.257245	0.12	3	99	0	6546	-1.215221	-0.952969	15.08401	
10:01:51	-6.728642	38.94614	129.787	0.1261669	-6.687073	0.16	3	99	0	6546	-1.222843	-0.9132158	15.0706	
10:01:51	-6.728642	38.94614	129.781	0.09683964	-7.990585	0.16	3	99	0	6546	-1.245059	-0.7695819	15.04929	
10:01:51	-6.728642	38.94614	129.798	0.07501213	-8.150907	0.09	3	99	0	6546	-1.246615	-0.8161483	15.06949	
10:01:52	-6.728642	38.94614	129.823	0.06640784	-7.692631	0.09	3	99	0	6546	-1.259154	-0.9230106	15.08479	
10:01:52	-6.728642	38.94614	129.856	0.05564848	-7.584973	0.08	3	99	0	6545	-1.287857	-0.8568516	15.09302	
10:01:52	-6.728642	38.94614	129.903	0.03963045	-7.886885	0.07	3	99	0	6546	-1.32709	-0.8723216	15.02075	
10:01:52	-6.728642	38.94614	129.931	0.05717355	-6.128267	0.04	3	99	0	6546	-1.401968	-0.9063914	14.97009	
10:01:52	-6.728642	38.94614	129.968	0.09570439	-4.065216	0.03	3	99	0	6545	-1.39627	-0.9438413	15.01023	
10:01:52	-6.728642	38.94614	130.025	0.154157	-0.8017318	0.01	3	99	0	6546	-1.368644	-0.9046789	15.01089	
10:01:53	-6.728642	38.94614	130.058	0.2230557	2.588277	0.07	3	99	0	6546	-1.355792	-0.8647429	15.00495	
10:01:53	-6.728642	38.94614	130.073	0.2870043	5.750894	0.14	3	99	0	6546	-1.333194	-0.8889637	14.95484	
10:01:53	-6.728642	38.94614	130.102	0.3628498	8.530065	0.01	3	99	0	6546	-1.313877	-0.9768618	14.96885	
10:01:53	-6.728642	38.94614	130.116	0.3997466	9.458223	0.01	3	99	0	6546	-1.339168	-0.8894258	15.01175	
10:01:54	-6.728642	38.94614	130.152	0.4112014	9.11947	0.04	3	99	0	6546	-1.328107	-0.887453	15.07227	
10:01:54	-6.728642	38.94614	130.173	0.4102376	8.067644	0.02	3	99	0	6546	-1.332657	-0.9173831	15.07146	
10:01:54	-6.728642	38.94614	130.17	0.3910282	5.927323	0.04	3	99	0	6546	-1.328984	-0.8914157	15.0381	
10:01:55	-6.728642	38.94614	130.184	0.3734793	4.199853	0.12	3	99	0	6546	-1.267383	-0.8904892	15.03741	
10:01:55	-6.728642	38.94614	130.189	0.3583165	3.010415	0.12	3	99	0	6547	-1.252462	-0.9666454	15.06716	
10:01:55	-6.728642	38.94614	130.204	0.3436522	1.582625	0.14	3	99	0	6546	-1.215501	-0.8983446	15.04893	
10:01:55	-6.728642	38.94614	130.22	0.2982272	-1.309664	0	3	99	0	6546	-1.235628	-0.8288268	15.06889	
10:01:55	-6.728642	38.94614	130.235	0.2609267	-2.883891	0.06	3	99	0	6546	-1.312579	-0.8883516	15.07696	
10:01:55	-6.728642	38.94614	130.226	0.265576	-2.486646	0.09	3	99	0	6546	-1.314197	-0.9174374	15.06412	
10:01:56	-6.728642	38.94614	130.198	0.2702871	-1.934046	0.06	3	99	0	6546	-1.278245	-0.8616105	15.116	
10:01:56	-6.728642	38.94614	130.179	0.2469393	-3.040196	0.03	3	99	0	6546	-1.354591	-0.801739	15.08729	
10:01:56	-6.728642	38.94614	130.18	0.2229699	-4.561279	0.09	3	99	0	6546	-1.334348	-0.8781059	15.07042	
10:01:56	-6.728642	38.94614	130.201	0.2356163	-3.617977	0.13	3	99	0	6546	-1.353413	-0.828846	15.03191	
10:01:56	-6.728642	38.94614	130.205	0.2462371	-3.075418	0.08	3	99	0	6546	-1.428531	-0.7074506	15.03483	
10:01:56	-6.728642	38.94614	130.228	0.3110939	0.3927105	0.04	3	99	0	6546	-1.354813	-0.7997222	15.06264	
10:01:57	-6.728642	38.94614	130.238	0.3708252	3.511057	0.06	3	99	0	6546	-1.408813	-0.8370484	15.13863	
10:01:57	-6.728642	38.94614	130.253	0.4399782	6.771166	0.09	3	99	0	6546	-1.501257	-0.8316917	15.10837	
10:01:57	-6.728642	38.94614	130.262	0.4958147	9.032718	0.04	3	99	0	6546	-1.296555	-0.8514217	15.08985	
10:01:57	-6.728642	38.94614	130.269	0.5584278	11.46036	0.17	3	99	0	6546	-1.334978	-0.9124284	15.09501	
10:01:58	-6.728642	38.94614	130.289	0.6180202	13.15642	0.13	3	99	0	6546	-1.487154	-0.8234243	15.07801	
10:01:58	-6.728642	38.94614	130.32	0.6003423	11.19843	0.14	3	99	0	6546	-1.318667	-0.7473916	15.07658	
10:01:58	-6.728642	38.94614	130.348	0.5799338	8.476022	0.07	3	99	0	6546	-1.374698	-0.8422153	15.09472	
10:01:58	-6.728642	38.94614	130.384	0.548954	5.816726	0.12	3	99	0	6547	-1.495361	-0.9030787	15.03576	
10:01:58	-6.728642	38.94614	130.394	0.5214041	3.666622	0.01	3	99	0	6547	-1.389513	-0.8843806	15.04213	
10:01:59	-6.728642	38.94614	130.413	0.4634655	0.4518003	0.13	3	99	0	6546	-1.490378	-0.9120863	15.06593	
10:01:59	-6.728642	38.94614	130.406	0.4092322	-3.015912	0.08	3	99	0	6546	-1.450312	-0.9631182	15.08448	
10:01:59	-6.728641	38.94614	130.401	0.3680634	-5.58586	0.09	3	99	0	6546	-1.533408	-0.908648	15.15125	
10:01:59	-6.728641	38.94614	130.415	0.3336133	-7.22216	0.02	3	99	0	6546	-1.741987	-0.8618084	15.18427	
10:02:00	-6.728641	38.94614	130.426	0.312282	-8.209819	0.04	3	99	0	6546	-1.652368	-0.895526	15.21821	
10:02:00	-6.728641	38.94614	130.416	0.312106	-8.132854	0.08	3	99	0	6546	-1.462993	-0.9461842	15.17616	
10:02:00	-6.728641	38.94614	130.416	0.3301136	-7.208304	0.01	3	99	0	6546	-1.521168	-0.9368727	15.24845	
10:02:00	-6.728641	38.94614	130.424	0.3722787	-4.916126	0.01	3	99	0	6546	-1.50208	-0.9046418	15.2582	
10:02:00	-6.728641	38.94614	130.448	0.4208016	-2.367058	0.08	3	99	0	6546	-1.563254	-0.9021167	15.25543	
10:02:01	-6.728641	38.94614	130.457	0.4682065	0.09247717	0.14	3	99	0	6546	-1.648579	-0.9177678	15.27147	
10:02:01	-6.728641	38.94614	130.476	0.5145708	2.57635	0.06	3	99	0	6546	-1.667526	-0.9320473	15.34366	
10:02:01	-6.728641	38.94614	130.522	0.5601417	4.520792	0.12	3	99	0	6546	-1.612519	-0.7782027	15.3681	
10:02:01	-6.728641	38.94614	130.501	0.5974945	6.302379	0.09	3	99	0	6546	-1.520463	-0.8385832	15.38612	
10:02:02	-6.728641	38.94614	130.487	0.6248395	6.745905	0.09	3	99	0	6546	-1.543995	-0.8823096	15.43915	
10:02:02	-6.728641	38.94614	130.491	0.6589603	7.508852	0.04	3	99	0	6546	-1.543273	-0.830592	15.49865	
10:02:02	-6.728641	38.94614	130.478	0.6992341	8.231645	0.04	3	99	0	6546	-1.597207	-0.8681136	15.51823	
10:02:02	-6.728641	38.94614	130.469	0.7209148	8.037505	0.04	3	99	0	6546	-1.650591	-0.8703698	15.5559	
10:02:03	-6.728641	38.94614	130.51	0.7195703	6.533021	0.04	3	99	0	6546	-1.640159	-0.8625824	15.60681	
10:02:03	-6.72864	38.94614	130.525	0.7169616	5.551306	0.16	3	99	0	6546	-1.640161	-0.9811262	15.61494	
10:02:03	-6.72864	38.94614	130.557	0.713025	4.348724	0.11	3	99	0	6546	-1.593703	-0.9975349	15.59201	
10:02:03	-6.72864	38.94614	130.593	0.6829098	2.532267	0.09	3	99	0	6546	-1.560916	-0.8622106	15.57563	
10:02:04	-6.72864	38.94614	130.589	0.6389447	0.6075802	0.09	3	99	0	6546	-1.455002	-0.8396698	15.58625	
10:02:04	-6.72864	38.94614	130.614	0.6159127	-0.6768438	0.14	3	99	0	6546	-1.439313	-0.9682389	15.55736	
10:02:04	-6.72864	38.94614	130.603	0.6095427	-0.8276265	0.11	3	99	0	6546	-1.374514	-1.10432	15.53459	
10:02:04	-6.72864	38.94614	130.584	0.5914199	-1.994014	0.07	3	99	0	6546	-1.516277	-0.9927174	15.54795	
10:02:05	-6.72864	38.94614	130.571	0.5572017	-3.371393	0.03	3	99	0	6546	-1.742682	-0.9019008	15.5779	
10:02:05	-6.72864	38.94614	130.588	0.5244485	-4.753142	0.07	3	99	0	6546	-1.847372	-0.9696417	15.62888	
10:02:05	-6.72864	38.94614	130.619	0.4898486	-6.118942	0.03	3	99	0	6546	-1.921827	-0.97084	15.62502	
10:02:05	-6.72864	38.94614	130.647	0.4621787	-7.199317	0.06	3	99	0	6546	-1.856398	-0.8902655	15.66489	
10:02:06	-6.72864	38.94614	130.684	0.4385708	-7.65247	0.03	3	99	0	6546	-1.740139	-0.8964029	15.6952	
10:02:06	-6.72864	38.94614	130.702	0.4178105	-8.349145	0.37	3	99	0	6546	-1.406891	-0.8410598	15.71497	
10:02:06	-6.72864	38.94614	130.663	0.4178105	-8.349145	0.07	3	98	0	6546	-1.532414	-0.8847548	15.75213	
10:02:06	-6.72864	38.94614	130.772	0.3681686	-9.332363	0.03	3	96	0	6546	-1.627654	-0.9500794	15.65685	
10:02:06	-6.72864	38.94614	130.791	0.3464354	-8.231276	0.04	3	96	0	6546	-1.524141	-0.9780432	15.66069	
10:02:07	-6.72864	38.94613	130.859	0.3545164	-7.224617	0.08	3	95	0	6546	-1.620479	-1.041786	15.65919	
10:02:07	-6.72864	38.94613	130.867	0.3835582	-4.417614	0.04	3	95	0	6546	-1.541075	-1.016578	15.64564	
10:02:07	-6.72864	38.94613	130.867	0.4038775	-2.629883	0.04	3	95	0	6546	-1.619623	-0.9405822	15.67267	
10:02:07	-6.72864	38.94613	130.878	0.4792329	1.449321	0.04	3	95	0	6546	-1.760349	-0.9029707	15.65963	
10:02:07	-6.72864	38.94613	130.848	0.5412031	4.847947	0.06	3	95	0	6546	-1.551142	-0.9214534	15.64865	
10:02:08	-6.72864	38.94613	130.916	0.559561	4.711977	0.06	3	95	0	6546	-1.496089	-0.9672517	15.64289	
10:02:08	-6.72864	38.94613	130.933	0.5763234	5.284448	0.06	3	95	0	6546	-1.592891	-0.943401	15.60262	
10:02:08	-6.72864	38.94613	130.932	0.5120559	1.588416	0.14	3	95	0	6546	-1.534029	-1.002761	15.65337	
10:02:08	-6.72864	38.94613	130.94	0.4474241	-1.598898	0.07	3	95	0	6546	-1.577548	-0.9036035	15.59912	
10:02:08	-6.72864	38.94613	130.98	0.4145931	-3.168368	0.14	3	95	0	6546	-1.580657	-0.7750699	15.64931	
10:02:09	-6.72864	38.94613	131.032	0.3884202	-4.169703	0.07	3	96	0	6546	-1.54109	-0.8840361	15.58887	
10:02:09	-6.72864	38.94613	131.079	0.3366879	-6.254485	0.12	3	96	0	6546	-1.564345	-0.9113703	15.60052	
10:02:09	-6.72864	38.94613	131.095	0.2901059	-8.644951	0.08	3	96	0	6546	-1.423639	-0.8368746	15.62379	
10:02:09	-6.72864	38.94613	131.135	0.2726144	-8.90344	0.06	3	96	0	6546	-1.307904	-0.9257525	15.6504	
10:02:09	-6.72864	38.94613	131.157	0.2587326	-9.388462	0.07	3	96	0	6546	-1.417811	-0.9219623	15.62931	
10:02:10	-6.728641	38.94613	131.171	0.2448664	-9.342894	0.04	3	96	0	6546	-1.385203	-0.8857853	15.6105	
10:02:10	-6.728641	38.94613	131.175	0.2321887	-9.242136	0.09	3	96	0	6546	-1.301297	-0.955833	15.64627	
10:02:10	-6.72864	38.94613	131.218	0.2221306	-8.990054	0.11	3	96	0	6546	-1.331597	-1.036302	15.63688	
10:02:10	-6.72864	38.94613	131.236	0.2148069	-8.576511	0.08	3	96	0	6546	-1.277521	-1.032409	15.5596	
10:02:10	-6.72864	38.94613	131.249	0.2121386	-8.141529	0.09	3	96	0	6546	-1.24419	-0.8890832	15.4997	
10:02:11	-6.72864	38.94613	131.259	0.2142427	-6.933087	0.09	3	96	0	6546	-1.361372	-0.8243999	15.50629	
10:02:11	-6.728641	38.94613	131.297	0.2228936	-5.956542	0.04	3	96	0	6546	-1.264148	-0.8911966	15.48736	
10:02:11	-6.728641	38.94613	131.321	0.2349351	-4.598433	0.07	3	96	0	6546	-1.262752	-1.000254	15.48348	
10:02:11	-6.728641	38.94613	131.34	0.2552072	-3.61691	0.04	3	96	0	6546	-1.259886	-1.042274	15.48102	
10:02:11	-6.728641	38.94613	131.346	0.2764238	-2.50818	0.04	3	96	0	6546	-1.196281	-0.9728992	15.47555	
10:02:11	-6.728641	38.94613	131.33	0.3051223	-0.7414523	0.08	3	96	0	6546	-1.233102	-0.9279615	15.4919	
10:02:12	-6.728641	38.94613	131.348	0.3442577	1.175038	0.02	3	96	0	6546	-1.2208	-0.9932109	15.50106	
10:02:12	-6.728641	38.94613	131.363	0.3744081	2.737678	0.04	3	96	0	6546	-1.198058	-1.060706	15.47182	
10:02:12	-6.728641	38.94613	131.376	0.4061363	4.660207	0.01	3	96	0	6546	-1.244971	-1.04011	15.42542	
10:02:12	-6.728641	38.94613	131.375	0.4406002	6.143262	0.09	3	96	0	6546	-1.17748	-1.015683	15.42317	
10:02:12	-6.728641	38.94613	131.357	0.4704256	7.337639	0.04	3	96	0	6546	-1.274538	-0.9992743	15.38003	
10:02:13	-6.728641	38.94613	131.357	0.4714249	6.387603	0.09	3	96	0	6546	-1.092719	-1.040567	15.32513	
10:02:13	-6.728641	38.94613	131.357	0.4554237	5.085856	0.09	3	96	0	6546	-0.9765449	-1.149717	15.29824	
10:02:13	-6.728641	38.94613	131.371	0.4491848	4.118238	0.07	3	96	0	6547	-1.132597	-1.126599	15.25358	
10:02:13	-6.728641	38.94613	131.366	0.4487577	3.73457	0.07	3	96	0	6546	-1.078085	-1.175346	15.18917	
10:02:14	-6.728641	38.94613	131.367	0.442287	3.135272	0.16	3	96	0	6546	-1.013176	-1.244239	15.18251	
10:02:14	-6.728641	38.94613	131.374	0.4288676	2.152724	0.04	3	96	0	6546	-1.380536	-1.195816	15.20879	
10:02:14	-6.728641	38.94613	131.38	0.4340009	2.017475	0.03	3	96	0	6546	-1.15224	-1.138911	15.19011	
10:02:14	-6.728641	38.94613	131.392	0.4569356	2.709164	0.07	3	96	0	6546	-1.042807	-1.075751	15.20136	
10:02:14	-6.728641	38.94613	131.391	0.4765158	3.105144	0.19	3	96	0	6546	-1.108198	-1.166889	15.12806	
10:02:14	-6.728641	38.94613	131.359	0.4677062	2.248596	0.17	3	97	0	6546	-1.135496	-1.137833	15.09956	
10:02:15	-6.728641	38.94613	131.333	0.4586979	1.34449	0.26	3	97	0	6546	-1.044446	-1.198567	15.03982	
10:02:15	-6.728641	38.94613	131.295	0.4355437	-0.09479069	0.24	3	97	0	6546	-0.9420834	-1.246019	14.99255	
10:02:15	-6.728641	38.94613	131.256	0.4136759	-2.077326	0.06	3	97	0	6546	-1.063232	-1.246342	15.03535	
10:02:15	-6.72864	38.94613	131.229	0.3947647	-2.610082	0.08	3	97	0	6546	-1.017808	-1.187006	15.03143	
10:02:15	-6.72864	38.94613	131.193	0.3757381	-3.676914	0.09	3	97	0	6546	-1.359666	-1.196796	14.97072	
10:02:16	-6.72864	38.94613	131.16	0.3949204	-2.429097	0.08	3	97	0	6546	-1.199625	-1.159208	14.9582	
10:02:16	-6.72864	38.94613	131.138	0.4126503	-1.519526	0.09	3	97	0	6546	-1.313189	-1.250714	14.98076	
10:02:16	-6.72864	38.94613	131.134	0.4171333	-0.8399674	0.09	3	97	0	6546	-1.343718	-1.193978	14.96238	
10:02:16	-6.72864	38.94613	131.111	0.4207708	-1.236287	0.09	3	97	0	6546	-1.405733	-1.128324	14.92723	
10:02:16	-6.72864	38.94613	131.106	0.4084966	-1.683733	0.09	3	97	0	6546	-1.583068	-1.158816	14.95427	
10:02:17	-6.72864	38.94613	131.106	0.3981429	-2.026188	0.09	3	97	0	6546	-1.323435	-1.147602	14.95413	
10:02:17	-6.72864	38.94613	131.096	0.3668131	-3.432466	0.09	3	97	0	6546	-1.316458	-1.189339	14.96834	
10:02:17	-6.72864	38.94613	131.061	0.3388614	-4.603765	0.04	3	97	0	6546	-1.365367	-1.304975	14.98442	
10:02:17	-6.72864	38.94613	131.033	0.308866	-6.444646	0.14	3	97	0	6546	-1.35983	-1.249488	14.92397	
10:02:17	-6.72864	38.94613	131.005	0.2816587	-7.804683	0.09	3	97	0	6546	-1.595097	-1.116273	14.9018	
10:02:17	-6.72864	38.94613	131.005	0.2934345	-6.792425	0.09	3	97	0	6546	-1.575573	-1.084342	14.95553	
10:02:18	-6.72864	38.94613	131.012	0.3038461	-5.673593	0.04	3	97	0	6546	-1.336452	-1.174421	15.00324	
10:02:18	-6.72864	38.94613	131.021	0.3126954	-4.918726	0.14	3	97	0	6546	-1.346561	-1.278385	14.98163	
10:02:18	-6.72864	38.94613	131.027	0.3206474	-4.316658	0.09	3	97	0	6546	-1.580412	-1.053081	14.96789	
10:02:18	-6.72864	38.94613	131.027	0.2991561	-4.867394	0.09	3	97	0	6546	-1.52236	-1.059067	14.97284	
10:02:18	-6.72864	38.94613	131.017	0.2805159	-5.670862	0.08	3	97	0	6546	-1.532937	-1.057219	15.03405	
10:02:18	-6.728639	38.94613	130.981	0.2436599	-7.326912	0.16	3	97	0	6546	-1.461569	-1.220898	15.07135	
10:02:19	-6.728639	38.94613	130.941	0.2104548	-9.098235	0.26	3	97	0	6546	-1.402392	-1.284349	15.07245	
10:02:19	-6.728639	38.94613	130.897	0.1799451	-9.962357	0.07	3	97	0	6546	-1.269744	-1.260213	14.997	
10:02:19	-6.728639	38.94613	130.897	0.1525808	-10.16719	0.07	3	97	0	6546	-1.330937	-1.172008	14.97468	
10:02:19	-6.728639	38.94613	130.846	0.122021	-10.8587	0.03	3	97	0	6545	-1.378549	-1.156573	14.99048	
10:02:19	-6.728638	38.94613	130.83	0.08808536	-12.42271	0.03	3	97	0	6546	-1.503429	-1.125938	14.95815	
10:02:20	-6.728638	38.94613	130.848	0.07955904	-11.61328	0.04	3	97	0	6546	-1.464435	-1.068302	14.99647	
10:02:20	-6.728638	38.94613	130.852	0.08754865	-9.927708	0.08	3	97	0	6546	-1.431664	-1.078987	14.97756	
10:02:20	-6.728638	38.94613	130.869	0.1048776	-8.090017	0.08	3	97	0	6546	-1.2744	-1.035071	15.02951	
10:02:21	-6.728638	38.94613	130.872	0.1277713	-5.674143	0.04	3	97	0	6546	-1.334202	-1.095014	15.0124	
10:02:21	-6.728638	38.94613	130.873	0.1644423	-2.634578	0.07	3	97	0	6546	-1.512497	-1.056307	15.01096	
10:02:21	-6.728638	38.94613	130.859	0.2032525	-0.2237189	0.07	3	97	0	6546	-1.477188	-0.976479	15.0257	
10:02:21	-6.728638	38.94613	130.856	0.2399771	1.73049	0.06	3	97	0	6546	-1.548956	-0.9906476	15.03717	
10:02:21	-6.728638	38.94613	130.868	0.2672623	2.228246	0.07	3	97	0	6546	-1.442058	-1.103154	15.03021	
10:02:22	-6.728638	38.94613	130.875	0.3031126	3.547577	0.09	3	97	0	6546	-1.418586	-1.031424	15.00885	
10:02:22	-6.728638	38.94613	130.881	0.3525959	5.855006	0.04	3	97	0	6546	-1.472338	-0.9408099	15.01993	
10:02:22	-6.728638	38.94613	130.877	0.3940863	6.966767	0.11	3	97	0	6546	-1.411681	-0.9763908	14.91153	
10:02:22	-6.728638	38.94613	130.866	0.4302275	7.302561	0.09	3	97	0	6546	-1.382064	-1.052289	14.92989	
10:02:22	-6.728638	38.94613	130.865	0.4581855	8.328173	0.08	3	97	0	6546	-1.351313	-0.9454808	14.95275	
10:02:22	-6.728638	38.94613	130.835	0.4880078	8.797584	0.04	3	97	0	6546	-1.436973	-0.8603433	14.93762	
10:02:22	-6.728638	38.94613	130.814	0.5227035	9.420742	0.04	3	97	0	6546	-1.411185	-0.8796437	14.91741	
10:02:23	-6.728638	38.94613	130.835	0.5618011	11.30699	0.11	3	97	0	6546	-1.459167	-0.9828847	14.90311	
10:02:23	-6.728638	38.94613	130.838	0.5772554	11.17172	0.19	3	97	0	6546	-1.379921	-1.032653	14.93161	
10:02:23	-6.728638	38.94613	130.827	0.5626374	9.112631	0.09	3	98	0	6547	-1.28934	-1.093775	14.93735	
10:02:23	-6.728638	38.94613	130.807	0.5522691	7.536273	0.04	3	98	0	6546	-1.371015	-1.014489	14.96689	
10:02:23	-6.728638	38.94613	130.786	0.5491613	7.133435	0.11	3	98	0	6546	-1.440784	-0.9654879	14.98482	
10:02:24	-6.728638	38.94614	130.769	0.5455503	6.437771	0.06	3	98	0	6546	-1.534806	-0.8460023	14.9762	
10:02:24	-6.728638	38.94614	130.795	0.5705154	7.073182	0.08	3	98	0	6546	-1.591368	-0.8747253	15.0383	
10:02:24	-6.728638	38.94614	130.795	0.5895349	7.152742	0.08	3	98	0	6546	-1.629245	-0.9023386	15.02993	
10:02:24	-6.728637	38.94614	130.817	0.5728671	5.086969	0.09	3	98	0	6546	-1.597122	-0.9638724	15.0349	
10:02:24	-6.728637	38.94614	130.813	0.5580903	4.248844	0.06	3	98	0	6546	-1.398431	-0.8860502	15.05869	
10:02:24	-6.728637	38.94614	130.809	0.5344141	2.620481	0.11	3	98	0	6546	-1.526124	-0.8053236	15.08838	
10:02:25	-6.728637	38.94614	130.807	0.5128953	1.50681	0.14	3	98	0	6546	-1.56872	-0.7645799	15.11903	
10:02:25	-6.728637	38.94614	130.834	0.5317806	2.487083	0.09	3	98	0	6546	-1.565781	-0.7318643	15.18284	
10:02:25	-6.728636	38.94614	130.853	0.5483195	2.994166	0.09	3	98	0	6546	-1.571023	-0.9302053	15.19975	
10:02:25	-6.728636	38.94614	130.871	0.5380317	1.961696	0.04	3	98	0	6546	-1.664082	-0.9194877	15.18352	
10:02:26	-6.728636	38.94614	130.902	0.5278044	0.8703314	0.09	3	98	0	6546	-1.630107	-0.8557007	15.18762	
10:02:26	-6.728636	38.94614	130.913	0.5156801	-0.6188557	0.11	3	98	0	6546	-1.557704	-0.9735969	15.16742	
10:02:26	-6.728636	38.94614	130.925	0.5045751	-0.7230903	0.04	3	98	0	6546	-1.561739	-0.775851	15.20255	
10:02:26	-6.728636	38.94614	130.924	0.5241321	0.6955423	0.04	3	98	0	6546	-1.452938	-0.840672	15.23247	
10:02:27	-6.728636	38.94614	130.915	0.5387275	1.67185	0.04	3	98	0	6546	-1.35973	-0.8008251	15.19059	
10:02:27	-6.728636	38.94614	130.913	0.5996963	4.578757	0.07	3	98	0	6546	-1.415265	-0.7813905	15.20385	
10:02:27	-6.728636	38.94614	130.92	0.6485995	6.51001	0.04	3	98	0	6546	-1.252906	-0.7560028	15.18805	
10:02:27	-6.728635	38.94614	130.918	0.675187	7.27375	0.02	3	98	0	6546	-1.409902	-0.8175094	15.20371	
10:02:28	-6.728635	38.94614	130.929	0.7026799	7.834738	0.08	3	98	0	6546	-1.41343	-0.8239905	15.1955	
10:02:28	-6.728635	38.94614	130.948	0.7487013	9.621143	0.06	3	98	0	6546	-1.347964	-0.9141867	15.23309	
10:02:28	-6.728635	38.94614	130.961	0.7990146	11.83067	0.04	3	98	0	6546	-1.400841	-0.9106996	15.23579	
10:02:28	-6.728635	38.94614	130.961	0.8228757	11.90276	0.03	3	98	0	6546	-1.495224	-0.9086661	15.30115	
10:02:28	-6.728635	38.94614	130.997	0.8404802	11.77094	0.07	3	98	0	6546	-1.437995	-0.890556	15.26284	
10:02:28	-6.728635	38.94614	131.039	0.8640032	11.99198	0.11	3	98	0	6546	-1.473845	-0.9380104	15.29121	
10:02:29	-6.728635	38.94614	131.039	0.8794463	11.56282	0.09	3	98	0	6546	-1.34459	-0.8792475	15.25892	
10:02:29	-6.728634	38.94614	131.057	0.880732	10.30379	0.08	3	98	0	6546	-1.382822	-0.8905705	15.26135	
10:02:29	-6.728634	38.94614	131.059	0.8663896	8.962051	0.07	3	98	0	6546	-1.458101	-0.9590189	15.23313	
10:02:29	-6.728634	38.94614	131.06	0.8451493	6.919229	0.07	3	98	0	6546	-1.421577	-0.957085	15.23357	
10:02:30	-6.728634	38.94614	131.098	0.8077458	3.884574	0.04	3	98	0	6547	-1.445444	-0.9399512	15.29083	
10:02:30	-6.728634	38.94614	131.146	0.8035966	3.623174	0.11	3	98	0	6546	-1.485346	-0.9626117	15.29739	
10:02:30	-6.728633	38.94614	131.168	0.8199069	3.801807	0.03	3	98	0	6546	-1.425389	-0.992854	15.28656	
10:02:30	-6.728633	38.94614	131.201	0.8136241	2.906298	0.03	3	98	0	6546	-1.524067	-0.9498374	15.28537	
10:02:30	-6.728633	38.94614	131.202	0.7953814	1.743836	0.06	3	98	0	6546	-1.542795	-0.9768946	15.2897	
10:02:31	-6.728633	38.94614	131.217	0.7707291	0.7499354	0.07	3	98	0	6546	-1.544755	-1.018497	15.27688	
10:02:31	-6.728633	38.94614	131.227	0.7459579	-0.777159	0.01	3	98	0	6546	-1.58569	-1.033518	15.3091	
10:02:31	-6.728633	38.94614	131.241	0.747088	-0.609861	0.12	3	98	0	6546	-1.601068	-0.9232526	15.28915	
10:02:31	-6.728633	38.94614	131.241	0.77789	0.7988352	0.03	3	98	0	6546	-1.494806	-1.065485	15.3638	
10:02:31	-6.728633	38.94614	131.227	0.8153053	2.293154	0.04	3	98	0	6546	-1.569117	-0.9684103	15.33764	
10:02:31	-6.728633	38.94614	131.26	0.8741044	4.906553	0.08	3	98	0	6546	-1.565498	-0.9374836	15.31506	
10:02:31	-6.728633	38.94614	131.277	0.8798467	4.968052	0.06	3	98	0	6546	-1.699549	-1.010656	15.31997	
10:02:32	-6.728633	38.94614	131.309	0.8585193	3.35412	0.12	3	98	0	6546	-1.636923	-0.9380049	15.37151	
10:02:32	-6.728633	38.94614	131.329	0.8000351	-0.2543196	0.09	3	98	0	6546	-1.650912	-1.119022	15.39916	
10:02:32	-6.728633	38.94613	131.354	0.7223123	-3.67189	0.08	3	98	0	6546	-1.644655	-0.9951589	15.40699	
10:02:32	-6.728633	38.94613	131.391	0.6550527	-6.394375	0.11	3	98	0	6546	-1.61325	-1.104664	15.39833	
10:02:32	-6.728633	38.94613	131.42	0.5966743	-8.727221	0.25	3	98	0	6546	-1.635245	-1.105184	15.41998	
10:02:32	-6.728632	38.94613	131.44	0.5570998	-9.665022	0.12	3	98	0	6546	-1.222186	-1.198446	15.37483	
10:02:33	-6.728632	38.94613	131.452	0.5342188	-9.69526	0.04	3	98	0	6546	-1.412042	-1.078542	15.36712	
10:02:33	-6.728633	38.94613	131.461	0.5337489	-8.802252	0.08	3	98	0	6546	-1.454626	-1.009917	15.37373	
10:02:33	-6.728633	38.94613	131.488	0.5506415	-6.784534	0.04	3	98	0	6546	-1.462087	-1.001362	15.34048	
10:02:33	-6.728633	38.94613	131.505	0.5717984	-3.585668	0.04	3	98	0	6546	-1.593185	-1.006914	15.40808	
10:02:34	-6.728633	38.94613	131.539	0.6073858	-1.171309	0.04	3	98	0	6546	-1.472756	-1.009488	15.42003	
10:02:34	-6.728633	38.94613	131.548	0.640479	0.7188901	0.09	3	98	0	6546	-1.487996	-1.041361	15.40217	
10:02:34	-6.728633	38.94613	131.549	0.7065688	3.742534	0.14	3	98	0	6546	-1.358016	-1.076439	15.44732	
10:02:34	-6.728633	38.94613	131.545	0.7599614	5.993079	0.13	3	98	0	6546	-1.359814	-1.050538	15.41067	
10:02:34	-6.728633	38.94613	131.555	0.7897276	7.096127	0.04	3	98	0	6547	-1.188543	-1.016554	15.467	
10:02:35	-6.728633	38.94613	131.58	0.8127916	7.375316	0.06	3	98	0	6546	-1.507995	-0.9972135	15.42629	
10:02:35	-6.728633	38.94613	131.608	0.67138	-0.7835638	0.09	3	98	0	6546	-1.583518	-1.121002	15.45133	
10:02:35	-6.728633	38.94613	131.639	0.514335	-9.63638	0.14	3	98	0	6546	-1.49735	-1.022423	15.477	
10:02:35	-6.728633	38.94613	131.644	0.3989824	-14.87466	0.09	3	98	0	6546	-1.709288	-0.9482406	15.51591	
10:02:36	-6.728633	38.94613	131.645	0.2961603	-19.13833	0.09	3	98	0	6546	-1.563894	-1.076673	15.53104	
10:02:36	-6.728633	38.94613	131.642	0.2278872	-20.81717	0.06	3	98	0	6546	-1.618243	-1.09854	15.60188	
10:02:36	-6.728634	38.94613	131.644	0.1699067	-21.82963	0.08	3	98	0	6546	-1.585701	-1.045333	15.62468	
10:02:36	-6.728634	38.94613	131.634	0.1363596	-21.27726	0.03	3	98	0	6546	-1.533257	-1.031	15.56743	
10:02:36	-6.728634	38.94613	131.63	0.1057269	-21.14499	0.04	3	98	0	6546	-1.629738	-1.131917	15.54267	
10:02:36	-6.728634	38.94613	131.65	0.084424	-20.26066	0.04	3	98	0	6546	-1.62163	-1.07762	15.56683	
10:02:37	-6.728634	38.94613	131.635	0.0707952	-20.1106	0.16	3	98	0	6546	-1.682571	-1.181782	15.51271	
10:02:37	-6.728634	38.94613	131.616	0.09271806	-16.95929	0.04	3	98	0	6546	-1.640336	-1.159288	15.48443	
10:02:37	-6.728634	38.94613	131.629	0.1159227	-14.50529	0.09	3	98	0	6546	-1.899346	-1.158647	15.53598	
10:02:37	-6.728634	38.94613	131.62	0.1739281	-9.389314	0.03	3	98	0	6547	-1.98274	-1.05049	15.55588	
10:02:38	-6.728635	38.94613	131.624	0.2254573	-5.139217	0.16	3	98	0	6546	-2.097093	-1.088749	15.62197	
10:02:38	-6.728635	38.94613	131.63	0.2573434	-3.010748	0.12	3	98	0	6546	-2.272627	-0.9431512	15.67412	
10:02:38	-6.728635	38.94613	131.633	0.287146	-0.841657	0.03	3	98	0	6546	-2.18105	-1.114981	15.77957	
10:02:38	-6.728635	38.94613	131.639	0.4189697	6.001986	0.04	3	98	0	6546	-2.068422	-1.051374	15.78534	
10:02:39	-6.728635	38.94613	131.653	0.5261961	11.4419	0.06	3	99	0	6546	-2.096967	-1.084884	15.8361	
10:02:39	-6.728635	38.94613	131.679	0.6016171	14.49724	0.06	3	99	0	6546	-2.007316	-1.115162	15.83463	
10:02:39	-6.728635	38.94613	131.679	0.624954	14.22712	0.13	3	99	0	6546	-1.935357	-1.029784	15.92805	
10:02:39	-6.728635	38.94613	131.646	0.5979359	11.62455	0.04	3	99	0	6546	-1.885811	-0.9426255	15.93485	
10:02:40	-6.728636	38.94613	131.651	0.5123633	5.561507	0.04	3	99	0	6546	-1.820056	-1.046244	15.97846	
10:02:40	-6.728636	38.94613	131.648	0.449261	1.72727	0.06	3	99	0	6546	-1.989702	-1.031776	15.99551	
10:02:40	-6.728636	38.94613	131.656	0.413728	-0.5300755	0.09	3	99	0	6546	-1.922536	-1.013435	16.03438	
10:02:40	-6.728636	38.94613	131.67	0.4128008	0.6525871	0.03	3	99	0	6546	-1.788311	-1.011712	16.01207	
10:02:40	-6.728636	38.94613	131.673	0.4427217	2.584638	0.06	3	99	0	6546	-1.773093	-1.091062	16.0349	
10:02:41	-6.728636	38.94613	131.644	0.467633	3.318583	0.18	3	99	0	6546	-1.794441	-1.100558	16.02648	
10:02:41	-6.728637	38.94613	131.617	0.48816	4.056168	0.17	3	99	0	6546	-1.953807	-1.006223	15.99063	
10:02:41	-6.728637	38.94613	131.621	0.4932568	3.969439	0.04	3	99	0	6546	-1.763041	-1.05004	16.00791	
10:02:41	-6.728637	38.94613	131.65	0.4834782	3.814675	0.09	3	99	0	6546	-1.653626	-1.184106	16.00629	
10:02:41	-6.728637	38.94613	131.676	0.4719632	2.873417	0.16	3	99	0	6546	-1.73942	-1.162665	16.02033	
10:02:41	-6.728637	38.94613	131.709	0.456176	1.920781	0.07	3	99	0	6546	-1.763662	-1.073628	16.00959	
10:02:42	-6.728637	38.94613	131.728	0.4589346	2.286329	0.07	3	99	0	6546	-1.553806	-1.271565	15.97511	
10:02:42	-6.728637	38.94613	131.73	0.4723095	3.328276	0.09	3	99	0	6546	-1.572443	-1.225557	15.93859	
10:02:42	-6.728637	38.94613	131.719	0.5013321	4.457771	0.08	3	99	0	6546	-1.57338	-1.125744	15.89275	
10:02:42	-6.728637	38.94613	131.703	0.5382586	6.21047	0.08	3	99	0	6546	-1.543187	-1.228554	15.87827	
10:02:42	-6.728637	38.94613	131.692	0.5825683	8.028184	0.06	3	99	0	6546	-1.594933	-1.103692	15.81015	
10:02:42	-6.728637	38.94613	131.692	0.6246572	9.177489	0.06	3	99	0	6546	-1.521377	-1.070975	15.77458	
10:02:43	-6.728637	38.94613	131.663	0.6485897	8.986826	0.04	3	99	0	6546	-1.440463	-1.074641	15.78631	
10:02:43	-6.728637	38.94613	131.611	0.6478078	7.830411	0.11	3	99	0	6546	-1.391779	-1.11044	15.843	
10:02:43	-6.728638	38.94613	131.6	0.6441683	6.92324	0.06	3	99	0	6546	-1.368173	-1.151082	15.77645	
10:02:43	-6.728638	38.94613	131.588	0.636287	5.532293	0.17	3	99	0	6546	-1.459018	-1.149054	15.76498	
10:02:43	-6.728638	38.94613	131.566	0.6290025	5.103929	0.02	3	99	0	6546	-1.468748	-0.9856535	15.72471	
10:02:44	-6.728638	38.94613	131.552	0.5221472	-0.9225646	0.02	3	99	0	6546	-1.507091	-1.141961	15.76138	
10:02:44	-6.728638	38.94613	131.544	0.4257587	-5.621734	0.06	3	99	0	6546	-1.510646	-1.111437	15.77633	
10:02:44	-6.728638	38.94613	131.522	0.3683712	-8.090436	0.09	3	99	0	6546	-1.54079	-1.089702	15.82003	
10:02:44	-6.728638	38.94613	131.492	0.3220078	-9.833554	0.08	3	99	0	6546	-1.53268	-1.047463	15.78637	
10:02:44	-6.728638	38.94613	131.48	0.334428	-8.866233	0.04	3	99	0	6546	-1.469109	-1.065197	15.77119	
10:02:45	-6.728638	38.94613	131.484	0.348281	-7.218579	0.03	3	99	0	6546	-1.441309	-1.158616	15.7847	
10:02:45	-6.728638	38.94613	131.481	0.3388475	-7.600848	0.13	3	99	0	6546	-1.410218	-1.12758	15.81234	
10:02:45	-6.728638	38.94613	131.461	0.3296193	-7.324721	0.02	3	99	0	6546	-1.287409	-1.172547	15.78247	
10:02:45	-6.728639	38.94613	131.45	0.4012746	-2.664657	0.02	3	99	0	6546	-1.326894	-1.089701	15.67318	
10:02:45	-6.728639	38.94613	131.425	0.4613956	0.8649351	0.09	3	99	0	6546	-1.338512	-1.109031	15.64819	
10:02:46	-6.728639	38.94613	131.406	0.5106935	2.577452	0.09	3	99	0	6546	-1.376486	-1.160396	15.62219	
10:02:46	-6.728639	38.94613	131.406	0.5543554	4.870303	0.03	3	99	0	6546	-1.363493	-0.97732	15.68369	
10:02:46	-6.728639	38.94613	131.406	0.5794665	5.553301	0.04	3	99	0	6546	-1.360289	-1.05612	15.66317	
10:02:46	-6.72864	38.94613	131.389	0.5986306	5.69922	0.07	3	99	0	6546	-1.418736	-1.017051	15.66531	
10:02:47	-6.72864	38.94613	131.369	0.5864722	4.789465	0.07	3	99	0	6546	-1.347914	-1.013982	15.64502	
10:02:47	-6.72864	38.94613	131.354	0.5731251	3.175081	0.03	3	99	0	6546	-1.213786	-1.09426	15.70825	
10:02:47	-6.72864	38.94613	131.332	0.4873142	-1.572248	0.14	3	99	0	6546	-1.274117	-1.036738	15.7027	
10:02:47	-6.72864	38.94613	131.31	0.4004983	-5.82841	0.11	3	99	0	6546	-1.297024	-0.9181208	15.7476	
10:02:48	-6.72864	38.94613	131.32	0.3267879	-8.749884	0.04	3	99	0	6546	-1.131774	-1.086657	15.74645	
10:02:48	-6.728641	38.94613	131.332	0.2674844	-11.12675	0.13	3	99	0	6546	-1.23816	-0.9704417	15.71974	
10:02:48	-6.728641	38.94613	131.339	0.2778209	-9.426806	0.06	3	99	0	6546	-1.320859	-0.9403947	15.68788	
10:02:48	-6.728641	38.94613	131.331	0.2892295	-7.968402	0.06	3	99	0	6546	-1.224807	-1.095097	15.64746	
10:02:48	-6.728641	38.94613	131.322	0.331126	-5.353416	0.02	3	99	0	6546	-1.176578	-1.034227	15.59801	
10:02:48	-6.728642	38.94613	131.306	0.3658865	-3.31145	0.14	3	99	0	6546	-1.284155	-1.002474	15.60645	
10:02:49	-6.728642	38.94613	131.306	0.4008962	-1.23844	0.14	3	99	0	6546	-1.114692	-1.033471	15.5705	
10:02:49	-6.728642	38.94613	131.308	0.4235706	0.06997176	0.06	3	99	0	6546	-0.9624084	-1.090461	15.49628	
10:02:49	-6.728642	38.94613	131.301	0.4506205	1.146255	0.03	3	99	0	6546	-1.035081	-1.101355	15.46518	
10:02:49	-6.728642	38.94613	131.304	0.481144	2.530558	0.09	3	99	0	6546	-1.115501	-1.067495	15.41045	
10:02:49	-6.728642	38.94613	131.293	0.501586	3.086589	0.06	3	99	0	6546	-1.040224	-0.9831364	15.36886	
10:02:50	-6.728642	38.94613	131.304	0.5109903	3.137416	0.09	3	99	0	6546	-1.022229	-1.13146	15.32855	
10:02:50	-6.728642	38.94613	131.288	0.5315874	3.897312	0.01	3	99	0	6546	-0.9104794	-1.051391	15.24539	
10:02:50	-6.728642	38.94613	131.296	0.5574185	4.58634	0.09	3	99	0	6546	-0.7713562	-1.129341	15.19762	
10:02:50	-6.728642	38.94613	131.298	0.5783187	4.572791	0.08	3	99	0	6546	-0.7577891	-1.164504	15.14886	
10:02:51	-6.728642	38.94613	131.304	0.5933156	5.017539	0.14	3	99	0	6546	-0.7477399	-1.088138	15.14656	
10:02:51	-6.728642	38.94613	131.295	0.6035646	5.124515	0.03	3	99	0	6546	-0.673629	-1.108348	15.08028	
10:02:51	-6.728642	38.94613	131.303	0.6059157	4.501323	0.06	3	99	0	6546	-0.4711336	-1.178499	15.02947	
10:02:51	-6.728642	38.94613	131.313	0.6174791	4.973223	0.03	3	99	0	6546	-0.4081239	-1.122161	14.95845	
10:02:51	-6.728642	38.94613	131.315	0.6423858	6.040422	0.09	3	99	0	6546	-0.5089632	-1.23033	14.94462	
10:02:51	-6.728642	38.94613	131.349	0.6613688	6.626248	0.07	3	99	0	6546	-0.3992334	-1.233363	14.84494	
10:02:52	-6.728642	38.94613	131.331	0.6719165	6.451108	0.04	3	99	0	6546	-0.3344386	-1.235791	14.81183	
10:02:52	-6.728642	38.94613	131.303	0.6416794	4.061025	0.21	3	99	0	6546	-0.5110192	-1.246281	14.67688	
10:02:52	-6.728642	38.94613	131.273	0.5892209	0.981358	0.04	3	99	0	6546	-0.1780556	-1.337555	14.60029	
10:02:52	-6.728642	38.94613	131.27	0.5422305	-1.923714	0.04	3	99	0	6546	-0.07334974	-1.197692	14.50345	
10:02:52	-6.728642	38.94613	131.244	0.5039762	-3.805161	0.09	3	99	0	6546	-0.1423699	-1.119314	14.43691	
10:02:52	-6.728642	38.94613	131.212	0.4637442	-5.243272	0.06	3	99	0	6546	-0.2087801	-1.175958	14.40003	
10:02:52	-6.728642	38.94613	131.2	0.4270874	-5.766095	0.04	3	99	0	6546	-0.2943551	-1.193257	14.35873	
10:02:53	-6.728642	38.94613	131.182	0.3929056	-6.671201	0.02	3	99	0	6546	-0.1789455	-1.152697	14.31841	
10:02:53	-6.728642	38.94613	131.175	0.3576372	-8.199837	0.06	3	99	0	6546	-0.3557813	-1.202165	14.19537	
10:02:53	-6.728642	38.94613	131.172	0.3293021	-8.883007	0.06	3	99	0	6546	-0.4689323	-1.206355	14.17002	
10:02:53	-6.728642	38.94613	131.144	0.3344217	-7.857581	0.04	3	99	0	6546	-0.3149769	-1.101077	14.11155	
10:02:54	-6.728642	38.94613	131.143	0.3409192	-6.534416	0.09	3	99	0	6546	-0.3881591	-1.160843	14.08796	
10:02:54	-6.728642	38.94613	131.115	0.3781223	-3.502355	0.11	3	99	0	6546	-0.6500714	-1.210979	14.06677	
10:02:54	-6.728642	38.94613	131.08	0.4094721	-1.754158	0.06	3	99	0	6547	-0.4355499	-1.125477	14.0674	
10:02:54	-6.728642	38.94613	131.082	0.4828857	2.670079	0.08	3	99	0	6546	-0.4410584	-1.226494	13.99912	
10:02:54	-6.728642	38.94613	131.082	0.5510364	6.736586	0.08	3	99	0	6546	-0.7729933	-1.108203	13.98196	
10:02:54	-6.728642	38.94613	131.113	0.6128922	9.218514	0.07	3	99	0	6546	-0.7717388	-1.045639	13.97915	
10:02:55	-6.728642	38.94613	131.163	0.668214	11.65295	0.06	3	99	0	6546	-0.4913966	-1.103605	13.97083	
10:02:55	-6.728642	38.94613	131.152	0.7299728	13.45015	0.12	3	99	0	6546	-0.3844411	-1.043786	13.93052	
10:02:55	-6.728642	38.94613	131.139	0.7786652	14.5551	0.07	3	99	0	6546	-0.3033357	-0.9927551	13.91644	
10:02:55	-6.728642	38.94613	131.13	0.7952104	14.39317	0.07	3	99	0	6546	-0.646215	-0.9694222	13.90229	
10:02:55	-6.728642	38.94613	131.153	0.8083239	13.87112	0.02	3	99	0	6546	-0.7661746	-0.9757453	13.88797	
10:02:56	-6.728642	38.94613	131.15	0.8251064	13.12382	0.09	3	99	0	6546	-0.6795813	-1.060016	13.8899	
10:02:56	-6.728642	38.94613	131.144	0.8364446	12.79587	0.08	3	99	0	6546	-0.8006672	-1.06945	13.85824	
10:02:56	-6.728642	38.94613	131.154	0.8409677	11.67736	0.13	3	99	0	6546	-0.8088097	-0.9080884	13.89292	
10:02:57	-6.728642	38.94613	131.154	0.8420222	10.48218	0.13	3	99	0	6546	-0.652795	-0.8201606	13.91819	
10:02:57	-6.728642	38.94613	131.156	0.8211087	8.228773	0.04	3	99	0	6546	-1.008421	-0.7898236	13.95697	
10:02:57	-6.728642	38.94613	131.156	0.8029263	7.618643	0.17	3	99	0	6546	-1.161849	-0.9039857	14.00113	
10:02:57	-6.728642	38.94613	131.106	0.756335	4.390645	0.09	3	99	0	6546	-1.127708	-0.9882696	13.98925	
10:02:57	-6.728642	38.94613	131.106	0.7123436	1.515205	0.11	3	99	0	6546	-1.22291	-0.925587	14.01993	
10:02:57	-6.728642	38.94613	131.098	0.6946186	0.294898	0.06	3	99	0	6546	-1.088071	-0.87036	14.06658	
10:02:58	-6.728642	38.94613	131.11	0.6788688	0.104869	0.06	3	99	0	6546	-1.33668	-0.7768393	14.06145	
10:02:58	-6.728642	38.94613	131.111	0.660957	-0.3375314	0.03	3	99	0	6546	-1.512435	-0.7585582	14.07017	
10:02:58	-6.728642	38.94613	131.109	0.6457707	-0.8463661	0.03	3	99	0	6546	-1.237095	-0.7690667	14.13525	
10:02:58	-6.728642	38.94613	131.089	0.6309576	-1.573416	0.04	3	99	0	6546	-1.139921	-0.7860383	14.12071	
10:02:59	-6.728642	38.94613	131.085	0.614291	-2.207816	0.04	3	99	0	6546	-1.219773	-0.8031477	14.19411	
10:02:59	-6.728642	38.94613	131.064	0.6126223	-2.021152	0.04	3	99	0	6546	-1.025372	-0.8391771	14.27463	
10:02:59	-6.728642	38.94613	131.057	0.6243439	-1.255261	0.04	3	99	0	6546	-1.334785	-0.812516	14.32888	
10:02:59	-6.728642	38.94613	131.047	0.6440858	-0.483995	0.04	3	99	0	6546	-1.33393	-0.8181081	14.3054	
10:02:59	-6.728642	38.94613	131.079	0.665889	0.4658213	0.08	3	99	0	6546	-1.190196	-0.8478238	14.35075	
10:03:00	-6.728642	38.94613	131.071	0.6440885	-1.28797	0.13	3	99	0	6546	-1.246293	-0.813783	14.38929	
10:03:00	-6.728642	38.94613	131.072	0.5845567	-4.452346	0.12	3	99	0	6546	-1.199616	-0.7620935	14.41231	
10:03:00	-6.728642	38.94613	131.062	0.5378286	-6.907401	0.09	3	99	0	6546	-1.308992	-0.893001	14.43549	
10:03:00	-6.728642	38.94613	131.061	0.5042516	-8.394935	0.02	3	99	0	6545	-1.203837	-0.9511737	14.4658	
10:03:00	-6.728642	38.94613	131.045	0.4785401	-9.302234	0.12	3	99	0	6546	-0.9657261	-0.879851	14.49368	
10:03:01	-6.728642	38.94613	131.045	0.4634125	-9.660357	0.12	3	99	0	6546	-1.004976	-0.7785223	14.45848	
10:03:01	-6.728642	38.94613	131.034	0.4689378	-8.645216	0.07	3	99	0	6546	-1.065521	-0.73779	14.44449	
10:03:01	-6.728642	38.94613	131.001	0.5038121	-5.990201	0.04	3	99	0	6546	-1.248339	-0.7371858	14.41057	
10:03:01	-6.728642	38.94613	130.997	0.5252361	-4.703032	0.04	3	99	0	6546	-1.187104	-0.6672982	14.44869	
10:03:01	-6.728642	38.94613	130.962	0.5374516	-3.225415	0.04	3	99	0	6546	-1.031989	-0.7004359	14.43267	
10:03:02	-6.728642	38.94613	130.926	0.5405604	-2.864434	0.18	3	99	0	6546	-1.018426	-0.7002103	14.43855	
10:03:02	-6.728642	38.94613	130.902	0.5350176	-2.738173	0.07	3	99	0	6546	-0.8435805	-0.7202176	14.43292	
10:03:02	-6.728642	38.94613	130.894	0.5348202	-2.116017	0.24	3	99	0	6546	-0.925404	-0.6717411	14.43872	
10:03:02	-6.728642	38.94613	130.869	0.5399302	-1.535356	0.07	3	99	0	6546	-0.7951722	-0.6138549	14.42132	
10:03:02	-6.728642	38.94613	130.852	0.5038391	-2.831295	0.08	3	99	0	6546	-0.8427516	-0.8097813	14.38118	
10:03:03	-6.728642	38.94613	130.84	0.4322469	-5.715952	0.09	3	99	0	6546	-1.63049	-0.8398834	14.35004	
10:03:03	-6.728642	38.94613	130.824	0.3721838	-8.462641	0.08	3	99	0	6546	-1.645112	-0.846774	14.36294	
10:03:03	-6.728642	38.94613	130.803	0.3165526	-11.17358	0.08	3	99	0	6546	-1.246126	-0.866014	14.40061	
10:03:03	-6.728642	38.94613	130.802	0.2731228	-11.81736	0.07	3	99	0	6546	-1.262685	-0.9432291	14.41171	
10:03:03	-6.728642	38.94613	130.775	0.3046314	-9.156339	0.09	3	99	0	6546	-2.243484	-0.9128067	14.47957	
10:03:04	-6.728642	38.94613	130.744	0.3342322	-7.178055	0.04	3	99	0	6546	-1.454121	-0.891857	14.56085	
10:03:04	-6.728642	38.94613	130.726	0.434326	-1.498666	0.13	3	99	0	6546	-1.602846	-0.8075344	14.6014	
10:03:04	-6.728642	38.94613	130.715	0.5170946	3.098258	0.06	3	99	0	6546	-3.384426	-0.7455941	14.65119	
10:03:04	-6.728642	38.94613	130.708	0.6061824	7.681008	0.09	3	99	0	6546	-4.801142	-0.7617919	14.80961	
