Date	Latitude(deg) 	Longitude(deg)	hamsl(m)	hafl(m)	climbrate(cm/s)	GroundSpeed(m/s)	Airspeed(m/s)	Mav_Link(%)	Rssi_Link(%)	Throttle	Roll(deg)	Pitch(deg)	Yaw(deg)
19:54:59	-6.795857	38.98535	102.254	0	0	0.19	0	100	0	0	0.6729876	-17.74911	51.36411	
19:54:59	-6.795859	38.98534	109.506	0.3575868	-3.430068	0.29	3	100	0	4	0.4991196	-18.16061	51.55651	
19:54:59	-6.795858	38.98534	110.076	0.3095159	-7.477842	0.58	3	100	0	4	0.3452853	-18.02357	51.72991	
19:54:59	-6.795858	38.98534	110.672	0.05565959	-21.93409	0.38	3	100	0	4	0.118164	-18.35578	51.92546	
19:55:00	-6.795858	38.98534	111.169	-0.3044345	-41.12545	0.48	3	100	0	4	0.4675555	-17.9975	51.94812	
19:55:00	-6.795859	38.98534	111.168	-0.5303946	-50.4772	1.27	3	100	0	4	0.5286205	-18.49973	52.05133	
19:55:00	-6.79586	38.98534	111.184	-0.6317985	-53.32564	0.44	3	100	0	4	1.968168	-18.84859	51.64542	
19:55:00	-6.795861	38.98534	110.348	-0.6493608	-50.51912	0.57	3	100	0	4	1.555467	-18.60595	51.7573	
19:55:00	-6.795862	38.98534	109.797	-0.5655156	-42.87988	0.77	3	100	0	4	1.443831	-17.97628	51.83126	
19:55:01	-6.795863	38.98534	109.549	-0.4607111	-35.63909	0.36	3	100	0	4	0.9549282	-17.21873	52.07552	
19:55:01	-6.795863	38.98534	109.668	-0.3512057	-28.9593	0.34	3	100	0	4	0.5927339	-17.65347	52.33776	
19:55:01	-6.795863	38.98534	110.331	-0.2379998	-21.75756	0.42	3	100	0	5	0.6258399	-17.68908	52.45758	
19:55:01	-6.795864	38.98534	110.552	-0.159882	-16.94089	0.78	3	100	0	4	0.8071361	-17.73239	52.52753	
19:55:01	-6.795865	38.98534	110.517	-0.0814601	-12.24059	0.71	3	100	0	4	0.1491896	-17.31911	52.84689	
19:55:02	-6.795866	38.98534	110.641	-0.05546815	-11.46393	0.68	3	100	0	4	0.9620477	-17.41349	52.74981	
19:55:02	-6.795866	38.98534	111.429	-0.02897764	-10.26297	0.35	3	100	0	4	0.635097	-17.17969	52.968	
19:55:02	-6.795866	38.98534	112.078	0.005079909	-8.720555	0.93	3	100	0	4	0.6809709	-17.61272	53.10205	
19:55:02	-6.79587	38.98534	111.594	0.03569908	-7.586596	1.92	3	100	0	4	1.082014	-17.65862	53.07498	
19:55:02	-6.79587	38.98534	111.289	0.03953326	-8.1923	0.39	3	100	0	4	2.510193	-18.29167	52.66798	
19:55:03	-6.795872	38.98534	110.886	0.04129826	-8.733581	0.14	3	100	0	5	1.30053	-17.77104	53.03095	
19:55:03	-6.795871	38.98534	110.725	0.03127363	-9.799121	0.17	3	100	0	4	0.9128388	-18.02	53.2193	
19:55:03	-6.79587	38.98533	110.207	0.01924772	-11.52306	1.03	3	100	0	4	0.3814346	-17.87851	53.47633	
19:55:03	-6.79587	38.98533	110.207	0.03324916	-11.2464	0.64	3	100	0	4	-0.55779	-17.32384	53.89997	
19:55:03	-6.79587	38.98533	110.063	0.0474334	-10.4665	0.83	3	100	0	5	0.1506914	-18.07242	53.86452	
19:55:04	-6.795869	38.98533	109.969	0.1017837	-8.436928	0.79	3	100	0	5	-0.1601987	-18.29247	54.05623	
19:55:04	-6.79587	38.98533	109.446	0.14471	-7.184426	0.44	3	100	0	4	-0.6767002	-17.28012	54.34031	
19:55:04	-6.79587	38.98533	109.449	0.1603089	-6.860874	0.09	3	100	0	4	0.3275704	-17.60571	54.20708	
19:55:04	-6.79587	38.98533	108.891	0.1728126	-7.399945	0.19	3	100	0	4	-0.1117844	-17.46345	54.46209	
19:55:04	-6.795871	38.98533	108.083	0.1164444	-11.26609	0.65	3	100	0	4	-0.423386	-17.79108	54.6843	
19:55:05	-6.795872	38.98533	107.73	0.06397252	-14.29508	0.89	3	100	0	5	-0.5230274	-16.72937	54.86572	
19:55:05	-6.795873	38.98533	107.8	0.08051004	-13.76441	0.29	3	100	0	4	0.4932908	-17.36338	54.73082	
19:55:05	-6.795873	38.98532	107.615	0.09553694	-12.60748	0.66	3	100	0	4	-0.1434764	-17.01369	55.03932	
19:55:05	-6.795874	38.98532	106.961	0.1056056	-11.88272	0.45	3	100	0	4	-1.206776	-16.25509	55.53351	
19:55:05	-6.795874	38.98532	106.156	0.1147281	-11.83874	0.58	3	100	0	4	-1.438747	-17.0181	55.83537	
19:55:06	-6.795874	38.98532	105.771	0.1237324	-11.26935	0.66	3	100	0	4	-1.540618	-16.65376	56.06745	
19:55:06	-6.795874	38.98532	106.023	0.1331891	-10.87681	0.66	3	100	0	4	-0.6541964	-17.30811	56.01145	
19:55:06	-6.795873	38.98532	106.527	0.141951	-10.14586	0.68	3	100	0	4	-0.522957	-16.75465	56.11438	
19:55:06	-6.795874	38.98532	106.31	0.1494921	-10.34832	1.03	3	100	0	4	-1.884966	-16.0611	56.69658	
19:55:06	-6.795874	38.98532	105.654	0.1534867	-10.18651	0.19	3	100	0	4	-1.958451	-15.75584	56.98739	
19:55:07	-6.795875	38.98532	105.352	0.1554248	-10.62825	1.03	3	100	0	4	-1.54087	-16.71815	57.1249	
19:55:07	-6.795875	38.98532	104.988	0.1754434	-9.268301	0.28	3	100	0	4	-0.7718927	-17.37411	57.05977	
19:55:07	-6.795875	38.98532	104.754	0.2074634	-8.020038	0.14	3	100	0	4	-1.215513	-16.55342	57.32526	
19:55:07	-6.795876	38.98532	104.383	0.2115124	-8.778949	0.82	3	100	0	4	-1.107337	-16.60067	57.4553	
19:55:07	-6.795876	38.98532	104.365	0.1815498	-10.62972	0.33	3	100	0	4	-1.071776	-16.05199	57.62167	
19:55:08	-6.795876	38.98532	104.627	0.1577053	-11.03485	0.74	3	100	0	4	-0.9090055	-16.61703	57.73332	
19:55:08	-6.795876	38.98532	104.613	0.1396076	-11.79987	0.69	3	100	0	4	-1.274524	-16.18126	58.01698	
19:55:08	-6.795876	38.98532	104.803	0.1189834	-12.81095	0.11	3	100	0	5	-0.8377147	-16.28922	58.08147	
19:55:08	-6.795875	38.98532	105.242	0.09625349	-13.69246	0.29	3	100	0	4	-0.8972425	-16.80566	58.24592	
19:55:08	-6.795874	38.98532	105.807	0.07819816	-14.65287	0.29	3	100	0	4	-0.7469805	-16.91724	58.31517	
19:55:09	-6.795873	38.98532	106.126	0.06365412	-15.24583	0.16	3	100	0	4	-1.027071	-16.73781	58.51454	
19:55:09	-6.795874	38.98532	105.713	0.05345413	-15.4578	0.48	3	100	0	4	-0.4729041	-16.57506	58.48442	
19:55:09	-6.795874	38.98532	105.923	0.04653868	-16.08857	0.19	3	100	0	4	-0.3088646	-16.51196	58.54378	
19:55:09	-6.795874	38.98532	106.122	0.01881229	-17.18245	0.39	3	100	0	4	-0.6707821	-16.51494	58.75044	
19:55:09	-6.795874	38.98532	106.076	-0.02572343	-18.49683	0.38	3	100	0	5	-0.8277627	-16.08247	58.92132	
19:55:10	-6.795874	38.98532	105.781	-0.06644552	-19.54685	0.45	3	100	0	4	-1.041999	-16.16638	59.12698	
19:55:10	-6.795874	38.98532	106.218	-0.09923281	-20.14195	0.04	3	100	0	4	-0.5048747	-16.15395	59.10332	
19:55:10	-6.795873	38.98532	106.26	-0.1094537	-19.90271	0.31	3	100	0	4	-0.8534001	-16.35826	59.3203	
19:55:10	-6.795872	38.98532	106.455	-0.09129904	-18.03822	0.22	3	100	0	4	-1.049041	-16.26113	59.50491	
19:55:10	-6.795871	38.98532	106.643	-0.06182131	-15.86261	0.39	3	100	0	4	-0.8893006	-16.58838	59.56416	
19:55:11	-6.795871	38.98532	106.513	-0.008237647	-12.05487	0.58	3	100	0	4	-0.770535	-16.72288	59.61147	
19:55:11	-6.795872	38.98532	106.361	0.03733514	-9.162639	0.52	3	100	0	4	-0.3390685	-16.35274	59.56582	
19:55:11	-6.795873	38.98532	106.152	0.05626643	-8.277292	0.36	3	100	0	4	-0.6255982	-15.78092	59.74612	
19:55:11	-6.795874	38.98532	105.758	0.07369138	-7.046738	0.53	3	100	0	5	-0.5047961	-16.18235	59.83152	
19:55:11	-6.795875	38.98532	105.461	0.07044543	-8.071939	0.41	3	100	0	5	-0.351373	-16.11982	59.90024	
19:55:12	-6.795875	38.98532	105.134	0.06700073	-8.027167	0.09	3	100	0	4	-0.5832515	-16.07662	60.05609	
19:55:12	-6.795875	38.98532	105.182	0.1113884	-5.167263	0.56	3	100	0	4	-0.8236862	-15.96505	60.22582	
19:55:12	-6.795875	38.98532	105.329	0.1607784	-2.650955	0.52	3	100	0	4	-0.3358135	-15.84548	60.20365	
19:55:12	-6.795874	38.98532	105.549	0.2264156	0.525388	0.13	3	100	0	4	-0.5385247	-15.74966	60.3663	
19:55:12	-6.795874	38.98532	105.549	0.2798741	2.942826	0.36	3	100	0	4	-0.9171618	-15.94823	60.57304	
19:55:13	-6.795874	38.98532	105.296	0.3562739	5.583983	0.19	3	100	0	4	-0.8151436	-15.58673	60.65849	
19:55:13	-6.795874	38.98532	105.078	0.4158813	7.027235	0.45	3	100	0	4	-0.9436933	-16.01806	60.80933	
19:55:13	-6.795872	38.98532	105.183	0.4611581	8.048352	0.58	3	100	0	4	-0.9211984	-16.26725	60.88276	
19:55:13	-6.795871	38.98532	105.185	0.4988767	8.140064	0.44	3	100	0	4	-1.002234	-16.11355	60.99032	
19:55:13	-6.79587	38.98532	105.271	0.488823	5.715831	0.29	3	100	0	4	-1.13462	-15.53068	61.13485	
19:55:14	-6.79587	38.98532	105.428	0.4763337	3.614244	0.26	3	100	0	4	-0.8255083	-15.53742	61.18112	
19:55:14	-6.79587	38.98532	105.63	0.4440659	0.9762927	0.28	3	100	0	4	-0.5695241	-15.53875	61.21771	
19:55:14	-6.79587	38.98532	105.581	0.4134573	-1.120587	0.07	3	100	0	4	-0.9066561	-15.40532	61.43046	
19:55:14	-6.795869	38.98532	105.966	0.3272443	-6.651796	0.31	3	100	0	2	-0.8121486	-15.64281	61.52204	
19:55:14	-6.795868	38.98532	106.074	0.2556427	-10.43644	0.17	3	100	0	4	-0.7488661	-15.79665	61.60694	
19:55:15	-6.795868	38.98532	106.037	0.1799708	-14.44297	0.55	3	100	0	5	-0.578307	-15.80822	61.64289	
19:55:15	-6.795869	38.98532	105.798	0.1058099	-17.49868	0.14	3	100	0	4	-0.5091097	-15.77723	61.68133	
19:55:15	-6.79587	38.98532	105.507	0.07691976	-17.98076	0.69	3	100	0	4	-0.3653071	-15.03371	61.74612	
19:55:15	-6.79587	38.98532	105.503	0.0527092	-18.26623	0.22	3	100	0	4	0.01590735	-14.99358	61.75581	
19:55:15	-6.79587	38.98532	105.752	0.06296571	-16.04255	0.48	3	100	0	4	-0.543991	-15.16543	61.99613	
19:55:16	-6.79587	38.98532	105.874	0.07497191	-14.29607	0.25	3	100	0	4	-1.111121	-14.95203	62.24821	
19:55:16	-6.795869	38.98532	106.004	0.08800232	-12.51031	0.26	3	100	0	4	-0.7932915	-15.16097	62.31146	
19:55:16	-6.79587	38.98532	105.882	0.1044497	-10.97281	0.21	3	100	0	4	-0.5184533	-15.37091	62.33369	
19:55:16	-6.795871	38.98532	105.583	0.1155481	-9.751649	0.62	3	100	0	3	-0.4597035	-14.94303	62.40086	
19:55:16	-6.795872	38.98532	105.608	0.1205493	-9.221702	0.39	3	100	0	4	-0.4194688	-14.79563	62.5187	
19:55:17	-6.795873	38.98532	105.35	0.1415742	-7.5041	0.89	3	100	0	4	-0.4031088	-14.81136	62.60265	
19:55:17	-6.795874	38.98532	105.139	0.1680535	-6.267775	0.28	3	100	0	5	-0.7410991	-14.575	62.82479	
19:55:17	-6.795874	38.98532	105.139	0.1922399	-4.726837	0.5	3	100	0	5	-0.5776891	-14.85333	62.90334	
19:55:17	-6.795874	38.98532	105.191	0.2075669	-3.894544	0.37	3	100	0	4	-0.4299617	-14.74653	62.97295	
19:55:18	-6.795874	38.98532	105.329	0.231169	-3.008312	0.22	3	100	0	4	-0.5563489	-14.97555	63.10283	
19:55:18	-6.795874	38.98532	105.209	0.2588412	-1.354614	0.51	3	100	0	5	-0.5112547	-15.0275	63.16429	
19:55:18	-6.795875	38.98532	105.138	0.2944086	-0.03025872	0.78	3	100	0	4	0.01954388	-15.15112	63.09069	
19:55:18	-6.795875	38.98532	105.15	0.330098	1.624607	0.16	3	100	0	4	0.1918013	-15.60799	63.04219	
19:55:18	-6.795875	38.98532	105.108	0.3581285	2.443186	0.39	3	100	0	4	-0.02968955	-15.40909	63.12454	
19:55:19	-6.795877	38.98532	104.827	0.3687927	2.46203	0.19	3	100	0	4	0.1909353	-15.17064	63.08445	
19:55:19	-6.795877	38.98532	104.654	0.3914948	2.765589	0.48	3	100	0	4	0.07166287	-15.04754	63.14146	
19:55:19	-6.795877	38.98531	104.859	0.4201019	3.567414	1.02	3	100	0	4	-0.1953794	-14.6694	63.2671	
19:55:19	-6.795877	38.98531	104.819	0.4069609	2.732003	0.68	3	100	0	4	-0.3946318	-14.52058	63.41522	
19:55:19	-6.795877	38.98531	104.902	0.3688611	-0.1022492	0.44	3	100	0	4	-0.1931106	-14.95797	63.46585	
19:55:20	-6.795877	38.98531	104.727	0.3232906	-2.829642	0.45	3	100	0	4	-0.02487772	-15.57946	63.45545	
19:55:20	-6.795877	38.98531	104.703	0.2797957	-4.997965	1.5	3	100	0	4	-0.1520067	-15.31772	63.46576	
19:55:20	-6.795877	38.98531	104.497	0.2557668	-6.495806	1.33	3	100	0	4	-0.2713743	-14.64401	63.56099	
19:55:20	-6.795877	38.98531	104.473	0.2601641	-6.243161	0.24	3	100	0	4	0.4259428	-14.93988	63.45524	
19:55:20	-6.795877	38.98531	104.655	0.285462	-4.777875	0.18	3	100	0	4	0.6997561	-15.386	63.35289	
19:55:21	-6.795877	38.98531	104.969	0.3432964	-1.787126	0.39	3	100	0	4	0.4500403	-15.17669	63.40388	
19:55:21	-6.795877	38.9853	104.743	0.3902172	0.7751101	0.24	3	100	0	4	0.5939866	-15.20513	63.36421	
19:55:21	-6.795877	38.9853	104.717	0.4294389	2.214765	0.31	3	100	0	4	0.6045632	-15.37702	63.34194	
19:55:21	-6.795877	38.9853	104.823	0.4639868	3.345714	0.22	3	100	0	4	0.6248643	-15.32652	63.32477	
19:55:21	-6.795877	38.9853	105.017	0.4633508	1.811505	0.48	3	100	0	4	0.6712617	-15.20238	63.288	
19:55:22	-6.795875	38.9853	105.254	0.4607212	0.7234342	0.14	3	100	0	4	0.6884065	-15.41974	63.24991	
19:55:22	-6.795875	38.9853	105.552	0.4255418	-1.680215	0.34	3	100	0	5	0.8509821	-15.49915	63.16307	
19:55:22	-6.795875	38.9853	105.314	0.3895563	-3.686616	0.91	3	100	0	4	1.172799	-15.81671	63.0397	
19:55:22	-6.795875	38.98531	105.378	0.3564736	-5.794261	1.68	3	100	0	4	1.765871	-16.68106	62.75542	
19:55:22	-6.795876	38.98531	105.147	0.3293872	-6.956832	1.84	3	100	0	4	2.154852	-17.11591	62.43543	
19:55:23	-6.795875	38.98531	105.317	0.347726	-5.914287	0.69	3	100	0	4	1.890476	-16.62702	62.29877	
19:55:23	-6.795873	38.98531	106.072	0.3624533	-5.082538	0.48	3	100	0	4	1.252426	-16.06034	62.35942	
19:55:23	-6.795873	38.98531	106.072	0.3436176	-5.73651	0.22	3	100	0	4	1.046357	-15.58669	62.31385	
19:55:23	-6.795872	38.98531	106.529	0.3223717	-6.938253	0.63	3	100	0	5	0.8819524	-15.59862	62.29939	
19:55:23	-6.79587	38.98531	106.776	0.2557262	-10.06396	0.58	3	100	0	5	1.081234	-15.85418	62.17629	
19:55:24	-6.795871	38.98532	106.578	0.1971657	-11.97656	0.97	3	100	0	4	1.330158	-16.15206	62.02143	
19:55:24	-6.795871	38.98532	106.71	0.1686313	-12.46596	0.31	3	100	0	4	1.636132	-15.64073	61.82532	
19:55:24	-6.79587	38.98532	106.851	0.1393295	-12.72106	0.48	3	100	0	4	1.408506	-15.29141	61.82098	
19:55:24	-6.795871	38.98532	106.717	0.1221766	-12.94395	0.21	3	100	0	4	1.31556	-15.00173	61.81261	
19:55:24	-6.795872	38.98532	106.67	0.1073386	-13.43443	0.79	3	100	0	4	1.532443	-14.359	61.76309	
19:55:25	-6.795872	38.98531	106.978	0.07686323	-14.2492	0.61	3	100	0	4	1.388705	-14.28101	61.83585	
19:55:25	-6.795873	38.98531	106.953	0.05080495	-15.13302	0.53	3	100	0	5	1.368609	-14.42082	61.89066	
19:55:25	-6.795873	38.98531	107.161	0.04100142	-14.87071	0.62	3	100	0	4	1.313163	-14.47116	61.92595	
19:55:25	-6.795874	38.98531	107.059	0.03375934	-14.26645	0.22	3	100	0	4	1.259052	-14.76308	61.9803	
19:55:25	-6.795873	38.98531	107.223	0.03061401	-13.97344	0.66	3	100	0	4	1.083653	-14.73511	62.02777	
19:55:26	-6.795874	38.98531	106.908	0.02920686	-13.42225	0.69	3	100	0	4	1.061868	-15.37772	62.05175	
19:55:26	-6.795874	38.98531	106.616	0.02568822	-12.54441	0.42	3	100	0	4	1.100088	-15.46813	61.99774	
19:55:26	-6.795872	38.98531	106.589	0.01923023	-12.09786	0.81	3	100	0	4	0.9006581	-15.44362	62.03458	
19:55:26	-6.795872	38.98531	106.589	0.01731889	-11.27472	1.06	3	100	0	4	0.6792241	-15.75253	62.06393	
19:55:26	-6.795871	38.98531	106.746	0.01848929	-10.78043	0.38	3	100	0	4	1.238445	-15.00139	61.88389	
19:55:27	-6.79587	38.98531	107	0.04439393	-8.319494	0.24	3	100	0	4	1.654563	-14.5911	61.78474	
19:55:27	-6.79587	38.98531	107.01	0.0913948	-5.09334	0.61	3	100	0	4	1.63872	-14.97802	61.79828	
19:55:27	-6.795869	38.98531	107.105	0.1081127	-3.607853	0.74	3	100	0	4	1.526324	-15.2404	61.79023	
19:55:27	-6.795869	38.98531	107.105	0.1071169	-3.63862	0.48	3	100	0	4	2.02446	-15.18126	61.60536	
19:55:27	-6.795868	38.98531	107.248	0.09611701	-4.463176	1.06	3	100	0	4	2.172956	-15.53306	61.50054	
19:55:28	-6.795867	38.98531	107.306	0.07170341	-5.406601	1.16	3	100	0	4	2.066736	-15.7669	61.41061	
19:55:28	-6.795866	38.98531	107.733	0.07008122	-5.124703	0.35	3	100	0	4	2.286667	-14.9737	61.25491	
19:55:28	-6.795864	38.98531	108.268	0.0903955	-3.775922	1.02	3	100	0	4	1.86387	-14.89603	61.33787	
19:55:28	-6.795863	38.98531	108.687	0.1166725	-2.353635	0.36	3	100	0	4	2.324745	-14.33525	61.18963	
19:55:28	-6.795863	38.98531	108.706	0.1418798	-0.8095722	0.03	3	100	0	4	2.40729	-14.24735	61.14945	
19:55:29	-6.795864	38.98531	108.709	0.1792971	0.8280352	0.52	3	100	0	4	2.587279	-14.62423	61.07405	
19:55:29	-6.795865	38.98531	108.53	0.2194906	2.754913	0.74	3	100	0	4	2.638082	-15.03489	60.97104	
19:55:29	-6.795865	38.98531	108.59	0.2545963	3.902017	0.09	3	100	0	5	2.316963	-14.59984	60.95878	
19:55:29	-6.795865	38.98531	108.408	0.2817898	4.478717	0.11	3	100	0	5	2.234122	-14.47342	60.95827	
19:55:29	-6.795866	38.98531	108.391	0.2955412	4.246962	0.26	3	100	0	4	2.326903	-14.64615	60.90358	
19:55:30	-6.795866	38.98531	108.414	0.2903254	3.487787	0.31	3	100	0	4	2.267379	-14.22355	60.8766	
19:55:30	-6.795866	38.98531	108.583	0.2772601	2.505032	0.68	3	100	0	4	2.423706	-13.84738	60.86343	
19:55:30	-6.795867	38.98531	108.598	0.2525095	0.6699399	0.19	3	100	0	4	2.11544	-14.1438	60.96164	
19:55:30	-6.795867	38.98531	108.703	0.2531079	0.3006565	0.33	3	100	0	4	2.23685	-14.18981	60.94124	
19:55:30	-6.795866	38.98531	108.924	0.281591	1.869921	0.33	3	100	0	4	1.9663	-14.49432	61.00466	
19:55:31	-6.795866	38.98531	108.827	0.3042921	2.67099	0.38	3	100	0	4	2.079463	-14.82721	60.94444	
19:55:31	-6.795867	38.98531	108.706	0.3222477	2.665777	0.22	3	100	0	4	2.009908	-14.80564	60.92876	
19:55:31	-6.795867	38.98531	108.489	0.3351561	2.663271	0.59	3	100	0	4	1.859181	-14.73617	60.94977	
19:55:31	-6.795868	38.98532	108.422	0.3193136	1.601571	0.45	3	100	0	4	2.126519	-15.13778	60.84282	
19:55:31	-6.795869	38.98532	108.215	0.3052279	0.9327281	0.39	3	100	0	4	2.108514	-15.13439	60.77444	
19:55:32	-6.795869	38.98532	108.174	0.3202759	1.106881	0.42	3	100	0	4	2.178422	-15.03045	60.69925	
19:55:32	-6.795869	38.98531	108.195	0.3321095	0.9150487	0.42	3	100	0	5	1.772756	-14.48669	60.77347	
19:55:32	-6.79587	38.98531	108.061	0.3674219	2.427276	0.29	3	100	0	4	2.085931	-14.207	60.73004	
19:55:32	-6.795871	38.98531	107.83	0.3990302	3.384021	0.47	3	100	0	4	2.299291	-14.38664	60.68161	
19:55:32	-6.795871	38.98531	107.839	0.4426063	4.87639	0.09	3	100	0	4	2.442086	-14.8539	60.61755	
19:55:33	-6.795872	38.98531	107.693	0.4807203	6.446143	0.31	3	100	0	4	2.045547	-14.74979	60.66933	
19:55:33	-6.795872	38.98531	107.594	0.4480702	3.751717	0.38	3	100	0	4	2.098495	-14.85206	60.64009	
19:55:33	-6.795873	38.98531	107.525	0.4167499	1.644314	0.14	3	100	0	4	1.953912	-15.01662	60.62257	
19:55:33	-6.795873	38.98531	107.553	0.3809087	-1.306356	0.13	3	100	0	4	1.920354	-14.62914	60.60702	
19:55:33	-6.795874	38.98531	107.487	0.3508653	-2.912129	0.03	3	100	0	4	1.771482	-14.60481	60.64669	
19:55:34	-6.795874	38.98531	107.424	0.3108644	-4.99789	0.06	3	100	0	4	1.788068	-14.68419	60.6224	
19:55:34	-6.795875	38.98531	107.222	0.278165	-6.588282	0.26	3	100	0	4	1.860449	-14.73434	60.58219	
19:55:34	-6.795875	38.98531	107.178	0.2724696	-6.02181	0.37	3	100	0	4	1.644382	-14.90838	60.60272	
19:55:34	-6.795875	38.98531	107.083	0.2671497	-6.061217	0.09	3	100	0	4	1.507277	-14.4808	60.61712	
19:55:34	-6.795875	38.98531	107.083	0.275304	-5.35594	0.09	3	100	0	4	1.639384	-14.69303	60.60692	
19:55:35	0	0	0	0.2694159	-6.194334	0	3	100	0	4	1.345789	-14.72004	62.18347	
19:55:35	47.46363	-122.3077	0.02	0.2633911	-11.4603	0	3	100	0	4	0.8950117	-14.19554	64.00372	
19:55:35	47.46363	-122.3077	0.02	0.1886454	-19.09459	0	3	100	0	4	0.399205	-13.43098	65.86635	
19:55:35	47.46363	-122.3077	0.02	0.1231458	-24.59927	0	3	100	0	4	-0.03805766	-12.88099	67.72595	
19:55:35	47.46363	-122.3077	0.019	0.0538491	-29.57428	0	3	100	0	4	-0.4524767	-12.50449	69.63158	
19:55:36	47.46363	-122.3077	0.019	-0.01173159	-33.71056	0	3	100	0	5	-0.8424019	-12.10082	71.55414	
19:55:36	47.46363	-122.3077	0.02	-0.07134761	-36.90354	0	3	100	0	4	-1.210439	-11.58093	73.52502	
19:55:36	47.46363	-122.3077	0.02	-0.1304055	-39.1391	0	3	100	0	4	-1.541613	-11.02423	75.4763	
19:55:36	47.46363	-122.3077	0.02	-0.1758556	-40.16644	0	3	100	0	4	-1.846575	-10.48434	77.46197	
19:55:36	47.46363	-122.3077	0.02	-0.2109875	-40.39226	0	3	100	0	4	-2.128899	-9.972141	79.49207	
19:55:37	47.46363	-122.3077	0.02	-0.2454698	-39.88089	0	3	100	0	4	-2.381139	-9.492563	81.52188	
19:55:37	47.46363	-122.3077	0.02	-0.2669401	-38.93767	0	3	100	0	4	-2.6089	-9.025171	83.567	
19:55:37	47.46363	-122.3077	0.02	-0.2858208	-37.23578	0	3	100	0	4	-2.814362	-8.566364	85.64369	
19:55:37	47.46363	-122.3077	0.02	-0.2962813	-35.25504	0	3	100	0	4	-2.99541	-8.117785	87.72573	
19:55:37	47.46363	-122.3077	0.02	-0.3006443	-33.20712	0	3	100	0	4	-3.130611	-7.672446	89.84317	
19:55:38	47.46363	-122.3077	0.02	-0.3000889	-30.38386	0	3	100	0	4	-3.268419	-7.224737	91.98876	
19:55:38	47.46363	-122.3077	0.02	-0.2952997	-27.88329	0	3	100	0	4	-3.386645	-6.79529	94.09436	
19:55:38	47.46363	-122.3077	0.02	-0.2846021	-24.62324	0	3	100	0	4	-3.488225	-6.375516	96.25984	
19:55:38	47.46363	-122.3077	0.02	-0.2723265	-21.9448	0	3	100	0	4	-3.569541	-5.977882	98.4081	
19:55:38	47.46363	-122.3077	0.02	-0.254316	-18.72371	0	3	100	0	5	-3.645289	-5.579086	100.7403	
19:55:39	47.46363	-122.3077	0.02	-0.2374312	-16.11114	0	3	100	0	4	-3.715317	-5.131626	103.3495	
19:55:39	47.46363	-122.3077	0.02	-0.2145049	-13.03151	0	3	100	0	4	-3.765305	-4.68892	105.9949	
19:55:39	47.46363	-122.3077	0.02	-0.194629	-10.57035	0	3	100	0	5	-3.792238	-4.260974	108.6173	
19:55:39	47.46363	-122.3077	0.02	-0.1694981	-7.637771	0	3	100	0	4	-3.798527	-3.859756	111.2135	
19:55:39	47.46363	-122.3077	0.02	-0.1487193	-5.388141	0	3	100	0	4	-3.786732	-3.470943	113.8038	
19:55:40	47.46363	-122.3077	0.02	-0.1230919	-2.797156	0	3	100	0	4	-3.75494	-3.110347	116.3786	
19:55:40	47.46363	-122.3077	0.02	-0.1016485	-0.7666106	0	3	100	0	4	-3.708793	-2.761899	118.9503	
19:55:40	47.46363	-122.3077	0.02	-0.07842869	1.302569	0	3	100	0	3	-3.648817	-2.425642	121.4811	
19:55:40	47.46363	-122.3077	0.02	-0.05405166	3.341622	0	3	100	0	4	-3.572764	-2.108725	123.988	
19:55:40	47.46363	-122.3077	0.02	-0.03442153	4.88951	0	3	100	0	4	-3.487077	-1.814347	126.4341	
19:55:41	47.46363	-122.3077	0.02	-0.01372899	6.430925	0	3	100	0	4	-3.391972	-1.540849	128.8473	
19:55:41	47.46363	-122.3077	0.02	0.005774073	7.798428	0	3	100	0	4	-3.286419	-1.275141	131.2491	
19:55:41	47.46363	-122.3077	0.02	0.02421517	9.012913	0	3	100	0	5	-3.174607	-1.028402	133.5898	
19:55:41	47.46363	-122.3077	0.02	0.04116774	10.05822	0	3	100	0	4	-3.05715	-0.7942809	135.8834	
19:55:41	47.46363	-122.3077	0.02	0.05818974	11.03301	0	3	100	0	4	-2.936257	-0.5799875	138.1003	
19:55:42	47.46363	-122.3077	0.02	0.07240961	11.78318	0	3	100	0	5	-2.81212	-0.3934498	140.2559	
19:55:42	47.46363	-122.3077	0.02	0.08381014	12.33569	0	3	100	0	4	-2.6871	-0.2290661	142.3125	
19:55:42	47.46363	-122.3077	0.02	0.09644827	12.98207	0	3	100	0	4	-2.55993	-0.07430748	144.3551	
19:55:42	47.46363	-122.3077	0.02	0.1067233	13.36756	0	3	100	0	4	-2.434353	0.0729193	146.3279	
19:55:42	47.46363	-122.3077	0.02	0.1158421	13.73269	0	3	100	0	4	-2.307055	0.2100839	148.2512	
19:55:43	47.46363	-122.3077	0.02	0.1237606	13.92826	0	3	100	0	4	-2.180966	0.3421907	150.141	
19:55:43	47.46363	-122.3077	0.02	0.1299646	14.11535	0	3	100	0	4	-2.059076	0.4612986	151.8919	
19:55:43	47.46363	-122.3077	0.02	0.1362642	14.16868	0	3	100	0	4	-1.937424	0.5634632	153.6036	
19:55:43	47.46363	-122.3077	0.02	0.1405786	14.15921	0	3	100	0	4	-1.819765	0.6543825	155.2536	
19:55:43	47.46363	-122.3077	0.02	0.1447191	14.08958	0	3	100	0	4	-1.698692	0.7421826	156.9482	
19:55:44	47.46363	-122.3077	0.02	0.1476164	14.02023	0	3	100	0	5	-1.552586	0.8405047	158.9503	
19:55:44	47.46363	-122.3077	0.02	0.1497705	14.0693	0	3	100	0	4	-1.408614	0.9278809	160.8878	
19:55:44	47.46363	-122.3077	0.02	0.1520097	14.03722	0	3	100	0	4	-1.268787	1.014531	162.7505	
19:55:44	47.46363	-122.3077	0.02	0.1533917	13.90923	0	3	100	0	4	-1.135251	1.095153	164.4999	
19:55:44	47.46363	-122.3077	0.02	0.1543324	13.88027	0	3	100	0	4	-1.005329	1.167896	166.2078	
19:55:45	47.46363	-122.3077	0.02	0.1550641	13.72176	0	3	100	0	4	-0.8779511	1.230626	167.8541	
19:55:45	47.46363	-122.3077	0.02	0.1552655	13.52688	0	3	100	0	4	-0.7606045	1.282624	169.4065	
19:55:45	47.46363	-122.3077	0.02	0.1549413	13.2308	0	3	100	0	5	-0.6468614	1.327616	170.9023	
19:55:45	47.46363	-122.3077	0.02	0.1544205	13.13837	0	3	100	0	4	-0.5375856	1.368773	172.333	
19:55:45	47.46363	-122.3077	0.02	0.153449	12.79764	0	3	100	0	5	-0.4341981	1.407852	173.6916	
19:55:46	47.46363	-122.3077	0.02	0.1523391	12.62961	0	3	100	0	4	-0.3354407	1.442708	174.9836	
19:55:46	47.46363	-122.3077	0.02	0.1509678	12.4606	0	3	100	0	4	-0.2427481	1.467409	176.2272	
19:55:46	47.46363	-122.3077	0.02	0.1496805	12.33991	0	3	100	0	4	-0.163299	1.492356	177.4147	
19:55:46	47.46363	-122.3077	0.02	0.1481176	12.09739	0	3	100	0	4	-0.08527272	1.519807	178.5437	
19:55:46	47.46363	-122.3077	0.02	0.1461074	11.32751	0	3	100	0	4	-0.001486224	1.542729	179.6229	
19:55:47	47.46363	-122.3077	0.02	0.1438943	11.38461	0	3	100	0	5	0.07259683	1.5641	-179.3353	
19:55:47	47.46363	-122.3077	0.02	0.1420475	11.47555	0	3	100	0	4	0.146272	1.581918	-178.3453	
19:55:47	47.46363	-122.3077	0.02	0.1405704	11.19921	0	3	100	0	4	0.2068646	1.60011	-177.389	
19:55:47	47.46363	-122.3077	0.02	0.1386163	10.89731	0	3	100	0	4	0.2691906	1.615754	-176.4855	
19:55:47	47.46363	-122.3077	0.02	0.1368095	10.74273	0	3	100	0	5	0.3169825	1.63122	-175.6131	
19:55:48	47.46363	-122.3077	0.02	0.1351281	10.60587	0	3	100	0	4	0.3746542	1.645072	-174.7739	
19:55:48	47.46363	-122.3077	0.02	0.1333505	10.66765	0	3	100	0	4	0.4365329	1.656378	-173.9843	
19:55:48	47.46363	-122.3077	0.02	0.1323464	10.98123	0	3	100	0	4	0.4876968	1.667785	-173.2235	
19:55:48	47.46363	-122.3077	0.02	0.132008	11.02594	0	3	100	0	5	0.5309137	1.678102	-172.4944	
19:55:48	47.46363	-122.3077	0.02	0.1314609	10.70186	0	3	100	0	4	0.5728088	1.687884	-171.8058	
19:55:49	47.46363	-122.3077	0.02	0.1303391	10.37319	0	3	100	0	4	0.613736	1.68553	-171.0689	
19:55:49	47.46363	-122.3077	0.02	0.128599	9.928943	0	3	100	0	4	0.6608596	1.681693	-170.3573	
19:55:49	47.46363	-122.3077	0.02	0.1266963	9.612639	0	3	100	0	4	0.7226402	1.678253	-169.6804	
19:55:49	47.46363	-122.3077	0.02	0.1243108	9.339339	0	3	100	0	5	0.751732	1.665328	-169.0276	
19:55:49	47.46363	-122.3077	0.02	0.1220847	9.096236	0	3	100	0	4	0.7945486	1.693352	-168.3927	
19:55:50	47.46363	-122.3077	0.02	0.1198436	8.937178	0	3	100	0	4	0.8532915	1.802708	-167.791	
19:55:50	47.46363	-122.3077	0.02	0.1179929	8.844406	0	3	100	0	4	0.8853181	1.857701	-167.2192	
19:55:50	47.46363	-122.3077	0.02	0.1158564	8.593897	0	3	100	0	5	0.9118041	1.796236	-166.6715	
19:55:50	47.46363	-122.3077	0.02	0.1131843	7.923687	0	3	100	0	4	0.938291	1.938804	-166.1445	
19:55:50	47.46363	-122.3077	0.02	0.1110174	8.231893	0	3	100	0	4	0.9682574	2.080275	-165.6404	
19:55:51	47.46363	-122.3077	0.02	0.1077291	6.527334	0	3	100	0	4	0.9786747	2.548908	-165.1323	
19:55:51	47.46363	-122.3077	0.019	0.1037337	6.539841	0	3	100	0	4	0.9934988	2.254564	-164.674	
19:55:51	47.46363	-122.3077	0.02	0.09910078	5.711375	0	3	100	0	4	1.033601	0.8601377	-164.2607	
19:55:51	47.46363	-122.3077	0.021	0.09480482	5.69242	0	3	100	0	4	1.036417	0.9365395	-163.8389	
19:55:52	47.46363	-122.3077	0.021	0.09234514	6.206878	0	3	100	0	4	1.075515	2.42287	-163.4029	
19:55:52	47.46363	-122.3077	0.02	0.0906367	5.991584	0	3	100	0	4	1.086204	3.007971	-163.0122	
19:55:52	47.46363	-122.3077	0.02	0.0886468	5.934304	0	3	100	0	4	1.110844	2.368074	-162.6393	
19:55:52	47.46363	-122.3077	0.02	0.08629326	5.225954	0	3	100	0	4	1.134748	1.737312	-162.2942	
19:55:52	47.46363	-122.3077	0.02	0.0831872	4.999432	0	3	100	0	4	1.133161	1.622214	-161.9557	
19:55:53	47.46363	-122.3077	0.02	0.08099162	5.051944	0	3	100	0	4	1.145618	1.844335	-161.6219	
19:55:53	47.46363	-122.3077	0.02	0.07925273	5.300027	0	3	100	0	4	1.165296	2.062441	-161.2989	
19:55:53	47.46363	-122.3077	0.02	0.07851908	5.742836	0	3	100	0	4	1.198891	2.089526	-161.0017	
19:55:53	47.46363	-122.3077	0.02	0.07845453	5.89012	0	3	100	0	4	1.20753	1.993531	-160.7095	
19:55:53	47.46363	-122.3077	0.02	0.07858627	5.786165	0	3	100	0	4	1.19788	1.916302	-160.4289	
19:55:54	47.46363	-122.3077	0.02	0.07841873	5.83263	0	3	100	0	4	1.199733	1.904459	-160.1542	
19:55:54	47.46363	-122.3077	0.02	0.07852538	5.962309	0	3	100	0	4	1.202322	1.916841	-159.9494	
19:55:54	47.46363	-122.3077	0.02	0.07884803	6.083416	0	3	100	0	4	1.195987	1.906384	-159.8468	
19:55:54	47.46363	-122.3077	0.02	0.07931528	6.191464	0	3	100	0	4	1.188444	1.881595	-159.7473	
19:55:54	47.46363	-122.3077	0.02	0.07985634	6.211422	0	3	100	0	4	1.181805	1.855951	-159.643	
19:55:55	47.46363	-122.3077	0.02	0.08031293	6.200485	0	3	100	0	4	1.176019	1.831399	-159.5245	
19:55:55	47.46363	-122.3077	0.02	0.08066703	6.20126	0	3	100	0	4	1.170345	1.807567	-159.4149	
19:55:55	47.46363	-122.3077	0.02	0.08092275	6.246064	0	3	100	0	4	1.164302	1.785104	-159.3107	
19:55:55	47.46363	-122.3077	0.02	0.08130644	6.314723	0	3	100	0	4	1.15784	1.764144	-159.2293	
19:55:55	47.46363	-122.3077	0.02	0.08152179	6.247151	0	3	100	0	5	1.153533	1.744723	-159.1161	
19:55:56	47.46363	-122.3077	0.02	0.08176577	6.297152	0	3	100	0	5	1.153312	1.724017	-158.8648	
19:55:56	47.46363	-122.3077	0.02	0.08202496	6.334843	0	3	100	0	4	1.157657	1.70015	-158.4573	
19:55:56	47.46363	-122.3077	0.02	0.08226985	6.36088	0	3	100	0	4	1.165211	1.673905	-157.9346	
19:55:56	47.46363	-122.3077	0.02	0.08256328	6.382915	0	3	100	0	4	1.174975	1.645844	-157.327	
19:55:56	47.46363	-122.3077	0.02	0.0827876	6.393767	0	3	100	0	4	1.166829	1.626265	-157.2506	
19:55:57	47.46363	-122.3077	0.02	0.08300485	6.397717	0	3	100	0	5	1.157797	1.612239	-157.2346	
19:55:57	47.46363	-122.3077	0.02	0.08317897	6.393794	0	3	100	0	4	1.150102	1.597223	-157.1895	
19:55:57	47.46363	-122.3077	0.02	0.08331905	6.380533	0	3	100	0	4	1.141949	1.585356	-157.1738	
19:55:57	47.46363	-122.3077	0.02	0.08339082	6.359483	0	3	100	0	5	1.134326	1.573003	-157.15	
19:55:57	47.46363	-122.3077	0.02	0.08340186	6.330195	0	3	100	0	4	1.127165	1.561878	-157.1412	
19:55:58	47.46363	-122.3077	0.02	0.08335005	6.29444	0	3	100	0	4	1.12027	1.550191	-157.1294	
19:55:58	47.46363	-122.3077	0.02	0.08309656	6.015988	0	3	100	0	4	1.116367	1.541078	-157.0908	
19:55:58	47.46363	-122.3077	0.02	0.08257157	5.977085	0	3	100	0	4	1.111302	1.533094	-157.0048	
19:55:58	47.46363	-122.3077	0.02	0.08194423	5.8715	0	3	100	0	4	1.105079	1.524108	-156.9673	
19:55:58	47.46363	-122.3077	0.02	0.0811192	5.648698	0	3	100	0	4	1.099074	1.515221	-156.9544	
19:55:59	47.46363	-122.3077	0.02	0.08023122	5.609971	0	3	100	0	4	1.093119	1.506928	-156.9414	
19:55:59	47.46363	-122.3077	0.02	0.07942578	5.573849	0	3	100	0	4	1.088721	1.499052	-156.8828	
19:55:59	47.46363	-122.3077	0.02	0.07878221	5.54296	0	3	100	0	4	1.089414	1.487734	-156.6289	
19:55:59	47.46363	-122.3077	0.02	0.07807058	5.50662	0	3	100	0	4	1.09409	1.473365	-156.2174	
19:55:59	47.46363	-122.3077	0.02	0.07753985	5.477604	0	3	100	0	4	1.101601	1.456742	-155.6907	
19:56:00	47.46363	-122.3077	0.02	0.07699846	5.445459	0	3	100	0	4	1.111048	1.438491	-155.082	
19:56:00	47.46363	-122.3077	0.02	0.0764503	5.410418	0	3	100	0	4	1.121847	1.418915	-154.411	
19:56:00	47.46363	-122.3077	0.02	0.07616938	5.39149	0	3	100	0	5	1.133598	1.398199	-153.6904	
19:56:00	47.46363	-122.3077	0.02	0.07616938	5.39149	0	3	100	0	4	1.128331	1.378425	-153.3983	
19:56:00	47.46363	-122.3077	0.02	0.07585144	5.370435	0	3	100	0	4	1.098818	1.361374	-153.7247	
19:56:01	47.46363	-122.3077	0.02	0.07542623	5.341123	0	3	100	0	4	1.069614	1.345302	-154.0526	
19:56:01	47.46363	-122.3077	0.02	0.07506275	5.315536	0	3	100	0	4	1.044111	1.327776	-154.2855	
19:56:01	47.46363	-122.3077	0.02	0.07468527	5.288487	0	3	100	0	5	1.023495	1.306386	-154.3091	
19:56:01	47.46363	-122.3077	0.02	0.07429246	5.259867	0	3	100	0	4	1.006277	1.282142	-154.1781	
19:56:01	47.46363	-122.3077	0.02	0.07398807	5.235903	0	3	100	0	4	0.9914582	1.255813	-153.9317	
19:56:02	47.46363	-122.3077	0.02	0.07365869	5.207589	0	3	100	0	4	0.9784341	1.228215	-153.6016	
19:56:02	47.46363	-122.3077	0.02	0.07330851	5.177136	0	3	100	0	4	0.9580031	1.207277	-153.6568	
19:56:02	47.46363	-122.3077	0.02	0.07292949	5.107088	0	3	100	0	5	0.9349689	1.191521	-153.8928	
19:56:02	47.46363	-122.3077	0.02	0.07256125	5.079285	0	3	100	0	5	0.9130736	1.179994	-154.1667	
19:56:02	47.46363	-122.3077	0.02	0.07224107	5.053373	0	3	100	0	4	0.8958395	1.16497	-154.2199	
19:56:03	47.46363	-122.3077	0.02	0.07186439	5.021319	0	3	100	0	4	0.8818238	1.147329	-154.1103	
19:56:03	47.46363	-122.3077	0.02	0.07156396	4.995063	0	3	100	0	4	0.8702093	1.127976	-153.8819	
19:56:03	47.46363	-122.3077	0.02	0.07123794	4.965192	0	3	100	0	5	0.8601829	1.107233	-153.5638	
19:56:03	47.46363	-122.3077	0.02	0.07088326	4.932297	0	3	100	0	4	0.8513318	1.085674	-153.1824	
19:56:03	47.46363	-122.3077	0.02	0.07082011	4.926371	0	3	100	0	4	0.840542	1.065964	-152.9212	
19:56:04	47.46363	-122.3077	0.02	0.07069473	4.915266	0	3	100	0	4	0.8222011	1.055252	-153.168	
19:56:04	47.46363	-122.3077	0.02	0.07035196	4.883049	0	3	100	0	4	0.8052271	1.046081	-153.3838	
19:56:04	47.46363	-122.3077	0.02	0.07004192	4.852154	0	3	100	0	4	0.7898986	1.041314	-153.6656	
19:56:04	47.46363	-122.3077	0.02	0.06975885	4.821912	0	3	100	0	4	0.7808325	1.037035	-153.9423	
19:56:04	47.46363	-122.3077	0.02	0.06932227	4.630557	0	3	100	0	4	0.7705448	1.033464	-154.2157	
19:56:05	47.46363	-122.3077	0.02	0.06859401	4.55341	0	3	100	0	4	0.7563057	1.031048	-154.5511	
19:56:05	47.46363	-122.3077	0.02	0.06804916	4.523641	0	3	100	0	4	0.7478878	1.028586	-154.8738	
19:56:05	47.46363	-122.3077	0.02	0.06776713	4.729051	0	3	100	0	4	0.7380928	1.026483	-155.1646	
19:56:05	47.46363	-122.3077	0.02	0.06762552	4.61588	0	3	100	0	4	0.7275411	1.02364	-155.4504	
19:56:05	47.46363	-122.3077	0.02	0.06698962	4.248284	0	3	100	0	4	0.7056988	1.015084	-155.9017	
19:56:06	47.46363	-122.3077	0.02	0.06611873	4.213308	0	3	100	0	5	0.6783623	1.004467	-156.4167	
19:56:06	47.46363	-122.3077	0.02	0.06516875	3.987877	0	3	100	0	5	0.6566268	0.9935986	-156.911	
19:56:06	47.46363	-122.3077	0.02	0.06422613	3.887768	0	3	100	0	4	0.6404634	0.9830902	-157.3833	
19:56:06	47.46363	-122.3077	0.02	0.06384388	4.345876	0	3	100	0	4	0.6203376	0.9727522	-157.7085	
19:56:06	47.46363	-122.3077	0.02	0.06375393	4.325588	0	3	100	0	4	0.603126	0.9605069	-157.8647	
19:56:07	47.46363	-122.3077	0.02	0.06365287	4.30472	0	3	100	0	4	0.5879499	0.9468542	-157.8964	
19:56:07	47.46363	-122.3077	0.02	0.06350178	4.276381	0	3	100	0	4	0.5738488	0.9338045	-158.0822	
19:56:07	47.46363	-122.3077	0.02	0.06335671	4.250875	0	3	100	0	4	0.5602537	0.9215379	-158.3946	
19:56:07	47.46363	-122.3077	0.02	0.06315865	4.301772	0	3	100	0	5	0.5517818	0.9103137	-158.7866	
19:56:07	47.46363	-122.3077	0.02	0.06371325	4.934059	0	3	100	0	5	0.5453941	0.9001107	-159.1775	
19:56:08	47.46363	-122.3077	0.02	0.06427781	4.582879	0	3	100	0	5	0.5317047	0.8907791	-159.5564	
19:56:08	47.46363	-122.3077	0.02	0.06475831	4.752771	0	3	100	0	4	0.523386	0.8831292	-159.915	
19:56:08	47.46363	-122.3077	0.02	0.06533165	4.745602	0	3	100	0	4	0.5070102	0.8741393	-160.2677	
19:56:08	47.46363	-122.3077	0.02	0.06543944	4.437161	0	3	100	0	4	0.4965066	0.8688555	-160.582	
19:56:08	47.46363	-122.3077	0.02	0.06530963	4.457994	0	3	100	0	4	0.4978901	0.8595527	-160.8994	
19:56:09	47.46363	-122.3077	0.02	0.06454205	4.06634	0	3	100	0	4	0.492411	0.8539598	-161.2042	
19:56:09	47.46363	-122.3077	0.02	0.06380567	3.93219	0	3	100	0	4	0.4800391	0.8488201	-161.5006	
19:56:09	47.46363	-122.3077	0.02	0.06271166	3.78552	0	3	100	0	4	0.4761698	0.8404797	-161.7722	
19:56:09	47.46363	-122.3077	0.02	0.06182149	3.697883	0	3	100	0	4	0.470131	0.8317144	-162.0349	
19:56:09	47.46363	-122.3077	0.02	0.06077133	3.623668	0	3	100	0	5	0.4630574	0.8252859	-162.2858	
19:56:10	47.46363	-122.3077	0.02	0.05988532	3.562116	0	3	100	0	4	0.4569952	0.8183611	-162.5439	
19:56:10	47.46363	-122.3077	0.02	0.05901704	3.444499	0	3	100	0	5	0.4518429	0.8123809	-162.7888	
19:56:10	47.46363	-122.3077	0.02	0.05815063	3.356361	0	3	100	0	4	0.4472863	0.8053285	-163.0002	
19:56:10	47.46363	-122.3077	0.02	0.05716901	3.30484	0	3	100	0	5	0.4461954	0.7976261	-163.2137	
19:56:10	47.46363	-122.3077	0.02	0.05636166	3.263511	0	3	100	0	4	0.4381938	0.78996	-163.4793	
19:56:11	47.46363	-122.3077	0.02	0.05570941	3.230791	0	3	100	0	4	0.4260878	0.7768267	-163.8544	
19:56:11	47.46363	-122.3077	0.02	0.05486044	3.118155	0	3	100	0	4	0.4151046	0.7642764	-164.2246	
19:56:11	47.46363	-122.3077	0.02	0.05414851	3.091779	0	3	100	0	4	0.4039938	0.7520056	-164.5785	
19:56:11	47.46363	-122.3077	0.02	0.05353309	3.069501	0	3	100	0	4	0.3946888	0.7398384	-164.9138	
19:56:11	47.46363	-122.3077	0.02	0.0530537	3.112158	0	3	100	0	4	0.3863638	0.7287069	-165.2258	
19:56:12	47.46363	-122.3077	0.02	0.05272505	3.068599	0	3	100	0	6	0.3785192	0.7191958	-165.5273	
19:56:12	47.46363	-122.3077	0.02	0.05232855	3.050599	0	3	100	0	4	0.3704921	0.7072114	-165.8275	
19:56:12	47.46363	-122.3077	0.02	0.05199713	2.994735	0	3	100	0	4	0.3634011	0.6956461	-166.1104	
19:56:12	47.46363	-122.3077	0.02	0.05154086	2.941035	0	3	100	0	4	0.357755	0.6854326	-166.3853	
19:56:12	47.46363	-122.3077	0.02	0.05113349	2.907049	0	3	100	0	4	0.352358	0.6760818	-166.6382	
19:56:13	47.46363	-122.3077	0.02	0.0505364	2.737463	0	3	100	0	5	0.3468733	0.6658738	-166.8825	
19:56:13	47.46363	-122.3077	0.02	0.04985428	2.626507	0	3	100	0	4	0.341042	0.6579688	-167.1217	
19:56:13	47.46363	-122.3077	0.02	0.0490782	2.561677	0	3	100	0	4	0.3366859	0.6480252	-167.3493	
19:56:13	47.46363	-122.3077	0.02	0.04850057	2.560928	0	3	100	0	4	0.3323057	0.638397	-167.5675	
19:56:13	47.46363	-122.3077	0.02	0.04792441	2.563787	0	3	100	0	4	0.3285119	0.6292961	-167.7744	
19:56:14	47.46363	-122.3077	0.02	0.04750642	2.568562	0	3	100	0	5	0.3249802	0.6196756	-167.9875	
19:56:14	47.46363	-122.3077	0.02	0.04720354	2.573577	0	3	100	0	4	0.3212746	0.6113283	-168.1833	
19:56:14	47.46363	-122.3077	0.02	0.04691504	2.579926	0	3	100	0	4	0.3182701	0.6036329	-168.3777	
19:56:14	47.46363	-122.3077	0.02	0.04671103	2.564697	0	3	100	0	4	0.3149821	0.5977436	-168.5581	
19:56:14	47.46363	-122.3077	0.02	0.0464015	2.489807	0	3	100	0	4	0.3131407	0.5906273	-168.676	
19:56:15	47.46363	-122.3077	0.02	0.04612878	2.494713	0	3	100	0	4	0.3120016	0.5831015	-168.7265	
19:56:15	47.46363	-122.3077	0.02	0.04593406	2.498425	0	3	100	0	4	0.3113789	0.5753006	-168.7265	
19:56:15	47.46363	-122.3077	0.02	0.04574683	2.502168	0	3	100	0	4	0.3111261	0.5673388	-168.6898	
19:56:15	47.46363	-122.3077	0.02	0.0456153	2.504381	0	3	100	0	4	0.3100978	0.5590941	-168.7221	
19:56:15	47.46363	-122.3077	0.02	0.04551078	2.50506	0	3	100	0	4	0.3077691	0.5524661	-168.8888	
19:56:16	47.46363	-122.3077	0.02	0.0454324	2.503579	0	3	100	0	4	0.3044557	0.5443479	-169.0828	
19:56:16	47.46363	-122.3077	0.02	0.04534929	2.499306	0	3	100	0	4	0.2978945	0.5332056	-169.3412	
19:56:16	47.46363	-122.3077	0.02	0.04527798	2.493438	0	3	100	0	4	0.2915349	0.5240234	-169.5904	
19:56:16	47.46363	-122.3077	0.02	0.0452067	2.485249	0	3	100	0	4	0.2868587	0.5162915	-169.8282	
19:56:16	47.46363	-122.3077	0.02	0.04513106	2.474871	0	3	100	0	4	0.2810032	0.5067873	-170.0573	
19:56:17	47.46363	-122.3077	0.02	0.04495227	2.381109	0	3	100	0	4	0.2758796	0.4977009	-170.2772	
19:56:17	47.46363	-122.3077	0.02	0.04472823	2.369018	0	3	100	0	4	0.2713072	0.4876426	-170.4869	
19:56:17	47.46363	-122.3077	0.02	0.04454445	2.357873	0	3	100	0	5	0.2667688	0.4782611	-170.6895	
19:56:17	47.46363	-122.3077	0.02	0.0443338	2.343406	0	3	100	0	4	0.2627717	0.4690594	-170.8805	
19:56:17	47.46363	-122.3077	0.02	0.04415365	2.329806	0	3	100	0	4	0.2590787	0.4607455	-171.0686	
19:56:18	47.46363	-122.3077	0.02	0.04393514	2.217709	0	3	100	0	4	0.2555379	0.4551234	-171.2405	
19:56:18	47.46363	-122.3077	0.02	0.04355776	2.184274	0	3	100	0	4	0.2520446	0.4490966	-171.4096	
19:56:18	47.46363	-122.3077	0.02	0.04323302	2.172385	0	3	100	0	4	0.2506411	0.4415015	-171.5641	
19:56:18	47.46363	-122.3077	0.02	0.04297004	2.162459	0	3	100	0	4	0.2472025	0.4331311	-171.7187	
19:56:18	47.46363	-122.3077	0.02	0.04268727	2.150902	0	3	100	0	5	0.2445999	0.4257545	-171.8672	
19:56:19	47.46363	-122.3077	0.02	0.04242732	2.061944	0	3	100	0	4	0.2421579	0.4215993	-172.008	
19:56:19	47.46363	-122.3077	0.02	0.04195996	1.896466	0	3	100	0	4	0.2398242	0.4155004	-172.1435	
19:56:19	47.46363	-122.3077	0.02	0.04139854	1.890514	0	3	100	0	5	0.2373789	0.4090151	-172.2784	
19:56:19	47.46363	-122.3077	0.02	0.04085617	1.807315	0	3	100	0	4	0.2342292	0.4014559	-172.4032	
19:56:19	47.46363	-122.3077	0.02	0.04015806	1.612881	0	3	100	0	4	0.2314019	0.3938769	-172.491	
19:56:20	47.46363	-122.3077	0.02	0.03933544	1.443454	0	3	100	0	4	0.2287942	0.3861249	-172.5466	
19:56:20	47.46363	-122.3077	0.02	0.0382557	1.263043	0	3	100	0	4	0.2263661	0.3783143	-172.578	
19:56:20	47.46363	-122.3077	0.02	0.03692905	1.077296	0	3	100	0	3	0.2240573	0.3704332	-172.5919	
19:56:20	47.46363	-122.3077	0.02	0.03577217	0.9360598	0	3	100	0	4	0.2218712	0.362643	-172.6285	
19:56:20	47.46363	-122.3077	0.02	0.03448162	0.8905631	0	3	100	0	4	0.2200706	0.3564013	-172.7418	
19:56:21	47.46363	-122.3077	0.02	0.03350614	0.9541183	0	3	100	0	4	0.2185791	0.3510601	-172.8603	
19:56:21	47.46363	-122.3077	0.02	0.03279307	1.031922	0	3	100	0	4	0.2154867	0.3434284	-173.0147	
19:56:21	47.46363	-122.3077	0.02	0.03243126	1.101387	0	3	100	0	5	0.2122987	0.3358611	-173.1611	
19:56:21	47.46363	-122.3077	0.02	0.03223666	1.185908	0	3	100	0	4	0.2091158	0.3288502	-173.3056	
19:56:21	47.46363	-122.3077	0.02	0.03224337	1.265593	0	3	100	0	5	0.2059814	0.3211541	-173.4437	
19:56:22	47.46363	-122.3077	0.02	0.03239201	1.340962	0	3	100	0	4	0.2036199	0.3144016	-173.5737	
19:56:22	47.46363	-122.3077	0.02	0.03265117	1.413377	0	3	100	0	3	0.2002562	0.3080461	-173.7011	
19:56:22	47.46363	-122.3077	0.02	0.03299192	1.480749	0	3	100	0	4	0.1975313	0.3027397	-173.8209	
19:56:22	47.46363	-122.3077	0.02	0.03339087	1.542654	0	3	100	0	4	0.195546	0.2959391	-173.934	
19:56:22	47.46363	-122.3077	0.02	0.03381767	1.597616	0	3	100	0	5	0.1931492	0.2897156	-174.0457	
19:56:23	47.46363	-122.3077	0.02	0.0342226	1.642505	0	3	100	0	4	0.1918646	0.2854007	-174.1502	
19:56:23	47.46363	-122.3077	0.02	0.03471403	1.68929	0	3	100	0	4	0.1907108	0.2810633	-174.2328	
19:56:23	47.46363	-122.3077	0.02	0.0351486	1.724592	0	3	100	0	5	0.1896474	0.2766669	-174.2982	
19:56:23	47.46363	-122.3077	0.02	0.03552333	1.750852	0	3	100	0	4	0.1886503	0.2722272	-174.3508	
19:56:24	47.46363	-122.3077	0.02	0.03595001	1.776139	0	3	100	0	4	0.1872573	0.2660964	-174.4256	
19:56:24	47.46363	-122.3077	0.02	0.03630397	1.793246	0	3	100	0	4	0.1845498	0.261329	-174.5156	
19:56:24	47.46363	-122.3077	0.02	0.03658614	1.803718	0	3	100	0	4	0.1823236	0.2592327	-174.6039	
19:56:24	47.46363	-122.3077	0.02	0.03688643	1.810768	0	3	100	0	4	0.1813326	0.2548007	-174.6904	
19:56:24	47.46363	-122.3077	0.02	0.03711854	1.811896	0	3	100	0	4	0.1798371	0.25279	-174.7703	
19:56:25	47.46363	-122.3077	0.02	0.03711438	1.613384	0	3	100	0	4	0.1788517	0.2512127	-174.847	
19:56:25	47.46363	-122.3077	0.02	0.036802	1.50818	0	3	100	0	4	0.1776522	0.2472237	-174.9212	
19:56:25	47.46363	-122.3077	0.02	0.03642898	1.448283	0	3	100	0	4	0.1765215	0.2433729	-174.9934	
19:56:25	47.46363	-122.3077	0.02	0.03603183	1.42802	0	3	100	0	4	0.176542	0.2414854	-175.0615	
19:56:25	47.46363	-122.3077	0.02	0.03563561	1.351421	0	3	100	0	4	0.175308	0.2385646	-175.1266	
19:56:26	47.46363	-122.3077	0.02	0.03521359	1.357889	0	3	100	0	4	0.1743074	0.2362068	-175.1901	
19:56:26	47.46363	-122.3077	0.02	0.03491598	1.365633	0	3	100	0	4	0.1726572	0.232625	-175.254	
19:56:26	47.46363	-122.3077	0.02	0.03471152	1.373066	0	3	100	0	4	0.1703518	0.2273592	-175.3325	
19:56:26	47.46363	-122.3077	0.02	0.03446239	1.302993	0	3	100	0	4	0.168069	0.22144	-175.4084	
19:56:26	47.46363	-122.3077	0.02	0.03422783	1.311946	0	3	100	0	4	0.1662866	0.2169188	-175.4809	
19:56:27	47.46363	-122.3077	0.02	0.03401799	1.323587	0	3	100	0	5	0.1632265	0.2106615	-175.5508	
19:56:27	47.46363	-122.3077	0.02	0.03388334	1.334347	0	3	100	0	4	0.1601008	0.2061863	-175.6173	
19:56:27	47.46363	-122.3077	0.02	0.03367078	1.243769	0	3	100	0	5	0.1579134	0.2005552	-175.681	
19:56:27	47.46363	-122.3077	0.02	0.03333369	1.17825	0	3	100	0	5	0.155918	0.1946217	-175.742	
19:56:27	47.46363	-122.3077	0.02	0.03308066	1.190731	0	3	100	0	4	0.1539507	0.1909212	-175.8001	
19:56:28	47.46363	-122.3077	0.02	0.03287691	1.205275	0	3	100	0	4	0.1518995	0.1876216	-175.8571	
19:56:28	47.46363	-122.3077	0.02	0.03264069	1.138141	0	3	100	0	4	0.1499811	0.1820878	-175.9109	
19:56:28	47.46363	-122.3077	0.02	0.03240588	1.156651	0	3	100	0	4	0.1485963	0.1783102	-175.9618	
19:56:28	47.46363	-122.3077	0.02	0.03226834	1.17355	0	3	100	0	4	0.1471401	0.1772639	-176.0111	
19:56:28	47.46363	-122.3077	0.02	0.03199395	1.012427	0	3	100	0	4	0.1455178	0.1736349	-176.0585	
19:56:29	47.46363	-122.3077	0.02	0.03166576	1.031888	0	3	100	0	2	0.1438631	0.1705595	-176.1033	
19:56:29	47.46363	-122.3077	0.02	0.03143794	1.052694	0	3	100	0	4	0.1420516	0.1678759	-176.1464	
19:56:29	47.46363	-122.3077	0.02	0.03129082	1.074387	0	3	100	0	4	0.1402754	0.165347	-176.1882	
19:56:29	47.46363	-122.3077	0.02	0.03121588	1.093988	0	3	100	0	4	0.1386952	0.1629611	-176.2281	
19:56:29	47.46363	-122.3077	0.02	0.03118459	1.117364	0	3	100	0	4	0.137516	0.159227	-176.2661	
19:56:30	47.46363	-122.3077	0.02	0.03120197	1.137333	0	3	100	0	4	0.1360337	0.156545	-176.3024	
19:56:30	47.46363	-122.3077	0.02	0.03124356	1.131376	0	3	100	0	4	0.135054	0.156136	-176.3371	
19:56:30	47.46363	-122.3077	0.02	0.03117551	1.091655	0	3	100	0	5	0.1339892	0.1541574	-176.3703	
19:56:30	47.46363	-122.3077	0.02	0.03112448	1.047401	0	3	100	0	5	0.1329096	0.151468	-176.4021	
19:56:30	47.46363	-122.3077	0.02	0.03098384	1.042611	0	3	100	0	4	0.1319897	0.1488102	-176.4323	
19:56:31	47.46363	-122.3077	0.02	0.03089585	1.057698	0	3	100	0	4	0.1306505	0.1460393	-176.4615	
19:56:31	47.46363	-122.3077	0.02	0.03085078	1.072352	0	3	100	0	5	0.1296508	0.142997	-176.4901	
19:56:31	47.46363	-122.3077	0.02	0.03084015	1.084639	0	3	100	0	4	0.1276119	0.1387825	-176.5198	
19:56:31	47.46363	-122.3077	0.02	0.03085576	1.098182	0	3	100	0	4	0.125157	0.1353792	-176.548	
19:56:31	47.46363	-122.3077	0.02	0.03088561	1.10781	0	3	100	0	4	0.1230981	0.132662	-176.5748	
19:56:32	47.46363	-122.3077	0.02	0.03092592	1.075601	0	3	100	0	4	0.1210541	0.128418	-176.6005	
19:56:32	47.46363	-122.3077	0.02	0.03090176	1.082959	0	3	100	0	4	0.1191282	0.1248972	-176.6251	
19:56:32	47.46363	-122.3077	0.02	0.03089453	1.088579	0	3	100	0	4	0.1175279	0.121949	-176.6482	
19:56:32	47.46363	-122.3077	0.02	0.03089838	1.093712	0	3	100	0	5	0.1163142	0.1185593	-176.6701	
19:56:32	47.46363	-122.3077	0.02	0.03090883	1.09681	0	3	100	0	4	0.1156056	0.1161537	-176.6915	
19:56:33	47.46363	-122.3077	0.02	0.03091926	1.077909	0	3	100	0	4	0.1138237	0.1139784	-176.7117	
19:56:33	47.46363	-122.3077	0.02	0.03087627	1.019149	0	3	100	0	4	0.1127266	0.1129764	-176.7316	
19:56:33	47.46363	-122.3077	0.02	0.03058043	0.8416902	0	3	100	0	4	0.1114168	0.1101307	-176.7496	
19:56:33	47.46363	-122.3077	0.02	0.03014712	0.7644772	0	3	100	0	4	0.1093891	0.1081169	-176.7671	
19:56:33	47.46363	-122.3077	0.02	0.02968721	0.7706526	0	3	100	0	4	0.1080492	0.1062514	-176.7839	
19:56:34	47.46363	-122.3077	0.02	0.02933486	0.7798899	0	3	100	0	4	0.1077641	0.1058187	-176.7999	
19:56:34	47.46363	-122.3077	0.02	0.02902635	0.71105	0	3	100	0	4	0.1071609	0.1045498	-176.8149	
19:56:34	47.46363	-122.3077	0.02	0.02857989	0.6070077	0	3	100	0	4	0.1058721	0.1020248	-176.8299	
19:56:34	47.46363	-122.3077	0.02	0.02813407	0.6256896	0	3	100	0	4	0.1049517	0.1000661	-176.8469	
19:56:34	47.46363	-122.3077	0.02	0.02777961	0.6500957	0	3	100	0	4	0.1041426	0.09840779	-176.8599	
19:56:35	47.46363	-122.3077	0.02	0.02756763	0.6740896	0	3	100	0	5	0.1034849	0.0965579	-176.8722	
19:56:35	47.46363	-122.3077	0.02	0.02742102	0.6408573	0	3	100	0	4	0.102049	0.09523833	-176.884	
19:56:35	47.46363	-122.3077	0.02	0.02716153	0.6085044	0	3	100	0	4	0.1009835	0.09236787	-176.8954	
19:56:35	47.46363	-122.3077	0.02	0.026923	0.5519455	0	3	100	0	5	0.09989783	0.09019435	-176.9058	
19:56:35	47.46363	-122.3077	0.02	0.02669283	0.5816719	0	3	100	0	4	0.09863973	0.08679657	-176.9157	
19:56:36	47.46363	-122.3077	0.02	0.02645179	0.5183873	0	3	100	0	4	0.09793735	0.08592246	-176.9251	
19:56:36	47.46363	-122.3077	0.02	0.02614732	0.4322843	0	3	100	0	4	0.0970905	0.08530471	-176.9342	
19:56:36	47.46363	-122.3077	0.02	0.02582093	0.4721173	0	3	100	0	5	0.09569249	0.08257913	-176.9377	
19:56:36	47.46363	-122.3077	0.02	0.02566684	0.5063798	0	3	100	0	4	0.09416086	0.07987763	-176.9397	
19:56:36	47.46363	-122.3077	0.02	0.02542462	0.4098738	0	3	100	0	4	0.09258776	0.07780278	-176.9413	
19:56:37	47.46363	-122.3077	0.02	0.02520589	0.4556365	0	3	100	0	4	0.09198052	0.07510354	-176.9426	
19:56:37	47.46363	-122.3077	0.02	0.02512623	0.4989589	0	3	100	0	4	0.09129466	0.07422071	-176.9439	
19:56:37	47.46363	-122.3077	0.02	0.02513654	0.5373286	0	3	100	0	6	0.08911182	0.07314119	-176.9464	
19:56:37	47.46363	-122.3077	0.02	0.02520151	0.5042249	0	3	100	0	4	0.08731815	0.07078931	-176.9473	
19:56:37	47.46363	-122.3077	0.02	0.02520437	0.5202664	0	3	100	0	4	0.08559768	0.06991094	-176.948	
19:56:38	47.46363	-122.3077	0.02	0.02507457	0.3864149	0	3	100	0	4	0.08436523	0.0674803	-176.9486	
19:56:38	47.46363	-122.3077	0.02	0.02477726	0.3751034	0	3	100	0	4	0.08303555	0.06662502	-176.9492	
19:56:38	47.46363	-122.3077	0.02	0.02462914	0.4195335	0	3	100	0	4	0.08165283	0.06694424	-176.9497	
19:56:38	47.46363	-122.3077	0.02	0.02459154	0.4640586	0	3	100	0	4	0.08074497	0.06526148	-176.9511	
19:56:38	47.46363	-122.3077	0.02	0.02464296	0.5081726	0	3	100	0	4	0.07974789	0.06288536	-176.9511	
19:56:39	47.46363	-122.3077	0.02	0.02473423	0.4728334	0	3	100	0	4	0.07974233	0.06100951	-176.9509	
19:56:39	47.46363	-122.3077	0.02	0.02477322	0.5144878	0	3	100	0	4	0.07979865	0.059544	-176.9507	
19:56:39	47.46363	-122.3077	0.02	0.0248683	0.5510531	0	3	100	0	5	0.07922357	0.05737375	-176.9504	
19:56:39	47.46363	-122.3077	0.02	0.02502553	0.5896569	0	3	100	0	4	0.07792424	0.05638607	-176.9503	
19:56:39	47.46363	-122.3077	0.02	0.02504995	0.4937018	0	3	100	0	5	0.07563081	0.05630013	-176.9497	
19:56:40	47.46363	-122.3077	0.02	0.02490718	0.3509695	0	3	100	0	4	0.07465816	0.05456907	-176.949	
19:56:40	47.46363	-122.3077	0.02	0.02470144	0.3849262	0	3	100	0	4	0.07393993	0.05187683	-176.9485	
19:56:40	47.46363	-122.3077	0.02	0.02457445	0.4278793	0	3	100	0	4	0.07309225	0.04968084	-176.9476	
19:56:40	47.46363	-122.3077	0.02	0.0245575	0.467405	0	3	100	0	5	0.07229837	0.04755556	-176.9473	
19:56:40	47.46363	-122.3077	0.02	0.02460699	0.502082	0	3	100	0	4	0.07191558	0.04741372	-176.9477	
19:56:41	47.46363	-122.3077	0.02	0.02473281	0.5427713	0	3	100	0	4	0.07103187	0.04548617	-176.9467	
19:56:41	47.46363	-122.3077	0.02	0.02489604	0.5778505	0	3	100	0	4	0.07042947	0.04450833	-176.9457	
19:56:41	47.46363	-122.3077	0.02	0.02508963	0.6100907	0	3	100	0	4	0.06926107	0.04418011	-176.9375	
19:56:41	47.46363	-122.3077	0.02	0.02530465	0.6395105	0	3	100	0	4	0.06794804	0.04361129	-176.9333	
19:56:41	47.46363	-122.3077	0.02	0.02553721	0.6663512	0	3	100	0	4	0.06670386	0.04136146	-176.9234	
19:56:42	47.46363	-122.3077	0.02	0.0257672	0.6890678	0	3	100	0	4	0.06537479	0.04016127	-176.9157	
19:56:42	47.46363	-122.3077	0.02	0.02599392	0.7085483	0	3	100	0	4	0.06422579	0.03874358	-176.9064	
19:56:42	47.46363	-122.3077	0.02	0.02610615	0.6452923	0	3	100	0	4	0.06294123	0.03811099	-176.897	
19:56:42	47.46363	-122.3077	0.02	0.02606292	0.5810545	0	3	100	0	4	0.06178509	0.03739717	-176.8886	
19:56:42	47.46363	-122.3077	0.02	0.02603212	0.5944932	0	3	100	0	4	0.06067481	0.03707189	-176.8798	
19:56:43	47.46363	-122.3077	0.02	0.02603113	0.6102399	0	3	100	0	4	0.05965919	0.03515311	-176.8719	
19:56:43	47.46363	-122.3077	0.02	0.02605328	0.6221814	0	3	100	0	4	0.05908456	0.03326446	-176.8644	
19:56:43	47.46363	-122.3077	0.02	0.02610207	0.6358923	0	3	100	0	3	0.05821722	0.03258913	-176.8565	
19:56:43	47.46363	-122.3077	0.02	0.02616021	0.6468863	0	3	100	0	5	0.0574116	0.03169358	-176.8486	
19:56:43	47.46363	-122.3077	0.02	0.02612559	0.517427	0	3	100	0	4	0.05646613	0.03105942	-176.8412	
19:56:44	47.46363	-122.3077	0.02	0.02589601	0.4897982	0	3	100	0	4	0.05585593	0.03055578	-176.834	
19:56:44	47.46363	-122.3077	0.02	0.02568547	0.4798869	0	3	100	0	4	0.05535964	0.02931731	-176.8284	
19:56:44	47.46363	-122.3077	0.02	0.02551789	0.4366228	0	3	100	0	5	0.05433084	0.02920785	-176.8213	
19:56:44	47.46363	-122.3077	0.02	0.02527649	0.4122049	0	3	100	0	4	0.05370945	0.02852871	-176.8145	
19:56:44	47.46363	-122.3077	0.02	0.02501246	0.3326114	0	3	100	0	4	0.05319979	0.02816064	-176.8081	
19:56:45	47.46363	-122.3077	0.02	0.02474058	0.3502808	0	3	100	0	4	0.0523216	0.02691517	-176.8018	
19:56:45	47.46363	-122.3077	0.02	0.02434788	0.1967824	0	3	100	0	4	0.05165846	0.02591643	-176.7962	
19:56:45	47.46363	-122.3077	0.02	0.0238984	0.2259952	0	3	100	0	4	0.05090225	0.02473955	-176.7908	
19:56:45	47.46363	-122.3077	0.02	0.023624	0.2561461	0	3	100	0	4	0.05055419	0.02411889	-176.7849	
19:56:45	47.46363	-122.3077	0.02	0.02345819	0.2881941	0	3	100	0	4	0.0499507	0.02303343	-176.779	
19:56:46	47.46363	-122.3077	0.02	0.02338722	0.3178823	0	3	100	0	5	0.04934886	0.02261294	-176.7738	
19:56:46	47.46363	-122.3077	0.02	0.02331815	0.294012	0	3	100	0	4	0.04920186	0.02214306	-176.7682	
19:56:46	47.46363	-122.3077	0.02	0.02328032	0.3275554	0	3	100	0	4	0.04900008	0.02227487	-176.7635	
19:56:46	47.46363	-122.3077	0.02	0.02331215	0.3612958	0	3	100	0	4	0.04804451	0.02259598	-176.7517	
19:56:46	47.46363	-122.3077	0.02	0.0233981	0.3933584	0	3	100	0	4	0.04691746	0.02214321	-176.7381	
19:56:47	47.46363	-122.3077	0.02	0.02352636	0.4239059	0	3	100	0	4	0.04655344	0.02135655	-176.7249	
19:56:47	47.46363	-122.3077	0.02	0.02368421	0.4522064	0	3	100	0	4	0.04534224	0.02046202	-176.7117	
19:56:47	47.46363	-122.3077	0.02	0.02384847	0.4762411	0	3	100	0	5	0.04447389	0.01859331	-176.6999	
19:56:47	47.46363	-122.3077	0.02	0.02405934	0.5022281	0	3	100	0	4	0.04420957	0.01827824	-176.6884	
19:56:47	47.46363	-122.3077	0.02	0.02411971	0.4264716	0	3	100	0	4	0.04476596	0.01832192	-176.6769	
19:56:48	47.46363	-122.3077	0.02	0.02416081	0.4452258	0	3	100	0	5	0.04452107	0.0175591	-176.6662	
19:56:48	47.46363	-122.3077	0.02	0.02424126	0.4664422	0	3	100	0	4	0.04400865	0.01634633	-176.6552	
19:56:48	47.46363	-122.3077	0.02	0.02433712	0.4844145	0	3	100	0	4	0.04338226	0.01516952	-176.6453	
19:56:48	47.46363	-122.3077	0.02	0.02444647	0.5006333	0	3	100	0	4	0.04269793	0.01564308	-176.6358	
19:56:48	47.46363	-122.3077	0.02	0.02455266	0.5138031	0	3	100	0	4	0.04166621	0.01537803	-176.6256	
19:56:49	47.46363	-122.3077	0.02	0.02468769	0.5278798	0	3	100	0	4	0.04121996	0.01473282	-176.6158	
19:56:49	47.46363	-122.3077	0.02	0.02479762	0.5376089	0	3	100	0	4	0.04068114	0.01385418	-176.6067	
19:56:49	47.46363	-122.3077	0.02	0.02490612	0.503343	0	3	100	0	4	0.04025185	0.01490588	-176.598	
19:56:49	47.46363	-122.3077	0.02	0.02471584	0.3163182	0	3	100	0	4	0.03940302	0.01326924	-176.5904	
19:56:49	47.46363	-122.3077	0.02	0.02443427	0.3045961	0	3	100	0	5	0.03875602	0.01371724	-176.5824	
19:56:50	47.46363	-122.3077	0.02	0.02407904	0.2413264	0	3	100	0	4	0.03797509	0.01380833	-176.574	
19:56:50	47.46363	-122.3077	0.02	0.02378487	0.2578413	0	3	100	0	4	0.03757328	0.01171453	-176.566	
19:56:50	47.46363	-122.3077	0.02	0.02350492	0.1575209	0	3	100	0	4	0.03724888	0.01276234	-176.5601	
19:56:50	47.46363	-122.3077	0.02	0.02314351	0.1816381	0	3	100	0	5	0.03659094	0.01361547	-176.555	
19:56:51	47.46363	-122.3077	0.02	0.02293833	0.2042759	0	3	100	0	4	0.03575197	0.01468869	-176.5485	
19:56:51	47.46363	-122.3077	0.02	0.02273771	0.132913	0	3	100	0	4	0.03565492	0.01610954	-176.5413	
19:56:51	47.46363	-122.3077	0.02	0.02236208	0.0005299011	0	3	100	0	5	0.03535531	0.01439672	-176.5345	
19:56:51	47.46363	-122.3077	0.02	0.02195629	0.01437391	0	3	100	0	4	0.03474611	0.01417158	-176.528	
19:56:51	47.46363	-122.3077	0.02	0.02156158	-0.006367425	0	3	100	0	4	0.0345441	0.01282861	-176.5216	
19:56:52	47.46363	-122.3077	0.02	0.0213007	0.03491161	0	3	100	0	4	0.03378396	0.01279226	-176.5087	
19:56:52	47.46363	-122.3077	0.02	0.02114823	0.01866685	0	3	100	0	5	0.03306219	0.01235139	-176.4971	
19:56:52	47.46363	-122.3077	0.02	0.02077704	-0.1488941	0	3	100	0	4	0.03246569	0.01335699	-176.4846	
19:56:52	47.46363	-122.3077	0.02	0.02024261	-0.2162608	0	3	100	0	4	0.03287566	0.0148164	-176.4728	
19:56:52	47.46363	-122.3077	0.02	0.01985	-0.1601174	0	3	100	0	4	0.03180041	0.01338411	-176.4613	
19:56:53	47.46363	-122.3077	0.02	0.01963732	-0.1000326	0	3	100	0	4	0.03037238	0.01133489	-176.4498	
19:56:53	47.46363	-122.3077	0.02	0.01957772	-0.04376371	0	3	100	0	4	0.03101409	0.009833666	-176.4395	
19:56:53	47.46363	-122.3077	0.02	0.01962603	-0.02323748	0	3	100	0	4	0.03066085	0.009042031	-176.4293	
19:56:53	47.46363	-122.3077	0.02	0.01972396	0.04339385	0	3	100	0	5	0.02926523	0.007966525	-176.4193	
19:56:53	47.46363	-122.3077	0.02	0.01991336	0.1030263	0	3	100	0	4	0.02791995	0.007808697	-176.4099	
19:56:54	47.46363	-122.3077	0.02	0.02011263	0.07413153	0	3	100	0	4	0.02728746	0.006959095	-176.4005	
19:56:54	47.46363	-122.3077	0.02	0.02030188	0.134372	0	3	100	0	4	0.02641302	0.008063157	-176.3913	
19:56:54	47.46363	-122.3077	0.02	0.02053883	0.1454773	0	3	100	0	4	0.02610022	0.006183431	-176.3825	
19:56:54	47.46363	-122.3077	0.02	0.02062036	0.1009816	0	3	100	0	4	0.02497043	0.01090449	-176.3739	
19:56:54	47.46363	-122.3077	0.02	0.02074237	0.1512809	0	3	100	0	4	0.02480848	0.00426939	-176.3655	
19:56:55	47.46363	-122.3077	0.02	0.02079281	0.1025027	0	3	100	0	4	0.02429979	0.003552604	-176.3575	
19:56:55	47.46363	-122.3077	0.02	0.02088179	0.1501749	0	3	100	0	4	0.02407037	0.002057902	-176.35	
19:56:55	47.46363	-122.3077	0.02	0.02097459	0.08189434	0	3	100	0	4	0.02364943	0.0006854393	-176.3422	
19:56:55	47.46363	-122.3077	0.02	0.02098457	0.1234681	0	3	100	0	4	0.02357106	-0.000970968	-176.335	
19:56:55	47.46363	-122.3077	0.02	0.02108908	0.1737209	0	3	100	0	4	0.02248069	-0.001209088	-176.3277	
19:56:56	47.46363	-122.3077	0.02	0.02107037	0.05985838	0	3	100	0	4	0.02296203	-0.002530686	-176.3208	
19:56:56	47.46363	-122.3077	0.02	0.02097335	0.002452635	0	3	100	0	4	0.02284774	-0.003139273	-176.3143	
19:56:56	47.46363	-122.3077	0.02	0.0207286	-0.02909265	0	3	100	0	4	0.02384319	-0.004017354	-176.3078	
19:56:56	47.46363	-122.3077	0.02	0.02058527	0.02003811	0	3	100	0	4	0.02407926	-0.004565584	-176.3017	
19:56:56	47.46363	-122.3077	0.02	0.02055894	0.06461538	0	3	100	0	4	0.02375386	-0.005095887	-176.2956	
19:56:57	47.46363	-122.3077	0.02	0.0206329	0.1186014	0	3	100	0	4	0.0230471	-0.006213096	-176.2877	
19:56:57	47.46363	-122.3077	0.02	0.02078128	0.1665681	0	3	100	0	4	0.02264164	-0.004904273	-176.2771	
19:56:57	47.46363	-122.3077	0.02	0.02091936	0.0931122	0	3	100	0	4	0.02192028	-0.003733805	-176.2669	
19:56:57	47.46363	-122.3077	0.02	0.02077652	-0.05839043	0	3	100	0	4	0.02067597	-0.004951657	-176.2571	
19:56:57	47.46363	-122.3077	0.02	0.02054818	-0.054535	0	3	100	0	4	0.01895289	-0.004587428	-176.2477	
19:56:58	47.46363	-122.3077	0.02	0.02016382	-0.1953295	0	3	100	0	4	0.01836628	-0.003123899	-176.2385	
19:56:58	47.46363	-122.3077	0.02	0.01972633	-0.2556975	0	3	100	0	4	0.01829775	-0.002103116	-176.2296	
19:56:58	47.46363	-122.3077	0.02	0.01939238	-0.2026098	0	3	100	0	4	0.01768785	-0.001152565	-176.2211	
19:56:58	47.46363	-122.3077	0.02	0.01917838	-0.1330707	0	3	100	0	4	0.01720349	0.0010464	-176.2137	
19:56:58	47.46363	-122.3077	0.02	0.01914619	-0.06781988	0	3	100	0	4	0.01711974	0.0002947874	-176.2056	
19:56:59	47.46363	-122.3077	0.02	0.01905059	-0.1810628	0	3	100	0	4	0.01664894	0.0005424247	-176.198	
19:56:59	47.46363	-122.3077	0.02	0.01893779	-0.1833512	0	3	100	0	4	0.01593717	-0.0003795104	-176.1906	
19:56:59	47.46363	-122.3077	0.02	0.01867229	-0.3120028	0	3	100	0	4	0.01538171	0.00464323	-176.1835	
19:56:59	47.46363	-122.3077	0.02	0.01840952	-0.2401294	0	3	100	0	4	0.01522507	0.005034002	-176.177	
19:56:59	47.46363	-122.3077	0.02	0.01819661	-0.2777086	0	3	100	0	4	0.01552601	0.00246945	-176.1704	
19:57:00	47.46363	-122.3077	0.02	0.01808999	-0.2003766	0	3	100	0	4	0.01533211	0.002640628	-176.1639	
19:57:00	47.46363	-122.3077	0.02	0.01809945	-0.2202887	0	3	100	0	4	0.01509069	0.001359123	-176.1578	
19:57:00	47.46363	-122.3077	0.02	0.01811612	-0.1632314	0	3	100	0	5	0.01495236	0.0004758437	-176.1519	
19:57:00	47.46363	-122.3077	0.02	0.01806691	-0.2693558	0	3	100	0	4	0.01464683	-0.008866973	-176.1462	
19:57:00	47.46363	-122.3077	0.02	0.01786241	-0.289528	0	3	100	0	4	0.01442214	0.0003196092	-176.1411	
19:57:01	47.46363	-122.3077	0.02	0.01780362	-0.1992817	0	3	100	0	4	0.01432542	-0.002002032	-176.1355	
19:57:01	47.46363	-122.3077	0.02	0.01791212	-0.1576748	0	3	100	0	4	0.01418951	-0.01809669	-176.1302	
19:57:01	47.46363	-122.3077	0.02	0.01791401	-0.2141736	0	3	100	0	4	0.01410301	-0.007291757	-176.125	
19:57:01	47.46363	-122.3077	0.02	0.01796884	-0.1404577	0	3	100	0	5	0.01408074	-0.003401829	-176.12	
19:57:01	47.46363	-122.3077	0.02	0.01817871	-0.09295361	0	3	100	0	4	0.01327044	-0.002237618	-176.1152	
19:57:02	47.46363	-122.3077	0.02	0.01832953	-0.082373	0	3	100	0	4	0.01307071	-0.0009603685	-176.1091	
19:57:02	47.46363	-122.3077	0.02	0.01837459	-0.1804064	0	3	100	0	4	0.01280384	-0.001131242	-176.1017	
19:57:02	47.46363	-122.3077	0.02	0.01831383	-0.2140697	0	3	100	0	5	0.01279743	0.0002997175	-176.0948	
19:57:02	47.46363	-122.3077	0.02	0.0183049	-0.1352218	0	3	100	0	4	0.0130847	3.924545E-05	-176.0878	
