Date	Latitude(deg) 	Longitude(deg)	hamsl(m)	hafl(m)	climbrate(cm/s)	GroundSpeed(m/s)	Airspeed(m/s)	Mav_Link(%)	Rssi_Link(%)	Throttle	Roll(deg)	Pitch(deg)	Yaw(deg)
09:41:53	-6.733764	38.95361	113.163	0	0	0.28	0	100	0	0	1.720973	-3.404298	49.29385	
09:41:53	-6.733764	38.95361	113.163	1.437397	0	0.28	3	100	0	5	1.557597	-4.020196	49.30054	
09:41:53	-6.733768	38.95361	116.128	1.437397	0	0.04	3	100	0	5	1.535803	-3.721093	49.29713	
09:41:53	-6.733768	38.95361	116.128	1.437397	0	0.04	3	100	0	5	1.69586	-3.67498	49.29397	
09:41:54	-6.733767	38.95361	115.981	1.437397	0	0.04	3	100	0	5	1.780498	-3.666821	49.19469	
09:41:54	-6.733767	38.95361	115.981	1.437397	0	0.04	3	100	0	4	1.744004	-3.537963	49.14323	
09:41:54	-6.733767	38.95361	115.907	1.437397	0	0.19	3	100	0	5	1.929485	-3.430416	49.13645	
09:41:54	-6.733767	38.95361	115.907	1.437397	0	0.29	3	100	0	5	1.715102	-3.456923	49.15729	
09:41:54	-6.733766	38.95361	115.787	1.437397	0	0.19	3	100	0	5	1.685484	-3.25837	49.18301	
09:41:55	-6.733766	38.95361	115.787	1.437397	0	0.19	3	100	0	5	1.720031	-3.208337	49.11036	
09:41:55	-6.733765	38.95361	115.721	1.437397	0	0.36	3	100	0	4	2.065123	-3.297689	49.09476	
09:41:55	-6.733765	38.95361	115.721	1.437397	0	0.36	3	100	0	4	2.009319	-3.481643	49.10399	
09:41:55	-6.733765	38.95361	115.773	1.437397	0	0.17	3	100	0	5	1.829874	-3.364745	49.11979	
09:41:55	-6.733765	38.95361	115.937	1.437397	0	0.11	3	100	0	4	2.096935	-3.123949	49.06038	
09:41:56	-6.733764	38.95361	115.944	1.437397	0	0.19	3	100	0	4	2.007272	-3.089209	49.07209	
09:41:56	-6.733764	38.95361	115.843	1.437397	0	0.11	3	100	0	5	2.276923	-3.052309	49.08546	
09:41:56	-6.733764	38.95361	115.843	1.437397	0	0.11	3	100	0	4	2.26686	-2.887172	49.10736	
09:41:56	-6.733764	38.95361	115.932	1.437397	0	0.31	3	100	0	4	2.183569	-2.954364	49.13276	
09:41:56	-6.733764	38.95361	115.932	1.437397	0	0.31	3	100	0	5	2.363389	-2.996891	49.11124	
09:41:57	-6.733764	38.95361	116.001	1.437397	0	0.17	3	100	0	4	2.194774	-2.715222	49.13037	
09:41:57	-6.733764	38.95361	116.382	1.437397	0	0.09	3	100	0	5	2.175204	-2.767425	49.18259	
09:41:57	-6.733764	38.95361	116.382	1.437397	0	0.09	3	100	0	5	2.146661	-2.626854	49.22712	
09:41:57	-6.733763	38.95361	116.25	1.437397	0	0.02	3	100	0	4	2.332751	-2.651597	49.16434	
09:41:57	-6.733763	38.95361	116.32	1.437397	0	0.33	3	100	0	5	2.238676	-2.53941	49.18395	
09:41:58	-6.733763	38.95361	116.239	1.437397	0	0.13	3	100	0	4	1.880259	-2.5192	49.26733	
09:41:58	-6.733763	38.95361	116.243	1.437397	0	0.19	3	100	0	5	2.146695	-2.394156	49.33001	
09:41:58	-6.733762	38.95361	116.237	1.437397	0	0.29	3	100	0	4	2.131654	-2.25549	49.3812	
09:41:58	-6.733762	38.95361	116.125	1.437397	0	0.57	3	100	0	5	1.921131	-2.530645	49.39597	
09:41:58	-6.733762	38.95361	116.03	1.437397	0	0.22	3	100	0	4	1.685609	-2.092445	49.48199	
09:41:59	-6.733762	38.95361	115.913	1.437397	0	0.08	3	100	0	5	1.995551	-2.04954	49.57756	
09:41:59	-6.733762	38.95361	115.889	1.437397	0	0.26	3	100	0	5	2.243633	-2.227042	49.63786	
09:41:59	-6.733762	38.95361	115.779	1.437397	0	0.33	3	100	0	5	2.479856	-2.2883	49.56552	
09:41:59	-6.733762	38.95361	115.621	1.437397	0	0.19	3	100	0	5	2.334392	-1.951877	49.6011	
09:41:59	-6.733762	38.95361	115.633	1.437397	0	0.22	3	100	0	5	2.29391	-1.968404	49.68291	
09:42:00	-6.733762	38.95361	115.614	1.437397	0	0.04	3	100	0	4	2.031202	-2.196687	49.76167	
09:42:00	-6.733762	38.95361	115.564	1.437397	0	0.29	3	100	0	4	2.152087	-2.172659	49.8203	
09:42:00	-6.733762	38.95361	115.377	1.437397	0	0.14	3	100	0	5	2.444338	-2.008517	49.65513	
09:42:00	-6.733762	38.95361	115.213	1.437397	0	0.18	3	100	0	5	2.218688	-1.990536	49.69682	
09:42:00	-6.733762	38.95361	114.997	1.437397	0	0.28	3	100	0	5	2.253025	-2.227047	49.76845	
09:42:01	-6.733763	38.95361	114.86	1.437397	0	0.19	3	100	0	4	2.274578	-1.914954	49.82467	
09:42:01	-6.733763	38.95361	114.768	1.437397	0	0.26	3	100	0	5	2.217864	-1.885257	49.80576	
09:42:01	-6.733763	38.95361	114.448	1.437397	0	0.09	3	100	0	4	2.032423	-1.894658	49.83101	
09:42:01	-6.733762	38.95361	114.356	1.437397	0	0.18	3	100	0	4	2.241462	-2.031712	49.90792	
09:42:01	-6.733762	38.95361	114.141	1.437397	0	0.24	3	100	0	4	2.169434	-2.223078	49.99996	
09:42:02	-6.733762	38.95361	113.953	1.437397	0	0.33	3	100	0	5	1.964254	-2.037787	50.08078	
09:42:02	-6.733762	38.95362	113.783	1.437397	0	0.04	3	100	0	5	2.30764	-1.855379	50.06086	
09:42:02	-6.733762	38.95362	113.654	1.437397	0	0.08	3	100	0	4	2.176452	-1.983613	50.12004	
09:42:02	-6.733761	38.95362	113.479	1.437397	0	0.14	3	100	0	4	2.096202	-2.096586	50.19607	
09:42:02	-6.733761	38.95362	113.255	1.437397	0	0.28	3	100	0	4	2.056894	-2.163621	50.26399	
09:42:03	-6.733761	38.95362	113.251	1.437397	0	0.26	3	100	0	4	2.283533	-2.149065	50.23689	
09:42:03	-6.73376	38.95362	112.938	1.437397	0	0.17	3	100	0	4	2.35384	-1.825761	50.21946	
09:42:03	-6.733759	38.95362	112.468	1.437397	0	0.17	3	100	0	4	1.983913	-1.86222	50.30761	
09:42:03	-6.733758	38.95362	112.265	1.437397	0	0.29	3	100	0	4	1.958878	-1.955997	50.43601	
09:42:03	-6.733758	38.95362	111.981	1.437397	0	0.41	3	100	0	5	1.835384	-2.053626	50.68545	
09:42:04	-6.733758	38.95362	111.937	1.437397	0	0.14	3	100	0	4	2.504863	-1.665283	50.83368	
09:42:04	-6.733757	38.95362	111.94	1.437397	0	0.26	3	100	0	4	2.621816	-1.956571	51.07994	
09:42:04	-6.733757	38.95362	111.86	1.437397	0	0.48	3	100	0	4	3.354224	-2.173773	51.07678	
09:42:04	-6.733757	38.95362	111.659	1.437397	0	0.09	3	100	0	4	3.778394	-2.365228	50.90899	
09:42:04	-6.733757	38.95362	111.737	1.437397	0	0.26	3	100	0	5	3.67591	-2.055372	50.6275	
09:42:05	-6.733757	38.95362	111.768	1.437397	0	0.39	3	100	0	4	3.516963	-2.206861	50.55384	
09:42:05	-6.733757	38.95362	111.812	1.437397	0	0.21	3	100	0	4	3.89078	-1.822934	50.44039	
09:42:05	-6.733757	38.95362	111.668	1.437397	0	0.09	3	100	0	5	3.638893	-1.699918	50.36436	
09:42:05	-6.733757	38.95361	111.674	1.437397	0	0.09	3	100	0	4	3.41384	-1.416196	50.26985	
09:42:05	-6.733756	38.95361	111.764	1.437397	0	0.29	3	100	0	4	3.564036	-1.15793	50.15207	
09:42:06	-6.733756	38.95361	111.903	1.437397	0	0.19	3	100	0	4	3.593271	-1.011663	50.01061	
09:42:06	-6.733757	38.95361	111.984	1.437397	0	0.19	3	100	0	5	3.596277	-0.6519666	49.92799	
09:42:06	-6.733757	38.95361	112.13	1.437397	0	0.22	3	100	0	4	3.781405	-0.4252985	49.98562	
09:42:06	-6.733757	38.95361	112.262	1.437397	0	0.24	3	100	0	5	4.084852	-0.2547564	49.93694	
09:42:06	-6.733757	38.95361	112.549	1.437397	0	0.14	3	100	0	4	3.994593	0.06831235	49.97832	
09:42:07	-6.733758	38.9536	112.878	1.437397	0	0.06	3	100	0	5	4.679449	-0.06881557	50.15848	
09:42:07	-6.733759	38.9536	113.115	1.437397	0	0.06	3	100	0	4	5.032881	0.02817729	50.40807	
09:42:07	-6.73376	38.9536	113.325	1.437397	0	0.19	3	100	0	4	5.499438	0.1080083	50.50272	
09:42:07	-6.733761	38.9536	113.57	1.437397	0	0.22	3	100	0	4	5.476308	0.07751967	50.39735	
09:42:07	-6.733761	38.9536	113.645	1.437397	0	0.18	3	100	0	5	4.238478	-0.3143862	50.61594	
09:42:08	-6.733761	38.9536	113.908	1.437397	0	0.03	3	100	0	4	3.241046	-0.535525	50.91108	
09:42:08	-6.733761	38.95359	114.223	1.437397	0	0.17	3	100	0	4	2.506416	-0.6532673	51.22726	
09:42:08	-6.733761	38.95359	114.382	1.437397	0	0.17	3	100	0	4	1.628128	-0.6753801	51.37848	
09:42:08	-6.733762	38.95359	114.404	1.437397	0	0.14	3	100	0	5	0.8977267	-0.818913	51.74634	
09:42:08	-6.733762	38.95359	114.458	1.437397	0	0.14	3	100	0	5	0.2045248	-1.044204	52.13282	
09:42:09	-6.733762	38.95359	114.446	1.437397	0	0.11	3	100	0	4	-0.7359541	-1.412459	52.52076	
09:42:09	-6.733762	38.95358	114.559	1.437397	0	0.09	3	100	0	5	-1.402435	-1.47765	52.91925	
09:42:09	-6.733762	38.95358	114.689	1.437397	0	0.01	3	100	0	5	-2.13514	-1.773655	53.45755	
09:42:09	-6.733762	38.95358	114.739	1.437397	0	0.17	3	100	0	4	-2.951753	-2.11815	54.18803	
09:42:09	-6.733763	38.95358	115.069	1.437397	0	0.24	3	100	0	5	-3.042795	-2.088087	54.91338	
09:42:10	-6.733764	38.95358	115.314	1.437397	0	0.18	3	100	0	5	-2.871986	-2.142041	55.59275	
09:42:10	-6.733764	38.95358	115.528	1.437397	0	0.18	3	100	0	4	-2.009704	-2.442002	56.11058	
09:42:10	-6.733765	38.95358	115.589	1.437397	0	0.09	3	100	0	4	-1.124264	-2.345966	56.62703	
09:42:10	-6.733765	38.95358	115.585	1.437397	0	0.14	3	100	0	4	-0.2089783	-2.450173	57.10374	
09:42:10	-6.733766	38.95358	115.657	1.437397	0	0.21	3	100	0	4	0.3851752	-2.928848	57.41038	
09:42:11	-6.733766	38.95358	115.595	1.437397	0	0.12	3	100	0	5	1.047132	-2.964523	57.45921	
09:42:11	-6.733767	38.95358	115.51	1.437397	0	0.12	3	100	0	5	1.369001	-3.194498	57.34146	
09:42:11	-6.733767	38.95358	115.562	1.437397	0	0.19	3	100	0	5	1.7401	-3.490859	57.15117	
09:42:11	-6.733767	38.95358	115.559	1.437397	0	0.16	3	100	0	5	1.844897	-3.104949	56.94301	
09:42:11	-6.733767	38.95358	115.365	1.437397	0	0.14	3	100	0	5	1.639839	-3.241721	56.79222	
09:42:12	-6.733767	38.95358	115.251	1.437397	0	0.17	3	100	0	5	1.5117	-3.099787	56.50348	
09:42:12	-6.733766	38.95358	115.178	1.437397	0	0.17	3	100	0	5	1.655633	-3.186438	56.42275	
09:42:12	-6.733765	38.95358	115.167	1.437397	0	0.24	3	100	0	4	1.396455	-3.124944	56.39006	
09:42:12	-6.733765	38.95358	115.2	1.437397	0	0.16	3	100	0	5	1.661055	-2.82394	56.36265	
09:42:12	-6.733764	38.95358	115.163	1.437397	0	0.13	3	100	0	4	1.310727	-2.991521	56.30487	
09:42:13	-6.733764	38.95358	115.195	1.437397	0	0.03	3	100	0	5	1.256811	-2.659309	56.30277	
09:42:13	-6.733763	38.95358	115.027	1.437397	0	0.13	3	100	0	5	1.421469	-2.651427	56.32159	
09:42:13	-6.733763	38.95358	114.978	1.437397	0	0.07	3	100	0	5	1.553564	-2.546718	56.33662	
09:42:13	-6.733762	38.95358	114.996	1.437397	0	0.14	3	100	0	5	1.415537	-2.445698	56.32785	
09:42:13	-6.733762	38.95358	114.828	1.437397	0	0.14	3	100	0	4	1.278457	-2.459717	56.22856	
09:42:14	-6.733761	38.95358	114.937	1.437397	0	0.09	3	100	0	6	1.302432	-2.387954	56.25626	
09:42:14	-6.73376	38.95358	114.864	1.437397	0	0.13	3	100	0	5	1.515494	-2.341536	56.29227	
09:42:14	-6.73376	38.95358	114.815	1.437397	0	0.21	3	100	0	4	1.513318	-2.122662	56.33618	
09:42:14	-6.733759	38.95358	114.749	1.437397	0	0.14	3	100	0	4	1.674327	-2.041999	56.23079	
09:42:14	-6.733758	38.95358	114.662	1.437397	0	0.03	3	100	0	4	1.63014	-2.038586	56.25594	
09:42:15	-6.733758	38.95357	114.649	1.437397	0	0.09	3	100	0	5	1.489074	-2.067768	56.31866	
09:42:15	-6.733757	38.95357	114.881	1.437397	0	0.13	3	100	0	5	1.487319	-2.117907	56.37612	
09:42:15	-6.733757	38.95357	114.957	1.437397	0	0.22	3	100	0	4	1.340938	-2.018737	56.3856	
09:42:15	-6.733757	38.95357	115.029	1.437397	0	0.08	3	100	0	4	1.25159	-1.760435	56.43633	
09:42:15	-6.733757	38.95357	115.081	1.437397	0	0.25	3	100	0	5	1.54113	-1.776104	56.50778	
09:42:16	-6.733757	38.95357	115.162	1.437397	0	0.19	3	100	0	4	1.331328	-1.612836	56.58686	
09:42:16	-6.733757	38.95357	115.221	1.437397	0	0.22	3	100	0	5	1.662468	-1.76578	56.65607	
09:42:16	-6.733756	38.95357	115.238	1.437397	0	0.12	3	100	0	4	1.2947	-1.900948	56.62012	
09:42:16	-6.733757	38.95357	115.361	1.437397	0	0.63	3	100	0	4	1.352225	-1.543145	56.64569	
09:42:16	-6.733757	38.95357	115.348	1.437397	0	0.29	3	100	0	4	1.476903	-0.9673848	56.74247	
09:42:17	-6.733757	38.95357	115.367	1.437397	0	0.14	3	100	0	5	1.527907	-1.307358	56.85036	
09:42:17	-6.733757	38.95357	115.191	1.437397	0	0.14	3	100	0	5	1.543427	-1.463722	56.9313	
09:42:17	-6.733757	38.95357	115.15	1.437397	0	0.14	3	100	0	5	1.225272	-1.466042	56.9327	
09:42:17	-6.733757	38.95356	115.205	1.437397	0	0.13	3	100	0	4	1.228211	-1.509052	56.99837	
09:42:17	-6.733757	38.95356	115.184	1.437397	0	0.11	3	100	0	5	1.264039	-1.394518	57.07159	
09:42:18	-6.733757	38.95356	115.351	1.437397	0	0.08	3	100	0	5	1.43259	-1.507274	57.13319	
09:42:18	-6.733757	38.95356	115.393	1.437397	0	0.14	3	100	0	5	1.315905	-1.268832	57.11038	
09:42:18	-6.733757	38.95356	115.315	1.437397	0	0.14	3	100	0	4	1.45596	-1.290669	57.12864	
09:42:18	-6.733757	38.95356	115.306	1.437397	0	0.18	3	100	0	5	1.148688	-1.318784	57.20397	
09:42:18	-6.733756	38.95356	115.218	1.437397	0	0.14	3	100	0	5	1.112771	-1.277719	57.2807	
09:42:19	-6.733756	38.95356	115.141	1.437397	0	0.22	3	100	0	5	1.227695	-1.315564	57.35609	
09:42:19	-6.733756	38.95356	115.09	1.437397	0	0.39	3	100	0	4	1.488984	-1.349893	57.26444	
09:42:19	-6.733756	38.95356	115.158	1.437397	0	0.06	3	100	0	4	1.60211	-1.388182	57.22782	
09:42:19	-6.733756	38.95356	115.071	1.437397	0	0.25	3	100	0	4	1.295928	-1.126876	57.3035	
09:42:19	-6.733756	38.95356	115.008	1.437397	0	0.25	3	100	0	4	1.454052	-1.31212	57.37821	
09:42:20	-6.733757	38.95356	115.203	1.437397	0	0.08	3	100	0	5	1.407625	-1.2388	57.33631	
09:42:20	-6.733757	38.95356	115.316	1.437397	0	0.09	3	100	0	4	1.280786	-1.015796	57.38816	
09:42:20	-6.733757	38.95356	115.353	1.437397	0	0.12	3	100	0	4	1.262301	-0.9196846	57.48159	
09:42:20	-6.733757	38.95356	115.31	1.437397	0	0.07	3	100	0	4	1.374026	-1.031331	57.57593	
09:42:20	-6.733757	38.95356	115.417	1.437397	0	0.17	3	100	0	4	1.417284	-0.9733164	57.65017	
09:42:21	-6.733757	38.95356	115.531	1.437397	0	0.18	3	100	0	4	1.366098	-1.021015	57.61336	
09:42:21	-6.733757	38.95356	115.438	1.437397	0	0.14	3	100	0	4	1.20129	-0.8523246	57.65553	
09:42:21	-6.733757	38.95356	115.308	1.437397	0	0.38	3	100	0	4	1.452733	-1.014787	57.73562	
09:42:21	-6.733757	38.95356	115.311	1.437397	0	0.13	3	100	0	4	1.513347	-1.120324	57.79903	
09:42:21	-6.733757	38.95356	115.24	1.437397	0	0.25	3	100	0	5	1.166074	-0.8838307	57.8653	
09:42:22	-6.733757	38.95356	115.008	1.437397	0	0.25	3	100	0	4	1.043927	-0.864529	57.953	
09:42:22	-6.733757	38.95356	114.866	1.437397	0	0.32	3	100	0	4	1.135806	-0.9251886	58.03518	
