Date	Latitude(deg) 	Longitude(deg)	hamsl(m)	hafl(m)	climbrate(cm/s)	GroundSpeed(m/s)	Airspeed(m/s)	Mav_Link(%)	Rssi_Link(%)	Throttle	Roll(deg)	Pitch(deg)	Yaw(deg)
12:23:20	-6.795804	38.98485	80.222	0	0	0.64	0	100	0	0	3.72601	-27.55159	0.3122822	
12:23:20	-6.795804	38.98485	80.222	2.835868	-2.304019	0.35	3	100	0	99	3.733865	-27.5344	0.1920674	
12:23:21	-6.795836	38.98502	101.327	2.67057	-13.01215	0.04	3	100	0	100	3.445194	-27.6896	0.2181319	
12:23:21	-6.795837	38.98502	101.776	2.48158	-25.23268	0.04	3	100	0	100	3.295639	-27.78087	0.1880558	
12:23:21	-6.795837	38.98503	101.845	2.059319	-47.6693	0.58	3	100	0	100	3.907203	-28.06492	-0.192063	
12:23:21	-6.795837	38.98503	102.525	1.632058	-68.67789	0.33	3	100	0	100	4.193391	-28.15934	-0.4484584	
12:23:21	-6.795837	38.98503	102.525	1.806995	-55.72367	0.33	3	100	0	100	4.057171	-28.08325	-0.4873034	
12:23:22	-6.795837	38.98503	102.726	1.941764	-46.51273	0.28	3	100	0	100	3.541048	-28.12524	-0.346803	
12:23:22	-6.795837	38.98504	102.971	2.19092	-31.43383	0.26	3	100	0	100	3.424705	-28.22439	-0.3760946	
12:23:22	-6.795838	38.98504	103.196	2.39836	-19.99007	0.36	3	100	0	100	3.663685	-28.20831	-0.5686302	
12:23:22	-6.795838	38.98504	103.196	2.515016	-14.53006	0.36	3	100	0	100	3.815067	-28.11365	-0.7268413	
12:23:22	-6.795839	38.98504	103.206	2.618815	-10.17161	0.36	3	100	0	100	3.820706	-28.09202	-0.8199151	
12:23:23	-6.795839	38.98505	103.429	2.640739	-10.29206	0.25	3	100	0	100	3.640411	-28.10228	-0.8270674	
12:23:23	-6.795839	38.98505	103.634	2.656624	-10.59407	0.25	3	100	0	100	3.496706	-28.09835	-0.8408843	
12:23:23	-6.795839	38.98505	104.234	2.67927	-10.99131	0.31	3	100	0	100	3.470323	-28.0754	-0.8855241	
12:23:23	-6.795839	38.98505	104.349	2.697663	-10.56685	0.31	3	100	0	100	3.399232	-28.07323	-0.9291857	
12:23:23	-6.79584	38.98506	104.538	2.65453	-13.58344	0.58	3	100	0	100	3.601184	-27.99582	-1.075437	
12:23:24	-6.79584	38.98507	105.528	2.617539	-16.45071	0.58	3	100	0	100	3.686534	-27.9647	-1.171371	
12:23:24	-6.79584	38.98507	105.885	2.60328	-17.43181	0.62	3	100	0	100	3.56694	-28.04793	-1.169788	
12:23:24	-6.795842	38.98508	105.536	2.590288	-18.26372	0.19	3	100	0	100	3.043058	-27.87705	-0.9724957	
12:23:24	-6.795843	38.98508	105.429	2.583936	-19.62721	0.19	3	100	0	100	2.639729	-27.71806	-0.8086171	
12:23:24	-6.795844	38.98508	105.773	2.576975	-20.2425	0.47	3	100	0	100	3.159269	-28.00005	-1.075267	
12:23:25	-6.795844	38.98508	105.773	2.605042	-19.61345	0.25	3	100	0	100	3.354584	-28.13878	-1.199417	
12:23:25	-6.795846	38.9851	106.488	2.629153	-18.42653	0.64	3	100	0	100	3.418955	-27.95028	-1.270754	
12:23:25	-6.795846	38.9851	106.986	2.640994	-18.04147	0.64	3	100	0	100	3.477251	-27.82696	-1.338372	
12:23:25	-6.795846	38.98511	107.329	2.64171	-18.47256	1.04	3	100	0	100	3.638767	-27.83169	-1.455887	
12:23:25	-6.795846	38.98511	107.329	2.631712	-19.46117	0.97	3	100	0	100	3.644961	-28.09003	-1.503254	
12:23:26	-6.795845	38.98512	108.232	2.614597	-20.43274	0.97	3	100	0	100	3.505881	-28.23427	-1.473364	
12:23:26	-6.795845	38.98512	108.232	2.614533	-20.87506	0.97	3	100	0	100	3.39155	-28.23483	-1.458396	
12:23:26	-6.795845	38.98512	108.378	2.627808	-20.11947	0.58	3	100	0	100	2.050403	-28.34921	-0.8631717	
12:23:26	-6.795845	38.98512	108.378	2.630794	-20.05653	0.58	3	100	0	100	0.1556129	-28.50904	0.05397462	
12:23:26	-6.795845	38.98512	108.378	2.627904	-19.93963	0.58	3	100	0	100	-1.764235	-28.63069	1.043131	
12:23:27	-6.795846	38.98512	108.315	2.634319	-19.31191	0.58	3	100	0	100	-2.50088	-28.64559	1.502993	
12:23:27	-6.795847	38.98512	107.973	2.647022	-18.37382	0.58	3	100	0	100	-2.647822	-28.62126	1.696967	
12:23:27	-6.795847	38.98512	108.259	2.655987	-17.99144	0.38	3	100	0	100	-2.219225	-28.63479	1.601064	
12:23:27	-6.795847	38.98513	108.432	2.658386	-17.42695	0.45	3	100	0	100	-1.689018	-28.33754	1.458139	
12:23:27	-6.795847	38.98513	108.65	2.659107	-17.55193	0.16	3	100	0	100	-1.875459	-28.25351	1.641296	
12:23:28	-6.795847	38.98513	109.169	2.657154	-17.21765	0.32	3	100	0	100	-1.815037	-28.22428	1.71045	
12:23:28	-6.795847	38.98513	109.169	2.660995	-16.63394	0.32	3	100	0	100	-1.726207	-28.1871	1.757995	
12:23:28	-6.795848	38.98514	109.265	2.668813	-15.56615	0.58	3	100	0	100	-1.420884	-28.12071	1.703111	
12:23:28	-6.795848	38.98514	110.042	2.625564	-17.87039	0.38	3	100	0	100	-1.476203	-28.20004	1.810384	
12:23:28	-6.795848	38.98514	110.47	2.553723	-21.20016	0.45	3	100	0	100	-2.215805	-28.31408	2.27018	
12:23:29	-6.795848	38.98514	110.47	2.495244	-24.1872	0.22	3	100	0	100	-2.42777	-27.88145	2.507141	
12:23:29	-6.79585	38.98514	110.07	2.447445	-25.82001	0.22	3	100	0	100	-2.415134	-27.66486	2.648206	
12:23:29	-6.79585	38.98515	110.035	2.416982	-26.49632	0.18	3	100	0	100	-1.987071	-27.51977	2.57669	
12:23:29	-6.79585	38.98515	110.089	2.398159	-26.14226	0.13	3	100	0	100	-2.033048	-27.48243	2.711776	
12:23:29	-6.79585	38.98515	110.089	2.400928	-25.19655	0.03	3	100	0	100	-2.01279	-27.50827	2.83422	
12:23:30	-6.79585	38.98515	110.777	2.425254	-22.62713	0.03	3	100	0	100	-1.971869	-27.51257	2.937912	
12:23:30	-6.795851	38.98515	111.045	2.449836	-20.28148	0.41	3	100	0	100	-1.643884	-27.64719	2.898937	
12:23:30	-6.795851	38.98516	110.844	2.460043	-19.53821	0.42	3	100	0	100	-1.69758	-27.87157	3.025293	
12:23:30	-6.795851	38.98516	111.243	2.469838	-18.34865	0.26	3	100	0	100	-2.072442	-27.76746	3.293807	
12:23:30	-6.795852	38.98516	111.289	2.494271	-16.21815	0.26	3	100	0	100	-2.21726	-27.68486	3.465259	
12:23:31	-6.795853	38.98516	111.182	2.514993	-15.12391	0.41	3	100	0	100	-1.641718	-27.75425	3.309406	
12:23:31	-6.795853	38.98516	111.182	2.581797	-11.31118	0.41	3	100	0	100	-2.377581	-27.60332	3.731902	
12:23:31	-6.795853	38.98516	112.287	2.631993	-8.675583	0.29	3	100	0	100	-2.308368	-27.56647	3.804614	
12:23:31	-6.795853	38.98516	112.294	2.700006	-5.150844	0.32	3	100	0	100	-2.506913	-27.61478	3.9982	
12:23:31	-6.795853	38.98516	112.761	2.767169	-2.137987	0.39	3	100	0	100	-2.618628	-27.62981	4.157674	
12:23:32	-6.795853	38.98516	112.761	2.687798	-46.56043	0.39	3	100	0	100	-2.403916	-27.24852	3.189089	
12:23:32	0	0	0	2.532715	-214.8578	0	3	100	0	100	-1.963425	-25.86679	2.984167	
12:23:32	47.46539	-122.3161	100.933	1.719829	-287.7463	31	3	100	0	100	-0.8794212	-23.29715	3.905488	
12:23:32	47.46539	-122.3161	100.933	9.177248	206.2021	31	29.35635	100	0	100	-0.08378313	-20.92931	4.856508	
12:23:32	47.46539	-122.3161	100.933	27.31797	1202.4	31	29.35635	100	0	100	0.8160067	-17.82216	5.738382	
12:23:33	47.46539	-122.3161	100.933	44.18447	2040.017	31	29.35635	100	0	10	1.725781	-14.50855	6.655965	
12:23:33	47.46539	-122.3161	100.933	59.01421	2696.265	31	29.35635	100	0	51	2.641581	-11.29365	7.639375	
12:23:33	47.46539	-122.3161	100.933	71.17357	3169.527	31	29.35635	100	0	45	3.575923	-8.199956	8.612158	
12:23:33	47.46539	-122.3161	100.933	82.79023	3555.642	31	29.35635	100	0	41	4.533727	-5.206433	9.642193	
12:23:33	47.46539	-122.3161	100.933	93.2093	3832.773	31	29.35635	100	0	33	5.481236	-2.406886	10.69407	
12:23:34	47.46539	-122.3161	100.933	102.7302	4009.498	31	29.35635	100	0	25	6.423315	0.2463177	11.75842	
12:23:34	47.46539	-122.3161	100.933	109.1791	4072.502	31	29.35635	100	0	17	7.437019	2.860224	13.26336	
12:23:34	47.46539	-122.3161	100.933	115.7713	4066.783	31	29.35635	100	0	9	8.544774	5.40203	15.13147	
12:23:34	47.46539	-122.3161	100.933	120.5044	3993.347	31	29.35635	100	0	4	9.761064	7.856286	17.27826	
12:23:35	47.46539	-122.3161	100.933	123.8511	3882.414	31	29.35635	100	0	4	11.09729	10.21958	19.65006	
12:23:35	47.46539	-122.3161	100.933	126.6347	3720.137	31	29.35635	100	0	4	12.43196	12.61219	21.59208	
12:23:35	47.46539	-122.3161	100.933	128.7379	3500.477	31	29.35635	100	0	5	13.61173	14.84837	22.98593	
12:23:35	47.46539	-122.3161	100.933	129.8505	3276.324	31	29.35635	100	0	5	14.709	16.71626	24.46187	
12:23:35	47.46539	-122.3161	100.933	130.3103	3057.544	31	29.35635	100	0	5	15.77532	18.33934	26.00339	
12:23:35	47.46539	-122.3161	100.933	130.2607	2777.746	31	29.35635	100	0	5	16.83686	19.86042	27.54003	
12:23:36	47.46539	-122.3161	100.933	129.737	2523.107	31	29.35635	100	0	5	17.93398	21.2916	29.16117	
12:23:36	47.46539	-122.3161	100.933	128.9332	2290.199	31	29.35635	100	0	5	19.07095	22.61027	30.88791	
12:23:36	47.46539	-122.3161	100.933	127.743	2035.524	31	29.35635	100	0	5	20.21887	23.87053	32.62388	
12:23:36	47.46539	-122.3161	100.933	126.1583	1763.949	31	29.35635	100	0	5	21.37934	25.03855	34.40172	
12:23:37	47.46539	-122.3161	100.933	124.5475	1529.545	31	29.35635	100	0	6	22.55227	26.11467	36.22561	
12:23:37	47.46539	-122.3161	100.933	122.9768	1326.058	31	29.35635	100	0	9	23.76563	27.13	38.12218	
12:23:37	47.46539	-122.3161	100.933	121.1295	1109.807	31	29.35635	100	0	4	24.98307	28.07666	40.04707	
12:23:37	47.46539	-122.3161	100.933	119.0336	886.8113	31	29.35635	100	0	4	26.22576	28.94344	42.04143	
12:23:37	47.46539	-122.3161	100.933	117.3191	718.0206	31	29.35635	100	0	32	27.45107	29.71091	44.02708	
12:23:38	47.46539	-122.3161	100.933	115.464	547.2762	31	29.35635	100	0	36	28.68447	30.41042	46.05741	
12:23:38	47.46539	-122.3161	100.933	113.6395	389.7779	31	29.35635	100	0	36	29.92968	31.04331	48.12898	
12:23:38	47.46539	-122.3161	100.933	111.7037	232.9723	31	29.35635	100	0	36	31.17011	31.61085	50.22388	
12:23:38	47.46539	-122.3161	100.933	110.1712	115.7819	31	29.35635	100	0	43	32.4104	32.10807	52.3439	
12:23:38	47.46539	-122.3161	100.933	108.545	-2.019835	31	29.35635	100	0	43	33.66148	32.5345	54.52047	
12:23:39	47.46539	-122.3161	100.933	107.0167	-106.9003	31	29.35635	100	0	47	34.90401	32.91442	56.71552	
12:23:39	47.46539	-122.3161	100.933	105.465	-207.8036	31	29.35635	100	0	47	35.80194	33.29938	58.53576	
12:23:39	47.46539	-122.3161	100.933	104.1675	-287.491	31	29.35635	100	0	47	36.6259	33.65321	60.30892	
12:23:39	47.46539	-122.3161	100.933	102.9655	-356.9814	31	29.35635	100	0	47	37.44055	33.95948	62.08081	
12:23:39	47.46539	-122.3161	100.933	101.9618	-411.6584	31	29.35635	100	0	47	38.23847	34.24134	63.84523	
12:23:40	47.46539	-122.3161	100.933	100.9654	-451.2729	31	29.35635	100	0	47	30.51698	27.66481	59.87797	
12:23:40	47.46542	-122.3161	100.804	99.92154	-724.0641	30.91	29.35635	100	0	47	18.44412	9.375411	49.88446	
12:23:40	47.46547	-122.3161	99.889	97.92027	-1614.566	29.31	29.26098	100	0	47	11.87148	-9.409502	43.91238	
12:23:40	47.46547	-122.3161	99.889	94.49072	-2513.667	29.31	27.66872	100	0	47	12.08704	-21.15007	41.83181	
12:23:40	47.46554	-122.3161	95.892	90.45248	-3070.122	23.44	26.87021	100	0	47	10.89689	-23.53114	40.40779	
12:23:41	47.46558	-122.3161	91.94	84.85095	-3300.9	19.56	20.27873	100	0	47	10.96316	-22.1311	39.29705	
12:23:41	47.46561	-122.3161	86.882	80.05509	-3146.919	17.44	16.65982	100	0	47	9.214452	-18.97326	39.78928	
12:23:41	47.46564	-122.3162	81.942	76.08686	-2913.385	18.01	14.68865	100	0	47	7.514005	-12.06096	40.12302	
12:23:41	47.46568	-122.3162	76.248	71.94571	-2536.004	19.9	15.12558	100	0	47	4.501477	-5.022257	39.7722	
12:23:41	47.46571	-122.3162	71.404	68.77809	-2082.97	22.22	16.8071	100	0	47	1.141483	1.240332	38.48888	
12:23:42	47.46578	-122.3162	65.175	66.50079	-1652.707	26.37	18.97501	100	0	47	-0.4898061	6.531359	37.17788	
12:23:42	47.46578	-122.3162	65.175	63.68972	-1214.099	26.37	23.01018	100	0	47	-0.7846867	8.030339	35.84806	
12:23:42	47.46583	-122.3162	61.935	61.37563	-1012.142	28.73	23.01018	100	0	47	-0.555522	7.081011	34.53809	
12:23:42	47.46588	-122.3162	59.36	59.36236	-950.7501	30.35	25.33729	100	0	47	0.004019031	4.931416	33.32812	
12:23:42	47.46594	-122.3162	57.14	57.31818	-981.5899	31.17	26.93273	100	0	47	0.5938185	3.371336	32.22341	
12:23:43	47.46599	-122.3162	55.294	55.47825	-996.6548	31.45	27.74793	100	0	47	1.189934	3.938008	31.20288	
12:23:43	47.46605	-122.3162	53.555	53.58793	-911.39	31.51	28.02238	100	0	47	1.240482	6.721553	30.23511	
12:23:43	47.46614	-122.3162	50.564	51.83738	-692.3635	31.93	28.07932	100	0	47	1.451987	9.363362	29.35524	
12:23:43	47.4662	-122.3162	48.959	50.33215	-519.5555	32.41	28.49204	100	0	47	4.446572	9.584967	28.6041	
12:23:43	47.46626	-122.3162	48.014	49.28704	-451.3691	32.63	28.97571	100	0	47	9.02772	7.536289	27.88282	
12:23:44	47.46637	-122.3161	46.655	48.05903	-526.3925	32.28	29.19481	100	0	47	15.05151	5.512339	27.34681	
12:23:44	47.46643	-122.3161	45.983	46.97463	-605.4842	31.93	28.84757	100	0	47	19.71292	4.501833	27.02928	
12:23:44	47.46643	-122.3161	45.983	45.63647	-662.3234	31.93	28.50499	100	0	47	21.84826	4.525354	27.42134	
12:23:44	47.46651	-122.3161	44.724	44.49063	-662.8469	31.59	28.50499	100	0	47	22.92125	5.33277	28.43122	
12:23:44	47.46656	-122.3161	43.774	43.40448	-621.7226	31.47	28.17341	100	0	47	24.09558	6.16442	29.55974	
12:23:45	47.46662	-122.316	42.842	42.47884	-568.3322	31.38	28.06896	100	0	47	25.11802	6.808752	30.63566	
12:23:45	47.46667	-122.316	42.241	41.56901	-528.0592	31.31	28.01492	100	0	47	26.2082	7.166263	31.73414	
12:23:45	47.46674	-122.316	41.05	40.86648	-501.3555	31.12	27.96705	100	0	47	28.16463	7.230851	32.88419	
12:23:45	47.46679	-122.3159	40.404	40.13811	-488.9304	30.96	27.84783	100	0	47	30.76098	7.294353	34.1081	
12:23:45	47.46685	-122.3159	39.647	39.31591	-489.0593	30.77	27.73215	100	0	47	32.79487	7.461513	35.54379	
12:23:46	47.46689	-122.3158	38.991	38.6115	-485.6677	30.61	27.60914	100	0	47	34.53872	7.763649	37.36391	
12:23:46	47.46694	-122.3158	38.341	37.86635	-476.9518	30.48	27.51983	100	0	47	35.92228	8.176396	39.45806	
12:23:46	47.46698	-122.3158	37.629	37.21695	-464.4145	30.34	27.4613	100	0	47	37.16589	8.861144	41.84349	
12:23:46	47.46702	-122.3157	37.038	36.53886	-431.7047	30.23	27.42405	100	0	47	38.83398	9.36645	44.16034	
12:23:46	47.46709	-122.3156	35.997	35.95878	-414.2183	29.98	27.41973	100	0	47	41.34049	9.44131	46.19667	
12:23:47	47.46709	-122.3156	35.997	35.40277	-417.5512	29.98	27.40253	100	0	48	44.60505	9.59212	48.45707	
12:23:47	47.46712	-122.3156	35.46	34.76412	-432.5701	29.82	27.40253	100	0	47	46.59771	9.74003	51.13748	
12:23:47	47.46716	-122.3155	34.948	34.17106	-444.9762	29.67	27.38237	100	0	47	47.30362	10.2384	54.36473	
12:23:47	47.4672	-122.3154	34.133	33.48854	-443.1451	29.46	27.38351	100	0	47	47.74277	11.36856	58.32329	
12:23:47	47.46723	-122.3153	33.666	32.97282	-412.1457	29.32	27.46265	100	0	47	48.81136	13.46389	63.53169	
12:23:48	47.46725	-122.3153	33.191	32.48615	-343.6888	29.13	27.55762	100	0	47	49.29554	15.32575	68.63441	
12:23:48	47.46726	-122.3152	32.969	32.0641	-274.4774	28.84	27.75138	100	0	47	49.76872	16.71851	73.40365	
12:23:48	47.46727	-122.3151	32.979	31.79826	-234.8508	28.49	27.7972	100	0	47	50.17045	17.66874	77.68318	
12:23:48	47.46728	-122.315	33.065	31.59959	-218.8162	28.08	27.74893	100	0	48	50.33431	18.3725	81.5925	
12:23:48	47.46728	-122.3149	33.45	31.45222	-219.1578	27.55	27.74531	100	0	47	50.03827	18.9394	85.2485	
12:23:49	47.46728	-122.3149	33.45	31.3383	-226.6829	27.55	27.54115	100	0	47	49.70006	19.41027	88.66455	
12:23:49	47.46728	-122.3149	33.808	31.3022	-234.8506	27.11	27.54115	100	0	47	49.17053	19.81145	91.95732	
12:23:49	47.46728	-122.3149	33.808	31.26203	-241.8357	27.11	27.36077	100	0	47	48.58473	20.20332	95.22234	
12:23:49	47.46726	-122.3147	34.629	31.20925	-247.6758	26.28	27.36077	100	0	47	48.02139	20.52334	98.42988	
12:23:49	47.46724	-122.3146	35.231	31.25372	-258.2967	25.75	27.32649	100	0	47	47.08245	20.21123	100.5613	
12:23:50	47.46724	-122.3146	35.231	31.40318	-280.6662	25.75	27.05893	100	0	47	46.72508	19.89284	102.6731	
12:23:50	47.46722	-122.3145	35.771	31.57051	-301.1513	25.42	27.05893	100	0	47	46.42325	19.55878	104.7715	
12:23:50	47.4672	-122.3145	36.127	31.76065	-313.7597	25.16	26.89383	100	0	47	45.87683	19.20305	106.9318	
12:23:50	47.46717	-122.3144	36.512	31.96978	-320.4215	24.89	27.01187	100	0	47	45.53199	18.95441	109.297	
12:23:50	47.46714	-122.3143	36.962	32.21892	-319.064	24.51	26.8897	100	0	47	45.36779	18.92848	111.6896	
12:23:51	47.46711	-122.3143	37.308	32.47697	-313.9021	24.3	26.732	100	0	47	44.41074	19.07727	114.1512	
12:23:51	47.46708	-122.3143	37.533	32.76143	-302.2027	24.08	26.64634	100	0	47	42.43391	19.19118	116.6943	
12:23:51	47.46705	-122.3142	37.815	33.05738	-283.9194	23.85	26.55406	100	0	47	39.01513	19.38404	119.1884	
12:23:51	47.46701	-122.3141	38.188	33.43822	-254.5755	23.6	26.79018	100	0	47	34.41432	19.77714	121.2849	
12:23:51	47.46698	-122.3141	38.474	33.83944	-219.5187	23.34	26.66016	100	0	47	29.84786	20.33317	122.833	
12:23:52	47.46694	-122.3141	38.899	34.30701	-179.868	23.08	26.49416	100	0	47	24.93801	20.53842	123.4499	
12:23:52	47.46689	-122.314	39.492	34.8143	-146.7099	22.68	26.30884	100	0	47	20.12922	20.19562	123.5327	
12:23:52	47.46687	-122.314	39.715	35.32333	-126.9357	22.56	25.9903	100	0	47	15.85322	19.56925	123.3601	
12:23:52	47.46682	-122.314	40.263	35.80502	-119.7713	22.32	25.8866	100	0	47	10.44403	18.22656	122.759	
12:23:52	47.46678	-122.3139	40.582	36.35984	-118.4014	22.2	25.67753	100	0	47	5.776505	16.93939	122.0352	
12:23:53	47.46678	-122.3139	40.582	36.8717	-115.9859	22.2	25.57026	100	0	49	2.371076	15.58414	121.187	
12:23:53	47.46675	-122.3139	40.812	37.32327	-113.0287	22.12	25.57026	100	0	46	0.8473869	14.26169	120.2123	
12:23:53	47.46675	-122.3139	40.812	37.75389	-105.3076	22.12	25.49275	100	0	47	0.6604643	13.53105	119.2267	
12:23:53	47.46671	-122.3139	40.981	38.16658	-80.2245	22.04	25.49275	100	0	47	1.185743	13.86249	118.3873	
12:23:53	47.46667	-122.3139	41.137	38.59758	-23.26569	21.98	25.41791	100	0	47	1.434457	14.32178	117.7782	
12:23:54	47.46662	-122.3138	41.221	39.09796	44.35001	21.89	25.35927	100	0	47	1.338316	14.46412	117.4968	
12:23:54	47.46658	-122.3138	41.377	39.6433	101.6395	21.75	25.26378	100	0	47	1.852531	13.45002	117.5968	
12:23:54	47.46655	-122.3138	41.644	40.17401	115.7683	21.57	25.12002	100	0	47	1.91574	12.36224	117.6786	
12:23:54	47.46651	-122.3137	41.803	40.62726	115.4267	21.41	24.93638	100	0	47	1.282225	12.06784	117.6113	
12:23:54	47.46646	-122.3137	42.244	41.06648	130.3694	21.26	24.78049	100	0	47	0.8276499	12.51986	117.6104	
12:23:55	47.46643	-122.3137	42.484	41.59077	173.6728	21.16	24.63633	100	0	47	0.5047286	13.1615	117.7567	
12:23:55	47.4664	-122.3136	42.65	42.12551	221.6719	20.99	24.53587	100	0	47	0.1461864	13.49843	118.0253	
12:23:55	47.46635	-122.3136	43.223	42.67064	259.8969	20.63	24.37689	100	0	47	-0.2316774	13.61741	118.385	
12:23:55	47.46635	-122.3136	43.223	43.26881	289.3018	20.63	24.02287	100	0	47	-0.678306	13.82793	118.5954	
12:23:55	47.46635	-122.3136	43.223	43.81568	312.2787	20.63	24.02287	100	0	47	-1.183978	14.03743	118.5678	
12:23:56	47.46632	-122.3136	43.709	44.25563	327.9328	20.38	24.02287	100	0	47	-1.629033	14.06268	118.5993	
12:23:56	47.46622	-122.3135	45.351	44.78915	336.7427	19.57	23.77493	100	0	47	-1.968097	14.05672	118.9368	
12:23:56	47.46619	-122.3135	45.952	45.40511	344.0101	19.3	22.97437	100	0	47	-2.104584	14.38513	119.257	
12:23:56	47.46616	-122.3135	46.615	46.09029	351.6397	19.05	22.70363	100	0	47	-1.868215	14.21966	119.6878	
12:23:56	47.46612	-122.3134	47.222	46.71701	358.286	18.79	22.45136	100	0	47	-1.515151	13.97887	120.3059	
12:23:57	47.46612	-122.3134	47.222	47.45663	361.948	18.79	22.19529	100	0	47	-1.165408	13.76083	120.8873	
12:23:57	47.46609	-122.3134	47.876	48.0772	361.6847	18.54	22.19529	100	0	47	-0.8724285	13.52073	121.3282	
12:23:57	47.46604	-122.3134	49.063	48.67113	358.8708	18.07	21.94861	100	0	47	-0.5922759	13.36316	122.1862	
12:23:57	47.46601	-122.3134	49.69	49.28645	357.3076	17.82	21.48679	100	0	47	-0.4595838	13.54475	123.1012	
12:23:57	47.46596	-122.3133	50.734	49.96069	361.343	17.44	21.24439	100	0	47	-0.2797464	13.49152	124.0555	
12:23:58	47.46596	-122.3133	50.734	50.57249	364.6081	17.44	20.87661	100	0	47	-0.107458	13.58957	125.0045	
12:23:58	47.46593	-122.3133	51.372	51.27391	368.6348	17.19	20.87661	100	0	47	0.03167828	13.60682	125.8704	
12:23:58	47.46593	-122.3133	51.372	52.04022	371.418	17.19	20.63461	100	0	47	0.0994183	13.57639	126.4192	
12:23:58	47.46593	-122.3133	51.372	52.59611	366.4608	17.19	20.63461	100	0	47	0.1045633	13.54597	126.7036	
12:23:58	47.46593	-122.3133	51.372	52.999	356.9985	17.19	20.63461	100	0	47	0.06357219	13.51607	126.7901	
12:23:59	47.46593	-122.3133	51.372	53.3735	340.3528	17.19	20.63461	100	0	47	-0.01153143	13.48618	126.7319	
12:23:59	47.4659	-122.3133	52.009	53.61412	321.6145	16.95	20.63461	100	0	47	-0.1111269	13.45623	126.5672	
12:23:59	47.46574	-122.3132	56.015	53.7379	308.8418	15.53	20.39959	100	0	47	-0.04258139	12.97361	127.7589	
12:23:59	47.46574	-122.3132	56.015	53.96755	286.7876	15.53	19.03092	100	0	47	0.1834954	13.49551	129.3651	
12:23:59	47.46571	-122.3132	56.694	54.11765	255.8578	15.34	19.03092	100	0	47	0.3718307	13.24565	130.8828	
12:24:00	47.46571	-122.3132	56.694	54.98771	264.4717	15.34	18.84562	100	0	47	0.4609374	12.43137	132.1715	
12:24:00	47.46571	-122.3132	56.694	55.79166	265.0557	15.34	18.84562	100	0	47	0.4702916	11.6144	133.1676	
12:24:00	47.46571	-122.3132	56.694	56.50114	256.3828	15.34	18.84562	100	0	47	0.4235537	10.80352	133.941	
12:24:00	47.46569	-122.3132	57.3	56.99609	241.8755	15.18	18.84562	100	0	47	0.405144	9.739925	135.182	
12:24:00	47.46557	-122.3131	59.597	57.4304	223.7472	14.87	18.69394	100	0	47	0.3778531	8.639245	136.8913	
12:24:01	47.46557	-122.3131	59.597	57.93948	203.1415	14.87	18.41182	100	0	46	0.5797371	8.499636	138.7328	
12:24:01	47.46553	-122.3131	60.162	58.55444	212.2877	14.88	18.41182	100	0	47	0.7780426	8.677389	140.5922	
12:24:01	47.46553	-122.3131	60.162	59.2582	229.7481	14.88	18.09594	100	0	47	0.9085601	8.881678	142.1645	
12:24:01	47.46553	-122.3131	60.162	59.86086	241.9874	14.88	18.09594	100	0	47	0.9974872	9.088059	143.435	
12:24:01	47.46553	-122.3131	60.162	60.41572	248.3875	14.88	18.09594	100	0	47	1.055378	9.296842	144.4829	
12:24:02	47.46553	-122.3131	60.162	60.78878	248.9528	14.88	18.09594	100	0	46	1.090221	9.507864	145.3666	
12:24:02	47.46553	-122.3131	60.162	61.15928	245.0417	14.88	18.09594	100	0	47	1.108053	9.720812	146.1292	
12:24:02	47.46553	-122.3131	60.162	61.37452	239.5287	14.88	18.09594	100	0	47	1.113465	9.936412	146.8058	
12:24:02	47.46553	-122.3131	60.162	61.37452	239.5287	14.88	18.09594	100	0	47	1.10986	10.1522	147.4132	
12:24:02	47.46553	-122.3131	60.162	61.37452	239.5287	14.88	18.09594	100	0	47	1.099814	10.37007	147.9748	
12:24:03	47.46553	-122.3131	60.162	61.37452	239.5287	14.88	18.09594	100	0	47	1.085412	10.58766	148.498	
12:24:03	47.46553	-122.3131	60.162	61.37452	239.5287	14.88	18.09594	100	0	47	1.067994	10.80697	148.9973	
12:24:03	47.46553	-122.3131	60.162	61.37452	239.5287	14.88	18.09594	100	0	47	1.04886	11.02571	149.4747	
12:24:03	47.46551	-122.3131	60.434	61.37452	239.5287	14.88	18.09594	100	0	47	1.02752	11.22942	150.1083	
12:24:04	47.46518	-122.313	65.923	61.4886	237.6219	13.48	18.10509	100	0	47	0.8965204	10.82418	152.1185	
12:24:04	47.46515	-122.313	66.334	61.93902	243.9247	13.34	16.14899	100	0	47	1.813624	10.79287	154.1538	
12:24:04	47.46515	-122.313	66.334	63.29144	281.4825	13.34	16.01286	100	0	47	1.735571	8.988708	155.9936	
12:24:04	47.46515	-122.313	66.334	64.25249	273.1412	13.34	16.01286	100	0	47	1.011485	6.800901	157.6929	
12:24:04	47.46515	-122.313	66.334	65.19125	246.5032	13.34	16.01286	100	0	47	0.1955303	4.639219	159.1099	
12:24:05	47.46513	-122.313	66.879	65.82593	212.3673	13.28	16.01286	100	0	47	-0.3124439	2.935599	160.8608	
12:24:05	47.46513	-122.313	66.879	66.38575	185.1113	13.28	15.95991	100	0	47	-0.630736	1.576351	162.6885	
12:24:05	47.46513	-122.313	66.879	66.78714	152.0723	13.28	15.95991	100	0	47	-0.996892	0.223648	164.2096	
12:24:05	47.46505	-122.313	67.925	67.0287	118.102	13.71	15.95991	100	0	47	-1.191481	-0.4002396	165.6343	
12:24:05	47.46505	-122.313	67.925	67.32438	114.4893	13.71	16.41885	100	0	47	-0.9147318	0.4047754	167.42	
12:24:06	47.46505	-122.313	67.925	67.6966	136.8732	13.71	16.41885	100	0	47	-0.5826222	1.270782	168.9452	
12:24:06	47.46505	-122.313	67.925	68.00828	154.2486	13.71	16.41885	100	0	47	-0.2352267	2.125892	170.2174	
12:24:06	47.46505	-122.313	67.925	68.26443	167.4964	13.71	16.41885	100	0	47	0.1227463	2.972983	171.3046	
12:24:06	47.46505	-122.313	67.925	68.54721	180.8888	13.71	16.41885	100	0	47	0.4886835	3.81396	172.2572	
12:24:06	47.46505	-122.313	67.925	68.75333	189.6711	13.71	16.41885	100	0	47	0.8612852	4.650022	173.1122	
12:24:07	47.46505	-122.313	67.925	68.91911	196.0558	13.71	16.41885	100	0	47	1.240057	5.481887	173.897	
12:24:07	47.46505	-122.313	67.925	68.91911	196.0558	13.71	16.41885	100	0	47	1.626951	6.314062	174.6355	
12:24:07	47.46505	-122.313	67.925	68.91911	196.0558	13.71	16.41885	100	0	47	2.018345	7.138446	175.3353	
12:24:07	47.46505	-122.313	67.925	68.91911	196.0558	13.71	16.41885	100	0	47	2.418564	7.963303	176.0145	
12:24:07	47.46497	-122.313	68.224	68.91911	196.0558	14.26	16.41885	100	0	47	2.871232	9.03896	177.9638	
12:24:08	47.46497	-122.313	68.224	69.12237	214.5854	14.26	16.97861	100	0	47	1.440617	8.191789	-179.1063	
12:24:08	47.46497	-122.313	68.224	69.33201	215.4468	14.26	16.97861	100	0	47	-0.4325679	6.995952	-176.4891	
12:24:08	47.46497	-122.313	68.224	69.54074	213.4082	14.26	16.97861	100	0	47	-2.391928	5.875971	-174.0764	
12:24:08	47.46497	-122.313	68.224	69.68765	208.7074	14.26	16.97861	100	0	47	-4.400392	4.833994	-171.8265	
12:24:08	47.4647	-122.3131	72.174	69.78687	202.3083	12.91	16.97861	100	0	47	-6.455393	2.995023	-169.6275	
12:24:09	47.4647	-122.3131	72.174	70.16659	155.8945	12.91	15.03703	100	0	47	-7.77707	-1.938559	-166.7842	
12:24:09	47.4647	-122.3131	72.174	70.7179	43.76139	12.91	15.03703	100	0	47	-9.262836	-6.842371	-164.2007	
12:24:09	47.4647	-122.3131	72.174	70.94267	-64.62172	12.91	15.03703	100	0	47	-10.94541	-11.72532	-161.7516	
12:24:09	47.46459	-122.3132	74.516	70.9175	-202.8527	13.55	15.03703	100	0	47	-12.82561	-16.57609	-159.3254	
12:24:09	47.46459	-122.3132	74.516	70.70131	-325.2628	13.55	15.62747	100	0	47	-13.75181	-18.30763	-157.5442	
12:24:10	47.46449	-122.3133	71.735	70.76322	-356.4929	16.01	15.62747	100	0	47	-17.1563	-14.36455	-157.392	
12:24:10	47.46449	-122.3133	71.735	70.51148	-312.4904	16.01	17.58933	100	0	47	-20.71071	-9.603064	-157.913	
12:24:10	47.46445	-122.3134	70.091	70.2025	-240.6032	17	17.58933	100	0	47	-23.90381	-4.338839	-159.2636	
12:24:10	47.4644	-122.3134	68.34	69.95932	-99.17004	18.43	18.57271	100	0	47	-26.46393	2.525342	-161.7319	
12:24:10	47.4644	-122.3134	68.34	69.89277	71.13838	18.43	19.98808	100	0	47	-26.88265	5.61938	-163.7405	
12:24:11	47.4644	-122.3134	68.34	69.86324	195.7799	18.43	19.98808	100	0	47	-26.96604	7.318912	-165.5691	
12:24:11	47.46437	-122.3134	68.034	70.07549	314.9576	18.54	19.98808	100	0	47	-26.57041	7.580924	-166.0909	
12:24:11	47.4643	-122.3135	68.707	70.26438	293.9252	17.93	20.10733	100	0	47	-26.46689	7.266501	-165.7498	
12:24:11	47.46427	-122.3135	69.202	70.3539	259.6267	17.75	18.85179	100	0	47	-26.53296	6.766149	-165.5576	
12:24:11	47.46423	-122.3135	69.847	70.45464	210.3799	17.64	18.6792	100	0	46	-25.39049	5.747318	-164.69	
12:24:12	47.46423	-122.3135	69.847	70.57389	155.6969	17.64	18.57592	100	0	47	-24.24039	4.529092	-164.1674	
12:24:12	47.46423	-122.3135	69.847	70.67371	111.0478	17.64	18.57592	100	0	47	-23.1282	3.18873	-163.9214	
12:24:12	47.46423	-122.3135	69.847	70.67319	55.80236	17.64	18.57592	100	0	47	-22.03686	1.770062	-163.8967	
12:24:12	47.46418	-122.3136	70.421	70.57711	7.011336	17.64	18.57592	100	0	47	-21.18256	0.5321745	-163.7835	
12:24:12	47.46409	-122.3136	71.147	70.49958	-28.88776	17.84	18.57954	100	0	47	-21.05764	-0.2007249	-163.4178	
12:24:13	47.46405	-122.3137	71.309	70.45829	-58.18212	18.02	18.78961	100	0	47	-21.20907	-0.4877424	-163.263	
12:24:13	47.46402	-122.3137	71.364	70.47653	-67.81845	18.12	18.96708	100	0	47	-20.59765	-0.4363665	-163.3306	
12:24:13	47.46402	-122.3137	71.364	70.50488	-65.10893	18.12	19.07405	100	0	47	-19.0279	-0.2227198	-163.5614	
12:24:13	47.46399	-122.3137	71.435	70.55355	-53.59101	18.21	19.07405	100	0	47	-17.65382	-0.04145485	-163.8224	
12:24:13	47.46394	-122.3137	71.496	70.64083	-37.62781	18.33	19.16212	100	0	47	-16.43488	0.03018426	-163.9117	
12:24:14	47.46391	-122.3137	71.49	70.72921	-25.59301	18.39	19.28485	100	0	47	-14.85997	-0.103996	-163.711	
12:24:14	47.46387	-122.3137	71.569	70.82953	-19.34118	18.45	19.343	100	0	47	-13.15395	-0.5626727	-163.3709	
12:24:14	47.46387	-122.3137	71.569	70.92201	-21.78828	18.45	19.404	100	0	47	-11.35394	-1.336404	-162.9881	
12:24:14	47.46384	-122.3137	71.649	70.9919	-31.2201	18.51	19.404	100	0	47	-9.441469	-2.114056	-162.5515	
12:24:14	47.46377	-122.3138	71.777	71.04076	-45.09702	18.71	19.46808	100	0	47	-7.428575	-2.802253	-161.7499	
12:24:15	47.46374	-122.3138	71.79	71.0695	-57.69336	18.83	19.66432	100	0	47	-6.706146	-3.625405	-160.9072	
12:24:15	47.46369	-122.3138	71.737	71.08268	-69.91416	19.06	19.78802	100	0	47	-7.329467	-4.445045	-160.1965	
12:24:15	47.46365	-122.3138	71.651	71.06445	-84.32814	19.22	20.01359	100	0	47	-8.857518	-5.336354	-159.601	
12:24:15	47.46365	-122.3138	71.651	71.01653	-99.29848	19.22	20.17894	100	0	47	-11.02963	-6.119877	-159.1102	
12:24:15	47.46362	-122.3138	71.518	70.94278	-115.1724	19.4	20.17894	100	0	47	-14.36036	-6.806766	-158.8814	
12:24:16	47.46357	-122.3139	71.231	70.811	-133.9315	19.69	20.35387	100	0	47	-17.19494	-7.475628	-158.8808	
12:24:16	47.46354	-122.3139	70.961	70.64598	-151.5943	19.9	20.64215	100	0	47	-18.88507	-8.018825	-159.2882	
12:24:16	47.4635	-122.3139	70.672	70.45225	-165.4626	20.09	20.85267	100	0	47	-19.28528	-8.053653	-160.1947	
12:24:16	47.46345	-122.3139	70.144	70.22329	-168.1775	20.41	21.04781	100	0	46	-18.67664	-7.413407	-161.482	
12:24:16	47.46341	-122.3139	69.793	69.94594	-148.1763	20.6	21.36883	100	0	47	-18.3036	-6.428348	-162.8676	
12:24:17	47.46338	-122.3139	69.468	69.75964	-109.9512	20.76	21.55498	100	0	47	-18.77621	-5.903159	-163.9455	
12:24:17	47.46338	-122.3139	69.468	69.59237	-79.88491	20.76	21.71738	100	0	47	-18.75436	-6.048674	-164.7135	
12:24:17	47.46332	-122.3139	69.15	69.44067	-78.53947	20.91	21.71738	100	0	47	-18.25145	-6.32972	-165.4664	
12:24:17	47.46328	-122.3139	68.991	69.23448	-86.39948	21.01	21.87235	100	0	47	-18.1756	-6.648601	-166.3259	
12:24:17	47.46323	-122.3139	68.714	69.05225	-95.45792	21.15	21.96697	100	0	47	-19.59558	-6.835096	-167.2369	
12:24:18	47.46318	-122.3139	68.511	68.83071	-105.4514	21.26	22.11026	100	0	47	-22.02894	-7.015508	-168.1018	
12:24:18	47.46315	-122.3139	68.343	68.62034	-115.6358	21.37	22.21556	100	0	47	-24.23685	-7.132419	-169.1852	
12:24:18	47.46315	-122.3139	68.343	68.34627	-128.9923	21.37	22.32282	100	0	47	-25.97288	-7.226961	-170.7208	
12:24:18	47.46311	-122.314	68.102	68.10081	-138.524	21.47	22.32282	100	0	47	-27.55481	-7.276762	-172.5507	
12:24:18	47.46305	-122.314	67.728	67.84541	-144.7173	21.62	22.42069	100	0	47	-29.27424	-7.216349	-174.7577	
12:24:19	47.463	-122.3139	67.307	67.5755	-145.5036	21.75	22.56241	100	0	47	-31.2686	-7.157698	-177.0663	
12:24:19	47.46296	-122.3139	66.98	67.29653	-147.1844	21.84	22.65432	100	0	47	-33.30907	-7.287732	-179.4455	
12:24:19	47.46292	-122.3139	66.777	67.00834	-155.6387	21.93	22.70995	100	0	47	-34.628	-7.58835	177.9825	
12:24:19	47.46288	-122.3139	66.442	66.69811	-171.6721	22.01	22.76493	100	0	47	-35.56993	-7.922895	175.1332	
12:24:19	47.46284	-122.3139	66.1	66.34895	-188.1244	22.09	22.81224	100	0	47	-36.05412	-8.205148	172.0592	
12:24:20	47.4628	-122.3139	65.712	66.02834	-200.4698	22.2	22.8608	100	0	47	-35.04476	-8.105277	168.6451	
12:24:20	47.4628	-122.3139	65.712	65.61862	-200.9635	22.2	22.80308	100	0	47	-33.74797	-7.729389	165.1885	
12:24:20	47.46275	-122.3139	65.09	65.27533	-188.0617	22.35	22.80308	100	0	47	-30.74094	-6.864372	161.6878	
12:24:20	47.46272	-122.3139	64.731	64.92061	-154.6479	22.43	22.87752	100	0	48	-25.05753	-5.171144	158.2872	
12:24:20	47.46267	-122.3138	64.26	64.68108	-94.48438	22.5	22.90735	100	0	47	-20.22323	-3.404456	155.5043	
12:24:21	47.46264	-122.3138	64.059	64.5344	-20.58369	22.51	22.83278	100	0	47	-18.04033	-2.445772	153.7941	
12:24:21	47.46259	-122.3137	63.809	64.47629	30.35103	22.41	22.78514	100	0	47	-17.71482	-2.148601	152.6984	
12:24:21	47.46256	-122.3137	63.808	64.42606	41.03379	22.32	22.62076	100	0	47	-18.17266	-2.300389	151.6767	
12:24:21	47.46253	-122.3137	63.852	64.38602	32.19983	22.24	22.50294	100	0	47	-17.67649	-2.885257	150.5176	
12:24:21	47.4625	-122.3136	63.871	64.31268	5.153485	22.2	22.39256	100	0	47	-16.06954	-3.605245	149.3154	
12:24:22	47.46247	-122.3136	63.867	64.21105	-22.42655	22.15	22.32575	100	0	47	-13.23081	-4.166454	148.1326	
12:24:22	47.46244	-122.3135	63.798	64.09624	-41.55844	22.15	22.26133	100	0	47	-9.174514	-3.429238	147.1249	
12:24:22	47.46239	-122.3135	63.626	63.9772	-23.19326	22.17	22.53913	100	0	47	-5.622013	-1.92108	146.2937	
12:24:22	47.46237	-122.3135	63.567	63.95255	33.07843	22.11	22.52578	100	0	47	-3.543544	-0.4479637	145.8744	
12:24:22	47.46234	-122.3134	63.603	64.00059	86.21457	21.99	22.45376	100	0	47	-2.028594	0.6593114	145.7433	
12:24:23	47.46231	-122.3134	63.769	64.14335	134.578	21.81	22.32624	100	0	47	-0.9260203	1.298436	145.8592	
12:24:23	47.46231	-122.3134	63.769	64.32037	159.2421	21.81	22.1453	100	0	47	-0.1369262	1.700867	146.0031	
12:24:23	47.46228	-122.3133	64.023	64.52734	172.1178	21.61	22.1453	100	0	47	0.3702475	1.911392	146.1085	
12:24:23	47.46224	-122.3133	64.452	64.72442	177.1376	21.36	21.9465	100	0	47	0.560945	1.927394	146.197	
12:24:23	47.46224	-122.3133	64.452	64.9841	174.677	21.36	21.69397	100	0	47	0.7211687	1.866078	146.3649	
12:24:24	47.46222	-122.3132	64.744	65.22198	168.8087	21.21	21.69397	100	0	47	0.7831618	1.663921	146.6337	
12:24:24	47.46218	-122.3132	65.218	65.45914	162.3531	21	21.54737	100	0	47	0.7450153	1.56252	146.8927	
12:24:24	47.46215	-122.3131	65.493	65.70948	156.559	20.87	21.33878	100	0	47	0.7929837	1.492088	147.0857	
12:24:24	47.46213	-122.3131	65.779	65.9537	150.6849	20.75	21.21407	100	0	47	0.9347602	1.387337	147.3008	
12:24:24	47.4621	-122.3131	66.037	66.1819	146.8335	20.64	21.09694	100	0	47	0.9830683	1.23933	147.5159	
12:24:25	47.46207	-122.313	66.397	66.44428	140.9421	20.53	20.98747	100	0	47	1.00736	1.100807	147.7747	
12:24:25	47.46203	-122.313	66.799	66.67398	136.8662	20.4	20.88573	100	0	47	0.9667912	0.9843781	148.0114	
12:24:25	47.46203	-122.313	66.799	66.93894	134.2034	20.4	20.7578	100	0	47	0.8925597	0.9331443	148.2122	
12:24:25	47.46201	-122.3129	67.038	67.20605	131.5446	20.31	20.7578	100	0	47	0.8139778	0.8788008	148.407	
12:24:25	47.46198	-122.3129	67.313	67.43404	129.4748	20.22	20.67097	100	0	47	0.8012923	0.8212598	148.6562	
12:24:26	47.46195	-122.3128	67.465	67.67229	128.6898	20.16	20.59202	100	0	47	0.8190238	0.7570418	148.8721	
12:24:26	47.46192	-122.3128	67.681	67.86951	126.9608	20.09	20.53307	100	0	47	0.8621135	0.682256	149.0379	
12:24:26	47.46186	-122.3127	68.244	68.10188	124.8052	19.96	20.46783	100	0	47	0.8596612	0.6142169	149.2087	
12:24:26	47.46183	-122.3127	68.424	68.29839	122.9454	19.9	20.3406	100	0	47	0.8586473	0.5976217	149.3888	
12:24:26	47.4618	-122.3126	68.612	68.54066	121.7031	19.85	20.29041	100	0	47	0.750209	0.5776517	149.5825	
12:24:27	47.46177	-122.3126	68.839	68.72644	121.1273	19.81	20.2405	100	0	47	0.6299744	0.5333427	149.7834	
12:24:27	47.46177	-122.3126	68.839	68.94823	120.0766	19.81	20.20359	100	0	47	0.6013865	0.4582491	150.019	
12:24:27	47.46175	-122.3126	69.039	69.13871	117.4331	19.76	20.20359	100	0	47	0.5796117	0.4125024	150.2067	
12:24:27	47.4617	-122.3125	69.266	69.32249	115.3631	19.71	20.16052	100	0	47	0.5729508	0.3932023	150.351	
12:24:27	47.46168	-122.3125	69.427	69.49053	113.3493	19.67	20.10654	100	0	47	0.5395978	0.4118904	150.5587	
12:24:28	47.46165	-122.3124	69.603	69.67819	113.7411	19.64	20.07031	100	0	47	0.5161089	0.4131479	150.7519	
12:24:28	47.46161	-122.3124	69.827	69.85724	113.5455	19.59	20.04832	100	0	47	0.4717663	0.3929377	150.8627	
12:24:28	47.46159	-122.3124	70.082	70.00857	112.4658	19.56	20.00162	100	0	47	0.4355601	0.3946285	151.0229	
12:24:28	47.46156	-122.3123	70.222	70.19817	111.2084	19.53	19.97388	100	0	47	0.3524386	0.4614374	151.1724	
12:24:28	47.46154	-122.3123	70.416	70.36816	111.7251	19.52	19.95084	100	0	47	0.2955348	0.5212929	151.3155	
12:24:29	47.46154	-122.3123	70.416	70.56158	111.8436	19.52	19.93578	100	0	47	0.3119066	0.5394097	151.53	
12:24:29	47.46151	-122.3123	70.664	70.72858	110.7098	19.49	19.93578	100	0	46	0.3925168	0.5496619	151.7421	
12:24:29	47.46146	-122.3122	70.872	70.92079	110.3935	19.45	19.9086	100	0	47	0.4216137	0.5443087	151.8272	
12:24:29	47.46144	-122.3122	71.058	71.10869	109.1895	19.43	19.87556	100	0	47	0.3536002	0.5445781	151.8447	
12:24:29	47.46141	-122.3121	71.158	71.28773	107.5562	19.42	19.85493	100	0	47	0.2573908	0.5747256	151.91	
12:24:30	47.46138	-122.3121	71.385	71.45052	106.7368	19.4	19.8485	100	0	47	0.2016614	0.5671741	152.0524	
12:24:30	47.46136	-122.3121	71.481	71.60654	104.6527	19.39	19.83426	100	0	47	0.2361886	0.5582691	152.3163	
12:24:30	47.46133	-122.312	71.68	71.76892	103.1123	19.37	19.82616	100	0	47	0.2986812	0.5376737	152.4872	
12:24:30	47.4613	-122.312	71.886	71.90498	100.6945	19.36	19.81217	100	0	47	0.3743073	0.5176902	152.5906	
12:24:30	47.46127	-122.312	72.012	72.07584	98.20946	19.36	19.79832	100	0	47	0.3695025	0.4770267	152.6697	
12:24:31	47.46123	-122.3119	72.302	72.22445	95.5834	19.34	19.80068	100	0	47	0.3154053	0.415658	152.7156	
12:24:31	47.4612	-122.3119	72.346	72.36605	92.25174	19.34	19.79143	100	0	47	0.2078893	0.3921329	152.6988	
12:24:31	47.4612	-122.3119	72.346	72.52454	90.87561	19.34	19.79426	100	0	47	0.1736427	0.3993742	152.8117	
12:24:31	47.46118	-122.3119	72.62	72.65665	89.70689	19.35	19.79426	100	0	47	0.1646233	0.4153327	153.0178	
12:24:31	47.46114	-122.3118	72.725	72.78571	89.37621	19.35	19.80092	100	0	47	0.1938743	0.4544766	153.2227	
12:24:32	47.46111	-122.3118	72.953	72.93534	90.09897	19.35	19.80994	100	0	47	0.2894832	0.4628711	153.3658	
12:24:32	47.46108	-122.3117	72.986	73.10901	90.7194	19.35	19.81098	100	0	47	0.3281995	0.4527659	153.4275	
12:24:32	47.46106	-122.3117	73.2	73.25269	89.73476	19.35	19.81215	100	0	47	0.291009	0.434904	153.4713	
12:24:32	47.46103	-122.3117	73.247	73.38847	88.09716	19.35	19.81582	100	0	47	0.2972198	0.4445888	153.6053	
12:24:32	47.46099	-122.3116	73.443	73.51672	87.05865	19.36	19.81728	100	0	47	0.3072368	0.4670837	153.7931	
12:24:33	47.46096	-122.3116	73.651	73.62907	86.32197	19.37	19.82952	100	0	47	0.353309	0.4772506	153.9681	
12:24:33	47.46093	-122.3116	73.722	73.7628	86.22593	19.37	19.83949	100	0	47	0.347111	0.4555146	154.1432	
12:24:33	47.4609	-122.3116	73.92	73.91669	85.44893	19.37	19.84138	100	0	47	0.3280237	0.4366207	154.2839	
12:24:33	47.46088	-122.3115	74.04	74.03622	83.37336	19.38	19.84599	100	0	47	0.3128908	0.4852243	154.3675	
12:24:33	47.46085	-122.3115	74.19	74.15935	83.01858	19.38	19.85644	100	0	47	0.242239	0.5404421	154.3959	
12:24:34	47.46081	-122.3114	74.429	74.29129	82.9592	19.38	19.86143	100	0	47	0.1750146	0.5975282	154.4337	
12:24:34	47.46078	-122.3114	74.567	74.43925	83.09078	19.39	19.86935	100	0	47	0.1866975	0.6384476	154.5319	
12:24:34	47.46075	-122.3114	74.702	74.59303	84.20545	19.4	19.87759	100	0	47	0.2056659	0.6732299	154.7064	
12:24:34	47.46075	-122.3114	74.702	74.74624	84.54006	19.4	19.88591	100	0	47	0.2749939	0.7423596	154.8901	
12:24:35	47.46073	-122.3113	74.837	74.88319	85.45329	19.4	19.88591	100	0	47	0.3797153	0.7754534	154.9595	
12:24:35	47.4607	-122.3113	74.958	75.04305	85.82577	19.4	19.88879	100	0	47	0.386061	0.7746784	154.965	
12:24:35	47.46067	-122.3113	75.107	75.18475	84.73408	19.4	19.89467	100	0	47	0.3209973	0.7365715	155.002	
12:24:35	47.46064	-122.3113	75.243	75.32374	82.66028	19.41	19.90075	100	0	47	0.2540309	0.7058496	155.0961	
12:24:35	47.4606	-122.3112	75.438	75.45184	80.38679	19.43	19.91247	100	0	47	0.2005304	0.6408333	155.231	
12:24:36	47.46057	-122.3112	75.558	75.56876	77.99181	19.44	19.93575	100	0	47	0.2533731	0.6375018	155.3344	
12:24:36	47.46054	-122.3112	75.682	75.69405	76.42576	19.46	19.94783	100	0	47	0.2985817	0.6629803	155.4367	
12:24:36	47.46051	-122.3111	75.805	75.81234	75.10289	19.47	19.97387	100	0	47	0.3006426	0.7141659	155.5984	
12:24:36	47.46051	-122.3111	75.805	75.94247	75.71372	19.47	19.98625	100	0	47	0.2361541	0.7430625	155.6808	
12:24:36	47.46048	-122.3111	75.912	76.05761	75.71275	19.49	19.98625	100	0	47	0.2017364	0.7052258	155.7018	
12:24:37	47.46046	-122.3111	76.025	76.17447	73.84211	19.5	20.0041	100	0	47	0.2236975	0.6733825	155.7229	
12:24:37	47.46041	-122.311	76.212	76.28034	71.55052	19.52	20.01995	100	0	47	0.2455181	0.6325457	155.7325	
12:24:37	47.46038	-122.311	76.327	76.39208	70.22354	19.53	20.04454	100	0	47	0.234206	0.615602	155.8037	
12:24:37	47.46035	-122.311	76.423	76.52128	69.24778	19.56	20.0576	100	0	47	0.1945156	0.6453362	155.9542	
12:24:37	47.46032	-122.3109	76.549	76.62126	69.02705	19.58	20.08123	100	0	47	0.2366776	0.6616578	156.1025	
12:24:38	47.46029	-122.3109	76.65	76.74213	68.90274	19.6	20.10828	100	0	47	0.3130912	0.6454086	156.2282	
12:24:38	47.46026	-122.3109	76.766	76.84595	67.90362	19.61	20.12691	100	0	47	0.3300228	0.6144381	156.2906	
12:24:38	47.46023	-122.3108	76.881	76.94493	66.43008	19.63	20.14049	100	0	60	0.3086684	0.5420629	156.3654	
12:24:38	47.4602	-122.3108	76.98	77.02973	63.70903	19.65	20.1628	100	0	67	-5.396651	0.864416	156.3885	
12:24:38	47.4602	-122.3108	76.98	77.13642	64.91709	19.65	20.18528	100	0	74	-10.93261	1.584592	155.9955	
12:24:39	47.46017	-122.3108	77.079	77.23899	76.34673	19.61	20.18528	100	0	83	-16.46591	2.478229	154.55	
12:24:39	47.46012	-122.3107	77.229	77.35662	94.35298	19.26	20.14768	100	0	91	-22.40055	3.651041	151.8975	
12:24:39	47.46007	-122.3107	77.53	77.57115	131.563	19.2	19.78407	100	0	97	-28.11981	5.151413	148.2112	
12:24:39	47.46004	-122.3107	77.778	77.82484	173.1944	19.5	19.67398	100	0	101	-33.73765	6.827835	143.7026	
12:24:39	47.46001	-122.3106	78.134	78.15563	230.7209	19.93	19.9311	100	0	105	-38.5622	8.7086	138.1871	
12:24:40	47.45999	-122.3106	78.598	78.57546	296.6512	20.3	20.28855	100	0	108	-42.59487	10.50006	131.7463	
12:24:40	47.45996	-122.3105	79.385	79.05684	359.7797	20.62	20.07309	100	0	111	-46.04243	12.03305	124.7318	
12:24:40	47.45994	-122.3105	80.23	79.702	421.4392	20.79	20.27686	100	0	113	-49.38514	13.23875	117.167	
12:24:40	47.45993	-122.3104	81.263	80.48154	471.2655	20.89	20.19259	100	0	115	-52.03837	14.32638	109.4408	
12:24:40	47.45992	-122.3104	82.26	81.40235	511.3962	20.93	20.16421	100	0	119	-54.404	15.25274	101.3985	
12:24:41	47.45992	-122.3104	82.26	82.18918	531.9122	20.93	20.05838	100	0	122	-55.91694	16.03189	93.02987	
12:24:41	47.45991	-122.3103	83.366	83.12317	552.9425	20.93	20.05838	100	0	124	-56.95074	16.72568	84.4321	
12:24:41	47.45991	-122.3103	84.554	84.10092	572.4543	20.93	19.96431	100	0	125	-57.66146	17.39934	75.73875	
12:24:41	47.45992	-122.3102	86.435	85.20939	586.4472	20.87	19.76941	100	0	125	-58.00136	18.0195	66.96369	
12:24:41	47.45994	-122.3101	87.701	86.48301	609.4584	20.84	19.46904	100	0	125	-58.84306	18.35767	57.92626	
12:24:42	47.45996	-122.3101	89	87.68455	626.67	20.8	19.44149	100	0	127	-59.07531	18.70505	48.93024	
12:24:42	47.45998	-122.31	90.276	89.17513	645.5749	20.78	19.58607	100	0	127	-59.19804	19.01897	39.89716	
12:24:42	47.45998	-122.31	90.276	90.50428	658.7137	20.78	19.62924	100	0	126	-59.15472	19.35691	30.86729	
12:24:42	47.46	-122.31	91.525	91.64753	665.9154	20.77	19.62924	100	0	126	-58.79279	19.65195	22.01047	
12:24:42	47.46003	-122.31	92.857	92.91227	673.2751	20.75	19.68521	100	0	125	-58.04936	19.86469	13.41514	
12:24:43	47.46008	-122.3099	94.674	94.34541	686.8196	20.74	19.77598	100	0	124	-57.12332	19.99532	5.077092	
12:24:43	47.46017	-122.3099	98.245	95.91898	701.5018	20.76	19.8761	100	0	122	-56.14324	20.08213	-3.010647	
12:24:43	47.46021	-122.3099	99.714	97.21432	712.8624	20.77	20.31393	100	0	121	-54.62038	20.17299	-11.02875	
12:24:43	47.46021	-122.3099	99.714	98.87437	729.2007	20.77	20.91035	100	0	115	-50.76897	20.63501	-18.37064	
12:24:43	47.46028	-122.31	102.579	100.4067	752.3299	20.78	20.91035	100	0	107	-44.27593	21.34152	-23.70235	
12:24:44	47.46028	-122.31	102.579	101.9749	782.1855	20.78	20.80382	100	0	91	-39.67633	21.22105	-28.18671	
12:24:44	47.4603	-122.31	104.062	103.3807	798.6382	20.76	20.80382	100	0	79	-34.58458	20.48415	-31.63843	
12:24:44	47.46035	-122.31	106.158	104.9995	771.1543	20.91	20.90051	100	0	69	-27.46645	18.34226	-33.00799	
12:24:44	47.46035	-122.31	106.158	106.5954	703.1917	20.91	21.57457	100	0	59	-20.84369	15.15064	-33.92677	
12:24:44	47.46035	-122.31	106.158	107.7856	609.7699	20.91	21.57457	100	0	53	-14.6019	11.73358	-35.01636	
12:24:45	47.46043	-122.3101	110.109	108.8494	481.337	21.3	21.57457	100	0	45	-8.835323	7.839699	-35.76627	
12:24:45	47.46046	-122.3102	110.928	109.7633	338.0473	21.37	22.02886	100	0	40	-4.091828	3.395577	-35.81926	
12:24:45	47.4605	-122.3102	111.637	110.4	182.5118	21.35	21.94859	100	0	35	0.1185926	-0.6712763	-35.90502	
12:24:45	47.46053	-122.3103	111.725	110.6811	49.23771	21.29	21.93579	100	0	32	3.591182	-4.428514	-36.08686	
12:24:45	47.46056	-122.3103	111.565	110.766	-96.10616	21.22	21.87199	100	0	30	6.189176	-7.530221	-36.11512	
12:24:46	47.46056	-122.3103	111.565	110.6534	-198.8581	21.22	20.98416	100	0	29	7.882186	-9.895097	-35.86084	
12:24:46	47.46058	-122.3104	111.17	110.4092	-269.9592	21.17	20.98416	100	0	27	8.929388	-11.67095	-35.36668	
12:24:46	47.46062	-122.3104	110.045	109.9464	-331.2764	21.22	20.9266	100	0	26	9.727204	-12.92841	-34.71124	
12:24:46	47.46066	-122.3104	109.16	109.3486	-374.5323	21.33	20.97302	100	0	26	10.4352	-13.76749	-33.95395	
12:24:46	47.46068	-122.3105	108.034	108.6512	-404.2292	21.51	21.07728	100	0	26	11.46266	-14.25709	-33.14756	
12:24:47	47.46068	-122.3105	108.034	107.7677	-428.4232	21.51	21.24663	100	0	27	12.43674	-14.52442	-32.28118	
12:24:47	47.46071	-122.3105	106.911	106.8857	-441.7541	21.73	21.24663	100	0	29	13.49046	-14.51669	-31.24499	
12:24:47	47.46074	-122.3106	105.795	105.9815	-443.4146	21.97	21.45461	100	0	31	14.53146	-14.32037	-30.05634	
12:24:47	47.46079	-122.3106	103.888	105.1367	-436.0883	22.41	20.99976	100	0	33	15.73643	-14.00408	-28.7601	
12:24:47	47.46082	-122.3107	102.641	104.1625	-431.8407	22.73	21.41543	100	0	34	16.83699	-13.5779	-27.36622	
12:24:48	47.46085	-122.3107	101.407	103.0988	-420.5387	23.05	21.71061	100	0	37	17.77763	-12.88664	-25.80789	
12:24:48	47.46085	-122.3107	101.407	102.0723	-401.8403	23.05	22.00957	100	0	41	18.64183	-12.07946	-24.13438	
12:24:48	47.46094	-122.3108	98.719	101.2362	-371.4652	23.87	22.00957	100	0	42	19.56914	-11.2648	-22.38996	
12:24:48	47.46098	-122.3108	97.609	100.1349	-340.3648	24.23	22.76125	100	0	45	20.40808	-10.31828	-20.54318	
12:24:48	47.46101	-122.3109	96.649	99.12137	-307.4568	24.57	23.0863	100	0	48	20.94807	-9.160893	-18.55566	
12:24:49	47.46108	-122.3109	95.297	98.31076	-270.9947	25.07	23.39739	100	0	51	21.34494	-7.963886	-16.48232	
12:24:49	47.46112	-122.3109	94.658	97.47448	-217.5465	25.34	23.8152	100	0	53	21.82051	-6.84799	-14.43892	
12:24:49	47.46116	-122.311	94.077	96.71386	-172.4531	25.58	24.03693	100	0	55	21.73546	-5.616932	-12.3486	
12:24:49	47.4612	-122.311	93.7	96.08386	-126.4464	25.75	24.23986	100	0	57	21.21836	-4.46902	-10.31285	
12:24:49	47.46125	-122.311	93.413	95.51982	-82.74576	25.91	24.37251	100	0	57	20.22281	-3.236437	-8.340319	
12:24:50	47.46125	-122.311	93.413	95.06087	-36.53799	25.91	24.48824	100	0	59	19.10361	-2.048305	-6.476727	
12:24:50	47.46132	-122.311	93.229	94.76131	1.469725	26.04	24.48824	100	0	59	18.02476	-1.01295	-4.818823	
12:24:50	47.46132	-122.311	93.229	94.52224	45.20586	26.04	24.58172	100	0	60	17.04008	-0.2293907	-3.322361	
12:24:50	47.46141	-122.3111	93.428	94.41311	74.61525	26.06	24.58172	100	0	60	15.82642	0.4156139	-1.983773	
12:24:50	47.46145	-122.3111	93.661	94.39651	102.8678	26.02	24.54244	100	0	60	13.93013	0.9333274	-0.7689131	
12:24:51	47.4615	-122.3111	94.025	94.46309	121.7038	25.95	24.47755	100	0	60	11.95473	1.367625	0.228157	
12:24:51	47.46155	-122.3111	94.427	94.57465	135.9605	25.87	24.38525	100	0	60	10.13457	1.631083	1.044804	
12:24:51	47.46159	-122.3111	94.886	94.77108	144.3429	25.76	24.28958	100	0	59	8.837362	1.698908	1.646952	
12:24:51	47.46159	-122.3111	94.886	95.03886	149.1638	25.76	24.17558	100	0	58	7.717904	1.67146	2.117554	
12:24:51	47.46167	-122.3111	95.679	95.28493	146.7462	25.59	24.17558	100	0	58	6.656619	1.580036	2.512943	
12:24:52	47.46175	-122.3111	96.752	95.61305	144.9839	25.38	23.98816	100	0	57	5.583892	1.376138	2.855905	
12:24:52	47.4618	-122.3111	97.333	96.09946	143.1069	25.26	23.76827	100	0	56	4.460525	1.085965	3.107801	
12:24:52	47.46186	-122.3111	98.136	96.5351	136.4389	25.12	23.94446	100	0	55	3.268876	0.6942004	3.272699	
12:24:52	47.46191	-122.3111	98.663	96.95334	130.6282	25.01	23.79195	100	0	54	2.447209	0.2815365	3.372577	
12:24:52	47.46195	-122.3111	99.115	97.48402	122.7729	24.92	23.68673	100	0	53	1.619421	-0.2407187	3.419643	
12:24:53	47.46195	-122.3111	99.115	97.89163	113.4899	24.92	23.59368	100	0	52	0.9482302	-0.8241289	3.388821	
12:24:53	47.46201	-122.3111	99.555	98.31197	100.5849	24.84	23.59368	100	0	50	0.3941377	-1.485149	3.316226	
12:24:53	47.46204	-122.3111	99.922	98.70092	85.17915	24.76	23.51122	100	0	49	-0.0263083	-2.145521	3.220934	
12:24:53	47.46209	-122.3111	100.245	99.06687	68.69988	24.69	23.43007	100	0	48	-0.2356351	-2.758603	3.087469	
12:24:53	47.46215	-122.3111	100.62	99.39951	53.88682	24.6	23.35972	100	0	47	-0.4606612	-3.319208	2.944388	
12:24:54	47.46219	-122.3111	100.81	99.69826	40.87045	24.54	23.26979	100	0	47	-0.6007332	-3.831776	2.802636	
12:24:54	47.46219	-122.3111	100.81	99.97379	26.96148	24.54	23.20984	100	0	46	-0.6955956	-4.361117	2.641601	
12:24:54	47.46229	-122.3111	101.071	100.1896	14.77503	24.45	23.20984	100	0	45	-0.7874732	-4.836798	2.474059	
12:24:54	47.46233	-122.3111	101.123	100.3506	4.406213	24.41	23.12113	100	0	45	-0.8350284	-5.216675	2.290577	
12:24:54	47.46233	-122.3111	101.123	100.4989	-5.204134	24.41	23.082	100	0	44	-0.7531362	-5.565293	2.127408	
12:24:55	47.46238	-122.3111	101.133	100.5981	-13.79589	24.39	23.082	100	0	44	-0.6415997	-5.800772	1.961283	
12:24:55	47.46238	-122.3111	101.133	100.6655	-17.42608	24.39	23.06288	100	0	44	-0.5212057	-6.008259	1.784578	
12:24:55	47.46246	-122.3111	101.041	100.7078	-20.08857	24.36	23.06288	100	0	43	-0.4653707	-6.211503	1.629119	
12:24:55	47.46253	-122.3111	100.91	100.7284	-24.23004	24.35	23.03512	100	0	43	-0.4645667	-6.355083	1.499192	
12:24:55	47.46258	-122.3111	100.791	100.7277	-27.70206	24.34	23.02605	100	0	43	-0.4578246	-6.451524	1.375445	
12:24:56	47.46262	-122.3111	100.665	100.6802	-31.53306	24.34	23.017	100	0	43	-0.3894727	-6.487418	1.241329	
12:24:56	47.46267	-122.3111	100.522	100.6228	-33.33213	24.35	23.01747	100	0	43	-0.2909577	-6.513227	1.111411	
12:24:56	47.46271	-122.3111	100.371	100.5366	-35.07739	24.36	23.02794	100	0	43	-0.2937799	-6.528442	0.9811704	
12:24:56	47.46276	-122.3111	100.229	100.4396	-36.81788	24.37	23.03841	100	0	44	-0.3388243	-6.495171	0.8468674	
12:24:56	47.46282	-122.3111	100.029	100.3397	-38.31293	24.4	23.04888	100	0	44	-0.3139549	-6.421818	0.7200352	
12:24:57	47.46282	-122.3111	100.029	100.2361	-37.16592	24.4	23.06935	100	0	44	-0.3168673	-6.342947	0.5856155	
12:24:57	47.46286	-122.3111	99.877	100.1154	-37.13597	24.41	23.06935	100	0	44	-0.3098667	-6.257063	0.4504221	
12:24:57	47.46291	-122.3112	99.728	100.0041	-36.39796	24.43	23.07934	100	0	45	-0.3371198	-6.129929	0.3294996	
12:24:57	47.46296	-122.3112	99.57	99.88666	-34.43658	24.46	23.09931	100	0	45	-0.2307612	-5.977583	0.2179517	
12:24:57	47.463	-122.3112	99.426	99.74972	-32.05635	24.48	23.12928	100	0	45	-0.0786285	-5.81651	0.1159775	
12:24:58	47.46305	-122.3112	99.287	99.6228	-29.01903	24.49	23.14925	100	0	46	0.003071302	-5.643531	0.0163312	
12:24:58	47.46305	-122.3112	99.287	99.50597	-25.69215	24.49	23.16874	100	0	46	0.07892712	-5.465647	-0.08234311	
12:24:58	47.46305	-122.3112	99.287	99.40694	-22.49521	24.49	23.16874	100	0	46	0.1518278	-5.28857	-0.1562174	
12:24:58	47.46305	-122.3112	99.287	99.31717	-17.42744	24.49	23.16874	100	0	47	0.223498	-5.109691	-0.2117382	
12:24:58	47.46313	-122.3112	99.048	99.26522	-12.50453	24.53	23.16874	100	0	47	0.2844233	-4.93691	-0.2496629	
12:24:59	47.46313	-122.3112	99.048	99.21888	-6.957208	24.53	23.20773	100	0	47	0.2526484	-4.801809	-0.2687949	
12:24:59	47.46331	-122.3112	98.73	99.17695	-3.875793	24.6	23.20773	100	0	47	0.1783097	-4.744623	-0.2918174	
12:24:59	47.46331	-122.3112	98.73	99.08574	-5.503142	24.6	23.27399	100	0	48	0.09238581	-4.729044	-0.3126068	
12:24:59	47.46339	-122.3112	98.67	99.01592	-6.182118	24.62	23.27399	100	0	48	0.006136295	-4.713582	-0.3242094	
12:24:59	47.46339	-122.3112	98.67	98.94806	-6.48112	24.62	23.29182	100	0	48	-0.2090092	-4.659595	-0.3378951	
12:25:00	47.46351	-122.3112	98.632	98.87904	-7.037593	24.65	23.29182	100	0	48	-0.4162171	-4.560661	-0.3838079	
12:25:00	47.46351	-122.3112	98.632	98.82729	-5.198144	24.65	23.32015	100	0	49	-0.6174085	-4.444952	-0.4417998	
12:25:00	47.46351	-122.3112	98.632	98.78369	-2.586975	24.65	23.32015	100	0	49	-0.8191202	-4.329376	-0.4945134	
12:25:00	47.46351	-122.3112	98.632	98.75122	0.7862585	24.65	23.32015	100	0	49	-1.02222	-4.213348	-0.5436838	
12:25:01	47.46351	-122.3112	98.632	98.73364	4.152922	24.65	23.32015	100	0	49	-1.224612	-4.098002	-0.5899271	
12:25:01	47.46351	-122.3112	98.632	98.7262	7.326274	24.65	23.32015	100	0	49	-1.426226	-3.983339	-0.6340823	
12:25:01	47.46351	-122.3112	98.632	98.72503	9.473543	24.65	23.32015	100	0	49	-1.629018	-3.868216	-0.6771811	
12:25:01	47.46351	-122.3112	98.632	98.72503	9.473543	24.65	23.32015	100	0	49	-1.831953	-3.75321	-0.7194421	
12:25:01	47.46358	-122.3112	98.614	98.72503	9.473543	24.67	23.32015	100	0	49	-1.84259	-3.602433	-0.8878303	
12:25:02	47.46391	-122.3112	98.88	98.72631	13.98704	24.68	23.33974	100	0	50	-1.438547	-3.54453	-1.092036	
12:25:02	47.46396	-122.3112	98.982	98.77609	18.02677	24.67	23.35053	100	0	50	-1.035562	-3.556225	-1.273029	
12:25:02	47.46403	-122.3112	99.16	98.84849	19.39523	24.65	23.34054	100	0	49	-0.6988004	-3.565647	-1.423486	
12:25:02	47.46408	-122.3112	99.251	98.92076	20.1294	24.65	23.31936	100	0	49	-0.4250395	-3.54198	-1.523259	
12:25:02	47.46408	-122.3112	99.251	99.01794	22.36257	24.65	23.3182	100	0	49	-0.2521749	-3.545838	-1.572659	
12:25:03	47.46412	-122.3112	99.35	99.1043	24.16913	24.64	23.3182	100	0	49	-0.08425149	-3.558891	-1.596963	
12:25:03	47.46421	-122.3112	99.513	99.18793	24.56728	24.64	23.30636	100	0	49	-0.01671531	-3.604698	-1.624384	
12:25:03	47.46421	-122.3112	99.513	99.26714	23.44341	24.64	23.30267	100	0	48	-0.05047045	-3.706952	-1.614919	
12:25:03	47.46426	-122.3112	99.588	99.35808	20.79672	24.64	23.30267	100	0	48	-0.05433239	-3.825951	-1.606345	
12:25:03	47.4643	-122.3112	99.65	99.43017	17.39166	24.63	23.30088	100	0	48	-0.1184956	-3.926453	-1.594628	
12:25:04	47.4643	-122.3112	99.65	99.50189	14.18142	24.63	23.28899	100	0	48	-0.1996852	-4.037844	-1.577896	
12:25:04	47.46439	-122.3112	99.756	99.56411	10.7817	24.63	23.28899	100	0	48	-0.272161	-4.164686	-1.564427	
12:25:04	47.46439	-122.3112	99.756	99.61964	5.586875	24.63	23.28623	100	0	48	-0.4630985	-4.278632	-1.56073	
12:25:04	47.46446	-122.3112	99.831	99.66051	2.338516	24.63	23.28623	100	0	48	-0.6206747	-4.358584	-1.570052	
12:25:04	47.46451	-122.3112	99.903	99.70937	0.2008743	24.64	23.28473	100	0	47	-0.7852581	-4.425743	-1.57113	
12:25:05	47.4646	-122.3112	99.84	99.7398	-0.9855209	24.65	23.29378	100	0	47	-0.9841695	-4.492767	-1.567552	
12:25:05	47.46464	-122.3112	99.797	99.75874	-3.205607	24.66	23.30256	100	0	47	-1.254913	-4.53972	-1.578885	
12:25:05	47.46471	-122.3112	99.816	99.76086	-5.059052	24.68	23.31219	100	0	47	-1.693403	-4.558833	-1.619213	
12:25:05	47.46471	-122.3112	99.816	99.75824	-5.578351	24.68	23.33188	100	0	47	-2.074755	-4.594741	-1.687986	
12:25:05	47.46475	-122.3112	99.738	99.7492	-7.396711	24.7	23.33188	100	0	47	-2.412415	-4.602188	-1.76972	
12:25:06	47.4648	-122.3112	99.705	99.7302	-8.050149	24.71	23.35176	100	0	47	-2.632918	-4.64102	-1.87488	
12:25:06	47.46484	-122.3112	99.688	99.70871	-9.790363	24.73	23.36175	100	0	48	-2.783112	-4.658445	-2.010213	
12:25:06	47.46489	-122.3112	99.646	99.68554	-11.01312	24.74	23.38181	100	0	48	-2.938001	-4.643414	-2.168187	
12:25:06	47.46493	-122.3112	99.591	99.65723	-10.89526	24.76	23.39195	100	0	48	-3.033423	-4.600616	-2.319294	
12:25:06	47.465	-122.3112	99.52	99.62568	-9.79719	24.79	23.41218	100	0	48	-3.093841	-4.532836	-2.461932	
12:25:07	47.46504	-122.3112	99.451	99.59303	-7.447334	24.81	23.44276	100	0	48	-3.154954	-4.47192	-2.628383	
12:25:07	47.46504	-122.3112	99.451	99.55736	-6.229321	24.81	23.46323	100	0	48	-3.208314	-4.403587	-2.816688	
12:25:07	47.46509	-122.3112	99.376	99.51899	-5.024216	24.83	23.46323	100	0	48	-3.269798	-4.318316	-3.010754	
12:25:07	47.46513	-122.3112	99.322	99.48082	-3.430592	24.85	23.48391	100	0	48	-3.32794	-4.253408	-3.196017	
12:25:07	47.46525	-122.3112	99.223	99.44894	-2.767748	24.89	23.50453	100	0	49	-3.341583	-4.181629	-3.380618	
12:25:08	47.46529	-122.3112	99.237	99.41572	-1.666288	24.9	23.54701	100	0	49	-3.319433	-4.152098	-3.564446	
12:25:08	47.46534	-122.3112	99.233	99.38374	-1.495516	24.91	23.55816	100	0	49	-3.212693	-4.102898	-3.754105	
12:25:08	47.46534	-122.3112	99.233	99.35133	-1.168813	24.91	23.56967	100	0	49	-3.177565	-4.037601	-3.927653	
12:25:08	47.46539	-122.3112	99.17	99.32865	-0.6812845	24.93	23.56967	100	0	49	-3.095493	-3.964468	-4.082749	
12:25:08	47.46543	-122.3112	99.12	99.29761	1.40451	24.94	23.59105	100	0	49	2.437467	-3.959276	-4.070693	
12:25:09	47.46543	-122.3112	99.12	99.26844	2.458194	24.94	23.60253	100	0	49	10.15061	-4.007934	-3.881678	
12:25:09	47.46554	-122.3112	99.092	99.2469	1.372678	24.97	23.60253	100	0	50	18.09163	-4.132908	-3.265184	
12:25:09	47.46559	-122.3112	99.086	99.20957	-8.069697	24.98	23.63132	100	0	51	25.77193	-4.353138	-1.965831	
12:25:09	47.46563	-122.3112	99.114	99.15808	-23.69481	25.01	23.63389	100	0	52	32.45577	-4.717991	0.1099048	
12:25:09	47.46568	-122.3112	99.066	99.0903	-43.84407	25.04	23.65331	100	0	55	37.52113	-5.186775	2.777849	
12:25:10	47.46573	-122.3112	98.851	98.98228	-71.3597	25.1	23.66999	100	0	59	40.78705	-5.496062	6.022748	
12:25:10	47.46573	-122.3112	98.851	98.83527	-94.45499	25.1	23.71846	100	0	62	42.2583	-5.43961	9.967834	
12:25:10	47.46577	-122.3112	98.7	98.61661	-103.6909	25.19	23.71846	100	0	63	43.18927	-5.200382	14.27698	
12:25:10	47.46582	-122.3111	98.468	98.44415	-103.1732	25.33	23.7936	100	0	64	43.65529	-4.746502	18.94288	
12:25:10	47.46593	-122.3111	97.91	98.25775	-86.39833	25.75	23.82796	100	0	65	44.08796	-4.27517	23.7132	
12:25:11	47.46597	-122.3111	97.689	98.14812	-69.7229	25.93	24.241	100	0	66	45.01522	-3.80038	28.5525	
12:25:11	47.46601	-122.311	97.48	97.99149	-52.20723	26.11	24.5937	100	0	68	45.44172	-3.261427	33.50397	
12:25:11	47.46605	-122.311	97.288	97.85646	-34.48674	26.28	24.78731	100	0	68	45.72761	-2.826248	38.52674	
12:25:11	47.46605	-122.311	97.288	97.73803	-15.84682	26.28	24.97572	100	0	69	45.75521	-2.38395	43.52262	
12:25:11	47.46608	-122.3109	97.038	97.6404	-1.307499	26.44	24.97572	100	0	70	45.81981	-1.91396	48.47465	
12:25:12	47.46612	-122.3109	96.884	97.54709	11.3476	26.59	25.14577	100	0	70	45.89689	-1.520766	53.31998	
12:25:12	47.46616	-122.3108	96.647	97.47112	23.11795	26.8	25.33597	100	0	71	46.14148	-1.195878	58.10305	
12:25:12	47.46618	-122.3107	96.523	97.41037	33.14244	26.92	25.61718	100	0	71	46.41147	-0.8983429	62.88094	
12:25:12	47.46618	-122.3107	96.523	97.34239	38.50491	26.92	25.8748	100	0	72	46.48654	-0.559104	67.67183	
12:25:12	47.46618	-122.3107	96.523	97.29061	44.8881	26.92	25.8748	100	0	72	46.59159	-0.2101953	72.49737	
12:25:13	47.46618	-122.3107	96.523	97.25871	51.99617	26.92	25.8748	100	0	72	46.72461	0.1355832	77.2662	
12:25:13	47.46618	-122.3107	96.523	97.24764	58.12918	26.92	25.8748	100	0	73	46.88706	0.4782265	82.05254	
12:25:13	47.46618	-122.3107	96.523	97.24885	63.1967	26.92	25.8748	100	0	73	47.07769	0.8116536	86.83489	
12:25:13	47.46621	-122.3107	96.405	97.25663	67.1837	27.02	25.8748	100	0	73	46.89723	1.375089	91.71647	
12:25:13	47.46621	-122.3107	96.405	97.23746	70.45128	27.02	26.02607	100	0	73	45.92208	2.494591	96.4449	
12:25:14	47.46621	-122.3107	96.405	97.22172	79.28151	27.02	26.02607	100	0	72	45.03773	3.711455	101.1676	
12:25:14	47.46626	-122.3102	95.625	97.22687	90.24669	27.47	26.02607	100	0	72	44.2518	5.014402	105.8907	
12:25:14	47.46626	-122.3102	95.625	97.24177	103.5553	27.47	26.38268	100	0	71	44.56588	5.153771	110.1118	
12:25:14	47.46622	-122.31	95.287	97.12023	83.95676	27.6	26.38268	100	0	71	44.61012	4.222528	113.3251	
