Date	Latitude(deg) 	Longitude(deg)	hamsl(m)	hafl(m)	climbrate(cm/s)	GroundSpeed(m/s)	Airspeed(m/s)	Mav_Link(%)	Rssi_Link(%)	Throttle	Roll(deg)	Pitch(deg)	Yaw(deg)
12:57:04	-6.728677	38.94612	128.498	0	0	0.25	0	100	0	0	-0.9856957	-4.240305	3.766656	
12:57:04	-6.728677	38.94612	127.406	0.3068388	-2.523672	0.04	3	100	0	6546	-0.7064065	-4.145068	3.90253	
12:57:04	-6.728677	38.94612	127.391	0.1142883	-14.65688	0.02	3	100	0	6546	-0.5679951	-4.278265	3.983106	
12:57:04	-6.728677	38.94612	127.354	-0.2012318	-31.35575	0.04	3	100	0	6546	-0.9834062	-4.254374	4.070311	
12:57:05	-6.728677	38.94612	127.32	-0.5065681	-46.16096	0.18	3	100	0	6546	-1.655903	-4.31019	4.123588	
12:57:05	-6.728676	38.94612	127.39	-0.7570101	-56.38649	0.14	3	100	0	6546	-2.255848	-4.378825	4.248099	
12:57:05	-6.728677	38.94612	127.355	-0.9992675	-65.6097	0.14	3	100	0	6546	-2.52077	-4.17379	4.454311	
12:57:05	-6.728677	38.94612	127.278	-1.005316	-62.38203	0.28	3	100	0	6546	-1.499232	-4.194212	4.649421	
12:57:05	-6.728677	38.94612	127.216	-1.004308	-58.52513	0.12	3	100	0	6546	0.9358668	-4.452858	4.608835	
12:57:06	-6.728677	38.94612	127.188	-0.8030639	-43.45467	0.24	3	100	0	6546	1.556268	-4.232837	4.502653	
12:57:06	-6.728677	38.94612	127.11	-0.6122957	-30.10503	0.08	3	100	0	6546	0.892581	-4.503337	4.446342	
12:57:06	-6.728677	38.94612	127.071	-0.4406409	-19.53291	0.06	3	100	0	6546	1.306631	-4.241513	4.434205	
12:57:06	-6.728677	38.94612	127.048	-0.2839329	-10.81278	0.36	3	100	0	6546	1.749572	-4.282915	4.296471	
12:57:06	-6.728677	38.94612	127.056	-0.2427348	-7.59615	0.12	3	100	0	6546	1.443219	-4.561859	3.974081	
12:57:07	-6.728677	38.94612	127.06	-0.2039764	-5.663832	0.11	3	100	0	6546	1.657372	-4.389442	3.885697	
12:57:07	-6.728677	38.94612	127.055	-0.1568745	-3.777401	0.18	3	100	0	6546	1.038821	-4.422107	3.827178	
12:57:07	-6.728676	38.94612	127.119	-0.1148296	-1.99447	0.18	3	100	0	6546	0.9010593	-4.477337	3.816935	
12:57:07	-6.728676	38.94612	127.105	-0.1287996	-4.296421	0.11	3	100	0	6546	1.848707	-4.545972	3.655815	
12:57:07	-6.728676	38.94612	127.038	-0.1432863	-5.279708	0.04	3	100	0	6546	1.627257	-4.494373	3.587869	
12:57:08	-6.728676	38.94612	127.012	-0.09972434	-3.360685	0.09	3	100	0	6546	0.7392765	-4.425186	3.562709	
12:57:08	-6.728676	38.94612	127.023	-0.06025171	-1.987867	0.04	3	100	0	6546	0.1134939	-4.301685	3.593784	
12:57:08	-6.728675	38.94612	127.047	-0.04771341	-2.865706	0.01	3	100	0	6546	0.6840019	-4.481349	3.619293	
12:57:08	-6.728676	38.94612	126.964	-0.04077745	-3.654485	0.04	3	100	0	6546	1.89121	-4.445453	3.489685	
12:57:08	-6.728676	38.94612	126.958	0.01530083	-1.057449	0.12	3	100	0	6545	1.668771	-4.488677	3.406627	
12:57:09	-6.728675	38.94612	126.955	0.06537243	0.8400984	0.16	3	100	0	6546	1.995949	-4.564433	3.360558	
12:57:09	-6.728675	38.94612	126.937	0.1207425	3.053061	0.06	3	100	0	6546	1.701007	-4.615395	3.296434	
12:57:09	-6.728675	38.94612	126.862	0.1652465	4.419788	0.07	3	100	0	6546	1.617894	-4.43273	3.14106	
12:57:09	-6.728675	38.94612	126.862	0.1452076	1.484071	0.07	3	100	0	6546	1.68083	-4.42915	3.070954	
12:57:09	-6.728675	38.94612	126.844	0.124448	-0.6796802	0.12	3	100	0	6546	1.192029	-4.518975	3.046662	
12:57:10	-6.728676	38.94612	126.831	0.1079762	-2.136918	0.26	3	100	0	6546	1.357504	-4.264889	3.045534	
12:57:10	-6.728676	38.94612	126.821	0.09233651	-2.861512	0.14	3	100	0	6546	1.094082	-4.195593	3.065468	
12:57:10	-6.728675	38.94612	126.846	0.06905515	-3.559419	0.18	3	100	0	6546	1.270514	-4.247248	2.922609	
12:57:10	-6.728675	38.94612	126.861	0.03769406	-5.293355	0.07	3	100	0	6546	1.033947	-4.383725	2.934354	
12:57:10	-6.728675	38.94612	126.899	-0.007423945	-9.476243	0.14	3	100	0	6549	1.118936	-4.206578	2.966835	
12:57:11	-6.728675	38.94612	126.864	-0.06452403	-12.28098	0.17	3	100	0	6546	0.8489435	-4.086814	2.988614	
12:57:11	-6.728675	38.94612	126.831	-0.08874361	-13.27389	0.19	3	100	0	6546	0.04063181	-4.100366	2.880391	
12:57:11	-6.728675	38.94612	126.796	-0.09300252	-13.16545	0.02	3	100	0	6546	-0.4721986	-4.186184	2.903865	
12:57:11	-6.728675	38.94612	126.714	-0.101663	-14.00631	0.14	3	100	0	6546	1.203956	-4.303123	3.008385	
12:57:11	-6.728675	38.94612	126.707	-0.1141893	-15.11051	0.13	3	100	0	6546	3.460162	-4.44301	2.938873	
12:57:12	-6.728675	38.94612	126.708	-0.1330809	-15.59272	0.24	3	100	0	6546	2.418168	-4.527974	2.791066	
12:57:12	-6.728674	38.94612	126.742	-0.1541412	-15.71026	0.12	3	100	0	6546	1.13927	-4.589272	2.705185	
12:57:12	-6.728674	38.94612	126.759	-0.1482584	-14.35991	0.22	3	100	0	6546	1.594674	-4.367396	2.748288	
12:57:12	-6.728674	38.94612	126.787	-0.1197201	-12.26671	0.26	3	100	0	6546	2.218488	-4.60285	2.676867	
12:57:12	-6.728674	38.94612	126.765	-0.05096221	-8.068216	0.22	3	100	0	6546	2.261514	-4.455271	2.600257	
12:57:13	-6.728674	38.94612	126.798	0.05291016	-2.047059	0.07	3	100	0	6546	3.904736	-4.707238	2.411342	
12:57:13	-6.728674	38.94612	126.798	0.1095075	0.3921079	0.09	3	100	0	6546	5.34435	-4.480963	2.215096	
12:57:13	-6.728673	38.94612	126.83	0.1244205	0.70524	0.13	3	100	0	6546	5.829466	-4.669648	1.939257	
12:57:13	-6.728673	38.94612	126.847	0.09814233	-1.268844	0.29	3	100	0	6546	3.86336	-4.603678	1.706408	
12:57:13	-6.728673	38.94612	126.934	0.04960643	-4.223185	0.38	3	100	0	6546	0.2095269	-4.131313	1.594177	
12:57:14	-6.728674	38.94612	126.934	0.02417657	-5.44443	0.45	3	100	0	6546	0.1433396	-4.136829	1.728785	
12:57:14	-6.728674	38.94612	126.982	0.008984257	-7.361044	0.07	3	100	0	6546	3.708815	-4.114709	1.790653	
12:57:14	-6.728674	38.94612	126.97	-0.02200231	-8.89169	0.31	3	100	0	6546	2.472525	-4.343969	1.630172	
12:57:14	-6.728674	38.94612	127.012	-0.07503612	-11.09884	0.08	3	100	0	6546	-0.1652651	-4.169553	1.689968	
12:57:14	-6.728674	38.94612	126.99	-0.1341133	-14.53751	0.09	3	100	0	6546	1.223811	-4.43644	1.722864	
12:57:15	-6.728673	38.94612	126.975	-0.2123017	-18.58207	0.33	3	100	0	6546	2.2581	-4.492465	1.712724	
12:57:15	-6.728673	38.94612	126.975	-0.2744634	-20.01397	0.26	3	100	0	6546	0.7767184	-4.657185	1.721742	
12:57:15	-6.728673	38.94612	127.042	-0.3246849	-21.79214	0.06	3	100	0	6546	1.615308	-4.453566	1.792352	
12:57:15	-6.728673	38.94612	127.063	-0.3687075	-22.88893	0.06	3	100	0	6546	2.02966	-4.384116	1.737338	
12:57:15	-6.728673	38.94612	127.104	-0.403373	-23.14343	0.11	3	100	0	6546	-0.1373167	-4.360084	1.694506	
12:57:16	-6.728673	38.94612	127.255	-0.4354468	-23.75387	0.19	3	100	0	6546	-2.350205	-4.611691	1.869498	
12:57:16	-6.728673	38.94612	127.391	-0.4330442	-23.01442	0.04	3	100	0	6546	-3.563255	-4.363396	2.157933	
12:57:16	-6.728673	38.94612	127.511	-0.4301094	-22.18475	0.09	3	100	0	6546	-5.19267	-4.503091	2.48151	
12:57:16	-6.728673	38.94612	127.708	-0.4030048	-20.03003	0.16	3	100	0	6546	-5.596611	-4.37019	2.780757	
12:57:17	-6.728672	38.94612	127.929	-0.3812417	-17.86704	0.33	3	100	0	6546	-5.031306	-4.363649	3.204774	
12:57:17	-6.728672	38.94612	127.983	-0.3413291	-15.58599	0.01	3	100	0	6546	-4.970407	-4.279423	3.605911	
12:57:17	-6.728671	38.94613	128.082	-0.3076142	-13.22375	0.07	3	100	0	6546	-5.355864	-4.347549	3.967781	
12:57:17	-6.728671	38.94613	128.184	-0.2835421	-12.62863	0.09	3	100	0	6546	-5.843318	-4.370861	4.2383	
12:57:17	-6.728671	38.94613	128.314	-0.2627186	-12.03379	0.12	3	100	0	6546	-4.717294	-4.358332	4.560986	
12:57:18	-6.728671	38.94613	128.471	-0.225064	-9.627427	0.04	3	100	0	6546	-4.320605	-4.333232	4.8638	
12:57:18	-6.728671	38.94613	128.65	-0.1937943	-8.393483	0.08	3	100	0	6546	-4.397386	-4.393822	5.188364	
12:57:18	-6.728671	38.94613	128.695	-0.1528065	-6.460699	0.08	3	100	0	6546	-3.980565	-4.349114	5.473012	
12:57:18	-6.728671	38.94613	128.717	-0.117199	-5.28805	0.11	3	100	0	6546	-2.762127	-4.241665	5.611203	
12:57:18	-6.728671	38.94613	128.797	-0.1039767	-5.769943	0.19	3	100	0	6546	0.005674649	-4.22437	5.718149	
12:57:18	-6.728671	38.94613	128.93	-0.09461395	-5.924601	0.34	3	100	0	6546	2.124242	-4.498175	5.61734	
12:57:19	-6.728671	38.94613	129.008	-0.048238	-2.504282	0.17	3	100	0	6546	0.6916744	-4.609069	5.500165	
12:57:19	-6.728671	38.94613	129.136	-0.008938173	-0.6635443	0.09	3	100	0	6546	0.5790048	-4.474699	5.400883	
12:57:19	-6.728671	38.94613	129.136	-0.008711765	-1.141631	0.21	3	100	0	6547	1.484934	-4.350463	5.286468	
12:57:19	-6.728671	38.94613	129.223	-0.008718978	-1.442886	0.12	3	100	0	6546	0.8958823	-4.515109	5.213198	
12:57:19	-6.728671	38.94613	129.305	-0.00675453	-0.9919845	0.26	3	100	0	6546	0.5538836	-4.50387	5.190779	
12:57:20	-6.728671	38.94613	129.385	-0.005959975	-2.051812	0.19	3	100	0	6546	1.585014	-4.597808	5.118825	
12:57:20	-6.72867	38.94613	129.515	-0.02167193	-2.89417	0.12	3	100	0	6546	1.590022	-4.473079	4.93027	
12:57:20	-6.728671	38.94613	129.636	-0.05755179	-4.518373	0.16	3	100	0	6546	1.393605	-4.291107	4.866243	
12:57:20	-6.728671	38.94613	129.725	-0.09328739	-6.859586	0.08	3	100	0	6546	1.472956	-4.342331	4.788508	
12:57:20	-6.72867	38.94613	129.834	-0.1300784	-8.380088	0.35	3	100	0	6546	1.369029	-4.178871	4.728078	
12:57:21	-6.72867	38.94613	129.931	-0.1781631	-10.38586	0.19	3	100	0	6546	1.657153	-4.3845	4.593056	
12:57:21	-6.728671	38.94613	130.05	-0.2298815	-12.20974	0.03	3	100	0	6546	1.332836	-3.99495	4.507585	
12:57:21	-6.728671	38.94613	130.149	-0.2810889	-14.02968	0.11	3	100	0	6546	1.517269	-4.124707	4.454569	
12:57:21	-6.728671	38.94613	130.283	-0.3295731	-15.03465	0.12	3	100	0	6546	1.807501	-4.191384	4.384418	
12:57:21	-6.728671	38.94613	130.403	-0.3344524	-13.92735	0.08	3	100	0	6546	1.491181	-4.151504	4.293272	
12:57:22	-6.728671	38.94613	130.481	-0.3077675	-11.4132	0.08	3	100	0	6546	1.553327	-4.141694	4.15721	
12:57:22	-6.728671	38.94613	130.596	-0.2907122	-9.401949	0.16	3	100	0	6546	1.319985	-4.268103	4.09657	
12:57:22	-6.72867	38.94613	130.688	-0.2770975	-7.756678	0.06	3	100	0	6546	1.250966	-4.150543	4.077296	
12:57:22	-6.72867	38.94613	130.842	-0.26054	-5.863342	0.13	3	100	0	6547	1.412153	-4.287064	4.038043	
12:57:22	-6.72867	38.94613	130.878	-0.2346036	-4.589402	0.08	3	100	0	6546	1.550441	-4.36996	3.817431	
12:57:23	-6.72867	38.94613	130.886	-0.2222748	-3.434751	0.07	3	100	0	6546	1.170667	-4.351883	3.759144	
12:57:23	-6.72867	38.94613	130.96	-0.2159543	-2.591699	0.18	3	100	0	6546	1.022142	-4.340044	3.723218	
12:57:23	-6.72867	38.94613	131.042	-0.2033496	-1.961679	0.09	3	100	0	6546	1.563834	-4.497754	3.679116	
12:57:23	-6.72867	38.94613	131.027	-0.1883619	-1.47746	0.04	3	100	0	6546	1.292707	-4.412881	3.589612	
12:57:24	-6.72867	38.94613	131.105	-0.1919714	-1.872327	0.14	3	100	0	6546	0.7454284	-4.404069	3.532999	
12:57:24	-6.728669	38.94613	131.194	-0.2060045	-3.146809	0.18	3	100	0	6546	0.9545605	-4.480961	3.531721	
12:57:24	-6.728669	38.94613	131.273	-0.2224116	-3.966036	0.17	3	100	0	6546	1.093097	-4.468972	3.517452	
12:57:24	-6.728669	38.94613	131.351	-0.2442299	-4.757085	0.06	3	100	0	6546	0.6814365	-4.456355	3.523694	
12:57:24	-6.728669	38.94613	131.36	-0.2447918	-4.755592	0.12	3	100	0	6546	0.5750108	-4.372662	3.393337	
12:57:25	-6.728669	38.94613	131.448	-0.2171646	-3.868473	0.07	3	100	0	6546	0.9647962	-4.304742	3.371832	
12:57:25	-6.728669	38.94613	131.463	-0.1949749	-2.740251	0.17	3	100	0	6546	1.144873	-4.406033	3.359736	
12:57:25	-6.728669	38.94613	131.458	-0.1924998	-2.822519	0.28	3	100	0	6546	0.8178185	-4.246269	3.365671	
12:57:25	-6.72867	38.94613	131.46	-0.1896704	-2.126994	0.17	3	100	0	6546	0.8513946	-4.103333	3.279464	
12:57:25	-6.72867	38.94613	131.468	-0.160198	-0.82334	0.18	3	100	0	6546	1.063539	-4.17632	3.22222	
12:57:26	-6.72867	38.94613	131.486	-0.1365433	0.4787419	0.14	3	100	0	6546	0.8981591	-4.22673	3.21924	
12:57:26	-6.728671	38.94613	131.529	-0.07985082	3.322184	0.19	3	100	0	6546	0.6380021	-4.26816	3.245535	
12:57:26	-6.728671	38.94613	131.551	-0.03020789	4.700091	0.29	3	100	0	6546	0.772073	-4.185378	3.255721	
12:57:26	-6.728671	38.94613	131.497	-0.009582549	5.643385	0.06	3	100	0	6546	1.056598	-4.181678	3.091073	
12:57:26	-6.728671	38.94613	131.533	0.009723882	6.030684	0.09	3	100	0	6546	1.125538	-4.325596	3.062441	
12:57:27	-6.728671	38.94613	131.524	0.053608	7.724151	0.24	3	100	0	6546	0.932232	-4.303296	3.071992	
12:57:27	-6.728671	38.94613	131.6	0.09203693	9.094486	0.08	3	100	0	6546	1.027911	-4.277796	3.099073	
12:57:27	-6.728671	38.94613	131.657	0.1184309	9.286024	0.18	3	100	0	6546	1.447379	-4.45323	3.0025	
12:57:27	-6.728671	38.94613	131.753	0.1400161	9.190876	0.14	3	100	0	6546	1.423297	-4.582758	2.94075	
12:57:27	-6.728671	38.94613	131.799	0.1483538	8.797756	0.17	3	100	0	6546	1.276322	-4.590479	2.931998	
12:57:28	-6.728671	38.94613	131.841	0.1536089	8.091812	0.11	3	100	0	6546	1.229647	-4.56024	2.93167	
12:57:28	-6.728671	38.94613	131.902	0.09552908	3.518363	0.08	3	100	0	6546	1.068167	-4.346549	2.936729	
12:57:28	-6.728671	38.94613	131.962	0.04029611	-0.08401684	0.14	3	100	0	6546	1.165659	-4.318438	2.806071	
12:57:28	-6.728671	38.94613	131.961	-0.02657885	-4.334138	0.09	3	100	0	6545	1.31404	-4.433803	2.76362	
12:57:28	-6.728671	38.94613	131.994	-0.08781956	-7.900201	0.21	3	100	0	6546	1.215485	-4.544896	2.75136	
12:57:29	-6.728671	38.94613	132.032	-0.09211119	-7.464653	0.07	3	100	0	6546	1.285951	-4.576669	2.73241	
12:57:29	-6.728671	38.94613	132.07	-0.09414776	-6.914528	0.18	3	100	0	6546	1.423451	-4.494071	2.62942	
12:57:29	-6.728671	38.94613	132.089	-0.1022386	-6.436943	0.12	3	100	0	6546	1.245342	-4.540195	2.553859	
12:57:29	-6.728671	38.94613	132.13	-0.1093169	-6.843731	0.16	3	100	0	6545	1.048122	-4.336759	2.574049	
12:57:29	-6.728672	38.94613	132.125	-0.1360377	-8.090113	0.47	3	100	0	6546	1.15465	-4.23785	2.599058	
12:57:30	-6.728672	38.94613	132.187	-0.1571551	-8.243728	0.11	3	100	0	6546	1.011564	-4.077083	2.580277	
12:57:30	-6.728672	38.94613	132.14	-0.1746033	-8.339699	0.32	3	100	0	6546	1.092963	-4.274119	2.482422	
12:57:30	-6.728671	38.94613	132.106	-0.1859578	-8.401311	0.13	3	100	0	6546	1.302111	-4.318626	2.49447	
12:57:30	-6.728671	38.94613	132.117	-0.1837838	-6.932311	0.18	3	100	0	6546	1.478719	-4.450565	2.474445	
12:57:30	-6.728671	38.94613	132.135	-0.1691528	-5.604604	0.04	3	100	0	6546	1.325976	-4.404852	2.449208	
12:57:31	-6.728671	38.94613	132.123	-0.1434966	-4.10097	0.09	3	100	0	6546	1.377251	-4.483404	2.329021	
12:57:31	-6.728672	38.94613	132.178	-0.1151862	-2.708386	0.04	3	100	0	6546	1.545901	-4.515207	2.291324	
12:57:31	-6.728672	38.94613	132.19	-0.1774717	-6.243056	0.09	3	100	0	6546	1.540831	-4.59425	2.268617	
12:57:31	-6.728672	38.94613	132.211	-0.2941761	-11.97134	0.14	3	100	0	6546	1.655936	-4.629129	2.25662	
12:57:31	-6.728672	38.94613	132.208	-0.3688539	-14.52924	0.14	3	100	0	6546	1.784979	-4.711033	2.238478	
12:57:32	-6.728672	38.94613	132.248	-0.4119838	-15.91652	0.17	3	100	0	6546	1.744698	-4.718055	2.185083	
12:57:32	-6.728672	38.94613	132.284	-0.454091	-16.69758	0.35	3	100	0	6546	1.881625	-4.699444	2.146921	
12:57:32	-6.728672	38.94613	132.349	-0.4903188	-17.28679	0.16	3	100	0	6546	2.017793	-4.73624	2.112958	
12:57:32	-6.728672	38.94613	132.4	-0.5078906	-15.86307	0.09	3	100	0	6547	1.806224	-4.626112	2.088017	
12:57:32	-6.728672	38.94613	132.516	-0.5097264	-14.83147	0.12	3	100	0	6546	1.707675	-4.533559	1.993754	
12:57:33	-6.728672	38.94613	132.547	-0.4896159	-12.48861	0.17	3	100	0	6546	1.598932	-4.514547	1.955271	
12:57:33	-6.728672	38.94613	132.561	-0.4566929	-9.975733	0.14	3	100	0	6546	1.828902	-4.615762	1.930553	
12:57:33	-6.728671	38.94613	132.579	-0.428946	-7.800576	0.16	3	100	0	6546	1.793913	-4.628399	1.895591	
12:57:33	-6.728671	38.94613	132.582	-0.4054274	-6.134198	0.09	3	100	0	6546	1.773918	-4.614872	1.861367	
12:57:33	-6.728671	38.94613	132.632	-0.3594053	-3.23172	0.06	3	100	0	6546	1.76537	-4.466252	1.793831	
12:57:34	-6.728672	38.94613	132.639	-0.3064453	-0.6595764	0.04	3	100	0	6546	1.690092	-4.448125	1.794354	
12:57:34	-6.728672	38.94613	132.635	-0.2645212	1.10523	0.08	3	100	0	6546	1.79154	-4.504748	1.78253	
12:57:34	-6.728671	38.94613	132.658	-0.2381583	2.037268	0.04	3	100	0	6546	1.761845	-4.543355	1.774364	
12:57:34	-6.728672	38.94613	132.667	-0.2097631	3.20736	0.04	3	100	0	6546	1.735203	-4.477325	1.656769	
12:57:34	-6.728672	38.94613	132.621	-0.1766133	4.642583	0.03	3	100	0	6546	1.801871	-4.498174	1.603345	
12:57:35	-6.728671	38.94613	132.636	-0.1498941	5.54708	0.09	3	100	0	6546	1.840493	-4.519363	1.594834	
12:57:35	-6.728672	38.94613	132.605	-0.1544034	4.111828	0.26	3	100	0	6546	1.732369	-4.423191	1.599085	
12:57:35	-6.728672	38.94613	132.658	-0.1613032	2.293762	0.02	3	100	0	6546	2.280304	-4.387755	1.545293	
12:57:35	-6.728672	38.94613	132.676	-0.1556832	3.650867	0.17	3	100	0	6546	2.167507	-4.607398	1.379529	
12:57:35	-6.728672	38.94613	132.664	-0.1495131	4.896035	0.09	3	100	0	6546	1.805575	-4.628375	1.358037	
12:57:36	-6.728672	38.94613	132.685	-0.140109	3.372492	0.13	3	100	0	6546	2.487547	-4.575336	1.332302	
12:57:36	-6.728672	38.94613	132.693	-0.1328626	4.42625	0.02	3	100	0	6546	2.113819	-4.600988	1.290338	
12:57:36	-6.728672	38.94613	132.722	-0.1416065	3.517804	0.08	3	100	0	6546	2.136144	-4.590511	1.115342	
12:57:36	-6.728672	38.94613	132.774	-0.151116	2.336081	0.25	3	100	0	6546	2.171654	-4.488885	1.052465	
12:57:36	-6.728672	38.94613	132.761	-0.123027	3.710527	0.08	3	100	0	6546	2.139014	-4.525806	1.053193	
12:57:37	-6.728672	38.94613	132.794	-0.0997171	5.111272	0.16	3	100	0	6546	2.21048	-4.554684	1.047789	
12:57:37	-6.728672	38.94613	132.83	-0.1169237	3.902349	0.03	3	100	0	6546	2.18464	-4.584621	0.9779333	
12:57:37	-6.728672	38.94613	132.821	-0.1330596	2.986202	0.11	3	100	0	6546	2.421079	-4.595975	0.8894891	
12:57:37	-6.728672	38.94613	132.814	-0.1124703	4.200607	0.26	3	100	0	6546	2.152602	-4.487698	0.8834758	
12:57:37	-6.728673	38.94613	132.786	-0.09579816	4.958671	0.22	3	100	0	6546	2.139806	-4.443286	0.901007	
12:57:38	-6.728673	38.94613	132.752	-0.07696841	5.841098	0.07	3	100	0	6546	2.48879	-4.515392	0.8796987	
12:57:38	-6.728673	38.94613	132.73	-0.06015544	6.501166	0.19	3	100	0	6546	2.289731	-4.565934	0.7587532	
12:57:38	-6.728673	38.94613	132.743	-0.1113684	2.49185	0.14	3	100	0	6546	2.407956	-4.68451	0.6762964	
12:57:38	-6.728673	38.94613	132.701	-0.1597579	-0.3608633	0.14	3	100	0	6546	2.769368	-4.775057	0.6442429	
12:57:38	-6.728673	38.94613	132.695	-0.2040639	-2.722817	0.01	3	100	0	6546	2.539196	-4.670856	0.6142194	
12:57:39	-6.728673	38.94613	132.708	-0.2404928	-4.183851	0.14	3	100	0	6546	2.543387	-4.689384	0.59743	
12:57:39	-6.728673	38.94613	132.756	-0.2397159	-3.748173	0.21	3	100	0	6546	2.237552	-4.627018	0.5292023	
12:57:39	-6.728673	38.94613	132.745	-0.2381731	-3.429467	0.14	3	100	0	6546	2.363973	-4.658171	0.4978465	
12:57:39	-6.728673	38.94613	132.819	-0.2144208	-1.790953	0.14	3	100	0	6546	2.486964	-4.789641	0.4713343	
12:57:39	-6.728672	38.94613	132.84	-0.1944413	-0.7191097	0.09	3	100	0	6546	2.829289	-4.808116	0.4458876	
12:57:40	-6.728672	38.94613	132.821	-0.1609285	1.515159	0.04	3	100	0	6545	2.470193	-4.653333	0.2587689	
12:57:40	-6.728672	38.94613	132.807	-0.1097856	4.263142	0.07	3	100	0	6546	2.463713	-4.530782	0.2142812	
12:57:40	-6.728672	38.94613	132.787	-0.07181226	5.717323	0.09	3	100	0	6546	2.212234	-4.560151	0.206496	
12:57:40	-6.728672	38.94613	132.781	-0.04870273	6.097023	0.32	3	100	0	6546	2.238836	-4.390563	0.2309226	
12:57:40	-6.728672	38.94613	132.748	-0.0259533	6.804035	0.14	3	100	0	6546	2.067571	-4.333037	0.1812255	
12:57:41	-6.728672	38.94613	132.714	-0.007638297	7.164183	0.08	3	100	0	6546	2.324761	-4.516591	0.1887625	
12:57:41	-6.728672	38.94613	132.711	0.03707067	8.76505	0.12	3	100	0	6546	2.516716	-4.527632	0.1882266	
12:57:41	-6.728671	38.94613	132.729	0.09467505	10.91957	0.12	3	100	0	6546	2.366741	-4.586214	0.1986749	
12:57:41	-6.728671	38.94613	132.652	0.1356621	11.69723	0.06	3	100	0	6546	2.134902	-4.633548	0.2080043	
12:57:41	-6.728671	38.94613	132.664	0.162511	15.11714	0.22	3	100	0	6546	2.075452	-4.561279	0.09639595	
12:57:42	-6.728671	38.94613	132.641	0.1741279	15.87543	0.11	3	100	0	6546	2.352493	-4.590672	0.09241974	
12:57:42	-6.728671	38.94613	132.663	0.1533668	13.29432	0.02	3	100	0	6546	2.16492	-4.53687	0.1022032	
12:57:42	-6.728671	38.94613	132.697	0.1403512	11.46551	0.12	3	100	0	6546	2.409886	-4.434374	0.1354499	
12:57:42	-6.728671	38.94613	132.72	0.1380813	10.61288	0.11	3	100	0	6546	2.08208	-4.469134	-0.00064728	
12:57:42	-6.728671	38.94613	132.709	0.1346599	9.912245	0.32	3	100	0	6546	2.726051	-4.730906	-0.04222874	
12:57:43	-6.728671	38.94613	132.669	0.1296877	8.506091	0.14	3	100	0	6546	2.117615	-4.640997	-0.04958486	
12:57:43	-6.728671	38.94613	132.678	0.1106692	7.256433	0.03	3	100	0	6546	2.042904	-4.523691	-0.003424931	
12:57:43	-6.72867	38.94613	132.719	0.08430691	4.876744	0.09	3	100	0	6546	2.517529	-4.539183	-0.01861954	
12:57:43	-6.72867	38.94613	132.707	0.06466017	4.056608	0.08	3	100	0	6546	2.306033	-4.519957	-0.1033544	
12:57:43	-6.72867	38.94613	132.687	0.0503702	2.404161	0.13	3	100	0	6546	2.385718	-4.560153	-0.105498	
12:57:44	-6.728669	38.94613	132.73	0.05206532	1.990637	0.13	3	100	0	6546	1.708059	-4.585079	-0.05175572	
12:57:44	-6.728669	38.94613	132.734	0.07553633	3.338329	0.07	3	100	0	6546	0.5608825	-4.548944	0.02170542	
12:57:44	-6.728669	38.94613	132.655	0.09648664	3.305884	0.32	3	100	0	6546	1.980646	-4.372496	0.009898896	
12:57:44	-6.728669	38.94613	132.613	0.1227013	4.311774	0.06	3	100	0	6546	1.180811	-4.336255	0.05274557	
12:57:44	-6.728669	38.94613	132.626	0.1439175	4.808064	0.28	3	100	0	6546	1.198783	-4.260064	0.160909	
12:57:45	-6.72867	38.94613	132.596	0.1516871	3.978297	0.33	3	100	0	6546	1.845	-4.148255	0.220519	
12:57:45	-6.72867	38.94613	132.598	0.1573874	3.634212	0.14	3	100	0	6546	0.3415831	-4.356575	0.2403639	
12:57:45	-6.72867	38.94613	132.553	0.1422349	1.793684	0.09	3	100	0	6546	1.580806	-4.546071	0.2377405	
12:57:45	-6.72867	38.94613	132.606	0.1273742	-0.1921118	0.59	3	100	0	6546	1.710079	-4.121038	0.2810537	
12:57:45	-6.72867	38.94613	132.46	0.1410508	0.7474936	0.31	3	100	0	6546	1.166032	-3.956722	0.3852441	
12:57:46	-6.72867	38.94613	132.383	0.1535359	1.361465	0.22	3	100	0	6546	1.605828	-4.122731	0.459562	
12:57:46	-6.72867	38.94613	132.244	0.09967977	-1.00555	0.19	3	100	0	6545	1.572624	-4.204948	0.3667508	
12:57:46	-6.72867	38.94613	132.183	0.06047676	-2.635368	0.09	3	100	0	6546	1.689076	-4.234008	0.3694376	
12:57:46	-6.72867	38.94613	132.179	0.08037017	-1.065688	0.04	3	100	0	6546	1.663914	-4.28056	0.3961825	
12:57:46	-6.72867	38.94613	132.233	0.09744649	0.1210317	0.09	3	100	0	6546	1.783683	-4.390131	0.4480121	
12:57:47	-6.72867	38.94613	132.285	0.08712349	-0.4372253	0.09	3	100	0	6546	1.891983	-4.482041	0.4319409	
12:57:47	-6.72867	38.94613	132.288	0.07759482	-0.6192962	0.09	3	100	0	6546	1.839616	-4.299064	0.3640932	
12:57:47	-6.72867	38.94613	132.262	0.07235578	-0.6724033	0.13	3	100	0	6546	1.741964	-4.199202	0.387427	
12:57:47	-6.72867	38.94613	132.225	0.06832665	-0.4566688	0.09	3	100	0	6546	1.991665	-4.291835	0.4274025	
12:57:47	-6.72867	38.94613	132.215	0.1200635	2.084548	0.06	3	100	0	6546	1.12555	-4.295422	0.4480434	
12:57:48	-6.72867	38.94613	132.261	0.1729732	4.753057	0.08	3	100	0	6546	0.6597162	-4.272549	0.3775504	
12:57:48	-6.72867	38.94613	132.271	0.1905749	4.645509	0.14	3	100	0	6546	0.7220733	-4.370481	0.4372151	
12:57:48	-6.728669	38.94613	132.341	0.2056658	5.19696	0.03	3	100	0	6546	0.7183523	-4.348055	0.5393321	
12:57:48	-6.728669	38.94613	132.366	0.2293878	5.343786	0.14	3	100	0	6546	0.6562874	-4.207455	0.651641	
12:57:48	-6.72867	38.94613	132.406	0.2470528	5.594826	0.14	3	100	0	6546	1.145593	-4.190757	0.7119892	
12:57:49	-6.72867	38.94613	132.454	0.2277052	4.588511	0.08	3	100	0	6546	0.6342316	-4.251203	0.6432752	
12:57:49	-6.72867	38.94613	132.491	0.210333	3.573419	0.06	3	100	0	6548	0.2921623	-4.387796	0.7599474	
12:57:49	-6.72867	38.94613	132.51	0.219219	3.663672	0.16	3	100	0	6546	1.364685	-4.45471	0.8641722	
12:57:49	-6.72867	38.94613	132.501	0.2264758	3.426354	0.04	3	100	0	6546	1.483438	-4.386894	0.9235829	
12:57:49	-6.72867	38.94613	132.55	0.2298393	3.093399	0.18	3	100	0	6546	2.030143	-4.494266	0.7967539	
12:57:50	-6.72867	38.94613	132.599	0.2303978	2.941946	0.09	3	100	0	6546	2.185058	-4.39951	0.7850568	
12:57:50	-6.728669	38.94613	132.554	0.242569	3.439871	0.19	3	100	0	6546	1.962558	-4.479359	0.8007571	
12:57:50	-6.728669	38.94613	132.537	0.2639876	4.94839	0.04	3	100	0	6546	1.170298	-4.423279	0.8554248	
12:57:50	-6.728669	38.94613	132.527	0.2828065	5.591574	0.28	3	100	0	6546	1.305976	-4.194352	0.9111357	
12:57:50	-6.72867	38.94613	132.488	0.2974588	4.962515	0.12	3	100	0	6546	2.217993	-4.425743	0.8345578	
12:57:51	-6.728669	38.94613	132.472	0.3014392	4.451367	0.14	3	100	0	6546	0.7402517	-4.459352	0.8687249	
12:57:51	-6.728669	38.94613	132.558	0.299868	3.665919	0.11	3	100	0	6546	0.615422	-4.232387	1.005728	
12:57:51	-6.728669	38.94613	132.499	0.3084396	3.040377	0.06	3	100	0	6546	-0.2649315	-4.202032	1.123154	
12:57:51	-6.728669	38.94613	132.525	0.3219661	2.508946	0.06	3	100	0	6547	-2.830971	-4.286341	1.205999	
12:57:51	-6.728669	38.94613	132.6	0.322534	2.559498	0.16	3	100	0	6546	-2.366297	-4.232453	1.522276	
12:57:52	-6.728669	38.94613	132.628	0.307584	0.3149543	0.22	3	100	0	6546	-0.4169053	-4.146263	1.773785	
12:57:52	-6.728669	38.94613	132.486	0.264909	-2.528551	0.01	3	100	0	6546	-0.08792913	-4.244292	1.902117	
12:57:52	-6.728668	38.94613	132.535	0.1805193	-7.091015	0.38	3	100	0	6546	-1.223329	-4.057278	1.939707	
12:57:52	-6.728668	38.94613	132.518	0.1240621	-10.66726	0.11	3	100	0	6546	-1.445477	-4.021426	2.122021	
12:57:52	-6.728668	38.94613	132.482	0.07931833	-13.32798	0.07	3	100	0	6546	-1.93116	-4.062619	2.317956	
12:57:53	-6.728668	38.94613	132.518	-0.006767428	-17.32113	0.21	3	100	0	6546	-2.876969	-4.113222	2.54817	
12:57:53	-6.728668	38.94613	132.611	-0.1043188	-22.10135	0.22	3	100	0	6546	-2.683296	-4.210455	2.820859	
12:57:53	-6.728667	38.94613	132.677	-0.2006824	-25.89995	0.11	3	100	0	6546	-1.935968	-4.219567	2.895543	
12:57:53	-6.728667	38.94613	132.664	-0.2679119	-27.838	0.12	3	100	0	6546	-1.535829	-4.222829	3.089983	
12:57:53	-6.728667	38.94613	132.718	-0.3431734	-29.64457	0.58	3	100	0	6546	-1.67275	-4.245924	3.265187	
12:57:54	-6.728667	38.94613	132.674	-0.4136236	-31.89693	0.33	3	100	0	6546	-1.981341	-3.62263	3.511459	
12:57:54	-6.728667	38.94613	132.616	-0.4886539	-33.79702	0.14	3	100	0	6546	-0.8538678	-3.536372	3.556067	
12:57:54	-6.728666	38.94613	132.54	-0.547225	-34.54383	0.14	3	100	0	6546	-0.6174204	-3.737581	3.619725	
12:57:54	-6.728666	38.94613	132.612	-0.5949562	-34.07314	0.12	3	100	0	6546	-0.3300593	-3.794963	3.72572	
12:57:54	-6.728666	38.94613	132.686	-0.6021395	-31.28891	0.22	3	100	0	6546	0.2423229	-3.757821	3.81135	
12:57:55	-6.728666	38.94613	132.75	-0.6028005	-28.47153	0.07	3	100	0	6546	0.1810569	-3.969191	3.844971	
12:57:55	-6.728666	38.94613	132.849	-0.5411226	-22.62161	0.14	3	100	0	6546	0.1408447	-3.911876	3.838591	
12:57:55	-6.728666	38.94613	132.91	-0.4871044	-18.73676	0.21	3	100	0	6546	0.7913807	-4.062812	3.875885	
12:57:55	-6.728666	38.94613	132.942	-0.3913229	-11.74859	0.16	3	100	0	6546	0.764216	-4.23233	3.887623	
12:57:55	-6.728666	38.94613	132.922	-0.3075638	-5.57051	0.07	3	100	0	6546	0.9238103	-4.219902	3.895993	
12:57:56	-6.728666	38.94613	132.945	-0.2454419	-2.033283	0.11	3	100	0	6546	1.263476	-4.151618	3.718907	
12:57:56	-6.728665	38.94613	133.011	-0.1813418	1.792824	0.29	3	100	0	6546	0.6883091	-4.205264	3.705571	
12:57:56	-6.728665	38.94613	133.013	-0.1338416	4.323193	0.02	3	100	0	6546	1.073241	-4.433476	3.72954	
12:57:56	-6.728665	38.94613	133.03	-0.08741521	5.884776	0.04	3	100	0	6546	1.019172	-4.130096	3.748371	
12:57:56	-6.728665	38.94613	133.042	-0.05068507	7.006904	0.17	3	100	0	6546	0.8288801	-4.136146	3.72863	
12:57:57	-6.728664	38.94613	133.035	-0.01559076	7.803628	0.08	3	100	0	6546	1.08876	-4.244695	3.693003	
12:57:57	-6.728664	38.94613	133.06	0.06788539	11.59217	0.06	3	100	0	6546	1.035734	-4.132955	3.702183	
12:57:57	-6.728664	38.94613	133.062	0.1419026	14.62615	0.04	3	100	0	6546	1.012936	-4.173109	3.712931	
12:57:57	-6.728664	38.94613	133.074	0.2058221	16.88883	0.07	3	100	0	6546	1.080125	-4.188792	3.741018	
12:57:57	-6.728664	38.94613	133.116	0.2649681	18.1583	0.02	3	100	0	6546	1.189397	-4.134057	3.622351	
12:57:58	-6.728664	38.94613	133.157	0.2536465	16.84721	0.09	3	100	0	6546	1.001653	-4.165767	3.610714	
12:57:58	-6.728664	38.94613	133.214	0.2426642	14.92172	0.14	3	100	0	6546	1.484945	-4.273234	3.618189	
12:57:58	-6.728664	38.94613	133.288	0.2332671	13.3156	0.14	3	100	0	6546	0.7953681	-4.079317	3.641318	
12:57:58	-6.728664	38.94613	133.288	0.2235127	11.77774	0.11	3	100	0	6546	1.266161	-4.226216	3.567967	
12:57:58	-6.728664	38.94613	133.271	0.1877995	9.171511	0.03	3	100	0	6546	1.103172	-3.958766	3.470881	
12:57:59	-6.728664	38.94613	133.29	0.1565831	6.653052	0.19	3	100	0	6546	1.108212	-4.07842	3.485885	
12:57:59	-6.728663	38.94613	133.285	0.1879061	7.44405	0.22	3	100	0	6546	1.23383	-4.147771	3.456773	
12:57:59	-6.728663	38.94613	133.284	0.2133715	9.961486	0.06	3	100	0	6546	-2.107699	-4.422095	3.560154	
12:57:59	-6.728663	38.94613	133.31	0.2368466	9.542201	0.22	3	100	0	6546	-5.891099	-4.213027	3.715358	
12:57:59	-6.728663	38.94613	133.312	0.2543157	8.913816	0.14	3	100	0	6546	-6.157075	-3.872818	4.166726	
12:58:00	-6.728663	38.94613	133.356	0.2709219	8.086329	0.09	3	100	0	6546	-1.537205	-4.116947	4.557282	
12:58:00	-6.728663	38.94613	133.388	0.2854339	6.745988	0.04	3	100	0	6546	3.479408	-4.286204	4.560549	
12:58:00	-6.728662	38.94613	133.418	0.3144087	8.313034	0.18	3	100	0	6546	3.148993	-4.231592	4.265305	
12:58:00	-6.728662	38.94613	133.388	0.3562027	9.619333	0.26	3	100	0	6546	0.3798914	-4.170866	4.143416	
12:58:01	-6.728662	38.94613	133.357	0.3865274	9.733566	0.14	3	100	0	6546	0.9529862	-4.207441	4.177376	
12:58:01	-6.728662	38.94613	133.337	0.4073318	9.055261	0.01	3	100	0	6546	2.149675	-3.997633	4.162402	
12:58:01	-6.728662	38.94613	133.359	0.4472272	11.23613	0.09	3	100	0	6546	1.233525	-4.14328	4.111336	
12:58:01	-6.728662	38.94613	133.306	0.4983358	13.15879	0.11	3	100	0	6546	1.271272	-4.188224	4.062824	
12:58:01	-6.728662	38.94613	133.272	0.504964	12.51948	0.14	3	100	0	6546	1.564865	-4.069476	4.04752	
12:58:02	-6.728662	38.94613	133.28	0.4881554	10.9498	0.09	3	100	0	6546	1.334292	-4.03876	4.011507	
12:58:02	-6.728662	38.94613	133.196	0.4636576	8.630546	0.29	3	100	0	6546	1.383082	-4.169901	3.999043	
12:58:02	-6.728663	38.94613	133.054	0.4274403	5.844597	0.13	3	100	0	6546	1.371638	-3.993058	3.856728	
12:58:02	-6.728663	38.94613	132.983	0.3891819	3.607752	0.08	3	100	0	6546	1.501937	-4.305144	3.778398	
12:58:02	-6.728663	38.94613	132.958	0.3540541	1.983206	0.12	3	100	0	6546	1.72222	-4.208114	3.730537	
12:58:02	-6.728662	38.94613	133	0.3100145	-0.7375448	0.06	3	100	0	6546	1.627526	-4.258097	3.711357	
12:58:03	-6.728662	38.94613	133.034	0.2691894	-2.599053	0.25	3	100	0	6546	1.998562	-4.37334	3.574289	
12:58:03	-6.728662	38.94613	133.025	0.2476614	-3.412824	0.09	3	100	0	6546	2.175947	-4.570037	3.48321	
12:58:03	-6.728662	38.94613	133.104	0.2396044	-3.050013	0.18	3	100	0	6546	2.03635	-4.431957	3.419924	
12:58:03	-6.728662	38.94613	133.011	0.2147772	-3.635228	0.41	3	100	0	6546	2.122164	-4.193779	3.363717	
12:58:03	-6.728662	38.94613	132.96	0.1660933	-6.40118	0.18	3	100	0	6546	1.997894	-4.172437	3.34351	
12:58:04	-6.728662	38.94613	132.917	0.1349867	-7.650545	0.11	3	100	0	6546	2.387335	-4.157052	3.109407	
12:58:04	-6.728662	38.94613	132.917	0.1253346	-7.5	0.09	3	100	0	6546	2.249751	-4.226628	2.983064	
12:58:04	-6.728662	38.94613	132.898	0.1191635	-7.080898	0.33	3	100	0	6546	2.114932	-4.233202	2.935344	
12:58:04	-6.728662	38.94613	132.962	0.1321844	-5.807562	0.04	3	100	0	6546	2.015862	-4.120533	2.909962	
12:58:04	-6.728662	38.94613	132.997	0.1456642	-4.014791	0.07	3	100	0	6546	2.775578	-4.318373	2.74956	
12:58:05	-6.728662	38.94613	133.043	0.1648351	-2.392096	0.04	3	100	0	6546	2.728745	-4.362348	2.559419	
12:58:05	-6.728662	38.94613	133.054	0.180756	-1.659399	0.09	3	100	0	6546	3.718379	-4.366411	2.480963	
12:58:05	-6.728662	38.94613	133.062	0.2280061	1.185506	0.12	3	100	0	6546	5.031804	-4.496845	2.30575	
12:58:05	-6.728662	38.94613	133.063	0.27102	3.030319	0.11	3	100	0	6546	4.075783	-4.350849	2.100281	
12:58:05	-6.728662	38.94613	132.973	0.2941967	3.692398	0.07	3	100	0	6546	2.491077	-4.358856	1.858871	
12:58:06	-6.728662	38.94613	133.023	0.315643	5.300829	0.14	3	100	0	6546	4.081511	-4.469091	1.801813	
12:58:06	-6.728662	38.94613	133.086	0.358577	6.664872	0.14	3	100	0	6546	6.549065	-4.318236	1.648583	
12:58:06	-6.728662	38.94613	133.121	0.3923828	8.109113	0.16	3	100	0	6546	11.40242	-4.391139	1.32505	
12:58:06	-6.728662	38.94613	133.177	0.3867351	7.785274	0.01	3	100	0	6546	16.22678	-4.488957	0.7848868	
12:58:06	-6.728662	38.94613	133.176	0.3790575	6.847189	0.19	3	100	0	6546	15.69572	-4.297508	-0.01262849	
12:58:07	-6.728662	38.94613	133.139	0.3328751	1.57453	0.25	3	100	0	6546	13.07457	-4.136662	-0.8095621	
12:58:07	-6.728662	38.94613	133.176	0.2943364	0.4532177	0.22	3	100	0	6546	10.17998	-3.92356	-1.343483	
12:58:07	-6.728662	38.94613	133.169	0.2890307	1.094322	0.08	3	100	0	6546	8.084006	-4.049367	-1.695011	
12:58:07	-6.728662	38.94613	133.162	0.2847624	1.077296	0.09	3	100	0	6546	6.185712	-3.89585	-2.082443	
12:58:07	-6.728662	38.94613	133.156	0.2589859	-0.09728716	0.13	3	100	0	6546	3.750715	-3.836707	-2.217983	
12:58:08	-6.728662	38.94613	133.144	0.2341171	-0.3830268	0.19	3	100	0	6545	2.780691	-3.890994	-2.160384	
12:58:08	-6.728662	38.94613	133.139	0.2312181	0.04355768	0.09	3	100	0	6546	3.567714	-3.912284	-2.093521	
12:58:08	-6.728662	38.94613	133.077	0.2298364	0.6171126	0.14	3	100	0	6546	3.161673	-3.792717	-2.117369	
12:58:08	-6.728662	38.94613	133.037	0.2430101	1.940948	0.16	3	100	0	6546	2.68137	-3.837701	-2.094916	
12:58:09	-6.728662	38.94613	133.008	0.2557951	2.951715	0.07	3	100	0	6546	2.895278	-4.006359	-2.037975	
12:58:09	-6.728662	38.94613	132.99	0.2829247	4.206113	0.04	3	100	0	6546	2.4762	-3.878131	-1.964965	
12:58:09	-6.728662	38.94613	132.945	0.3044382	4.780329	0.03	3	100	0	6546	2.376132	-3.95299	-1.895028	
12:58:09	-6.728662	38.94613	132.981	0.3033194	3.892618	0.22	3	100	0	6546	2.471781	-4.024884	-1.911089	
12:58:09	-6.728662	38.94613	132.981	0.2675548	1.85256	0.06	3	100	0	6546	2.502922	-4.012181	-1.830161	
12:58:10	-6.728662	38.94613	133.019	0.2256773	-0.1890977	0.07	3	100	0	6546	2.309065	-4.01552	-1.721055	
12:58:10	-6.728662	38.94613	133.019	0.1850431	-2.18865	0.06	3	100	0	6546	1.818683	-4.044965	-1.593037	
12:58:10	-6.728662	38.94613	133.043	0.1473445	-3.915726	0.04	3	100	0	6546	1.326769	-4.167563	-1.495923	
12:58:10	-6.728662	38.94613	133.043	0.124298	-4.979996	0.09	3	100	0	6546	1.96121	-4.204539	-1.40119	
12:58:10	-6.728662	38.94613	133.056	0.1218228	-4.218545	0.18	3	100	0	6546	2.144286	-4.306586	-1.346923	
12:58:11	-6.728662	38.94613	133.091	0.1378459	-2.964885	0.09	3	100	0	6546	1.69041	-4.309052	-1.275775	
12:58:11	-6.728662	38.94613	133.097	0.151384	-1.73627	0.14	3	100	0	6546	1.904744	-4.16772	-1.170774	
12:58:11	-6.728662	38.94613	133.112	0.1621536	-1.376397	0.07	3	100	0	6546	1.901425	-4.2244	-1.223989	
12:58:11	-6.728662	38.94613	133.085	0.174732	-0.1642923	0.18	3	100	0	6546	1.795114	-4.25212	-1.148091	
12:58:11	-6.728662	38.94613	133.06	0.1923461	0.05066178	0.24	3	100	0	6546	2.029735	-4.163014	-1.066104	
12:58:12	-6.728662	38.94613	133.02	0.2129688	0.4398258	0.26	3	100	0	6546	1.383879	-4.067034	-0.9719044	
12:58:12	-6.728662	38.94613	133.039	0.2407812	2.140965	0.04	3	100	0	6546	0.9322034	-4.155952	-0.9383866	
12:58:12	-6.728662	38.94613	133.034	0.2587938	2.048548	0.26	3	100	0	6546	0.9208495	-4.428638	-0.8792973	
12:58:12	-6.728661	38.94613	133.041	0.263869	2.781645	0.17	3	100	0	6546	0.6090885	-4.443551	-0.7539256	
12:58:12	-6.728662	38.94613	133.093	0.290109	3.349073	0.25	3	100	0	6544	0.5700129	-4.188937	-0.5883538	
12:58:13	-6.728662	38.94613	133.093	0.333822	4.927609	0.09	3	100	0	6546	0.4856759	-4.18717	-0.5091201	
12:58:13	-6.728661	38.94613	133.129	0.3809957	6.622024	0.04	3	100	0	6546	0.9438297	-4.332633	-0.4703744	
12:58:13	-6.728661	38.94613	133.129	0.4309261	8.649361	0.04	3	100	0	6546	1.620181	-4.449179	-0.3823252	
12:58:13	-6.728661	38.94613	133.138	0.4262546	6.720436	0.09	3	100	0	6546	1.84515	-4.436407	-0.3353034	
12:58:13	-6.728661	38.94613	133.125	0.3921429	4.014971	0.22	3	100	0	6546	0.985491	-4.560475	-0.2660306	
12:58:14	-6.728661	38.94613	133.199	0.3492064	1.400287	0.18	3	100	0	6546	1.211821	-4.626018	-0.3255587	
12:58:14	-6.728661	38.94613	133.22	0.308484	-1.146296	0.02	3	100	0	6546	2.026561	-4.512441	-0.3216104	
12:58:14	-6.728661	38.94613	133.241	0.2742288	-3.197957	0.19	3	100	0	6546	1.794348	-4.591803	-0.2673635	
12:58:14	-6.728661	38.94613	133.222	0.1582422	-8.877115	0.08	3	100	0	6546	1.631921	-4.666057	-0.2184215	
12:58:14	-6.728661	38.94614	133.261	0.04445057	-14.09149	0.13	3	100	0	6547	2.031544	-4.603959	-0.2655323	
12:58:15	-6.72866	38.94614	133.276	-0.04497639	-16.84131	0.16	3	100	0	6546	1.945217	-4.652067	-0.3709819	
12:58:15	-6.72866	38.94614	133.289	-0.114403	-18.46687	0.09	3	100	0	6546	2.029521	-4.603302	-0.3482414	
12:58:15	-6.72866	38.94614	133.314	-0.17926	-19.57747	0.14	3	100	0	6546	1.624551	-4.466938	-0.2953718	
12:58:15	-6.72866	38.94614	133.362	-0.2391678	-20.37432	0.22	3	100	0	6546	1.692688	-4.488871	-0.2219319	
12:58:15	-6.72866	38.94614	133.362	-0.2424755	-18.82397	0.07	3	100	0	6546	1.578054	-4.639042	-0.2580599	
12:58:16	-6.72866	38.94614	133.407	-0.2415355	-16.24354	0.11	3	100	0	6546	1.18924	-4.636422	-0.1819867	
12:58:16	-6.728659	38.94614	133.446	-0.2064216	-12.08135	0.19	3	100	0	6546	1.705745	-4.670293	-0.07757387	
12:58:16	-6.72866	38.94614	133.484	-0.1747527	-9.626104	0.39	3	100	0	6546	2.017407	-4.464717	-0.009203854	
12:58:16	-6.72866	38.94614	133.506	-0.145426	-7.61577	0.08	3	100	0	6546	1.592704	-4.421275	-0.007494783	
12:58:16	-6.728659	38.94614	133.575	-0.1172671	-5.31661	0.09	3	100	0	6546	1.918769	-4.628824	0.03264346	
12:58:17	-6.728659	38.94614	133.603	-0.07000957	-1.653171	0.18	3	100	0	6546	1.891243	-4.666383	0.06941641	
12:58:17	-6.728659	38.94614	133.639	-0.03006354	0.8424807	0.07	3	100	0	6546	1.835211	-4.642662	0.1269436	
12:58:17	-6.728659	38.94614	133.675	0.04901385	5.423733	0.16	3	100	0	6546	1.836388	-4.480482	0.1865218	
12:58:17	-6.728659	38.94614	133.652	0.1266162	8.823847	0.14	3	100	0	6546	1.841843	-4.387808	0.08401624	
12:58:17	-6.728659	38.94614	133.672	0.1838267	11.56262	0.08	3	100	0	6546	1.999795	-4.487892	0.07691646	
12:58:18	-6.728659	38.94614	133.709	0.2296648	12.55798	0.14	3	100	0	6546	2.036178	-4.601628	0.1351705	
12:58:18	-6.728659	38.94614	133.728	0.2962704	14.56122	0.14	3	100	0	6546	2.180998	-4.513772	0.185016	
12:58:18	-6.728659	38.94614	133.749	0.3486828	15.91039	0.33	3	100	0	6546	3.123917	-4.62159	0.05824668	
12:58:18	-6.728659	38.94614	133.828	0.3735259	15.9756	0.08	3	100	0	6546	2.687599	-4.709932	0.01618791	
12:58:18	-6.728659	38.94614	133.899	0.397902	15.55906	0.22	3	100	0	6546	2.851797	-4.615537	0.04505423	
12:58:19	-6.728659	38.94614	133.892	0.4577258	17.34402	0.09	3	100	0	6546	2.753863	-4.489892	0.05407803	
12:58:19	-6.728659	38.94614	133.872	0.5087981	18.17388	0.09	3	100	0	6546	2.804306	-4.473735	0.04241125	
12:58:19	-6.728659	38.94614	133.877	0.5234412	17.21111	0.09	3	100	0	6546	2.101415	-4.553244	0.009254641	
12:58:19	-6.728659	38.94614	133.89	0.5005259	14.27962	0.19	3	100	0	6546	1.391019	-4.673618	0.01651398	
12:58:19	-6.728659	38.94614	133.975	0.4444712	10.0519	0.08	3	100	0	6546	2.254182	-4.581414	0.09567235	
12:58:20	-6.728659	38.94614	134.08	0.3676535	5.512446	0.14	3	100	0	6546	2.571572	-4.639839	0.120308	
12:58:20	-6.728659	38.94614	134.08	0.2954033	1.241749	0.09	3	100	0	6546	3.087026	-4.701608	0.05977992	
12:58:20	-6.728659	38.94614	134.121	0.2517402	-0.4204972	0.04	3	100	0	6546	2.930845	-4.641103	-0.00876414	
12:58:20	-6.728659	38.94614	134.196	0.2428927	-0.8637051	0.09	3	100	0	6546	2.421164	-4.686637	-0.006158219	
12:58:20	-6.728659	38.94614	134.243	0.2529806	0.1863289	0.28	3	100	0	6546	1.779122	-4.479296	0.04402108	
12:58:21	-6.728659	38.94614	134.309	0.2612477	0.821197	0.04	3	100	0	6546	1.115565	-4.512752	0.1470322	
12:58:21	-6.728659	38.94614	134.377	0.2651823	0.5140545	0.07	3	100	0	6546	2.69073	-4.544261	0.08938618	
12:58:21	-6.728659	38.94614	134.418	0.2490916	-0.7556942	0.12	3	100	0	6547	2.007459	-4.611764	0.1097094	
12:58:21	-6.728659	38.94614	134.478	0.2099073	-2.042164	0.21	3	100	0	6546	2.833683	-4.762371	0.1467596	
12:58:21	-6.728659	38.94614	134.457	0.1818401	-3.382327	0.22	3	100	0	6546	2.853	-4.709692	0.1383977	
12:58:22	-6.728659	38.94614	134.454	0.1688763	-3.881833	0.07	3	100	0	6546	2.43126	-4.688021	0.03351937	
12:58:22	-6.728659	38.94614	134.496	0.1642368	-3.560468	0.35	3	100	0	6546	2.826834	-4.414033	0.05123756	
12:58:22	-6.728659	38.94614	134.55	0.1672395	-3.407177	0.25	3	100	0	6546	2.401601	-4.358908	0.06976956	
12:58:22	-6.728659	38.94614	134.645	0.1358343	-5.06165	0.16	3	100	0	6546	2.086156	-4.578344	0.1183321	
12:58:22	-6.728659	38.94614	134.672	0.08509368	-7.284693	0.03	3	100	0	6546	2.270027	-4.596804	0.09434095	
12:58:23	-6.728659	38.94614	134.716	0.03871269	-9.014855	0.04	3	100	0	6546	2.460215	-4.62149	0.03077751	
12:58:23	-6.728659	38.94614	134.711	-0.01498015	-10.60233	0.12	3	100	0	6546	2.991261	-4.731327	0.02794883	
12:58:23	-6.728659	38.94614	134.739	-0.07503027	-12.65051	0.04	3	100	0	6546	1.329905	-4.569785	0.06424615	
12:58:23	-6.728659	38.94614	134.75	-0.1240327	-13.74373	0.13	3	100	0	6546	-0.6511519	-4.61694	0.2065896	
12:58:23	-6.728659	38.94614	134.74	-0.1638799	-15.53023	0.12	3	100	0	6546	-0.9449413	-4.618235	0.2969346	
12:58:24	-6.72866	38.94614	134.804	-0.1916376	-17.3101	0.11	3	100	0	6546	1.997709	-4.612934	0.4086311	
12:58:24	-6.72866	38.94614	134.787	-0.2120264	-16.90907	0.09	3	100	0	6546	4.20096	-4.552604	0.4119118	
12:58:24	-6.72866	38.94614	134.787	-0.1831175	-13.18715	0.09	3	100	0	6546	3.757673	-4.445793	0.3087944	
12:58:24	-6.72866	38.94614	134.911	-0.1562652	-10.65267	0.14	3	100	0	6546	2.552213	-4.482664	0.1858014	
12:58:24	-6.72866	38.94614	134.952	-0.1739613	-10.3637	0.06	3	100	0	6547	2.263111	-4.560991	0.196822	
12:58:25	-6.72866	38.94614	135.005	-0.1874755	-10.5463	0.14	3	100	0	6546	3.466049	-4.482794	0.2242265	
12:58:25	-6.72866	38.94614	135.018	-0.1660715	-8.115556	0.02	3	100	0	6547	4.022339	-4.33179	0.1717782	
12:58:25	-6.72866	38.94614	135.014	-0.1464692	-6.651142	0.13	3	100	0	6546	6.515175	-4.474988	0.06515899	
12:58:25	-6.728661	38.94614	135.04	-0.05942703	-1.322507	0.14	3	100	0	6546	6.07582	-4.577286	-0.2568347	
12:58:25	-6.728661	38.94614	135.098	0.0200687	2.994301	0.18	3	100	0	6546	1.835236	-4.243893	-0.3866093	
12:58:26	-6.728661	38.94614	135.04	0.09545964	6.998164	0.09	3	100	0	6546	-0.2137914	-4.375517	-0.2354164	
12:58:26	-6.728661	38.94614	135.073	0.1617506	9.525784	0.13	3	100	0	6546	0.6370962	-4.388632	-0.02736807	
12:58:26	-6.728661	38.94614	135.061	0.1756768	9.076542	0.09	3	100	0	6546	1.262214	-4.317496	0.1014335	
12:58:26	-6.728661	38.94614	135.081	0.1874141	9.60388	0.04	3	100	0	6546	1.226444	-4.44229	0.1608575	
12:58:26	-6.728661	38.94614	135.064	0.22226	10.6545	0.09	3	100	0	6546	2.106019	-4.504508	0.1933083	
12:58:27	-6.728661	38.94614	135.092	0.2490579	11.13292	0.11	3	100	0	6546	1.386762	-4.503089	0.2586085	
12:58:27	-6.728661	38.94614	135.14	0.2715784	10.75809	0.14	3	100	0	6546	2.081717	-4.542353	0.3171097	
12:58:27	-6.728661	38.94614	135.198	0.2895259	11.19156	0.19	3	100	0	6546	2.461538	-4.584159	0.2154185	
12:58:27	-6.728661	38.94614	135.126	0.2647745	8.554109	0.33	3	100	0	6546	1.868449	-4.517784	0.2275963	
12:58:27	-6.728661	38.94614	135.126	0.2377789	6.172221	0.33	3	100	0	6546	2.658089	-4.673536	0.2625733	
12:58:28	-6.728661	38.94614	135.137	0.2466225	5.900916	0.18	3	100	0	6546	2.994797	-4.853873	0.2269212	
12:58:28	-6.728661	38.94614	135.199	0.2526336	5.390568	0.11	3	100	0	6546	2.763473	-4.709491	0.1477613	
12:58:28	-6.728661	38.94614	135.193	0.2430629	4.082119	0.11	3	100	0	6546	4.105196	-4.783843	0.1066789	
12:58:28	-6.728661	38.94614	135.109	0.2350295	3.167662	0.13	3	100	0	6546	4.806902	-4.759292	0.01330939	
12:58:28	-6.728661	38.94614	135.087	0.2232824	2.501138	0.29	3	100	0	6546	2.643795	-4.469844	-0.07147105	
12:58:29	-6.728661	38.94614	135.141	0.211562	1.830157	0.14	3	100	0	6546	1.456409	-4.937094	-0.04480503	
12:58:29	-6.728662	38.94614	135.107	0.2188714	1.208945	0.14	3	100	0	6546	2.6647	-4.540257	-0.03902172	
12:58:29	-6.728662	38.94614	135.107	0.2404255	2.394003	0.11	3	100	0	6546	2.598631	-4.479413	-0.02093632	
12:58:29	-6.728662	38.94614	135.059	0.2662322	2.659326	0.32	3	100	0	6546	2.700509	-4.556241	-0.01016925	
12:58:29	-6.728662	38.94614	135.037	0.2983854	4.1654	0.04	3	100	0	6546	2.99629	-4.65691	-0.04404933	
12:58:30	-6.728662	38.94614	135.042	0.3298193	5.547169	0.21	3	100	0	6546	2.92608	-4.628111	-0.1382823	
12:58:30	-6.728662	38.94614	135.037	0.3624882	7.027519	0.11	3	100	0	6546	3.208082	-4.709648	-0.2470513	
12:58:30	-6.728662	38.94614	135.019	0.3812063	7.675351	0.17	3	100	0	6546	2.86115	-4.473519	-0.230761	
12:58:30	-6.728662	38.94614	134.933	0.3894186	7.841411	0.06	3	100	0	6546	2.228738	-4.584075	-0.2011465	
12:58:30	-6.728662	38.94614	134.933	0.4096518	8.380547	0.06	3	100	0	6546	2.67523	-4.64375	-0.1612021	
12:58:31	-6.728662	38.94614	134.925	0.4473886	9.611719	0.09	3	100	0	6546	2.721324	-4.653111	-0.2404767	
12:58:31	-6.728662	38.94614	134.818	0.420452	7.70687	0.21	3	100	0	6546	2.644073	-4.634955	-0.2087988	
12:58:31	-6.728662	38.94614	134.784	0.3400976	3.119727	0.08	3	100	0	6546	2.76969	-4.821775	-0.1998706	
12:58:31	-6.728662	38.94614	134.73	0.2736115	-0.02822764	0.14	3	100	0	6546	2.186424	-4.537182	-0.1425498	
12:58:31	-6.728662	38.94614	134.732	0.2199746	-2.141037	0.24	3	100	0	6544	2.120803	-4.662454	-0.2925957	
12:58:32	-6.728662	38.94614	134.71	0.1813877	-4.165699	0.28	3	100	0	6546	1.89948	-4.668823	-0.2910118	
12:58:32	-6.728661	38.94614	134.711	0.1538625	-4.917954	0.04	3	100	0	6546	1.795821	-4.80903	-0.1995131	
12:58:32	-6.728661	38.94614	134.685	0.1473895	-4.737663	0.12	3	100	0	6546	2.054235	-4.562544	-0.1047653	
12:58:32	-6.728661	38.94614	134.702	0.1584914	-3.682423	0.19	3	100	0	6546	1.946824	-4.57522	-0.1005139	
12:58:33	-6.728661	38.94614	134.654	0.1755341	-2.422048	0.03	3	100	0	6546	1.596047	-4.604853	-0.1864868	
12:58:33	-6.728661	38.94614	134.594	0.1990148	-1.23328	0.04	3	100	0	6546	1.683772	-4.529968	-0.1008975	
12:58:33	-6.728661	38.94614	134.536	0.2154575	0.2771021	0.13	3	100	0	6546	1.870755	-4.535811	-0.007985108	
12:58:33	-6.728661	38.94614	134.501	0.2223624	0.5762579	0.12	3	100	0	6546	1.846962	-4.380421	0.04762514	
12:58:33	-6.728661	38.94614	134.448	0.2286748	1.019757	0.26	3	100	0	6546	1.974816	-4.653111	0.04487367	
12:58:34	-6.728661	38.94614	134.448	0.2354671	1.378816	0.26	3	100	0	6546	2.204319	-4.576494	0.06062791	
12:58:34	-6.728661	38.94614	134.346	0.2412922	1.749743	0.42	3	100	0	6546	2.538513	-4.543136	0.07523295	
12:58:34	-6.728661	38.94614	134.346	0.1959684	-0.3728663	0.12	3	100	0	6546	2.317809	-4.563698	0.09332612	
12:58:34	-6.728661	38.94614	134.209	0.1548075	-2.582891	0.09	3	100	0	6546	1.881406	-4.482504	0.1150158	
12:58:34	-6.728661	38.94614	134.178	0.1308857	-3.258204	0.25	3	100	0	6546	1.725235	-4.416205	0.07564856	
12:58:35	-6.728661	38.94614	134.178	0.1121873	-4.092531	0.07	3	100	0	6546	1.857314	-4.150537	0.1519052	
12:58:35	-6.728661	38.94614	134.095	0.1264212	-2.955526	0.19	3	100	0	6546	1.929762	-4.437556	0.2089375	
12:58:35	-6.728661	38.94614	134.093	0.1400474	-2.02635	0.09	3	100	0	6546	1.680507	-4.588198	0.2658762	
12:58:35	-6.728662	38.94614	134.046	0.1631468	-0.395686	0.12	3	100	0	6546	1.955857	-4.38883	0.1628017	
12:58:35	-6.728662	38.94614	133.975	0.1860619	1.848823	0.14	3	100	0	6546	1.80372	-4.500618	0.1807682	
12:58:35	-6.728661	38.94614	134.009	0.2149128	3.275651	0.26	3	100	0	6546	1.960592	-4.509423	0.2312929	
12:58:36	-6.728661	38.94614	134.009	0.2379187	4.012058	0.19	3	100	0	6546	2.108554	-4.718045	0.2509521	
12:58:36	-6.728661	38.94614	133.931	0.2364367	2.585514	0.14	3	100	0	6546	1.693313	-4.688654	0.2827339	
12:58:36	-6.728661	38.94614	133.877	0.2340593	2.550165	0.14	3	100	0	6546	2.111469	-4.668262	0.2897363	
12:58:36	-6.728662	38.94614	133.801	0.2240511	2.149677	0.26	3	100	0	6546	1.506363	-4.367927	0.3370451	
12:58:36	-6.728662	38.94614	133.817	0.2150855	0.6616659	0.08	3	100	0	6546	1.397957	-4.372704	0.4416997	
12:58:37	-6.728662	38.94614	133.771	0.2249765	2.308912	0.19	3	100	0	6546	1.222092	-4.663158	0.5073678	
12:58:37	-6.728662	38.94614	133.82	0.2338164	2.229815	0.13	3	100	0	6546	0.1839287	-4.720349	0.4580598	
12:58:37	-6.728662	38.94614	133.755	0.2323046	1.68417	0.28	3	100	0	6546	-0.2178521	-4.662472	0.6503772	
12:58:37	-6.728662	38.94614	133.68	0.2295115	0.5889567	0.13	3	100	0	6546	0.8874463	-4.516542	0.8284846	
12:58:38	-6.728662	38.94614	133.643	0.2552724	1.71013	0.12	3	100	0	6546	1.872526	-4.707841	0.8891838	
12:58:38	-6.728662	38.94614	133.604	0.2759892	2.618566	0.21	3	100	0	6546	1.629902	-4.653265	0.8167259	
12:58:38	-6.728662	38.94614	133.543	0.2816251	2.420887	0.03	3	100	0	6546	1.631186	-4.718181	0.7559567	
12:58:38	-6.728662	38.94614	133.597	0.2865061	2.328308	0.09	3	100	0	6546	1.33167	-4.563961	0.8230447	
12:58:38	-6.728662	38.94614	133.517	0.3347035	4.491704	0.07	3	100	0	6546	1.219382	-4.553723	0.8983667	
12:58:38	-6.728662	38.94614	133.485	0.373571	5.934905	0.19	3	100	0	6546	1.758139	-4.64145	0.9505836	
12:58:39	-6.728662	38.94614	133.462	0.4041246	7.188802	0.03	3	100	0	6546	1.996223	-4.534441	0.8802203	
12:58:39	-6.728663	38.94614	133.465	0.4200809	7.536252	0.08	3	100	0	6546	1.969078	-4.612043	0.9163416	
12:58:39	-6.728663	38.94614	133.447	0.4287663	7.371134	0.13	3	100	0	6546	1.844976	-4.644187	0.9597226	
12:58:39	-6.728663	38.94614	133.431	0.4287594	6.367783	0.09	3	100	0	6546	2.085837	-4.529916	1.014777	
12:58:39	-6.728663	38.94614	133.431	0.4207733	5.540486	0.09	3	100	0	6546	2.085016	-4.587071	0.9095057	
12:58:40	-6.728663	38.94614	133.43	0.4051926	4.208834	0.07	3	100	0	6546	1.759966	-4.634265	0.8827577	
12:58:40	-6.728663	38.94614	133.355	0.3719361	1.84474	0.02	3	100	0	6546	1.818671	-4.616584	0.9443165	
12:58:40	-6.728664	38.94614	133.308	0.3207285	-1.410226	0.02	3	100	0	6546	1.642097	-4.581565	0.9876635	
12:58:40	-6.728664	38.94614	133.284	0.2458355	-4.934833	0.06	3	100	0	6546	1.683286	-4.56525	1.038627	
12:58:41	-6.728664	38.94614	133.262	0.1685564	-8.023016	0.04	3	100	0	6546	1.777635	-4.589524	0.9893728	
12:58:41	-6.728664	38.94614	133.217	0.09580301	-10.83971	0.14	3	100	0	6546	2.166222	-4.61424	1.001749	
12:58:41	-6.728664	38.94614	133.191	0.0356661	-13.10316	0.04	3	100	0	6546	2.255229	-4.712728	0.9988372	
12:58:41	-6.728664	38.94614	133.156	-0.02773305	-15.44543	0.07	3	100	0	6546	2.163755	-4.609526	1.019265	
12:58:41	-6.728664	38.94614	133.108	-0.07803689	-17.17937	0.04	3	100	0	6546	2.004388	-4.54789	0.9756859	
12:58:42	-6.728664	38.94614	133.126	-0.1359063	-17.61102	0.16	3	100	0	6546	2.13797	-4.553959	0.9689041	
12:58:42	-6.728665	38.94614	133.075	-0.1839597	-18.91523	0.16	3	100	0	6546	2.740175	-4.446288	0.9664911	
12:58:42	-6.728665	38.94614	133.001	-0.1979848	-17.96138	0.04	3	100	0	6546	2.128855	-4.453612	0.983862	
12:58:42	-6.728665	38.94614	132.937	-0.1906835	-15.87596	0.04	3	100	0	6546	1.522383	-4.580498	1.01274	
12:58:42	-6.728665	38.94614	132.936	-0.1845072	-13.96493	0.11	3	100	0	6546	0.6458153	-4.552545	0.9952736	
12:58:43	-6.728665	38.94614	132.891	-0.1793581	-13.01481	0.03	3	100	0	6546	1.923217	-4.451159	1.08961	
12:58:43	-6.728666	38.94614	132.844	-0.1909746	-12.31514	0.14	3	100	0	6546	0.9463317	-4.491219	1.143766	
12:58:43	-6.728666	38.94614	132.801	-0.2256697	-12.61503	0.02	3	100	0	6546	2.622991	-4.51945	1.237513	
12:58:43	-6.728666	38.94614	132.766	-0.2492363	-12.40959	0.06	3	100	0	6546	5.294282	-4.59946	1.104898	
12:58:43	-6.728666	38.94614	132.702	-0.2604662	-11.50844	0.09	3	100	0	6545	10.0544	-4.62324	0.8477571	
12:58:44	-6.728666	38.94614	132.66	-0.2671942	-10.94187	0.09	3	100	0	6546	17.7748	-4.896843	0.3895954	
12:58:44	-6.728666	38.94614	132.661	-0.2471463	2.655722	0.06	3	100	0	6546	15.89596	-4.40684	-0.509405	
12:58:44	-6.728666	38.94614	132.626	-0.2125683	3.031425	0.09	3	100	0	6546	13.14182	-4.124127	-1.231352	
12:58:44	-6.728666	38.94614	132.552	-0.1158259	7.489655	0.08	3	100	0	6546	13.44659	-4.039588	-1.827586	
12:58:44	-6.728666	38.94614	132.544	-0.02910285	12.27081	0.12	3	100	0	6546	13.97605	-3.93421	-2.414927	
12:58:45	-6.728666	38.94614	132.559	0.02992406	14.22344	0.02	3	100	0	6546	13.6858	-3.747435	-2.962253	
12:58:45	-6.728666	38.94614	132.559	0.08811405	17.44178	0.08	3	100	0	6546	13.1007	-3.654105	-3.462646	
12:58:45	-6.728667	38.94614	132.572	0.08736859	17.13586	0.09	3	100	0	6546	14.59257	-3.542875	-3.949786	
12:58:45	-6.728667	38.94614	132.572	0.08359945	14.86716	0.09	3	100	0	6546	14.00918	-3.484565	-4.513538	
12:58:45	-6.728667	38.94613	132.516	0.06124148	12.70615	0.22	3	100	0	6547	10.6053	-3.513382	-4.99241	
12:58:46	-6.728667	38.94613	132.516	0.03973304	10.81848	0.22	3	100	0	6546	3.909391	-3.361761	-5.232498	
12:58:46	-6.728666	38.94613	132.481	0.03639243	9.568492	0.14	3	100	0	6545	0.9559956	-3.40584	-5.084977	
12:58:46	-6.728667	38.94613	132.506	0.02902538	5.367244	0.24	3	100	0	6546	3.45448	-3.377088	-4.899983	
12:58:46	-6.728667	38.94613	132.427	0.05609814	6.275067	0.22	3	100	0	6545	2.081598	-3.280079	-4.762513	
12:58:46	-6.728667	38.94613	132.421	0.07998808	6.709502	0.24	3	100	0	6546	-0.7156639	-3.565221	-4.491701	
12:58:47	-6.728667	38.94614	132.439	0.09272761	5.679373	0.13	3	100	0	6546	-1.660768	-3.546637	-4.069589	
12:58:47	-6.728667	38.94614	132.507	0.09959503	4.082693	0.45	3	100	0	6546	-1.097495	-3.454039	-3.771371	
12:58:47	-6.728667	38.94613	132.296	0.08002377	1.882774	0.21	3	100	0	6546	0.2872016	-3.097626	-3.359103	
12:58:47	-6.728667	38.94613	132.156	0.05673208	-0.9314063	0.14	3	100	0	6546	2.668323	-3.252502	-3.150033	
12:58:47	-6.728667	38.94613	132.131	0.07637681	0.3239258	0.42	3	100	0	6546	2.592393	-3.391381	-3.079074	
12:58:48	-6.728667	38.94614	132.119	0.094891	1.5627	0.16	3	100	0	6546	1.19681	-3.452831	-3.051006	
12:58:48	-6.728667	38.94614	132.116	0.07466812	-0.1977154	0.45	3	100	0	6546	1.279402	-3.483696	-2.926139	
12:58:48	-6.728667	38.94614	132.175	0.05476874	-2.108922	0.29	3	100	0	6546	3.777784	-3.654974	-2.816917	
12:58:48	-6.728668	38.94614	132.157	0.09577631	0.8618801	0.07	3	100	0	6546	2.909148	-3.535839	-2.795214	
12:58:48	-6.728668	38.94614	132.132	0.1293702	2.508578	0.21	3	100	0	6546	2.24939	-3.532792	-2.67098	
12:58:49	-6.728668	38.94614	132.087	0.1527638	3.620566	0.24	3	100	0	6546	2.975582	-3.71068	-2.799664	
12:58:49	-6.728668	38.94614	132.03	0.1603378	3.371676	0.04	3	100	0	6546	2.53495	-3.648685	-2.780619	
12:58:49	-6.728668	38.94614	131.958	0.1705852	2.745196	0.04	3	100	0	6546	2.390192	-3.58875	-2.658242	
12:58:49	-6.728668	38.94614	131.891	0.1855858	2.845103	0.14	3	100	0	6546	2.135891	-3.58937	-2.547692	
12:58:49	-6.728668	38.94613	131.848	0.1910997	2.441488	0.07	3	100	0	6546	1.834758	-3.672517	-2.489327	
12:58:50	-6.728668	38.94613	131.848	0.1913054	1.525509	0.22	3	100	0	6546	2.322285	-3.694212	-2.439304	
12:58:50	-6.728668	38.94613	131.854	0.2082792	2.202501	0.02	3	100	0	6546	0.835933	-3.664814	-2.322268	
12:58:50	-6.728668	38.94613	131.837	0.240846	3.777489	0.08	3	100	0	6546	-0.6092603	-3.79631	-2.091594	
12:58:50	-6.728668	38.94613	131.803	0.2796462	4.007225	0.13	3	100	0	6546	1.667254	-3.726077	-1.833486	
12:58:50	-6.728669	38.94613	131.782	0.3141623	4.898486	0.14	3	100	0	6546	3.10525	-3.683708	-1.93498	
12:58:51	-6.728669	38.94613	131.779	0.345131	6.363691	0.16	3	100	0	6546	2.512606	-3.77679	-1.988417	
12:58:51	-6.728669	38.94613	131.714	0.3692102	7.080158	0.02	3	100	0	6546	2.094328	-3.836496	-1.902969	
12:58:51	-6.728669	38.94613	131.67	0.3470148	5.14281	0.08	3	100	0	6546	2.830667	-3.874966	-1.815326	
12:58:51	-6.728669	38.94613	131.65	0.2718026	0.2616192	0.12	3	100	0	6546	2.355475	-3.858759	-1.792195	
12:58:51	-6.728669	38.94613	131.647	0.2252948	-2.319572	0.07	3	100	0	6546	2.342194	-3.803636	-1.732616	
12:58:52	-6.728669	38.94613	131.589	0.2163083	-2.244484	0.14	3	100	0	6546	2.354746	-3.879905	-1.639521	
12:58:52	-6.728669	38.94613	131.576	0.2127843	-2.119636	0.18	3	100	0	6546	2.050341	-4.010091	-1.552339	
12:58:52	-6.728669	38.94613	131.604	0.214262	-1.195621	0.08	3	100	0	6546	2.343628	-3.943805	-1.475189	
12:58:52	-6.728669	38.94613	131.604	0.2455275	1.132208	0.09	3	100	0	6546	2.623772	-3.906779	-1.487453	
12:58:52	-6.728669	38.94613	131.582	0.2889236	3.627856	0.06	3	100	0	6546	2.160574	-3.960298	-1.441716	
12:58:53	-6.728669	38.94613	131.544	0.3193654	4.670372	0.06	3	100	0	6546	1.889987	-3.92675	-1.32166	
12:58:53	-6.728669	38.94613	131.504	0.3278171	4.555584	0.09	3	100	0	6546	2.267349	-4.011058	-1.206298	
12:58:53	-6.728669	38.94613	131.487	0.3181774	3.811107	0.17	3	100	0	6546	3.387507	-4.18956	-1.242435	
12:58:53	-6.728669	38.94614	131.455	0.3014402	2.76985	0.22	3	100	0	6546	2.854603	-4.115484	-1.296645	
12:58:53	-6.728669	38.94614	131.462	0.282283	1.716274	0.08	3	100	0	6546	1.836455	-4.112857	-1.195189	
12:58:54	-6.728669	38.94614	131.432	0.268229	0.6551821	0.09	3	100	0	6546	3.147068	-4.170584	-1.088383	
12:58:54	-6.728669	38.94614	131.408	0.2551517	-0.1549922	0.12	3	100	0	6546	2.194997	-4.191714	-1.038837	
12:58:54	-6.728669	38.94614	131.431	0.2117888	-2.968683	0.06	3	100	0	6546	1.6673	-4.146816	-1.074259	
12:58:54	-6.728669	38.94614	131.411	0.1628749	-5.403719	0.04	3	100	0	6546	2.1092	-4.107397	-0.9746536	
12:58:54	-6.728669	38.94614	131.339	0.1066142	-7.200047	0.04	3	100	0	6546	1.27711	-4.1651	-0.8631337	
12:58:55	-6.72867	38.94614	131.299	0.06234841	-9.2376	0.16	3	100	0	6546	1.73347	-4.08855	-0.7338136	
12:58:55	-6.72867	38.94613	131.272	0.05713401	-8.920853	0.08	3	100	0	6546	1.507502	-4.107709	-0.7867035	
12:58:55	-6.72867	38.94614	131.163	0.05458028	-8.185502	0.22	3	100	0	6546	1.086574	-4.316698	-0.6942307	
12:58:55	-6.72867	38.94614	131.163	0.07305017	-6.17979	0.13	3	100	0	6546	1.090786	-4.260869	-0.5552993	
12:58:55	-6.72867	38.94613	131.147	0.0907491	-4.286418	0.04	3	100	0	6547	0.674081	-4.219228	-0.382323	
12:58:56	-6.72867	38.94613	131.109	0.105153	-4.349948	0.08	3	100	0	6546	1.35431	-4.288842	-0.228567	
12:58:56	-6.72867	38.94614	131.143	0.1164172	-3.611145	0.06	3	100	0	6546	1.772383	-4.32911	-0.2407684	
12:58:56	-6.72867	38.94614	131.127	0.1143249	-3.507064	0.19	3	100	0	6546	0.7478054	-4.160796	-0.1445227	
12:58:56	-6.72867	38.94614	131.086	0.1127231	-3.906747	0.06	3	100	0	6546	0.3084724	-4.227837	0.01845037	
12:58:56	-6.72867	38.94614	131.056	0.1187371	-3.609009	0.09	3	100	0	6546	0.09316076	-4.304257	0.1762558	
12:58:57	-6.72867	38.94614	131.163	0.1222238	-4.114954	0.11	3	100	0	6546	0.2337254	-4.219632	0.2114766	
12:58:57	-6.72867	38.94614	131.163	0.1334301	-4.240817	0.13	3	100	0	6546	1.988042	-4.419061	0.2739211	
12:58:57	-6.72867	38.94614	131.208	0.1415144	-3.203156	0.14	3	100	0	6546	1.053454	-4.38298	0.3290108	
12:58:57	-6.728669	38.94614	131.202	0.1687091	-2.695251	0.14	3	100	0	6546	0.1039937	-4.461344	0.4799769	
12:58:57	-6.728669	38.94614	131.238	0.188424	-2.101063	0.33	3	100	0	6546	1.518425	-4.51596	0.5705191	
12:58:58	-6.728669	38.94614	131.246	0.1678853	-2.800158	0.12	3	100	0	6546	2.626375	-4.508771	0.5643422	
12:58:58	-6.728669	38.94614	131.216	0.1505314	-3.16757	0.09	3	100	0	6546	1.348173	-4.452926	0.621828	
12:58:58	-6.728669	38.94614	131.129	0.146604	-3.428278	0.08	3	100	0	6546	2.065162	-4.386071	0.7310928	
12:58:58	-6.72867	38.94614	131.119	0.1423008	-3.522387	0.19	3	100	0	6546	2.061237	-4.418236	0.7731951	
12:58:58	-6.72867	38.94614	131.12	0.1467442	-2.611365	0.09	3	100	0	6548	1.614619	-4.161239	0.7865062	
12:58:59	-6.72867	38.94614	131.092	0.1585121	-2.186211	0.09	3	100	0	6546	1.868384	-4.227637	0.8086652	
12:58:59	-6.72867	38.94614	131.067	0.192034	0.6345122	0.02	3	100	0	6546	0.1899122	-4.216712	0.8698921	
12:58:59	-6.72867	38.94614	131.091	0.2434542	2.827452	0.06	3	100	0	6546	-2.285637	-4.342385	1.056616	
12:58:59	-6.72867	38.94614	131.121	0.323459	5.906656	0.17	3	100	0	6546	-4.732366	-4.343058	1.355564	
12:58:59	-6.72867	38.94614	131.138	0.4154764	9.515304	0.03	3	100	0	6546	-6.24949	-4.177986	1.772339	
12:59:00	-6.72867	38.94614	131.089	0.4721276	10.10451	0.08	3	100	0	6546	-7.483355	-4.199552	2.301116	
12:59:00	-6.728671	38.94614	131.068	0.4993038	10.84448	0.14	3	100	0	6546	-7.332286	-4.110259	2.907288	
