Date	Latitude(deg) 	Longitude(deg)	hamsl(m)	hafl(m)	climbrate(cm/s)	GroundSpeed(m/s)	Airspeed(m/s)	Mav_Link(%)	Rssi_Link(%)	Throttle	Roll(deg)	Pitch(deg)	Yaw(deg)
13:51:28	-6.795665	38.98522	241.289	0	0	1.27	0	100	0	0	-4.978343	-26.19722	12.31757	
13:51:28	-6.7956	38.98518	256.282	-0.111276	-0.9551318	1.09	3	100	0	9	-2.024541	-25.99319	11.19051	
13:51:28	-6.795601	38.98518	255.913	-0.1174188	-5.425219	0.32	3	100	0	9	-1.671563	-25.35274	11.13886	
13:51:29	-6.795604	38.98518	255.861	-0.3320581	-19.9362	0.26	3	100	0	9	-1.109623	-25.18688	10.99409	
13:51:29	-6.795606	38.98518	255.823	-0.6765772	-39.41265	0.26	3	100	0	9	-1.173605	-25.07126	11.09127	
13:51:29	-6.795607	38.98518	256.572	-0.9554865	-53.49988	1.11	3	100	0	9	-1.458961	-25.21203	11.29725	
13:51:29	-6.795608	38.98518	256.7	-1.122807	-60.52608	1.05	3	100	0	9	-2.336912	-25.05268	11.76031	
13:51:29	-6.79561	38.98518	255.923	-1.254522	-64.13158	0.48	3	100	0	9	-2.66546	-24.88938	12.01325	
13:51:30	-6.795612	38.98519	255.552	-1.19425	-57.84382	0.68	3	100	0	9	-1.650873	-26.06131	11.67672	
13:51:30	-6.795614	38.98519	254.809	-1.128792	-52.2635	0.62	3	100	0	9	-1.835979	-26.4043	11.83168	
13:51:30	-6.795616	38.98519	253.795	-0.97405	-42.45463	0.35	3	100	0	9	-1.668399	-26.43626	11.83429	
13:51:30	-6.795619	38.98519	252.807	-0.8292127	-33.7881	0.26	3	100	0	9	-1.631987	-25.99428	11.89629	
13:51:30	0	0	0	-0.6597755	-24.76912	0	3	100	0	9	-2.053581	-24.49591	12.56635	
13:51:31	47.46239	-122.3084	52.212	-0.489013	28.16021	33.85	3	100	0	9	-2.950587	-22.0117	13.47128	
13:51:31	47.46239	-122.3084	52.212	4.030527	331.7123	33.85	33.51374	100	0	9	-5.054518	-19.4439	14.6178	
13:51:31	47.46239	-122.3084	52.212	13.05529	838.4839	33.85	33.51374	100	0	9	-5.962577	-16.42219	15.3217	
13:51:31	47.46239	-122.3084	52.212	23.16314	1354.506	33.85	33.51374	100	0	9	-5.846251	-13.15839	15.6344	
13:51:31	47.46239	-122.3084	52.212	30.66051	1698.535	33.85	33.51374	100	0	9	-5.649256	-10.05077	15.88813	
13:51:32	47.46239	-122.3084	52.212	38.05387	2000.201	33.85	33.51374	100	0	9	-5.423218	-7.060917	16.16664	
13:51:32	47.46239	-122.3084	52.212	44.56337	2228.22	33.85	33.51374	100	0	9	-5.185843	-4.207166	16.41516	
13:51:32	47.46239	-122.3084	52.212	50.25886	2391.703	33.85	33.51374	100	0	9	-4.944969	-1.421668	16.7663	
13:51:32	47.46239	-122.3084	52.212	55.17568	2497.139	33.85	33.51374	100	0	9	-4.698404	1.215813	17.03843	
13:51:32	47.46239	-122.3084	52.212	59.299	2551.352	33.85	33.51374	100	0	9	-4.441984	3.749464	17.44418	
13:51:33	47.46239	-122.3084	52.212	62.7139	2562.005	33.85	33.51374	100	0	9	-4.122582	6.317658	18.35566	
13:51:33	47.46239	-122.3084	52.212	65.73103	2530.531	33.85	33.51374	100	0	9	-3.835818	8.762368	18.822	
13:51:33	47.46239	-122.3084	52.212	67.65427	2476.967	33.85	33.51374	100	0	9	-3.491608	11.16437	19.53046	
13:51:33	47.46239	-122.3084	52.212	69.43113	2384.124	33.85	33.51374	100	0	9	-3.186718	13.41288	20.00978	
13:51:33	47.46239	-122.3084	52.212	70.56564	2277.05	33.85	33.51374	100	0	7	-2.89785	15.45435	20.46282	
13:51:34	47.46239	-122.3084	52.212	71.22482	2166.126	33.85	33.51374	100	0	9	-2.692246	17.37107	20.65315	
13:51:34	47.46239	-122.3084	52.212	71.60752	2021.619	33.85	33.51374	100	0	9	-2.492274	19.19409	20.8459	
13:51:34	47.46239	-122.3084	52.212	71.6273	1882.789	33.85	33.51374	100	0	9	-2.283635	20.94165	21.07623	
13:51:34	47.46239	-122.3084	52.212	71.38195	1738.063	33.85	33.51374	100	0	9	-2.061997	22.62707	21.34803	
13:51:34	47.46239	-122.3084	52.212	70.96934	1606.172	33.85	33.51374	100	0	9	-1.701306	24.28951	21.95585	
13:51:35	47.46239	-122.3084	52.212	70.25045	1443.002	33.85	33.51374	100	0	9	-1.427638	25.88491	22.3605	
13:51:35	47.46239	-122.3084	52.212	69.53768	1313.77	33.85	33.51374	100	0	10	-1.165341	27.40037	22.74657	
13:51:35	47.46239	-122.3084	52.212	68.53156	1158.284	33.85	33.51374	100	0	9	-0.8834858	28.83701	23.18143	
13:51:35	47.46239	-122.3084	52.212	67.62125	1034.223	33.85	33.51374	100	0	9	-0.5783201	30.21482	23.66724	
13:51:36	47.46239	-122.3084	52.212	66.45201	890.7032	33.85	33.51374	100	0	9	-0.1256098	31.5473	24.43124	
13:51:40	47.46239	-122.3084	52.212	65.46262	779.6934	33.85	33.51374	100	0	9	0.2719001	32.84313	25.09809	
13:51:45	47.46239	-122.3084	52.212	64.33942	662.5956	33.85	33.51374	100	0	9	0.8385974	34.10865	26.05934	
13:51:45	47.46239	-122.3084	52.212	63.10705	542.8937	33.85	33.51374	100	0	9	1.685154	35.3562	27.481	
13:51:45	47.46239	-122.3084	52.212	62.00402	442.0651	33.85	33.51374	100	0	9	2.777812	36.57958	29.27871	
13:51:45	47.46239	-122.3084	52.212	61.02345	356.6197	33.85	33.51374	100	0	9	4.082694	37.76049	31.37751	
13:51:45	47.46239	-122.3084	52.212	59.86603	260.1793	33.85	33.51374	100	0	9	5.567377	38.88266	33.71284	
13:51:45	47.46239	-122.3084	52.212	59.45698	227.0418	33.85	33.51374	100	0	9	7.22759	39.94767	36.26973	
13:51:45	47.46239	-122.3084	52.212	59.45698	227.0418	33.85	33.51374	100	0	8	9.030473	40.93655	38.99275	
13:51:46	47.46239	-122.3084	52.212	59.45698	227.0418	33.85	33.51374	100	0	9	10.96994	41.84733	41.87086	
13:51:46	47.46239	-122.3084	52.212	59.45698	227.0418	33.85	33.51374	100	0	9	13.03299	42.67338	44.88453	
13:51:46	47.46239	-122.3084	52.212	59.45698	227.0418	33.85	33.51374	100	0	9	15.20703	43.40882	48.01671	
13:51:46	47.46239	-122.3084	52.212	59.45698	227.0418	33.85	33.51374	100	0	9	17.47942	44.04847	51.25178	
13:51:46	47.46239	-122.3084	52.212	59.45698	227.0418	33.85	33.51374	100	0	9	19.84897	44.59021	54.59148	
13:51:46	47.46239	-122.3084	52.212	59.45698	227.0418	33.85	33.51374	100	0	9	22.29061	45.02663	58.0048	
13:51:46	47.46239	-122.3084	52.212	59.45698	227.0418	33.85	33.51374	100	0	9	24.77698	45.35322	61.45894	
13:51:46	47.46239	-122.3084	52.212	59.45698	227.0418	33.85	33.51374	100	0	9	27.31757	45.57081	64.97287	
13:51:47	47.46239	-122.3084	52.212	59.45698	227.0418	33.85	33.51374	100	0	9	29.87126	45.67574	68.49585	
13:51:47	47.46239	-122.3084	52.212	59.45698	227.0418	33.85	33.51374	100	0	9	32.4346	45.66863	72.02955	
13:51:47	47.46239	-122.3084	52.212	59.45698	227.0418	33.85	33.51374	100	0	9	35.00444	45.54884	75.57607	
13:51:47	47.46239	-122.3084	52.212	59.45698	227.0418	33.85	33.51374	100	0	9	37.53975	45.31862	79.08522	
13:51:47	47.46239	-122.3084	52.212	59.45698	227.0418	33.85	33.51374	100	0	9	40.03884	44.97954	82.56071	
13:51:47	47.46239	-122.3084	52.212	59.45698	227.0418	33.85	33.51374	100	0	9	42.48829	44.53423	85.98981	
13:51:47	47.46239	-122.3084	52.212	59.45698	227.0418	33.85	33.51374	100	0	9	44.87626	43.986	89.36136	
13:51:47	47.46239	-122.3084	52.212	59.45698	227.0418	33.85	33.51374	100	0	9	47.19247	43.33873	92.66581	
13:51:48	47.46239	-122.3084	52.212	59.45698	227.0418	33.85	33.51374	100	0	9	49.42836	42.59673	95.89539	
13:51:48	47.46239	-122.3084	52.212	59.45698	227.0418	33.85	33.51374	100	0	9	0.00934764	0.2417468	0.2435182	
13:51:48	47.46239	-122.3084	52.212	59.45698	227.0418	33.85	33.51374	100	0	9	0.00934764	0.2417468	0.2435182	
13:51:48	47.46239	-122.3084	52.212	59.45698	227.0418	33.85	33.51374	100	0	9	0.00934764	0.2417468	0.2435182	
13:51:48	47.46239	-122.3084	52.212	59.45698	227.0418	33.85	33.51374	100	0	9	0.00934764	0.2417468	0.2435182	
13:51:48	47.46239	-122.3084	52.212	59.45698	227.0418	33.85	33.51374	100	0	9	0.00934764	0.2417468	0.2435182	
13:51:48	47.46239	-122.3084	52.212	59.45698	227.0418	33.85	33.51374	100	0	9	0.00934764	0.2417468	0.2435182	
13:51:48	47.46239	-122.3084	52.212	59.45698	227.0418	33.85	33.51374	100	0	9	0.00934764	0.2417468	0.2435182	
13:51:48	47.46239	-122.3084	52.212	59.45698	227.0418	33.85	33.51374	100	0	9	0.00934764	0.2417468	0.2435182	
13:51:48	47.46239	-122.3084	52.212	59.45698	227.0418	33.85	33.51374	100	0	9	0.00934764	0.2417468	0.2435182	
13:51:49	47.46239	-122.3084	52.212	59.45698	227.0418	33.85	33.51374	100	0	9	0.00934764	0.2417468	0.2435182	
13:51:49	47.46239	-122.3084	52.212	59.45698	227.0418	33.85	33.51374	100	0	9	0.00934764	0.2417468	0.2435182	
13:51:49	47.46239	-122.3084	52.212	59.45698	227.0418	33.85	33.51374	100	0	9	0.00934764	0.2417468	0.2435182	
13:51:49	47.46239	-122.3084	52.212	59.45698	227.0418	33.85	33.51374	100	0	9	0.00934764	0.2417468	0.2435182	
13:51:49	47.46239	-122.3084	52.212	59.45698	227.0418	33.85	33.51374	100	0	9	0.00934764	0.2417468	0.2435182	
13:51:49	47.46239	-122.3084	52.212	59.45698	227.0418	33.85	33.51374	100	0	9	0.00934764	0.2417468	0.2435182	
13:51:49	47.46239	-122.3084	52.212	59.45698	227.0418	33.85	33.51374	100	0	9	0.009868952	0.2538317	0.2556952	
13:51:49	47.46239	-122.3084	52.212	59.45698	227.0418	33.85	33.51374	100	0	9	0.00934764	0.2417468	0.2435182	
13:51:49	47.46239	-122.3084	52.212	59.45698	227.0418	33.85	33.51374	100	0	9	0.00934764	0.2417468	0.2435182	
13:51:49	47.46239	-122.3084	52.212	59.45698	227.0418	33.85	33.51374	100	0	9	0.00934764	0.2417468	0.2435182	
13:51:50	47.46239	-122.3084	52.212	59.45698	227.0418	33.85	33.51374	100	0	9	0.00934764	0.2417468	0.2435182	
13:51:50	47.46239	-122.3084	52.212	59.45698	227.0418	33.85	33.51374	100	0	9	1.855774	-3.660442	-2.196625	
13:51:50	47.46239	-122.3084	52.212	59.07868	-34.74964	33.85	33.51374	100	0	9	18.51672	-23.81655	-25.56587	
13:51:50	47.46241	-122.3086	50.905	56.98745	-822.3649	30.76	33.51374	100	0	9	31.67214	-24.24731	-57.2642	
13:51:50	47.46239	-122.3087	46.818	53.28573	-1746.953	26.23	30.42653	100	0	9	37.29525	-24.49549	-96.36625	
13:51:50	47.46238	-122.3088	43.028	48.72978	-2609.236	22.03	25.08805	100	0	9	85.72113	-57.14229	-155.5509	
13:51:50	47.46238	-122.3088	43.028	42.60261	-3053.747	22.03	20.89962	100	0	9	133.9226	-31.05434	129.5845	
13:51:51	47.46238	-122.3088	43.028	36.78937	-2767.031	22.03	20.89962	100	0	9	132.8701	9.901096	88.98874	
13:51:51	47.46235	-122.3088	38.469	33.33991	-2242.341	17.57	20.89962	100	0	9	90.04684	29.5238	39.49749	
13:51:51	47.46235	-122.3088	38.469	30.25045	-2207.682	17.57	16.69166	100	0	41	58.19074	31.67529	12.01614	
13:51:51	47.4623	-122.3087	17.103	25.18958	-2706.739	15.54	16.0506	100	0	63	34.17336	31.88988	-5.290819	
13:51:51	47.4623	-122.3087	17.103	18.99882	-3353.684	15.54	18.57906	100	0	70	28.97117	26.19878	-2.546598	
13:51:51	47.46234	-122.3087	8.073	11.95449	-3981.386	19.87	18.57906	100	0	99	27.25373	27.98388	0.5594621	
13:51:51	47.46234	-122.3087	8.073	3.300033	-4621.113	19.87	22.5644	100	0	100	25.08859	34.79113	1.13541	
13:51:51	47.46234	-122.3087	8.073	-4.904423	-5156.143	19.87	22.5644	100	0	99	23.34259	41.29391	2.271411	
13:51:52	47.46237	-122.3086	3.457	-12.39483	-5579.782	21.72	22.5644	100	0	99	22.21423	47.61786	4.187871	
13:51:52	47.46237	-122.3086	3.457	-18.85653	-5885.803	21.72	24.17888	100	0	99	26.4039	52.104	7.662687	
13:51:52	47.46239	-122.3086	1.559	-25.86074	-6153.104	22.5	24.17888	100	0	90	27.50527	54.19375	8.0232	
13:51:52	47.46239	-122.3086	1.559	-32.31317	-6342.5	22.5	24.86047	100	0	36	33.13036	62.7813	12.83774	
13:51:52	47.46239	-122.3086	1.559	-38.39704	-6419.896	22.5	24.86047	100	0	4	40.19196	68.74261	20.43207	
13:51:52	47.46239	-122.3086	1.559	-42.79706	-6370.344	22.5	24.86047	100	0	4	51.8745	73.04585	33.07201	
13:51:52	47.46239	-122.3086	1.559	-46.25755	-6225.528	22.5	23.83307	100	0	4	75.17895	75.47888	57.79877	
13:51:52	47.46239	-122.3086	1.559	-48.70808	-5989.524	22.5	23.83307	100	0	4	101.3083	74.60429	85.35747	
13:51:52	47.46239	-122.3086	1.559	-50.1948	-5667.661	22.5	23.83307	100	0	4	120.6639	70.86226	106.1558	
13:51:52	47.46239	-122.3086	1.559	-50.73574	-5271.563	22.5	23.83307	100	0	5	132.2779	65.56816	119.2169	
13:51:53	47.46239	-122.3086	1.559	-50.38345	-4810.276	22.5	23.83307	100	0	4	139.2221	59.48724	127.636	
13:51:53	47.46239	-122.3086	1.559	-49.34035	-4345.691	22.5	23.83307	100	0	4	143.4912	53.05488	133.4053	
13:51:53	47.46239	-122.3086	1.559	-48.82494	-4190.648	22.5	23.83307	100	0	5	151.6169	15.86218	136.0381	
13:51:53	47.46239	-122.3086	1.559	-46.98422	-3923.607	22.5	23.83307	100	0	4	161.4557	-26.56657	126.9583	
13:51:53	47.46241	-122.3086	0.305	-45.04375	-3674.06	9.59	22.92183	100	0	4	-178.3631	-57.06018	109.6799	
13:51:53	47.46243	-122.3086	0.298	-43.35928	-3384.46	8.4	9.228141	100	0	4	-175.9373	-76.04622	96.58318	
13:51:53	47.46245	-122.3086	0.142	-40.97382	-2998.642	4.9	7.961159	100	0	4	-10.13887	-71.56454	-71.27991	
13:51:53	47.46246	-122.3086	0.048	-38.66394	-2500.789	3.54	3.649874	100	0	4	-2.112841	-33.64637	-84.97913	
13:51:53	47.46246	-122.3086	0.048	-35.66866	-2076.634	3.54	3	100	0	5	-8.304526	21.34259	-110.1414	
13:51:53	47.46246	-122.3086	0.048	-32.34479	-1716.297	3.54	3	100	0	4	-67.9205	63.49082	-176.4528	
13:51:54	47.46246	-122.3086	0.125	-29.58887	-1505.038	2.72	3	100	0	5	-132.531	47.01065	118.1324	
13:51:54	47.46247	-122.3086	0.085	-26.71147	-1311.944	1.19	3	100	0	5	-115.3719	48.69082	130.9498	
13:51:54	47.46247	-122.3086	0.024	-23.99178	-1138.185	0.84	3	100	0	23	-86.21548	53.7998	159.9031	
13:51:54	47.46247	-122.3086	0.028	-21.50646	-1000.14	0.59	3	100	0	57	-59.61568	55.08705	-175.086	
13:51:54	47.46247	-122.3086	0.03	-19.00116	-828.4897	0.34	3	100	0	80	-35.55117	52.78472	-154.5027	
13:51:55	47.46247	-122.3086	0.03	-16.84452	-637.5064	0.34	3	100	0	99	-12.67584	46.60381	-133.7441	
13:51:55	47.46247	-122.3086	0.027	-14.74438	-434.8185	0	3	100	0	99	2.137386	33.0508	-118.1625	
13:51:55	47.46247	-122.3086	0.026	-12.61509	-219.9456	0	3	100	0	99	7.218727	15.53414	-108.8247	
13:51:55	47.46247	-122.3086	0.026	-10.69898	-21.89943	0	3	100	0	99	6.593291	-0.7486061	-105.2374	
13:51:55	47.46247	-122.3086	0.026	-8.561052	190.4006	0	3	100	0	100	5.368867	-14.75976	-105.0776	
13:51:56	47.46247	-122.3086	0.028	-6.223991	394.4938	0	3	100	0	99	5.374032	-20.44603	-114.3529	
13:51:56	47.46247	-122.3086	0.027	-4.178641	550.8182	0	3	100	0	99	5.904158	-19.40758	-121.5073	
13:51:56	47.46247	-122.3086	0.027	-2.23665	685.6617	0	3	100	0	99	4.898604	-13.41025	-126.9694	
13:51:56	47.46247	-122.3086	0.026	-0.5999793	792.3663	0	3	100	0	99	3.010654	-8.214247	-130.8047	
13:51:56	47.46247	-122.3086	0.026	1.258593	906.3822	0	3	100	0	99	0.9890971	-4.279757	-132.3991	
13:51:57	47.46247	-122.3086	0.026	2.788634	992.2488	0	3	100	0	100	-0.4149314	-1.487575	-132.142	
13:51:57	47.46247	-122.3086	0.027	4.035939	1055.029	0	3	100	0	99	-1.315344	1.123453	-130.8308	
13:51:57	47.46247	-122.3086	0.027	5.41157	1115.888	0	3	100	0	99	-1.690544	3.089862	-129.4951	
13:51:57	47.46247	-122.3086	0.027	6.520499	1156.952	0	3	100	0	99	-1.709686	4.397041	-127.8377	
13:51:57	47.46247	-122.3086	0.027	7.395879	1182.784	0	3	100	0	99	-1.311349	4.361965	-125.9784	
13:51:58	47.46247	-122.3086	0.027	8.322385	1202.088	0	3	100	0	99	-0.8606167	3.075392	-124.961	
13:51:58	47.46247	-122.3086	0.027	9.018551	1209.96	0	3	100	0	99	-0.4540574	1.579565	-124.8017	
13:51:58	47.46247	-122.3086	0.027	9.590137	1209.766	0	3	100	0	99	-0.1600173	0.4531178	-125.2848	
13:51:58	47.46247	-122.3086	0.027	10.0557	1202.672	0	3	100	0	99	0.02491722	-0.2558683	-126.1147	
13:51:58	47.46247	-122.3086	0.027	10.4136	1190.157	0	3	100	0	99	0.1252111	-0.6942357	-127.0173	
13:51:59	47.46247	-122.3086	0.027	10.66011	1174.184	0	3	100	0	99	0.1623408	-0.9752386	-127.7924	
13:51:59	47.46247	-122.3086	0.027	10.85839	1151.204	0	3	100	0	99	0.1441779	-1.076509	-128.4109	
13:51:59	47.46247	-122.3086	0.027	10.96195	1126.332	0	3	100	0	99	0.1251489	-1.175741	-128.9155	
13:51:59	47.46247	-122.3086	0.027	10.99731	1099.607	0	3	100	0	99	0.1053407	-1.275788	-129.3494	
13:51:59	47.46247	-122.3086	0.027	10.97446	1070.928	0	3	100	0	99	0.03900988	-1.164556	-129.582	
13:52:00	47.46247	-122.3086	0.027	10.91364	1045.402	0	3	100	0	99	-0.01425378	-0.9733442	-129.6717	
13:52:00	47.46247	-122.3086	0.027	10.8014	1015.146	0	3	100	0	99	-0.05022694	-0.7743618	-129.6677	
13:52:00	47.46247	-122.3086	0.027	10.64473	983.3242	0	3	100	0	99	-0.07271207	-0.5832565	-129.6349	
13:52:00	47.46247	-122.3086	0.027	10.46683	953.2347	0	3	100	0	99	-0.07513819	-0.4408045	-129.5105	
13:52:00	47.46247	-122.3086	0.027	10.29361	927.6633	0	3	100	0	99	-0.06490006	-0.3566275	-129.4009	
13:52:01	47.46247	-122.3086	0.027	10.06076	897.1484	0	3	100	0	99	-0.05076358	-0.3188927	-129.3032	
13:52:01	47.46247	-122.3086	0.027	9.863492	873.4781	0	3	100	0	99	-0.03605868	-0.3256037	-129.2286	
13:52:01	47.46247	-122.3086	0.027	9.638272	848.5106	0	3	100	0	99	-0.02142963	-0.3446589	-129.2225	
13:52:01	47.46247	-122.3086	0.027	9.384462	822.4932	0	3	100	0	89	-0.008056911	-0.3719997	-129.2416	
13:52:01	47.46247	-122.3086	0.027	9.153752	800.3496	0	3	100	0	4	-0.0002819794	-0.4145072	-129.215	
13:52:02	47.46247	-122.3086	0.027	8.948172	781.4245	0	3	100	0	39	0.001568471	-0.4533467	-129.2355	
13:52:02	47.46247	-122.3086	0.027	8.721695	761.4931	0	3	100	0	99	-0.002286699	-0.4786489	-129.2971	
13:52:02	47.46247	-122.3086	0.027	8.506083	743.2328	0	3	100	0	99	-0.006885382	-0.5908983	-129.4935	
13:52:02	47.46247	-122.3086	0.027	8.296137	726.0675	0	3	100	0	99	-0.01143622	-0.7114087	-129.6865	
13:52:02	47.46247	-122.3086	0.027	8.097135	710.382	0	3	100	0	99	-0.01538909	-0.8297887	-129.8791	
13:52:03	47.46247	-122.3086	0.027	7.902768	695.5174	0	3	100	0	99	-0.0186134	-0.9443026	-130.0648	
13:52:03	47.46247	-122.3086	0.027	7.719009	681.8015	0	3	100	0	100	-0.02020429	-1.05534	-130.2479	
13:52:03	47.46247	-122.3086	0.027	7.546103	669.2894	0	3	100	0	22	-0.021245	-1.166386	-130.441	
13:52:03	47.46247	-122.3086	0.027	7.36648	656.561	0	3	100	0	5	-0.02244394	-1.274232	-130.6258	
13:52:03	47.46247	-122.3086	0.027	7.213723	645.7955	0	3	100	0	68	-0.02365215	-1.377883	-130.7951	
13:52:04	47.46247	-122.3086	0.027	7.067632	635.664	0	3	100	0	100	-0.02455536	-1.471571	-130.9607	
13:52:04	47.46247	-122.3086	0.027	6.933046	626.3525	0	3	100	0	99	-0.02491856	-1.559653	-131.1255	
13:52:04	47.46247	-122.3086	0.027	6.802474	617.37	0	3	100	0	99	-0.02523193	-1.644288	-131.2863	
13:52:04	47.46247	-122.3086	0.027	6.684046	609.2326	0	3	100	0	100	-0.02569514	-1.725572	-131.4447	
13:52:04	47.46247	-122.3086	0.027	6.582484	602.1052	0	3	100	0	100	-0.02566865	-1.802952	-131.6057	
13:52:05	47.46247	-122.3086	0.027	6.475777	594.4902	0	3	100	0	99	-0.0255979	-1.876258	-131.7545	
13:52:05	47.46247	-122.3086	0.027	6.365737	586.6431	0	3	100	0	99	-0.02539905	-1.946509	-131.9064	
13:52:05	47.46247	-122.3086	0.027	6.281711	580.4978	0	3	100	0	99	-0.02440828	-2.016427	-132.0759	
13:52:05	47.46247	-122.3086	0.027	6.183098	573.1196	0	3	100	0	99	-0.02393194	-2.083704	-132.2266	
13:52:05	47.46247	-122.3086	0.027	6.098399	566.5909	0	3	100	0	99	-0.0237428	-2.145832	-132.3596	
13:52:06	47.46247	-122.3086	0.027	6.017919	560.2075	0	3	100	0	99	-0.02315984	-2.203814	-132.4923	
13:52:06	47.46247	-122.3086	0.027	5.947938	554.5211	0	3	100	0	99	-0.02287916	-2.258822	-132.6228	
13:52:06	47.46247	-122.3086	0.027	5.86483	547.5007	0	3	100	0	99	-0.02278174	-2.311867	-132.7471	
13:52:06	47.46247	-122.3086	0.027	5.792352	541.2729	0	3	100	0	99	-0.0227	-2.36243	-132.8687	
13:52:06	47.46247	-122.3086	0.027	5.728029	535.6287	0	3	100	0	100	-0.02263031	-2.411583	-132.9882	
13:52:07	47.46247	-122.3086	0.027	5.651495	528.7801	0	3	100	0	99	-0.02168941	-2.460455	-133.1272	
13:52:07	47.46247	-122.3086	0.027	5.58326	522.5661	0	3	100	0	99	-0.02041119	-2.50855	-133.2709	
13:52:07	47.46247	-122.3086	0.027	5.522399	517.0315	0	3	100	0	99	-0.02043766	-2.554079	-133.3855	
13:52:07	47.46247	-122.3086	0.027	5.450422	510.338	0	3	100	0	100	-0.02112921	-2.596311	-133.4915	
13:52:07	47.46247	-122.3086	0.027	5.385224	504.1197	0	3	100	0	99	-0.02134491	-2.634212	-133.5949	
13:52:08	47.46247	-122.3086	0.027	5.320808	498.0399	0	3	100	0	99	-0.02137738	-2.670843	-133.6996	
13:52:08	47.46247	-122.3086	0.027	5.263005	492.4791	0	3	100	0	99	-0.02247861	-2.691387	-133.778	
13:52:08	47.46247	-122.3086	0.027	5.192335	485.7575	0	3	100	0	99	-0.0239231	-2.708229	-133.8507	
13:52:08	47.46247	-122.3086	0.027	5.130329	479.7772	0	3	100	0	99	-0.02534281	-2.723999	-133.9203	
13:52:08	47.46247	-122.3086	0.027	5.067863	473.6696	0	3	100	0	99	-0.02660859	-2.739259	-133.9897	
13:52:09	47.46247	-122.3086	0.027	5.0122	468.2056	0	3	100	0	100	-0.02722691	-2.753976	-134.0758	
13:52:09	47.46247	-122.3086	0.027	4.944199	461.5584	0	3	100	0	99	-0.02636895	-2.768635	-134.1916	
13:52:09	47.46247	-122.3086	0.027	4.882929	455.6359	0	3	100	0	99	-0.02720567	-2.782788	-134.2779	
13:52:09	47.46247	-122.3086	0.027	4.827724	450.3928	0	3	100	0	99	-0.02933622	-2.796098	-134.3363	
13:52:09	47.46247	-122.3086	0.027	4.762018	444.2029	0	3	100	0	99	-0.03165656	-2.808271	-134.3896	
13:52:10	47.46247	-122.3086	0.027	4.702763	438.5439	0	3	100	0	99	-0.03311368	-2.819783	-134.4471	
13:52:10	47.46247	-122.3086	0.027	4.643692	432.8878	0	3	100	0	99	-0.03509151	-2.830875	-134.4974	
13:52:10	47.46247	-122.3086	0.027	4.590498	427.6896	0	3	100	0	64	-0.03662326	-2.841605	-134.5484	
13:52:10	47.46247	-122.3086	0.027	4.532106	422.0465	0	3	100	0	4	-0.03829798	-2.851662	-134.5998	
13:52:10	47.46247	-122.3086	0.027	4.474367	416.5705	0	3	100	0	5	-0.03992878	-2.860752	-134.6481	
13:52:11	47.46247	-122.3086	0.027	4.417551	411.1918	0	3	100	0	4	-0.03980557	-2.869667	-134.7307	
13:52:11	47.46247	-122.3086	0.027	4.355671	405.3398	0	3	100	0	4	-0.03811669	-2.878602	-134.8442	
13:52:11	47.46247	-122.3086	0.027	4.299982	400.0425	0	3	100	0	4	-0.03526122	-2.887546	-134.9806	
13:52:11	47.46247	-122.3086	0.027	4.249387	395.2689	0	3	100	0	4	-0.03769445	-2.896511	-135.0229	
13:52:11	47.46247	-122.3086	0.027	4.189435	389.6299	0	3	100	0	4	-0.0403413	-2.904764	-135.0589	
13:52:12	47.46247	-122.3086	0.027	4.135248	384.4922	0	3	100	0	4	-0.04322112	-2.912176	-135.0878	
13:52:12	47.46247	-122.3086	0.027	4.087498	379.9641	0	3	100	0	5	-0.04536063	-2.919359	-135.1233	
13:52:12	47.46247	-122.3086	0.027	4.034236	374.8217	0	3	100	0	4	-0.04693178	-2.926351	-135.1677	
13:52:12	47.46247	-122.3086	0.027	3.976467	369.4363	0	3	100	0	4	-0.04963703	-2.932781	-135.1931	
13:52:12	47.46247	-122.3086	0.027	3.930079	365.2928	0	3	100	0	4	-0.0517862	-2.938994	-135.2233	
13:52:13	47.46247	-122.3086	0.027	3.878925	360.7294	0	3	100	0	4	-0.05419529	-2.945152	-135.2458	
13:52:13	47.46247	-122.3086	0.027	3.825225	355.7415	0	3	100	0	5	-0.0554585	-2.951326	-135.2944	
13:52:13	47.46247	-122.3086	0.027	3.776542	351.1718	0	3	100	0	4	-0.05465797	-2.957571	-135.3833	
13:52:13	47.46247	-122.3086	0.027	3.732915	347.0589	0	3	100	0	4	-0.05395921	-2.958173	-135.4683	
13:52:13	47.46247	-122.3086	0.027	3.680089	342.1444	0	3	100	0	4	-0.0593141	-2.936445	-135.4367	
13:52:14	47.46247	-122.3086	0.027	3.637637	338.1749	0	3	100	0	4	-0.06389444	-2.914331	-135.4186	
13:52:14	47.46247	-122.3086	0.027	3.591697	333.8645	0	3	100	0	4	-0.06624384	-2.892267	-135.4445	
13:52:14	47.46247	-122.3086	0.027	3.546039	329.5999	0	3	100	0	4	-0.06691126	-2.870243	-135.504	
13:52:14	47.46247	-122.3086	0.027	3.495888	324.9757	0	3	100	0	4	-0.07003236	-2.848204	-135.4991	
13:52:14	47.46247	-122.3086	0.027	3.45675	321.4905	0	3	100	0	4	-0.07384344	-2.827112	-135.4827	
13:52:15	47.46247	-122.3086	0.027	3.408751	317.1511	0	3	100	0	4	-0.07830671	-2.807369	-135.4481	
13:52:15	47.46247	-122.3086	0.027	3.366437	313.2827	0	3	100	0	5	-0.0820422	-2.789315	-135.4131	
13:52:15	47.46247	-122.3086	0.027	3.328589	309.774	0	3	100	0	4	-0.08503432	-2.771977	-135.3907	
13:52:15	47.46247	-122.3086	0.027	3.287286	305.7443	0	3	100	0	4	-0.08589251	-2.754602	-135.4135	
13:52:15	47.46247	-122.3086	0.027	3.241664	301.4182	0	3	100	0	4	-0.08978502	-2.737925	-135.3754	
13:52:16	47.46247	-122.3086	0.027	3.201062	297.651	0	3	100	0	4	-0.09272364	-2.722308	-135.3443	
13:52:16	47.46247	-122.3086	0.027	3.164708	294.261	0	3	100	0	4	-0.09335136	-2.707308	-135.3582	
13:52:16	47.46247	-122.3086	0.027	3.125241	290.6052	0	3	100	0	5	-0.09224804	-2.692367	-135.4088	
13:52:16	47.46247	-122.3086	0.027	3.082523	286.7008	0	3	100	0	4	-0.08988579	-2.677469	-135.4866	
13:52:16	47.46247	-122.3086	0.027	3.044595	283.2061	0	3	100	0	4	-0.08661079	-2.662597	-135.5844	
13:52:17	47.46247	-122.3086	0.027	3.010754	280.0775	0	3	100	0	4	-0.08267722	-2.647741	-135.697	
13:52:17	47.46247	-122.3086	0.027	2.984759	277.7036	0	3	100	0	4	-0.07827146	-2.632892	-135.8204	
13:52:17	47.46247	-122.3086	0.027	2.984759	277.7036	0	3	100	0	4	-0.07352946	-2.618043	-135.952	
13:52:17	47.46247	-122.3086	0.027	2.984759	277.7036	0	3	100	0	4	-0.06855258	-2.60319	-136.0894	
13:52:17	47.46247	-122.3086	0.027	2.984759	277.7036	0	3	100	0	4	-0.06341331	-2.58833	-136.2312	
13:52:18	47.46247	-122.3086	0.027	2.984759	277.7036	0	3	100	0	4	-0.05816682	-2.573461	-136.3761	
13:52:18	47.46247	-122.3086	0.027	2.984759	277.7036	0	3	100	0	5	-0.05285111	-2.55858	-136.5235	
13:52:18	47.46247	-122.3086	0.027	2.984759	277.7036	0	3	100	0	4	-0.05282958	-2.543948	-136.5781	
13:52:18	47.46247	-122.3086	0.027	2.955511	275.0561	0	3	100	0	4	-0.06022241	-2.529733	-136.497	
13:52:18	47.46247	-122.3086	0.027	2.919745	271.7951	0	3	100	0	5	-0.06674428	-2.495205	-136.407	
13:52:19	47.46247	-122.3086	0.027	2.887329	268.8024	0	3	100	0	4	-0.0731478	-2.464324	-136.3078	
13:52:19	47.46247	-122.3086	0.027	2.849657	265.2894	0	3	100	0	4	-0.07796397	-2.434228	-136.24	
13:52:19	47.46247	-122.3086	0.027	2.815078	261.9823	0	3	100	0	4	-0.08348393	-2.404889	-136.1479	
13:52:19	47.46247	-122.3086	0.027	2.781207	258.834	0	3	100	0	4	-0.08711511	-2.375831	-136.0999	
13:52:19	47.46247	-122.3086	0.027	2.747279	255.5966	0	3	100	0	5	-0.09211599	-2.348181	-136.0088	
13:52:20	47.46247	-122.3086	0.027	2.7172	252.7652	0	3	100	0	4	-0.09729001	-2.322778	-135.912	
13:52:20	47.46247	-122.3086	0.027	2.684535	249.6796	0	3	100	0	4	-0.1020992	-2.298745	-135.8208	
13:52:20	47.46247	-122.3086	0.027	2.648652	246.4183	0	3	100	0	4	-0.1064074	-2.276015	-135.731	
13:52:20	47.46247	-122.3086	0.027	2.616862	243.5563	0	3	100	0	4	-0.1105294	-2.254133	-135.6414	
13:52:20	47.46247	-122.3086	0.027	2.588717	241.0007	0	3	100	0	5	-0.1138218	-2.233348	-135.5747	
13:52:21	47.46247	-122.3086	0.027	2.555037	237.8444	0	3	100	0	4	-0.116524	-2.213436	-135.516	
13:52:21	47.46247	-122.3086	0.027	2.524073	234.8416	0	3	100	0	4	-0.1196008	-2.194107	-135.4427	
13:52:21	47.46247	-122.3086	0.027	2.494535	232.1501	0	3	100	0	4	-0.1219157	-2.174834	-135.3764	
13:52:21	47.46247	-122.3086	0.027	2.464981	229.4391	0	3	100	0	4	-0.1241008	-2.156345	-135.3233	
13:52:21	47.46247	-122.3086	0.027	2.435576	226.5586	0	3	100	0	4	-0.1264212	-2.13862	-135.2598	
13:52:22	47.46247	-122.3086	0.027	2.406393	223.73	0	3	100	0	4	-0.1286237	-2.121778	-135.1956	
13:52:22	47.46247	-122.3086	0.027	2.380333	221.2807	0	3	100	0	5	-0.1311439	-2.106161	-135.118	
13:52:22	47.46247	-122.3086	0.027	2.349042	218.4123	0	3	100	0	4	-0.133341	-2.091865	-135.0404	
13:52:22	47.46247	-122.3086	0.027	2.324064	216.1337	0	3	100	0	4	-0.1355037	-2.078224	-134.9659	
13:52:22	47.46247	-122.3086	0.027	2.29627	213.4511	0	3	100	0	4	-0.1374992	-2.06491	-134.8934	
13:52:23	47.46247	-122.3086	0.027	2.266454	210.5952	0	3	100	0	4	-0.1393619	-2.052225	-134.8235	
13:52:23	47.46247	-122.3086	0.027	2.239379	208.0919	0	3	100	0	4	-0.1410097	-2.040017	-134.7553	
13:52:23	47.46247	-122.3086	0.027	2.214766	205.6809	0	3	100	0	4	-0.1423441	-2.028352	-134.6901	
13:52:23	47.46247	-122.3086	0.027	2.18816	203.1952	0	3	100	0	5	-0.1434919	-2.017513	-134.6267	
13:52:23	47.46247	-122.3086	0.027	2.159313	200.4148	0	3	100	0	5	-0.1452304	-1.991402	-134.5214	
13:52:24	47.46247	-122.3086	0.027	2.133608	198.0326	0	3	100	0	4	-0.1468435	-1.961401	-134.4076	
13:52:24	47.46247	-122.3086	0.027	2.110602	195.9076	0	3	100	0	5	-0.1485252	-1.931747	-134.2954	
13:52:24	47.46247	-122.3086	0.027	2.082591	193.3214	0	3	100	0	5	-0.149815	-1.903471	-134.191	
13:52:24	47.46247	-122.3086	0.027	2.057844	190.9332	0	3	100	0	4	-0.150767	-1.876235	-134.0866	
13:52:24	47.46247	-122.3086	0.027	2.03317	188.6419	0	3	100	0	4	-0.1516979	-1.85054	-133.9852	
13:52:25	47.46247	-122.3086	0.027	2.009073	186.3656	0	3	100	0	4	-0.1524998	-1.825839	-133.8844	
13:52:25	47.46247	-122.3086	0.027	1.984371	183.9008	0	3	100	0	4	-0.1529821	-1.802393	-133.7904	
13:52:25	47.46247	-122.3086	0.027	1.960243	181.5981	0	3	100	0	4	-0.1530932	-1.779855	-133.7017	
13:52:25	47.46247	-122.3086	0.027	1.938706	179.6331	0	3	100	0	5	-0.1534416	-1.758132	-133.6111	
13:52:25	47.46247	-122.3086	0.027	1.915141	177.3934	0	3	100	0	4	-0.1532857	-1.737422	-133.5242	
13:52:26	47.46247	-122.3086	0.027	1.889812	175.0818	0	3	100	0	4	-0.1531744	-1.717522	-133.4394	
13:52:26	47.46247	-122.3086	0.027	1.86718	172.9226	0	3	100	0	4	-0.1534129	-1.698385	-133.3589	
13:52:26	47.46247	-122.3086	0.027	1.844921	170.862	0	3	100	0	4	-0.1531394	-1.680156	-133.277	
13:52:26	47.46247	-122.3086	0.027	1.822569	168.7734	0	3	100	0	4	-0.1526812	-1.662948	-133.2025	
13:52:26	47.46247	-122.3086	0.027	1.800623	166.6802	0	3	100	0	5	-0.1523331	-1.646329	-133.1264	
13:52:27	47.46247	-122.3086	0.027	1.778698	164.546	0	3	100	0	4	-0.1521315	-1.630507	-133.0533	
13:52:27	47.46247	-122.3086	0.027	1.756977	162.4979	0	3	100	0	3	-0.1514161	-1.615106	-132.9845	
13:52:27	47.46247	-122.3086	0.027	1.735777	160.3347	0	3	100	0	4	-0.1508289	-1.600531	-132.9158	
13:52:27	47.46247	-122.3086	0.027	1.716314	158.4668	0	3	100	0	4	-0.1500975	-1.586602	-132.8546	
13:52:27	47.46247	-122.3086	0.027	1.693119	156.2126	0	3	100	0	4	-0.1495912	-1.573199	-132.7892	
13:52:28	47.46247	-122.3086	0.027	1.671988	154.1517	0	3	100	0	5	-0.1487516	-1.56055	-132.7267	
13:52:28	47.46247	-122.3086	0.027	1.653046	152.3611	0	3	100	0	4	-0.1478281	-1.548461	-132.6666	
13:52:28	47.46247	-122.3086	0.027	1.630251	150.219	0	3	100	0	4	-0.147544	-1.536814	-132.6091	
13:52:28	47.46247	-122.3086	0.027	1.611668	148.4603	0	3	100	0	4	-0.1469633	-1.525675	-132.5528	
13:52:28	47.46247	-122.3086	0.027	1.591207	146.5399	0	3	100	0	5	-0.1461007	-1.50851	-132.4835	
13:52:29	47.46247	-122.3086	0.027	1.570943	144.5823	0	3	100	0	4	-0.1449184	-1.482961	-132.3913	
13:52:29	47.46247	-122.3086	0.027	1.54909	142.3267	0	3	100	0	2	-0.1437054	-1.457959	-132.3013	
13:52:29	47.46247	-122.3086	0.027	1.528809	140.4051	0	3	100	0	4	-0.1424039	-1.433636	-132.2128	
13:52:29	47.46247	-122.3086	0.027	1.508928	138.5166	0	3	100	0	4	-0.1410516	-1.410357	-132.1293	
13:52:29	47.46247	-122.3086	0.027	1.489588	136.7838	0	3	100	0	4	-0.139678	-1.388155	-132.0478	
13:52:30	47.46247	-122.3086	0.027	1.470221	135.014	0	3	100	0	4	-0.1382486	-1.366756	-131.9679	
13:52:30	47.46247	-122.3086	0.027	1.453131	133.4328	0	3	100	0	4	-0.136617	-1.346333	-131.8896	
13:52:30	47.46247	-122.3086	0.027	1.432545	131.5263	0	3	100	0	4	-0.1351511	-1.326908	-131.8141	
13:52:30	47.46247	-122.3086	0.027	1.41439	129.905	0	3	100	0	4	-0.1336609	-1.308079	-131.7412	
13:52:30	47.46247	-122.3086	0.027	1.396671	128.2153	0	3	100	0	5	-0.1322654	-1.290659	-131.6705	
13:52:31	47.46247	-122.3086	0.027	1.380798	126.7955	0	3	100	0	4	-0.1308939	-1.274023	-131.6034	
13:52:31	47.46247	-122.3086	0.027	1.361769	125.0925	0	3	100	0	4	-0.1292302	-1.2577	-131.5369	
13:52:31	47.46247	-122.3086	0.027	1.344806	123.5577	0	3	100	0	4	-0.1279267	-1.242358	-131.473	
13:52:31	47.46247	-122.3086	0.027	1.328251	121.9727	0	3	100	0	4	-0.1263576	-1.229633	-131.4103	
13:52:31	47.46247	-122.3086	0.027	1.31334	120.5364	0	3	100	0	4	-0.1245078	-1.214649	-131.3497	
13:52:32	47.46247	-122.3086	0.027	1.296874	118.9514	0	3	100	0	4	-0.1227447	-1.201423	-131.2923	
13:52:32	47.46247	-122.3086	0.027	1.278961	117.288	0	3	100	0	4	-0.1210914	-1.189817	-131.2366	
13:52:32	47.46247	-122.3086	0.027	1.262864	115.7477	0	3	100	0	5	-0.1194047	-1.175802	-131.1815	
13:52:32	47.46247	-122.3086	0.027	1.248461	114.4036	0	3	100	0	4	-0.1183154	-1.162082	-131.1279	
13:52:32	47.46247	-122.3086	0.027	1.232874	112.9691	0	3	100	0	4	-0.1162042	-1.153932	-131.0762	
13:52:33	47.46247	-122.3086	0.027	1.217383	111.5504	0	3	100	0	4	-0.1141193	-1.146293	-131.0262	
13:52:33	47.46247	-122.3086	0.027	1.202316	110.1547	0	3	100	0	4	-0.1120391	-1.139097	-130.978	
13:52:33	47.46247	-122.3086	0.027	1.186003	108.6376	0	3	100	0	4	-0.1099012	-1.132107	-130.9344	
13:52:33	47.46247	-122.3086	0.027	1.172709	107.4074	0	3	100	0	4	-0.1078719	-1.125437	-130.889	
13:52:33	47.46247	-122.3086	0.027	1.156824	105.9465	0	3	100	0	4	-0.1057263	-1.115806	-130.8385	
13:52:34	47.46247	-122.3086	0.027	1.142576	104.6402	0	3	100	0	4	-0.1031639	-1.098505	-130.7716	
13:52:34	47.46247	-122.3086	0.027	1.128563	103.3607	0	3	100	0	5	-0.1006124	-1.081558	-130.7071	
13:52:34	47.46247	-122.3086	0.027	1.116262	102.2332	0	3	100	0	4	-0.09807109	-1.065098	-130.6451	
13:52:34	47.46247	-122.3086	0.027	1.102556	100.975	0	3	100	0	5	-0.0956177	-1.049428	-130.5845	
13:52:34	47.46247	-122.3086	0.027	1.088025	99.62	0	3	100	0	5	-0.09320579	-1.03435	-130.5255	
13:52:35	47.46247	-122.3086	0.027	1.07496	98.40434	0	3	100	0	4	-0.09080926	-1.019776	-130.4691	
13:52:35	47.46247	-122.3086	0.027	1.061906	97.1896	0	3	100	0	4	-0.08849812	-1.005989	-130.4145	
13:52:35	47.46247	-122.3086	0.027	1.049069	95.99097	0	3	100	0	4	-0.08625954	-0.9928344	-130.3612	
13:52:35	47.46247	-122.3086	0.027	1.036505	94.8138	0	3	100	0	4	-0.08406432	-0.9801266	-130.3085	
13:52:36	47.46247	-122.3086	0.027	1.02528	93.75042	0	3	100	0	4	-0.08193461	-0.9680622	-130.2585	
13:52:36	47.46247	-122.3086	0.027	1.019542	130.2798	0	3	100	0	4	0.6128128	-0.7301959	-131.5753	
13:52:36	47.46363	-122.3078	0.002	1.199807	220.5474	0	3	100	0	4	1.70461	-0.4798476	-133.1779	
13:52:36	47.46363	-122.3078	0.021	1.342308	197.8736	0	3	100	0	4	1.636562	-0.2004568	-134.7574	
13:52:36	47.46363	-122.3078	0.021	1.467603	192.9293	0	3	100	0	4	1.574622	-0.05466789	-136.2616	
13:52:36	47.46363	-122.3078	0.02	1.550103	187.1093	0	3	100	0	4	1.517183	-0.02905408	-137.7697	
13:52:37	47.46363	-122.3078	0.02	1.60188	180.8978	0	3	100	0	4	1.451862	-0.04435632	-139.209	
13:52:37	47.46363	-122.3078	0.02	1.638643	172.3542	0	3	100	0	4	1.388465	-0.06331237	-140.6143	
13:52:37	47.46363	-122.3078	0.02	1.649916	164.9403	0	3	100	0	4	1.328102	-0.05604896	-141.9594	
13:52:37	47.46363	-122.3078	0.02	1.64559	156.564	0	3	100	0	4	1.269035	-0.03467732	-143.2495	
13:52:38	47.46363	-122.3078	0.02	1.623524	146.9812	0	3	100	0	4	1.212682	-0.00111038	-144.5261	
13:52:38	47.46363	-122.3078	0.02	1.590611	138.3286	0	3	100	0	5	1.157007	0.0452513	-145.7491	
13:52:38	47.46363	-122.3078	0.02	1.547933	129.8568	0	3	100	0	4	1.104738	0.08621827	-146.9302	
13:52:38	47.46363	-122.3078	0.02	1.498083	121.7251	0	3	100	0	5	1.053879	0.09342067	-148.0759	
13:52:38	47.46363	-122.3078	0.02	1.441301	113.7679	0	3	100	0	5	1.006101	0.08502362	-149.1778	
13:52:39	47.46363	-122.3078	0.02	1.382971	106.5638	0	3	100	0	4	0.9604388	0.07394796	-150.1948	
13:52:39	47.46363	-122.3078	0.02	1.327276	100.2117	0	3	100	0	4	0.9146487	0.06859523	-151.2872	
13:52:39	47.46363	-122.3078	0.02	1.258195	93.04165	0	3	100	0	4	0.8661665	0.07323658	-152.4763	
13:52:39	47.46363	-122.3078	0.02	1.202102	87.65725	0	3	100	0	4	0.8207096	0.07984827	-153.622	
13:52:39	47.46363	-122.3078	0.02	1.134267	81.6684	0	3	100	0	4	0.8027844	0.08060893	-154.7288	
13:52:40	47.46363	-122.3078	0.02	1.08086	77.32581	0	3	100	0	4	0.7669806	0.07138389	-155.7749	
13:52:40	47.46363	-122.3078	0.02	1.017311	72.40466	0	3	100	0	4	0.7255095	0.06040184	-156.7948	
13:52:40	47.46363	-122.3078	0.02	0.9682559	68.85777	0	3	100	0	4	0.6861272	0.04861838	-157.7821	
13:52:40	47.46363	-122.3078	0.02	0.9169605	65.296	0	3	100	0	4	0.6479848	0.03744515	-158.7287	
13:52:40	47.46363	-122.3078	0.02	0.8645041	62.06855	0	3	100	0	4	0.6117903	0.02477719	-159.647	
13:52:41	47.46363	-122.3078	0.02	0.8240235	59.65545	0	3	100	0	4	0.57772	0.01146486	-160.5102	
13:52:41	47.46363	-122.3078	0.02	0.7834884	57.37373	0	3	100	0	4	0.5449604	-0.001351441	-161.3371	
13:52:41	47.46363	-122.3078	0.02	0.7467524	55.44952	0	3	100	0	5	0.5133738	-0.02665002	-162.1425	
13:52:41	47.46363	-122.3078	0.02	0.7131553	53.82759	0	3	100	0	5	0.4804875	-0.02853459	-162.9156	
13:52:41	47.46363	-122.3078	0.02	0.6805652	52.3614	0	3	100	0	4	0.4661082	-0.0333305	-163.6514	
13:52:42	47.46363	-122.3078	0.02	0.6568549	51.35711	0	3	100	0	4	0.4404868	-0.04601851	-164.3546	
13:52:42	47.46363	-122.3078	0.02	0.6330866	50.42437	0	3	100	0	4	0.4151488	-0.0587667	-165.0352	
13:52:42	47.46363	-122.3078	0.02	0.610521	49.60255	0	3	100	0	5	0.3904364	-0.07159741	-165.6821	
13:52:42	47.46363	-122.3078	0.02	0.5940424	49.04978	0	3	100	0	4	0.3667937	-0.08501117	-166.3151	
13:52:42	47.46363	-122.3078	0.02	0.5764207	48.50632	0	3	100	0	4	0.3449311	-0.09770461	-166.916	
13:52:43	47.46363	-122.3078	0.02	0.5629019	47.96834	0	3	100	0	5	0.3239242	-0.1109819	-167.499	
13:52:43	47.46363	-122.3078	0.02	0.5506896	47.58984	0	3	100	0	4	0.3038513	-0.1241087	-168.0516	
13:52:43	47.46363	-122.3078	0.02	0.5412865	47.35456	0	3	100	0	4	0.2843849	-0.1369434	-168.584	
13:52:43	47.46363	-122.3078	0.02	0.5313991	47.10173	0	3	100	0	4	0.2655314	-0.1486596	-169.0922	
13:52:43	47.46363	-122.3078	0.02	0.5237606	46.90142	0	3	100	0	4	0.2477226	-0.1606015	-169.5795	
13:52:44	47.46363	-122.3078	0.02	0.5171957	46.71376	0	3	100	0	4	0.2303397	-0.1708899	-170.0451	
13:52:44	47.46363	-122.3078	0.02	0.5114638	46.52538	0	3	100	0	4	0.2139346	-0.1797302	-170.4933	
13:52:44	47.46363	-122.3078	0.02	0.5064662	46.3452	0	3	100	0	4	0.1951309	-0.1893819	-171.0391	
13:52:44	47.46363	-122.3078	0.02	0.5024654	46.18386	0	3	100	0	4	0.1760154	-0.2006681	-171.5902	
13:52:44	47.46363	-122.3078	0.02	0.4981361	45.98336	0	3	100	0	4	0.1577812	-0.2113919	-172.1188	
13:52:45	47.46363	-122.3078	0.02	0.4945818	45.78219	0	3	100	0	4	0.139727	-0.2217409	-172.6266	
13:52:45	47.46363	-122.3078	0.02	0.4915801	45.58679	0	3	100	0	4	0.1229123	-0.2325366	-173.1133	
13:52:45	47.46363	-122.3078	0.02	0.4880436	45.22483	0	3	100	0	4	0.1079914	-0.2458394	-173.5801	
13:52:45	47.46363	-122.3078	0.02	0.4852026	44.98523	0	3	100	0	4	0.09252778	-0.2546401	-174.0271	
13:52:45	47.46363	-122.3078	0.02	0.4820745	44.69651	0	3	100	0	4	0.07727188	-0.2643067	-174.4585	
13:52:46	47.46363	-122.3078	0.02	0.4786987	44.36078	0	3	100	0	4	0.06263292	-0.2740123	-174.8722	
13:52:46	47.46363	-122.3078	0.02	0.4755955	44.02359	0	3	100	0	4	0.04853864	-0.2832024	-175.2667	
13:52:46	47.46363	-122.3078	0.02	0.4724054	43.59756	0	3	100	0	5	0.03477648	-0.2922695	-175.6469	
13:52:46	47.46363	-122.3078	0.02	0.4693246	43.21055	0	3	100	0	4	0.02293845	-0.300605	-176.0118	
13:52:46	47.46363	-122.3078	0.02	0.4653768	42.7611	0	3	100	0	4	0.01117504	-0.3085105	-176.3609	
13:52:47	47.46363	-122.3078	0.02	0.4616194	42.21529	0	3	100	0	4	-0.0006180113	-0.3170763	-176.6951	
13:52:47	47.46363	-122.3078	0.02	0.457551	41.71822	0	3	100	0	4	-0.01154013	-0.3248596	-177.0146	
13:52:47	47.46363	-122.3078	0.02	0.4533437	41.25723	0	3	100	0	5	-0.02200051	-0.3443093	-177.3245	
13:52:47	47.46363	-122.3078	0.02	0.4494976	40.83385	0	3	100	0	4	-0.03161762	-0.3542574	-177.6194	
13:52:47	47.46363	-122.3078	0.02	0.4446096	40.22754	0	3	100	0	4	-0.04195652	-0.3604907	-177.903	
13:52:48	47.46363	-122.3078	0.02	0.4404647	39.79055	0	3	100	0	4	-0.05088446	-0.3662148	-178.1753	
13:52:48	47.46363	-122.3078	0.02	0.4353687	39.26071	0	3	100	0	4	-0.05989434	-0.3708274	-178.4354	
13:52:48	47.46363	-122.3078	0.02	0.4307004	38.77464	0	3	100	0	4	-0.06829936	-0.3754223	-178.6837	
13:52:48	47.46363	-122.3078	0.02	0.4264761	38.33616	0	3	100	0	4	-0.07655097	-0.3798701	-178.9238	
13:52:48	47.46363	-122.3078	0.02	0.4217305	37.84267	0	3	100	0	4	-0.08489479	-0.3829756	-179.1534	
13:52:49	47.46363	-122.3078	0.02	0.4164872	37.30199	0	3	100	0	4	-0.09346627	-0.3866909	-179.3759	
13:52:49	47.46363	-122.3078	0.02	0.4121438	36.86285	0	3	100	0	4	-0.1009136	-0.3897898	-179.5887	
13:52:49	47.46363	-122.3078	0.02	0.4073637	36.38573	0	3	100	0	4	-0.1077993	-0.3929044	-179.7919	
13:52:49	47.46363	-122.3078	0.02	0.4025442	35.91125	0	3	100	0	4	-0.1153802	-0.3944395	-179.9833	
13:52:49	47.46363	-122.3078	0.02	0.3977323	35.43652	0	3	100	0	4	-0.1222022	-0.3958691	179.8341	
13:52:50	47.46363	-122.3078	0.02	0.3929795	34.97294	0	3	100	0	4	-0.129247	-0.3994139	179.6595	
13:52:50	47.46363	-122.3078	0.02	0.387817	34.475	0	3	100	0	4	-0.1361183	-0.401055	179.4884	
13:52:50	47.46363	-122.3078	0.02	0.3830579	34.01583	0	3	100	0	4	-0.1398593	-0.4023885	179.3232	
13:52:50	47.46363	-122.3078	0.02	0.3788377	33.61204	0	3	100	0	5	-0.14741	-0.4050759	179.1671	
13:52:51	47.46363	-122.3078	0.02	0.373773	33.1296	0	3	100	0	4	-0.153137	-0.4085056	179.0187	
13:52:51	47.46363	-122.3078	0.02	0.369243	32.69444	0	3	100	0	4	-0.1587833	-0.4095273	178.8772	
13:52:51	47.46363	-122.3078	0.02	0.3651321	32.30315	0	3	100	0	5	-0.1646801	-0.4104262	178.7395	
13:52:51	47.46363	-122.3078	0.02	0.3606493	31.88292	0	3	100	0	5	-0.1707657	-0.4109806	178.6005	
13:52:51	47.46363	-122.3078	0.02	0.3557359	31.42618	0	3	100	0	4	-0.1760125	-0.4116479	178.4747	
13:52:51	47.46363	-122.3078	0.02	0.351408	31.02478	0	3	100	0	5	-0.1807623	-0.4123051	178.3559	
13:52:52	47.46363	-122.3078	0.02	0.3475168	30.66103	0	3	100	0	4	-0.1858224	-0.4136261	178.2393	
13:52:52	47.46363	-122.3078	0.02	0.3427979	30.22231	0	3	100	0	6	-0.1911093	-0.4126776	178.1272	
13:52:52	47.46363	-122.3078	0.02	0.3389558	29.86647	0	3	100	0	4	-0.1978576	-0.401767	178.0231	
13:52:52	47.46363	-122.3078	0.02	0.3345129	29.45156	0	3	100	0	4	-0.2020943	-0.3894804	177.9172	
13:52:52	47.46363	-122.3078	0.02	0.3308485	29.1033	0	3	100	0	4	-0.2051359	-0.387275	177.8157	
13:52:53	47.46363	-122.3078	0.02	0.326755	28.71231	0	3	100	0	4	-0.2090098	-0.3882289	177.7238	
13:52:53	47.46363	-122.3078	0.02	0.3227508	28.27879	0	3	100	0	4	-0.2131074	-0.3903503	177.6343	
13:52:53	47.46363	-122.3078	0.02	0.3185643	27.84333	0	3	100	0	5	-0.2151259	-0.3744747	177.5492	
13:52:53	47.46363	-122.3078	0.02	0.3141097	27.43612	0	3	100	0	5	-0.2155334	-0.1970322	177.4635	
13:52:53	47.46363	-122.3078	0.02	0.3100309	27.06498	0	3	100	0	5	-0.2220361	0.03327155	177.387	
13:52:54	47.46363	-122.3078	0.02	0.3063807	26.49888	0	3	100	0	4	-0.226698	-0.1170088	177.3138	
13:52:54	47.46363	-122.3078	0.02	0.301275	25.78792	0	3	100	0	3	-0.2305606	-0.4614832	177.2383	
13:52:54	47.46363	-122.3078	0.02	0.2963706	25.24488	0	3	100	0	5	-0.2557912	-0.6290323	177.165	
13:52:54	47.46363	-122.3078	0.02	0.2916021	24.83804	0	3	100	0	4	-0.268462	-0.5844065	177.1363	
13:52:54	47.46363	-122.3078	0.02	0.2869221	24.45919	0	3	100	0	4	-0.2549701	-0.4640043	177.1357	
13:52:55	47.46363	-122.3078	0.02	0.2828873	24.12921	0	3	100	0	4	-0.2495036	-0.4310575	177.1377	
13:52:55	47.46363	-122.3078	0.02	0.2782489	23.8404	0	3	100	0	5	-0.2513934	-0.455682	177.1369	
13:52:55	47.46363	-122.3078	0.02	0.2743393	23.58745	0	3	100	0	4	-0.2521419	-0.4898795	177.1386	
13:52:55	47.46363	-122.3078	0.02	0.2709599	23.28753	0	3	100	0	4	-0.2528489	-0.4956819	177.1404	
13:52:55	47.46363	-122.3078	0.02	0.2674106	23.05836	0	3	100	0	4	-0.2531566	-0.4887975	177.1419	
13:52:56	47.46363	-122.3078	0.02	0.2641089	22.8375	0	3	100	0	4	-0.2537506	-0.4823468	177.1424	
13:52:56	47.46363	-122.3078	0.02	0.2609753	22.61727	0	3	100	0	4	-0.254721	-0.4762523	177.1438	
13:52:56	47.46363	-122.3078	0.02	0.2577507	22.37904	0	3	100	0	4	-0.2555867	-0.4701625	177.1449	
13:52:56	47.46363	-122.3078	0.02	0.254965	22.16082	0	3	100	0	4	-0.1147268	-0.4874199	177.0769	
13:52:56	47.46363	-122.3078	0.02	0.2537971	23.06392	0.02	3	100	0	5	-0.008585533	-0.5203929	176.8717	
13:52:57	47.46363	-122.3078	0.02	0.2537591	23.35812	0.09	3	100	0	4	-0.01076788	-0.4623958	176.5777	
13:52:57	47.46363	-122.3078	0.02	0.2534059	23.35372	0.13	3	100	0	4	0.0416939	-0.3897185	176.2135	
13:52:57	47.46363	-122.3078	0.02	0.2531075	23.0911	0.16	3	100	0	47	0.09207209	-0.3094904	175.7846	
13:52:57	47.46363	-122.3078	0.02	0.2527355	23.41087	0.16	3	100	0	99	0.1312587	-0.202672	175.2857	
13:52:57	47.46363	-122.3078	0.02	0.2529093	23.0779	0.22	3	100	0	99	0.1106503	-0.07767597	174.7004	
13:52:58	47.46363	-122.3078	0.02	0.2509128	21.98693	0.25	3	100	0	99	0.06799775	0.1384614	174.0421	
13:52:58	47.46363	-122.3078	0.02	0.2492649	22.11621	0.52	3	100	0	99	0.05630814	0.5778826	173.3245	
13:52:58	47.46362	-122.3078	0.02	0.2456932	20.66467	1.04	3	100	0	99	-0.003644951	1.229974	172.6087	
13:52:58	47.46362	-122.3078	0.02	0.2423472	20.82224	1.99	3	100	0	100	-0.03318594	1.859353	172.0633	
13:52:58	47.46362	-122.3078	0.021	0.2396758	20.36304	3.43	3.028268	100	0	99	-0.05282012	1.931928	172.7162	
13:52:59	47.46362	-122.3078	0.021	0.2367178	20.42402	3.43	4.472974	100	0	100	-0.1151887	1.804701	174.7492	
13:52:59	47.46361	-122.3077	0.022	0.2348233	20.53435	4.95	4.472974	100	0	99	-0.09477468	2.058479	177.3433	
13:52:59	47.46359	-122.3077	0.023	0.2345728	21.59348	7.16	5.989423	100	0	99	0.1293311	2.032886	179.4504	
13:52:59	47.46358	-122.3077	0.024	0.2352333	21.70301	8.48	8.200294	100	0	99	0.3940568	1.567558	-179.5188	
13:52:59	47.46354	-122.3077	0.026	0.2381094	23.9883	10.9	9.506735	100	0	99	0.7168742	1.847601	-179.2482	
13:53:00	47.46352	-122.3078	0.026	0.2464893	26.70127	11.98	11.91883	100	0	99	1.186845	1.683021	-179.2884	
13:53:00	47.4635	-122.3078	0.03	0.2537296	25.25956	13	12.99059	100	0	99	1.310934	2.181866	-179.089	
13:53:00	47.46347	-122.3078	0.034	0.2594126	26.87714	14.44	14.01017	100	0	99	1.366368	3.045489	-178.5058	
13:53:00	47.46344	-122.3078	0.042	0.2686921	28.77628	15.4	15.44268	100	0	99	2.210207	3.605033	-177.6539	
13:53:00	47.46341	-122.3078	0.066	0.2910467	45.72651	16.32	16.40533	100	0	99	3.778955	4.090555	-176.793	
13:53:01	47.46341	-122.3078	0.066	0.3555563	71.85966	16.32	17.3164	100	0	100	5.012216	4.425848	-176.0254	
13:53:01	47.46338	-122.3078	0.137	0.4473869	93.368	17.03	17.3164	100	0	99	5.746482	4.709977	-175.1252	
13:53:01	47.46335	-122.3078	0.254	0.5980312	114.5621	17.71	18.0219	100	0	99	6.113115	4.991008	-174.0782	
13:53:01	47.46332	-122.3078	0.442	0.7620561	129.7237	18.37	18.69622	100	0	99	6.300568	5.181148	-172.9566	
13:53:01	47.46328	-122.3078	0.693	0.9552354	141.4753	19	19.34849	100	0	100	6.437122	5.288461	-171.9508	
13:53:02	47.46325	-122.3078	0.976	1.163229	151.5768	19.59	19.98128	100	0	99	6.390703	5.467282	-171.1214	
13:53:02	47.46321	-122.3078	1.3	1.403135	161.562	20.17	20.56164	100	0	99	6.260965	5.567455	-170.3617	
13:53:02	47.46318	-122.3078	1.648	1.660293	170.7201	20.7	21.13304	100	0	100	6.00571	5.605605	-169.6089	
13:53:02	47.46314	-122.3078	2.012	1.975967	180.5115	21.2	21.65926	100	0	99	5.639385	5.62899	-168.8543	
13:53:02	47.46309	-122.3079	2.597	2.30411	188.5793	21.9	22.14534	100	0	99	5.167282	5.685842	-168.1888	
13:53:03	47.46305	-122.3079	2.964	2.641647	193.4592	22.29	22.83539	100	0	97	4.974401	5.347599	-167.6253	
13:53:03	47.46301	-122.3079	3.41	3.005533	197.0205	22.74	23.2275	100	0	99	4.508059	5.269583	-167.1521	
13:53:03	47.46301	-122.3079	3.41	3.470007	198.6417	22.74	23.67122	100	0	99	4.153667	5.224118	-166.7094	
13:53:03	47.46297	-122.3079	3.836	3.863293	199.6763	23.14	23.67122	100	0	99	3.703883	5.182212	-166.302	
13:53:03	47.46293	-122.3079	4.242	4.248602	199.7946	23.51	24.06893	100	0	99	3.304706	5.102289	-165.9342	
13:53:04	47.46289	-122.308	4.725	4.611895	197.8547	23.95	24.43198	100	0	99	2.956486	4.912322	-165.6437	
13:53:04	47.46284	-122.308	5.155	5.034293	196.0171	24.33	24.86871	100	0	99	2.611434	4.630599	-165.382	
13:53:04	47.46281	-122.308	5.557	5.442433	190.09	24.68	25.24248	100	0	99	2.348627	4.453722	-165.3204	
13:53:04	47.46274	-122.308	6.198	5.77598	184.1532	25.25	25.58976	100	0	99	1.652652	4.287242	-165.3638	
13:53:04	47.4627	-122.3081	6.593	6.229938	183.2854	25.61	26.15556	100	0	99	1.438153	4.04449	-165.1025	
13:53:05	47.46265	-122.3081	6.97	6.633838	182.4288	25.95	26.50894	100	0	100	1.413492	3.940861	-164.7829	
13:53:05	47.46261	-122.3081	7.328	7.035235	180.9999	26.28	26.84722	100	0	99	1.41176	3.873991	-164.5942	
13:53:05	47.46256	-122.3081	7.716	7.416884	179.3055	26.59	27.17945	100	0	99	1.332858	3.764354	-164.5372	
13:53:05	47.46251	-122.3081	8.091	7.794291	178.4438	26.91	27.48675	100	0	99	1.297426	3.67815	-164.3499	
13:53:05	47.46247	-122.3082	8.454	8.101088	177.0242	27.19	27.79764	100	0	99	1.25925	3.574432	-164.1687	
13:53:06	47.46242	-122.3082	8.786	8.469425	174.9962	27.46	28.08344	100	0	99	1.213406	3.378968	-164.2247	
13:53:06	47.46242	-122.3082	8.786	8.85111	168.8102	27.46	28.34402	100	0	99	1.060838	3.226764	-163.9611	
13:53:06	47.46237	-122.3082	9.046	9.13598	162.718	27.73	28.34402	100	0	99	1.072184	3.118229	-163.6884	
13:53:06	47.46232	-122.3083	9.44	9.452951	156.3753	28	28.61152	100	0	99	1.242944	3.051845	-163.5781	
13:53:06	47.4622	-122.3083	10.162	9.746928	155.4583	28.58	28.88198	100	0	99	1.289566	2.90287	-163.5201	
13:53:07	47.46215	-122.3083	10.402	10.10106	152.4828	28.79	29.4638	100	0	100	1.37372	2.502084	-163.3917	
13:53:07	47.4621	-122.3084	10.626	10.37751	146.3529	29	29.66589	100	0	99	1.2232	2.394937	-163.254	
13:53:07	47.4621	-122.3084	10.626	10.66799	139.4807	29	29.87758	100	0	99	1.096471	2.380587	-163.081	
13:53:07	47.46205	-122.3084	10.96	10.9185	137.6653	29.21	29.87758	100	0	99	0.8824185	2.610113	-162.9931	
13:53:08	47.46205	-122.3084	10.96	11.17251	137.6761	29.21	30.08367	100	0	99	0.8194007	2.641992	-162.8569	
13:53:08	47.46196	-122.3085	11.401	11.41762	137.2604	29.56	30.08367	100	0	99	1.499634	2.921803	-162.5721	
13:53:08	47.46188	-122.3085	11.721	11.66951	149.5457	29.83	30.43568	100	0	99	2.495444	4.187736	-162.4475	
13:53:08	47.46183	-122.3086	11.935	11.95613	206.3103	29.95	30.70156	100	0	99	2.252046	5.788645	-162.3091	
13:53:08	47.46178	-122.3086	12.238	12.44133	296.7187	29.99	30.82142	100	0	99	1.548289	7.277726	-162.0182	
13:53:09	47.46173	-122.3086	12.753	12.94209	364.1258	29.94	30.85808	100	0	99	1.218314	8.120035	-161.8623	
13:53:09	47.4617	-122.3086	13.035	13.67928	415.5641	29.89	30.80253	100	0	99	0.8836246	8.318981	-161.7684	
13:53:09	47.46163	-122.3087	14.261	14.27196	420.6655	29.76	30.75267	100	0	99	0.7345454	8.095251	-161.6407	
13:53:09	47.46157	-122.3087	15.07	14.95214	406.1945	29.72	30.6218	100	0	99	0.7176999	7.867774	-161.6191	
13:53:09	47.46152	-122.3087	16.02	15.6579	385.7202	29.7	30.57616	100	0	99	0.6711703	7.592003	-161.5881	
13:53:10	47.46152	-122.3087	16.02	16.38894	363.3179	29.7	30.55301	100	0	99	0.6316864	7.425321	-161.4911	
13:53:10	47.46147	-122.3088	16.708	17.07926	353.3275	29.7	30.55301	100	0	99	0.6492286	7.364547	-161.3349	
13:53:10	47.46142	-122.3088	17.484	17.68667	348.3436	29.72	30.5577	100	0	99	0.6436649	7.267155	-161.1695	
13:53:10	47.46137	-122.3089	18.192	18.40223	340.8681	29.73	30.57173	100	0	99	0.6250229	7.188293	-161.089	
13:53:10	47.46132	-122.3089	18.913	18.987	332.0882	29.74	30.58198	100	0	99	0.6011896	7.199306	-160.9335	
13:53:11	47.46125	-122.3089	20.011	19.56799	328.4919	29.76	30.58702	100	0	98	0.6877016	7.155134	-160.7475	
13:53:11	47.4612	-122.309	20.619	20.13235	326.2081	29.77	30.60797	100	0	99	0.7059162	7.057056	-160.6873	
13:53:11	47.46115	-122.309	21.433	20.88799	323.8972	29.77	30.61336	100	0	99	0.5305567	7.019902	-160.6236	
13:53:11	47.46109	-122.309	22.159	21.52752	325.2288	29.79	30.61368	100	0	99	0.4252376	7.016191	-160.3115	
13:53:11	47.46105	-122.3091	22.795	22.24622	325.3001	29.8	30.63252	100	0	99	0.62643	6.929055	-159.9673	
13:53:12	47.461	-122.3091	23.586	22.952	325.0488	29.81	30.64345	100	0	99	0.6269252	6.874133	-160.2052	
13:53:12	47.461	-122.3091	23.586	23.6076	323.1197	29.81	30.64937	100	0	99	0.3596451	6.845133	-160.1738	
13:53:12	47.46095	-122.3091	24.143	24.22907	321.7373	29.81	30.64937	100	0	99	0.280251	6.869256	-159.858	
13:53:12	47.46095	-122.3091	24.143	24.80553	319.5469	29.81	30.64428	100	0	99	0.2578041	6.910222	-159.5404	
13:53:12	47.46095	-122.3091	24.143	25.26695	311.4412	29.81	30.64428	100	0	99	0.2319931	6.951244	-159.2551	
13:53:13	47.46095	-122.3091	24.143	25.59163	300.1317	29.81	30.64428	100	0	99	0.2035016	6.992692	-158.991	
13:53:13	47.46086	-122.3092	25.427	25.86364	283.9763	29.85	30.64428	100	0	99	0.1733108	7.034123	-158.7449	
13:53:13	47.46086	-122.3092	25.427	26.12442	265.586	29.85	30.6852	100	0	99	0.2018014	7.043146	-158.5528	
13:53:13	47.46063	-122.3094	28.485	26.44383	256.9276	29.9	30.6852	100	0	99	0.5925409	6.857818	-158.4885	
13:53:13	47.46058	-122.3094	29.198	27.38477	268.6227	29.9	30.72784	100	0	99	0.6830672	6.649231	-158.337	
13:53:14	47.46053	-122.3094	29.968	28.20868	274.4501	29.93	30.73008	100	0	99	0.5676188	6.487139	-158.0993	
13:53:14	47.46048	-122.3095	30.522	28.91703	278.0112	29.96	30.75487	100	0	99	0.5051093	6.386386	-157.9317	
13:53:14	47.4604	-122.3095	31.544	29.68635	284.7696	30.01	30.78463	100	0	99	0.4238866	6.303899	-157.9037	
13:53:14	47.46035	-122.3096	32.15	30.51486	291.7473	30.05	30.83121	100	0	99	0.2991122	6.309924	-157.8574	
13:53:14	47.4603	-122.3096	32.821	31.34274	306.3404	30.08	30.86998	100	0	99	0.2642263	6.345381	-157.733	
13:53:15	47.46025	-122.3096	33.429	32.15493	320.2769	30.09	30.90028	100	0	99	0.2374834	6.310797	-157.6895	
13:53:15	47.46021	-122.3097	33.964	32.91496	326.6085	30.12	30.913	100	0	99	0.2003061	6.290732	-157.5115	
13:53:15	47.46016	-122.3097	34.552	33.56374	329.5029	30.14	30.9348	100	0	99	0.2396858	6.313452	-157.2927	
13:53:15	47.4601	-122.3098	35.218	34.2861	335.3077	30.15	30.95666	100	0	99	0.2529859	6.333483	-157.2567	
13:53:15	47.46003	-122.3098	36.146	34.98277	339.7841	30.18	30.96942	100	0	99	0.2259504	6.315221	-157.1413	
13:53:16	47.46003	-122.3098	36.146	35.65062	340.8821	30.18	30.99118	100	0	99	0.2624734	6.288787	-156.8743	
13:53:16	47.45998	-122.3099	36.706	36.40794	342.1556	30.19	30.99118	100	0	99	0.3409998	6.272934	-156.6891	
13:53:16	47.45994	-122.3099	37.403	37.06414	341.4893	30.21	30.99995	100	0	99	0.302459	6.252748	-156.6584	
13:53:16	47.45989	-122.3099	38.072	37.70876	340.306	30.21	31.01766	100	0	99	0.1647608	6.232893	-156.6148	
13:53:16	47.45989	-122.3099	38.072	38.22709	335.9218	30.21	31.02208	100	0	99	0.02455455	6.219357	-156.6004	
13:53:17	47.45984	-122.31	38.829	38.72495	324.2785	30.22	31.02208	100	0	99	-0.1348531	6.206609	-156.5907	
13:53:17	47.45972	-122.3101	40.44	39.18298	314.891	30.27	31.03111	100	0	99	-0.2518972	6.21873	-156.438	
13:53:17	47.45972	-122.3101	40.44	39.65181	311.2989	30.27	31.07618	100	0	99	0.007564492	6.229609	-156.1832	
13:53:17	47.45972	-122.3101	40.44	40.10306	303.3172	30.27	31.07618	100	0	99	0.2649656	6.239477	-155.9584	
13:53:17	47.45972	-122.3101	40.44	40.4161	291.6496	30.27	31.07618	100	0	99	0.5197036	6.248518	-155.7585	
13:53:18	47.45967	-122.3101	41.232	40.62847	278.1878	30.29	31.07618	100	0	99	0.7724845	6.256887	-155.5768	
13:53:18	47.45947	-122.3103	44.317	40.85327	263.2911	30.31	31.09428	100	0	99	0.8835118	6.210872	-155.3832	
13:53:18	47.45947	-122.3103	44.317	41.48685	267.4361	30.31	31.11033	100	0	100	0.915967	6.037627	-155.1654	
13:53:18	47.45947	-122.3103	44.317	42.51622	287.174	30.31	31.11033	100	0	99	0.9684128	5.854053	-154.9775	
13:53:18	47.45942	-122.3103	44.978	43.38859	296.9193	30.31	31.11033	100	0	99	0.9638424	5.696537	-154.8052	
13:53:19	47.45942	-122.3103	44.978	44.25532	301.8757	30.31	31.10713	100	0	99	0.8041109	5.582792	-154.6462	
13:53:19	47.45942	-122.3103	44.978	44.94518	301.3155	30.31	31.10713	100	0	99	0.6416621	5.46914	-154.503	
13:53:19	47.45942	-122.3103	44.978	45.45277	294.6742	30.31	31.10713	100	0	99	0.4785924	5.356577	-154.3727	
13:53:19	47.45942	-122.3103	44.978	45.9359	280.4919	30.31	31.10713	100	0	99	0.3144484	5.24445	-154.2513	
13:53:19	47.45942	-122.3103	44.978	46.2591	262.9487	30.31	31.10713	100	0	99	0.1494838	5.132695	-154.1364	
13:53:20	47.45942	-122.3103	44.978	46.46996	244.2174	30.31	31.10713	100	0	99	-0.01611942	5.021277	-154.0262	
13:53:20	47.45942	-122.3103	44.978	46.46996	244.2174	30.31	31.10713	100	0	99	-0.182227	4.91017	-153.9193	
13:53:20	47.45942	-122.3103	44.978	46.46996	244.2174	30.31	31.10713	100	0	99	-0.348746	4.79936	-153.8149	
13:53:20	47.45942	-122.3103	44.978	46.46996	244.2174	30.31	31.10713	100	0	99	-0.5156042	4.688838	-153.7121	
13:53:20	47.4593	-122.3104	46.665	46.46996	244.2174	30.34	31.10713	100	0	99	-0.6827549	4.578599	-153.6105	
13:53:21	47.45879	-122.3108	53.38	46.52862	243.8873	30.67	31.13774	100	0	99	-0.870479	4.45892	-153.7995	
13:53:21	47.45879	-122.3108	53.38	47.00064	237.7199	30.67	31.45943	100	0	99	-0.2741445	3.992406	-153.9538	
13:53:21	47.45879	-122.3108	53.38	48.67422	293.3745	30.67	31.45943	100	0	99	0.3536853	3.499345	-154.0963	
13:53:21	47.45879	-122.3108	53.38	50.25621	334.8993	30.67	31.45943	100	0	100	0.9860739	3.005316	-154.2361	
13:53:21	47.45874	-122.3109	53.946	51.4753	357.2787	30.71	31.45943	100	0	99	1.569539	2.677254	-154.3686	
13:53:22	47.45874	-122.3109	53.946	52.58016	372.883	30.71	31.49461	100	0	99	2.038918	2.583195	-154.49	
13:53:22	47.45874	-122.3109	53.946	53.52719	379.5705	30.71	31.49461	100	0	99	2.511687	2.488882	-154.593	
13:53:22	47.45874	-122.3109	53.946	54.30305	376.4589	30.71	31.49461	100	0	99	2.985217	2.394713	-154.682	
13:53:22	47.45874	-122.3109	53.946	54.86761	366.6865	30.71	31.49461	100	0	99	3.456944	2.30114	-154.7607	
13:53:22	47.45874	-122.3109	53.946	55.35863	349.8819	30.71	31.49461	100	0	99	3.92908	2.207708	-154.8322	
13:53:23	47.45874	-122.3109	53.946	55.72379	327.7943	30.71	31.49461	100	0	100	4.401524	2.114441	-154.8986	
13:53:23	47.45874	-122.3109	53.946	55.80946	320.4522	30.71	31.49461	100	0	99	4.876567	2.020911	-154.9618	
13:53:23	47.45874	-122.3109	53.946	55.80946	320.4522	30.71	31.49461	100	0	99	5.351795	1.927623	-155.0226	
13:53:23	47.45874	-122.3109	53.946	55.80946	320.4522	30.71	31.49461	100	0	99	5.824807	1.835075	-155.0815	
13:53:23	47.45874	-122.3109	53.946	55.80946	320.4522	30.71	31.49461	100	0	99	6.300311	1.742373	-155.1398	
13:53:24	47.45858	-122.311	55.627	55.80946	320.4522	30.84	31.49461	100	0	99	6.478454	1.897542	-155.382	
13:53:24	47.45858	-122.311	55.627	56.05288	330.8713	30.84	31.6287	100	0	99	5.940784	2.656488	-156.2202	
13:53:24	47.45803	-122.3115	64.634	56.65894	354.3694	30.07	31.6287	100	0	99	2.968204	3.188031	-157.4214	
13:53:24	47.45803	-122.3115	64.634	58.85603	425.6678	30.07	30.87395	100	0	101	-1.062639	3.41919	-158.8135	
13:53:24	47.45803	-122.3115	64.634	60.5637	462.4462	30.07	30.87395	100	0	99	-5.080117	3.540257	-160.043	
13:53:25	47.45796	-122.3115	66.375	62.33999	486.6548	29.86	30.87395	100	0	99	-8.03868	3.107726	-161.3053	
13:53:25	47.45782	-122.3116	69.559	63.92188	476.6874	29.78	30.66068	100	0	99	-7.328171	2.147772	-162.6072	
13:53:25	47.45782	-122.3116	69.559	65.54587	461.323	29.78	30.61005	100	0	99	-5.867374	1.077189	-164.0237	
13:53:25	47.45776	-122.3117	70.565	67.11979	441.7689	29.85	30.61005	100	0	99	-3.922333	0.2724836	-165.2014	
13:53:25	47.45776	-122.3117	70.565	68.52533	430.3932	29.85	30.68914	100	0	99	-1.582885	-0.3168657	-166.2011	
13:53:26	47.45776	-122.3117	70.565	69.57785	414.2181	29.85	30.68914	100	0	99	0.7659659	-0.8644067	-167.1567	
13:53:26	47.45769	-122.3117	71.686	70.57514	381.306	29.98	30.68914	100	0	99	2.925209	-1.224103	-168.0568	
13:53:26	47.45751	-122.3118	73.752	71.34008	363.7402	30.33	30.82664	100	0	99	3.163385	-0.7416618	-168.8545	
13:53:26	47.45751	-122.3118	73.752	72.03083	376.5634	30.33	30.45513	100	0	99	0.8935311	-0.09579416	-169.869	
13:53:26	47.45745	-122.3119	74.312	73.07645	426.901	30.42	30.45513	100	0	99	-1.631924	0.6564431	-171.0712	
13:53:27	47.45745	-122.3119	74.312	74.25104	477.2821	30.42	30.55146	100	0	99	-3.015418	1.246134	-171.8307	
13:53:27	47.45738	-122.3119	75.11	75.16673	504.3239	30.48	30.55146	100	0	99	-3.865421	1.485882	-172.5736	
13:53:27	47.45725	-122.312	76.811	76.0386	501.0169	30.51	30.61763	100	0	99	-3.633884	1.192159	-173.5456	
13:53:27	47.45725	-122.312	76.811	76.83833	481.9107	30.51	30.66565	100	0	99	-3.444825	0.7332528	-174.6216	
13:53:27	47.45721	-122.312	77.36	77.77824	457.6699	30.54	30.66565	100	0	99	-3.147474	0.3639092	-175.5226	
13:53:28	47.45721	-122.312	77.36	78.4203	435.2217	30.54	30.70002	100	0	99	-2.42015	0.41661	-176.0951	
13:53:28	47.4571	-122.3121	78.605	79.01067	418.2047	30.65	30.70002	100	0	99	-1.764569	0.57554	-176.7805	
13:53:28	47.4571	-122.3121	78.605	79.62357	406.4808	30.65	30.82603	100	0	99	-1.438645	0.7336516	-177.1715	
13:53:28	47.45699	-122.3121	79.635	80.18042	401.4061	30.77	30.82603	100	0	99	-1.258984	0.8711146	-177.4924	
13:53:28	47.45692	-122.3122	80.391	80.79123	399.2488	30.84	30.96144	100	0	99	-1.203306	0.8587564	-177.9666	
13:53:29	47.45683	-122.3122	81.299	81.32112	390.92	30.91	31.03975	100	0	99	-1.404499	0.8121293	-178.2126	
13:53:29	47.45675	-122.3122	81.949	81.87959	377.7488	30.97	31.11237	100	0	99	-1.438782	0.7570918	-178.4463	
13:53:29	47.45675	-122.3122	81.949	82.53855	366.4584	30.97	31.18265	100	0	99	-1.433374	0.6912914	-178.8179	
13:53:29	47.4567	-122.3123	82.434	83.04275	356.4826	31.01	31.18265	100	0	99	-1.430335	0.645269	-179.0838	
13:53:29	47.45663	-122.3123	83.125	83.54193	341.8506	31.09	31.22458	100	0	99	-1.236158	0.6651145	-179.0797	
13:53:30	47.45657	-122.3123	83.539	84.04777	331.6014	31.14	31.30498	100	0	99	-1.082163	0.6999836	-179.2406	
