Date	Latitude(deg) 	Longitude(deg)	hamsl(m)	hafl(m)	climbrate(cm/s)	GroundSpeed(m/s)	Airspeed(m/s)	Mav_Link(%)	Rssi_Link(%)	Throttle	Roll(deg)	Pitch(deg)	Yaw(deg)
11:02:06	-6.733737	38.95366	115.731	0	0	0.17	0	100	0	0	17.81433	-2.076285	43.32696	
11:02:07	-6.733741	38.95366	114.182	0.6284135	-0.9494574	0.35	3	100	0	50	18.12504	-1.880639	43.29882	
11:02:07	-6.73374	38.95366	114.089	0.4574287	-11.58516	0.29	3	100	0	50	17.52919	-2.359417	43.3063	
11:02:07	-6.73374	38.95366	114.006	0.3011923	-20.47635	0.14	3	100	0	50	17.76398	-2.453423	43.29205	
11:02:07	-6.73374	38.95366	113.984	-0.08041007	-40.72593	0.14	3	100	0	50	18.01812	-2.123145	43.27346	
11:02:07	-6.73374	38.95366	113.908	-0.4241451	-56.99909	0.12	3	100	0	50	17.77129	-2.221866	43.26483	
11:02:08	-6.73374	38.95366	113.861	-0.5612294	-60.42349	0.18	3	100	0	50	17.81349	-2.208839	43.25943	
11:02:08	-6.73374	38.95366	113.861	-0.5711843	-57.31932	0.14	3	100	0	50	18.00674	-2.272362	43.23297	
11:02:08	-6.73374	38.95366	113.769	-0.4798128	-48.32697	0.16	3	100	0	50	17.71256	-2.179342	43.22258	
11:02:08	-6.73374	38.95366	113.678	-0.301103	-36.12266	0.09	3	100	0	50	17.88886	-2.268604	43.21617	
11:02:08	-6.73374	38.95366	113.584	-0.07489945	-22.42323	0.26	3	100	0	50	17.84506	-1.961694	43.2127	
11:02:09	-6.73374	38.95366	113.533	0.1653807	-10.04383	0.17	3	100	0	50	17.58329	-1.863519	43.26541	
11:02:09	-6.73374	38.95366	113.49	0.3375772	-1.370845	0.08	3	100	0	50	17.64284	-2.159383	43.3064	
11:02:09	-6.73374	38.95366	113.494	0.4592561	3.405418	0.07	3	100	0	50	17.73041	-2.054704	43.3232	
11:02:09	-6.73374	38.95366	113.409	0.5618482	7.186097	0.32	3	100	0	50	17.91556	-2.032685	43.32634	
11:02:09	-6.73374	38.95366	113.327	0.6472299	9.47605	0.06	3	100	0	50	18.00043	-2.33015	43.31021	
11:02:10	-6.73374	38.95366	113.256	0.702275	10.56208	0.28	3	100	0	50	17.89685	-1.925072	43.31086	
11:02:10	-6.73374	38.95366	113.082	0.7298561	9.119823	0.12	3	100	0	50	17.7603	-2.222796	43.30597	
11:02:10	-6.73374	38.95366	112.954	0.7292827	6.326569	0.17	3	100	0	50	17.69268	-1.887092	43.32927	
11:02:10	-6.73374	38.95366	112.841	0.7042745	2.911888	0.17	3	100	0	50	17.73286	-2.059557	43.34899	
11:02:10	-6.73374	38.95366	112.736	0.6975672	0.2937664	0.29	3	100	0	50	17.7165	-2.017795	43.37537	
11:02:11	-6.73374	38.95366	112.642	0.7010486	-0.6103146	0.35	3	100	0	50	18.04179	-2.223184	43.35743	
11:02:11	-6.733741	38.95366	112.618	0.6757563	-3.664066	0.04	3	100	0	50	18.28025	-1.812498	43.31941	
11:02:11	-6.733742	38.95366	112.562	0.6335577	-7.243502	0.11	3	100	0	50	17.94936	-1.890213	43.31843	
11:02:11	-6.733742	38.95366	112.526	0.6121014	-8.616329	0.16	3	100	0	50	17.77921	-1.971725	43.32534	
11:02:11	-6.733742	38.95366	112.431	0.601013	-9.919082	0.13	3	100	0	50	17.89581	-2.105199	43.32569	
11:02:12	-6.733742	38.95366	112.397	0.6042089	-9.978752	0.09	3	100	0	50	17.77583	-2.040705	43.33969	
11:02:12	-6.733743	38.95366	112.395	0.6236295	-9.027292	0.07	3	100	0	50	17.94989	-1.962361	43.3497	
11:02:12	-6.733744	38.95366	112.335	0.636189	-9.089431	0.08	3	100	0	50	17.88455	-1.98374	43.34412	
11:02:12	-6.733744	38.95366	112.325	0.6408954	-9.006414	0.12	3	100	0	50	17.78277	-1.96246	43.36358	
11:02:12	-6.733745	38.95366	112.342	0.6436803	-9.554008	0.17	3	100	0	50	17.95725	-1.949488	43.36691	
11:02:13	-6.733746	38.95366	112.377	0.6713372	-8.325159	0.04	3	100	0	50	17.95615	-2.075468	43.36609	
11:02:13	-6.733747	38.95366	112.426	0.6956543	-7.558902	0.07	3	100	0	50	17.81446	-1.931654	43.37771	
11:02:13	-6.733747	38.95366	112.392	0.7674993	-4.647405	0.17	3	100	0	50	17.80678	-2.040569	43.38306	
11:02:13	-6.733747	38.95365	112.344	0.8241844	-2.852636	0.16	3	100	0	50	17.6907	-1.979131	43.41401	
11:02:13	-6.733747	38.95365	112.302	0.9269227	1.038481	0.07	3	100	0	50	17.89304	-2.110555	43.41401	
11:02:14	-6.733747	38.95365	112.361	1.025811	4.54573	0.26	3	100	0	50	17.91304	-1.84135	43.41878	
11:02:14	-6.733747	38.95365	112.291	0.9703979	-0.1555768	0.02	3	100	0	50	18.10878	-1.677401	43.44252	
11:02:14	-6.733748	38.95365	112.346	0.9116611	-4.431084	0.14	3	100	0	50	17.97557	-1.875657	43.43925	
11:02:14	-6.733749	38.95365	112.357	0.8398091	-9.083307	0.29	3	100	0	50	18.06263	-1.692697	43.45564	
11:02:14	-6.733749	38.95365	112.398	0.7800537	-12.21225	0.14	3	100	0	50	18.08403	-1.564708	43.47283	
11:02:15	-6.73375	38.95365	112.388	0.7397924	-14.4365	0.21	3	100	0	50	18.03379	-1.676262	43.49818	
11:02:15	-6.73375	38.95365	112.404	0.7030172	-16.38566	0.13	3	100	0	50	18.00615	-1.647528	43.5348	
11:02:15	-6.73375	38.95365	112.403	0.7134517	-15.49333	0.09	3	100	0	50	18.01967	-1.937222	43.55914	
11:02:15	-6.73375	38.95365	112.413	0.7221346	-14.86796	0.13	3	100	0	50	17.89444	-1.862111	43.57479	
11:02:15	-6.733751	38.95364	112.588	0.7123466	-14.53563	0.25	3	100	0	50	17.88667	-1.732794	43.59937	
11:02:16	-6.733751	38.95364	112.753	0.7049016	-14.53521	0.12	3	100	0	50	18.10787	-1.970762	43.60968	
11:02:16	-6.733752	38.95364	112.877	0.7492221	-12.50408	0.16	3	100	0	50	18.09548	-1.756742	43.58951	
11:02:16	-6.733752	38.95364	112.921	0.781612	-10.75049	0.17	3	100	0	50	18.09691	-1.719099	43.5933	
11:02:16	-6.733753	38.95364	112.937	0.7968625	-10.21723	0.07	3	100	0	50	17.91699	-1.614296	43.61112	
11:02:16	-6.733753	38.95364	112.942	0.8091382	-9.438173	0.25	3	100	0	50	18.05164	-1.828553	43.6323	
11:02:17	-6.733753	38.95364	112.998	0.7758425	-11.68421	0.24	3	100	0	50	18.06415	-2.066193	43.63251	
11:02:17	-6.733753	38.95364	112.911	0.7441896	-13.79043	0.07	3	100	0	50	17.91722	-1.937935	43.64028	
11:02:17	-6.733753	38.95364	112.91	0.7233906	-14.76425	0.09	3	100	0	50	18.24053	-1.567428	43.63537	
11:02:17	-6.733753	38.95364	112.834	0.706857	-15.15688	0.14	3	100	0	50	18.2456	-1.570979	43.63158	
11:02:17	-6.733754	38.95364	112.861	0.6871076	-15.92766	0.12	3	100	0	50	18.05252	-1.614721	43.65535	
11:02:18	-6.733754	38.95364	112.828	0.6649834	-16.69885	0.19	3	100	0	50	18.31985	-1.618828	43.64273	
11:02:18	-6.733755	38.95364	112.834	0.6505214	-16.70953	0.06	3	100	0	50	18.29602	-1.692747	43.61911	
11:02:18	-6.733755	38.95364	112.868	0.6443343	-16.67406	0.04	3	100	0	50	18.17435	-1.564057	43.62526	
11:02:18	-6.733755	38.95364	112.938	0.6619717	-14.74968	0.04	3	100	0	50	18.14428	-1.67966	43.61466	
11:02:18	-6.733755	38.95364	112.946	0.6941304	-12.65842	0.31	3	100	0	50	18.00935	-1.620868	43.61471	
11:02:19	-6.733755	38.95364	113.004	0.6761493	-13.34406	0.28	3	100	0	50	17.86259	-1.487685	43.65679	
11:02:19	-6.733756	38.95364	112.968	0.6304651	-14.64371	0.18	3	100	0	50	18.17976	-1.65293	43.66422	
11:02:19	-6.733757	38.95364	112.995	0.6229431	-14.00887	0.13	3	100	0	50	17.93043	-1.467981	43.66575	
11:02:19	-6.733757	38.95364	113.015	0.6357532	-13.05393	0.06	3	100	0	50	17.74364	-1.631629	43.71729	
11:02:19	-6.733757	38.95364	112.942	0.6587228	-11.44359	0.04	3	100	0	50	17.86204	-1.645144	43.74031	
11:02:20	-6.733757	38.95364	112.962	0.6833929	-10.13988	0.28	3	100	0	50	17.88863	-1.740244	43.75998	
11:02:20	-6.733757	38.95364	112.915	0.709514	-8.49074	0.31	3	100	0	50	17.98274	-1.932355	43.7635	
11:02:20	-6.733757	38.95364	112.928	0.7331645	-7.389305	0.17	3	100	0	50	17.86192	-1.98064	43.76235	
11:02:20	-6.733757	38.95364	113.036	0.7411138	-7.251933	0.14	3	100	0	50	17.97919	-1.765182	43.75066	
11:02:20	-6.733758	38.95364	113.054	0.735595	-7.689455	0.16	3	100	0	50	17.89485	-1.82017	43.74714	
11:02:21	-6.733758	38.95364	113.031	0.7236031	-8.519004	0.04	3	100	0	50	18.00079	-1.688009	43.76624	
11:02:21	-6.733758	38.95364	113.101	0.7082808	-9.327129	0.19	3	100	0	50	17.82785	-1.763482	43.79272	
11:02:21	-6.733759	38.95364	113.182	0.7023561	-9.949975	0.09	3	100	0	50	17.68688	-1.798667	43.81699	
11:02:21	-6.733759	38.95364	113.201	0.7021254	-9.94709	0.14	3	100	0	50	17.80727	-1.871045	43.82653	
11:02:21	-6.733759	38.95364	113.216	0.7046335	-9.901319	0.22	3	100	0	50	17.86976	-1.925826	43.81858	
11:02:22	-6.73376	38.95364	113.282	0.7117168	-9.397927	0.08	3	100	0	50	17.99385	-1.701232	43.82196	
11:02:22	-6.73376	38.95364	113.316	0.7131138	-8.609572	0.22	3	100	0	50	17.79029	-1.818987	43.84658	
11:02:22	-6.73376	38.95364	113.336	0.7096587	-8.605641	0.09	3	100	0	50	17.7366	-1.869519	43.87089	
11:02:22	-6.733761	38.95364	113.344	0.707319	-8.672976	0.19	3	100	0	50	17.97678	-1.924892	43.8709	
11:02:22	-6.733762	38.95364	113.383	0.6889184	-9.817283	0.14	3	100	0	50	18.1547	-1.783935	43.846	
11:02:23	-6.733762	38.95364	113.429	0.6721514	-10.77653	0.07	3	100	0	50	18.12443	-1.836547	43.82534	
11:02:23	-6.733762	38.95364	113.429	0.6608219	-10.81805	0.07	3	100	0	50	18.03731	-1.848697	43.82164	
11:02:23	-6.733762	38.95364	113.423	0.6514254	-10.8445	0.26	3	100	0	50	17.95185	-1.712811	43.83779	
11:02:23	-6.733762	38.95364	113.349	0.7071389	-7.367693	0.14	3	100	0	50	18.07292	-1.554662	43.84849	
11:02:23	-6.733763	38.95364	113.405	0.7691893	-3.801416	0.09	3	100	0	50	18.03253	-1.653645	43.87716	
11:02:24	-6.733762	38.95364	113.282	0.7350476	-5.366907	0.13	3	100	0	50	17.90616	-1.759017	43.90601	
11:02:24	-6.733762	38.95364	113.317	0.7004897	-7.2767	0.17	3	100	0	50	17.83487	-1.786468	43.91582	
11:02:24	-6.733763	38.95364	113.387	0.6758449	-8.779593	0.13	3	100	0	50	17.89826	-1.669041	43.94351	
11:02:24	-6.733763	38.95364	113.36	0.6553075	-9.682019	0.13	3	100	0	50	18.03997	-1.711837	43.96313	
11:02:24	-6.733763	38.95364	113.384	0.6555628	-8.890134	0.17	3	100	0	50	18.05192	-1.753732	43.977	
11:02:25	-6.733763	38.95364	113.32	0.6565215	-9.045318	0.16	3	100	0	50	18.10515	-1.908273	43.96184	
11:02:25	-6.733763	38.95364	113.335	0.665696	-8.012028	0.16	3	100	0	50	17.9365	-1.962165	43.94936	
11:02:25	-6.733762	38.95364	113.326	0.67348	-7.529147	0.04	3	100	0	50	17.97874	-1.958192	43.95357	
11:02:25	-6.733762	38.95364	113.378	0.6586363	-8.102347	0.14	3	100	0	50	18.05148	-1.921495	43.93633	
11:02:25	-6.733763	38.95364	113.381	0.6449544	-8.813263	0.28	3	100	0	50	18.14341	-1.883315	43.91423	
11:02:26	-6.733763	38.95364	113.305	0.6032628	-10.86646	0.17	3	100	0	50	18.21015	-1.742611	43.88144	
11:02:26	-6.733763	38.95364	113.282	0.5663723	-12.03537	0.11	3	100	0	50	18.00444	-1.926092	43.84228	
11:02:26	-6.733762	38.95364	113.178	0.5633305	-11.25849	0.24	3	100	0	50	17.88962	-1.8289	43.84959	
11:02:26	-6.733762	38.95364	113.082	0.5624529	-10.73166	0.22	3	100	0	50	17.86971	-2.04014	43.83988	
11:02:26	-6.733762	38.95364	113.097	0.6216547	-6.74866	0.25	3	100	0	50	17.87606	-2.025187	43.83712	
11:02:27	-6.733762	38.95364	113.134	0.6762921	-3.736671	0.18	3	100	0	50	17.8637	-1.956475	43.82549	
11:02:27	-6.733762	38.95364	113.151	0.744291	-0.3845886	0.16	3	100	0	50	17.8948	-1.708823	43.8327	
11:02:27	-6.733762	38.95364	113.184	0.7990598	2.189983	0.08	3	100	0	50	18.08471	-1.683376	43.84696	
11:02:27	-6.733762	38.95364	113.121	0.8442795	3.402457	0.22	3	100	0	50	18.02028	-1.722945	43.85143	
11:02:27	-6.733762	38.95364	113.096	0.8687505	3.67847	0.11	3	100	0	50	17.84039	-1.720613	43.87133	
11:02:28	-6.733762	38.95364	113.047	0.8588511	2.081874	0.24	3	100	0	50	18.01282	-1.840774	43.87439	
11:02:28	-6.733763	38.95364	112.965	0.8042157	-1.632897	0.12	3	100	0	50	18.22771	-1.707155	43.84794	
11:02:28	-6.733763	38.95364	112.892	0.757353	-4.795628	0.09	3	100	0	50	18.10445	-1.778737	43.82956	
11:02:28	-6.733763	38.95364	112.807	0.7264851	-6.836213	0.32	3	100	0	50	18.06092	-1.946145	43.79972	
11:02:28	-6.733763	38.95364	112.801	0.7124116	-7.26953	0.09	3	100	0	50	17.87302	-1.94173	43.79288	
11:02:29	-6.733763	38.95364	112.645	0.713614	-7.353827	0.18	3	100	0	50	18.04462	-1.654781	43.79295	
11:02:29	-6.733762	38.95364	112.52	0.702987	-7.74128	0.36	3	100	0	50	17.99411	-1.80715	43.83077	
11:02:29	-6.733762	38.95364	112.57	0.6831912	-8.441492	0.08	3	100	0	50	18.07831	-1.849175	43.82145	
11:02:29	-6.733762	38.95364	112.37	0.6642376	-9.317656	0	3	100	0	50	18.26317	-1.533892	43.80681	
11:02:29	-6.733762	38.95364	112.201	0.6434515	-9.95338	0.24	3	100	0	50	18.14047	-1.591929	43.82111	
11:02:30	-6.733762	38.95364	112.086	0.6316254	-10.3868	0.26	3	100	0	50	18.01339	-1.710463	43.82937	
11:02:30	-6.733761	38.95364	111.99	0.627716	-10.07104	0.32	3	100	0	50	18.02116	-1.801364	43.8357	
11:02:30	-6.73376	38.95364	111.944	0.6322047	-9.701838	0.41	3	100	0	50	18.13284	-1.941816	43.82878	
11:02:30	-6.73376	38.95364	111.911	0.6420313	-8.825172	0.34	3	100	0	50	18.1775	-1.965099	43.78914	
11:02:30	-6.73376	38.95364	111.981	0.6928658	-5.616617	0.16	3	100	0	50	18.12163	-1.824182	43.77214	
11:02:31	-6.73376	38.95364	111.919	0.7662379	-1.555215	0.14	3	100	0	50	18.26862	-1.672408	43.75004	
11:02:31	-6.733761	38.95364	111.913	0.8447914	2.460924	0.26	3	100	0	50	18.25631	-1.678826	43.735	
11:02:31	-6.733761	38.95364	112.015	0.9166465	5.778773	0.09	3	100	0	50	18.13592	-1.717453	43.72894	
11:02:31	-6.733761	38.95364	111.904	0.952939	6.271614	0.13	3	100	0	50	18.01759	-1.60549	43.73794	
11:02:31	-6.73376	38.95364	111.837	0.9500313	5.377437	0.29	3	100	0	50	17.97284	-1.734017	43.76966	
11:02:32	-6.73376	38.95364	111.8	0.9517222	4.844092	0.09	3	100	0	50	17.99922	-1.845596	43.77355	
11:02:32	-6.733761	38.95364	111.76	0.9574137	4.296113	0.02	3	100	0	50	18.07408	-1.704245	43.76174	
11:02:32	-6.733761	38.95364	111.732	0.9607427	3.532512	0.21	3	100	0	50	17.95037	-1.6089	43.76272	
11:02:32	-6.733761	38.95364	111.687	0.9465405	2.070047	0.34	3	100	0	50	17.81389	-1.70845	43.80551	
11:02:32	-6.733761	38.95364	111.716	0.9326981	1.192329	0.21	3	100	0	50	17.91877	-1.861939	43.82175	
11:02:33	-6.733762	38.95364	111.871	0.8766917	-2.08794	0.16	3	100	0	50	18.05024	-1.652448	43.8239	
11:02:33	-6.733762	38.95364	112.015	0.8303198	-4.844755	0.29	3	100	0	50	18.2051	-1.553494	43.82087	
11:02:33	-6.733762	38.95364	112.023	0.7983568	-6.761182	0.25	3	100	0	50	18.09967	-1.593989	43.8191	
11:02:33	-6.733762	38.95364	112.083	0.769307	-8.016583	0.21	3	100	0	50	17.78115	-1.540781	43.85487	
11:02:33	-6.733763	38.95364	112.134	0.8278654	-4.867349	0.24	3	100	0	50	17.93612	-1.66602	43.88838	
11:02:34	-6.733763	38.95364	112.216	0.8813244	-2.401794	0.09	3	100	0	50	18.07069	-1.830244	43.88978	
11:02:34	-6.733763	38.95364	112.233	0.9334646	-0.4120149	0.13	3	100	0	50	18.01277	-1.778484	43.89239	
11:02:34	-6.733763	38.95364	112.229	0.9745501	1.065075	0.09	3	100	0	50	18.02472	-1.681101	43.89868	
11:02:34	-6.733763	38.95364	112.244	0.9745092	0.6893406	0.17	3	100	0	50	17.93418	-1.65788	43.90489	
11:02:34	-6.733762	38.95364	112.33	0.9739406	0.2905901	0.14	3	100	0	50	17.82902	-1.664561	43.92731	
11:02:35	-6.733763	38.95364	112.483	0.9820908	0.4387115	0.13	3	100	0	50	17.87207	-1.638686	43.96565	
11:02:35	-6.733762	38.95364	112.473	0.9881755	0.09435593	0.28	3	100	0	50	17.76976	-1.536564	43.97964	
11:02:35	-6.733762	38.95364	112.533	0.9761192	-0.5739617	0.09	3	100	0	50	17.65964	-1.420117	44.04358	
11:02:35	-6.733763	38.95364	112.674	0.9646108	-1.779598	0.17	3	100	0	50	17.74295	-1.579135	44.10644	
11:02:35	-6.733763	38.95364	112.778	0.9442763	-3.460089	0.09	3	100	0	50	17.82864	-1.623036	44.14585	
11:02:36	-6.733763	38.95364	112.805	0.9245612	-5.04168	0.12	3	100	0	50	17.93216	-1.629373	44.18313	
11:02:36	-6.733762	38.95364	112.824	0.8869137	-7.446872	0.11	3	100	0	50	17.82552	-1.676723	44.19797	
11:02:36	-6.733763	38.95364	112.919	0.855674	-8.944357	0.04	3	100	0	50	17.78373	-1.64063	44.23055	
11:02:36	-6.733763	38.95364	113	0.76549	-12.60102	0.07	3	100	0	50	17.81478	-1.655097	44.25067	
11:02:36	-6.733763	38.95364	113.098	0.6855437	-15.59957	0.09	3	100	0	50	17.83771	-1.610167	44.27487	
11:02:37	-6.733763	38.95364	113.237	0.6280137	-17.20341	0.12	3	100	0	50	17.92554	-1.555499	44.29756	
11:02:37	-6.733764	38.95364	113.352	0.5829316	-18.85563	0.12	3	100	0	50	17.87033	-1.59613	44.31103	
11:02:37	-6.733764	38.95364	113.353	0.5369512	-20.06364	0.13	3	100	0	50	17.72657	-1.669459	44.33762	
11:02:37	-6.733764	38.95364	113.422	0.4954858	-20.33511	0.08	3	100	0	50	17.81877	-1.667049	44.33658	
11:02:37	-6.733765	38.95364	113.619	0.4693135	-19.82744	0.09	3	100	0	50	17.96102	-1.644942	44.3594	
11:02:38	-6.733765	38.95364	113.789	0.4611956	-18.5166	0.29	3	100	0	50	18.11143	-1.625388	44.34703	
11:02:38	-6.733766	38.95364	113.918	0.5057133	-14.05023	0.04	3	100	0	50	18.02717	-1.637237	44.33641	
11:02:38	-6.733767	38.95364	114.058	0.59545	-8.025699	0.11	3	100	0	50	17.96253	-1.651134	44.32596	
11:02:38	-6.733767	38.95364	114.166	0.7007579	-1.759518	0.13	3	100	0	50	18.0547	-1.619375	44.30037	
11:02:38	-6.733767	38.95364	114.289	0.799401	3.504361	0.25	3	100	0	50	18.15845	-1.685109	44.29394	
11:02:39	-6.733767	38.95364	114.322	0.9041349	8.406352	0.08	3	100	0	50	18.13158	-1.749712	44.25976	
11:02:39	-6.733767	38.95364	114.431	0.9768998	11.36176	0.21	3	100	0	50	18.00987	-1.858479	44.24179	
11:02:39	-6.733767	38.95363	114.497	1.032018	12.7399	0.29	3	100	0	50	17.83791	-1.928437	44.22485	
11:02:39	-6.733767	38.95363	114.563	1.056216	12.1863	0.19	3	100	0	50	17.75441	-1.750149	44.21819	
11:02:39	-6.733767	38.95363	114.811	1.039169	9.866385	0.24	3	100	0	50	18.04482	-1.766592	44.22976	
11:02:40	-6.733768	38.95363	114.897	0.9697003	4.598608	0.28	3	100	0	50	18.21014	-1.889656	44.1994	
11:02:40	-6.733768	38.95363	115.036	0.9059423	0.2628331	0.22	3	100	0	50	18.1202	-1.592231	44.16198	
11:02:40	-6.733769	38.95363	115.163	0.8584284	-2.277924	0.19	3	100	0	50	18.09078	-1.439283	44.16512	
11:02:40	-6.733769	38.95363	115.23	0.8152177	-4.543688	0.11	3	100	0	50	17.9704	-1.620228	44.18669	
11:02:40	-6.733769	38.95363	115.378	0.7773074	-6.028567	0.09	3	100	0	50	17.97384	-1.792328	44.18797	
11:02:41	-6.73377	38.95363	115.522	0.7520518	-7.016121	0.11	3	100	0	50	18.04124	-1.727113	44.18221	
11:02:41	-6.73377	38.95363	115.545	0.7314796	-7.615339	0.11	3	100	0	50	17.97975	-1.662864	44.19867	
11:02:41	-6.733771	38.95363	115.772	0.7133087	-8.227784	0.36	3	100	0	50	17.68764	-1.827429	44.22047	
11:02:41	-6.733771	38.95363	115.931	0.6969966	-8.722495	0.07	3	100	0	50	17.75722	-1.849046	44.24322	
11:02:41	-6.733772	38.95362	116.155	0.682381	-9.00472	0.13	3	100	0	50	17.85258	-1.862723	44.23593	
11:02:42	-6.733772	38.95362	116.215	0.6721981	-8.844908	0.08	3	100	0	50	17.89671	-1.952629	44.23544	
11:02:42	-6.733772	38.95362	116.219	0.6634507	-9.270708	0.13	3	100	0	50	17.84171	-1.900469	44.21455	
11:02:42	-6.733772	38.95362	116.216	0.6136817	-11.3451	0.09	3	100	0	50	17.79374	-1.891809	44.21509	
11:02:42	-6.733772	38.95362	116.174	0.5700189	-12.39202	0.26	3	100	0	50	17.73028	-2.01072	44.21917	
11:02:42	-6.733773	38.95362	116.328	0.5478585	-13.30794	0.13	3	100	0	50	17.83399	-2.058909	44.2155	
11:02:43	-6.733773	38.95362	116.433	0.5303025	-13.72976	0.29	3	100	0	50	17.72066	-2.011458	44.20174	
11:02:43	-6.733773	38.95362	116.499	0.5327434	-12.75882	0.22	3	100	0	50	17.57555	-1.8716	44.22837	
11:02:43	-6.733773	38.95362	116.565	0.5354163	-12.31392	0.07	3	100	0	50	17.77507	-1.868428	44.24507	
11:02:43	-6.733774	38.95362	116.64	0.5360298	-11.26826	0.25	3	100	0	50	17.63617	-1.887396	44.23984	
11:02:44	-6.733774	38.95362	116.774	0.5382562	-10.77817	0.19	3	100	0	50	17.50329	-1.867978	44.27322	
11:02:44	-6.733774	38.95362	116.856	0.5884427	-7.659108	0.11	3	100	0	50	17.74428	-1.891506	44.29704	
11:02:44	-6.733774	38.95362	117.074	0.6299981	-4.891381	0.09	3	100	0	50	17.81267	-1.983618	44.27284	
11:02:44	-6.733775	38.95362	117.35	0.6005586	-6.226711	0.09	3	100	0	50	17.80792	-1.914245	44.26009	
11:02:44	-6.733775	38.95362	117.418	0.5740518	-7.379247	0.19	3	100	0	50	17.65422	-1.845083	44.25385	
11:02:45	-6.733775	38.95362	117.382	0.5658889	-6.855563	0.22	3	100	0	50	17.55726	-1.802432	44.28981	
11:02:45	-6.733776	38.95362	117.554	0.560066	-6.722005	0.07	3	100	0	50	17.72521	-1.947937	44.31845	
11:02:45	-6.733776	38.95362	117.736	0.5801525	-5.890588	0.14	3	100	0	50	17.73281	-1.980467	44.29981	
11:02:45	-6.733777	38.95362	117.957	0.5983002	-4.909883	0.24	3	100	0	50	17.86993	-2.029801	44.29371	
11:02:45	-6.733778	38.95362	118.09	0.5895752	-5.422644	0.22	3	100	0	50	17.92148	-1.919684	44.25906	
11:02:46	-6.733778	38.95362	118.262	0.5812699	-5.166279	0.56	3	100	0	50	18.10807	-1.642849	44.24794	
11:02:46	-6.733779	38.95362	118.339	0.5858195	-4.872275	0.08	3	100	0	50	18.04452	-1.806088	44.22679	
11:02:46	-6.733779	38.95362	118.463	0.5899518	-4.7489	0.07	3	100	0	50	17.90851	-1.930573	44.21143	
11:02:46	-6.733779	38.95362	118.62	0.5644226	-5.870109	0.07	3	100	0	50	17.87754	-1.862504	44.18315	
11:02:46	-6.733779	38.95362	118.731	0.5425639	-6.587794	0.03	3	100	0	50	17.84322	-1.923823	44.16915	
11:02:47	-6.733779	38.95362	118.751	0.5544418	-5.607732	0.09	3	100	0	50	17.82473	-2.032585	44.15604	
11:02:47	-6.733779	38.95362	118.751	0.5648179	-4.886174	0.12	3	100	0	50	17.8688	-1.9115	44.1568	
11:02:47	-6.73378	38.95362	118.918	0.5781602	-3.611384	0.07	3	100	0	50	17.87113	-1.852238	44.16408	
11:02:47	-6.733781	38.95362	119.157	0.5892277	-3.194252	0.09	3	100	0	50	17.89616	-1.867591	44.16117	
11:02:47	-6.733782	38.95362	119.317	0.6291624	-1.212611	0.24	3	100	0	50	17.84308	-1.738008	44.16557	
11:02:48	-6.733782	38.95362	119.409	0.7134863	2.790216	0.26	3	100	0	50	17.67789	-1.721008	44.19642	
11:02:48	-6.733782	38.95362	119.436	0.7912968	6.968499	0.07	3	100	0	50	17.68084	-1.909814	44.20663	
11:02:48	-6.733782	38.95362	119.531	0.8670641	10.29937	0.39	3	100	0	50	17.44906	-2.165239	44.23606	
11:02:48	-6.733781	38.95362	119.62	0.944825	13.33852	0.13	3	100	0	50	17.56058	-2.008985	44.24658	
11:02:48	-6.733782	38.95362	119.719	1.020819	16.12525	0.08	3	100	0	50	17.79181	-1.998178	44.23184	
11:02:49	-6.733782	38.95362	119.839	1.093489	17.87608	0.04	3	100	0	50	17.7921	-2.06043	44.21299	
11:02:49	-6.733782	38.95362	120.015	1.153308	19.01305	0.14	3	100	0	50	17.72158	-1.969589	44.20772	
11:02:49	-6.733782	38.95362	120.015	1.179356	18.67686	0.13	3	100	0	50	17.89323	-1.943708	44.20721	
11:02:49	-6.733782	38.95362	120.09	1.152995	15.08454	0.21	3	100	0	50	17.81575	-2.12234	44.20583	
11:02:49	-6.733782	38.95362	120.191	1.127904	12.93255	0.09	3	100	0	50	17.91128	-2.09054	44.18027	
11:02:50	-6.733783	38.95362	120.35	1.094104	9.308002	0.11	3	100	0	50	17.87987	-2.142007	44.12165	
11:02:50	-6.733784	38.95362	120.537	1.084069	7.945194	0.06	3	100	0	50	17.92314	-2.058859	44.09955	
11:02:50	-6.733784	38.95362	120.542	1.085649	7.665487	0.25	3	100	0	50	18.10368	-2.071794	44.0763	
11:02:50	-6.733784	38.95362	120.506	1.060673	5.727397	0.32	3	100	0	50	17.82796	-1.75528	44.04016	
11:02:50	-6.733784	38.95362	120.623	1.019657	3.383692	0.64	3	100	0	50	17.28613	-1.896318	44.1017	
11:02:51	-6.733784	38.95362	120.735	0.995171	2.203238	0.34	3	100	0	50	17.41059	-2.212381	44.15876	
11:02:51	-6.733784	38.95362	120.853	0.9777085	1.225502	0.24	3	100	0	50	17.68718	-2.229827	44.15429	
11:02:51	-6.733784	38.95362	120.908	0.9595077	0.2624354	0.22	3	100	0	50	17.61465	-2.079354	44.14125	
11:02:51	-6.733784	38.95362	120.983	0.9371554	-1.367333	0.33	3	100	0	50	17.97492	-1.885423	44.12119	
11:02:51	-6.733785	38.95362	121.001	0.9012654	-3.028054	0.13	3	100	0	50	18.01524	-1.904743	44.07127	
11:02:52	-6.733786	38.95362	121.189	0.8340941	-6.546207	0.24	3	100	0	50	18.04452	-1.943561	44.04446	
11:02:52	-6.733786	38.95362	121.335	0.779742	-8.949816	0.32	3	100	0	50	17.68275	-2.052021	44.03279	
11:02:52	-6.733786	38.95362	121.387	0.7390266	-10.64224	0.11	3	100	0	50	17.73851	-1.943928	44.03998	
11:02:52	-6.733787	38.95362	121.563	0.7039273	-11.1906	0.34	3	100	0	50	18.05556	-1.904013	44.03926	
11:02:52	-6.733787	38.95362	121.659	0.6377428	-14.10549	0.14	3	100	0	50	18.01896	-1.949751	44.00654	
11:02:53	-6.733787	38.95362	121.85	0.5842404	-16.07316	0.02	3	100	0	50	17.85435	-1.988371	43.99681	
11:02:53	-6.733787	38.95362	121.901	0.5750428	-15.04948	0.16	3	100	0	50	17.67	-2.038034	44.00571	
11:02:53	-6.733787	38.95362	122.052	0.5689538	-14.5258	0.18	3	100	0	50	17.5883	-2.033209	44.04706	
11:02:53	-6.733787	38.95362	122.146	0.588554	-12.48392	0.12	3	100	0	50	17.8111	-1.999891	44.06442	
11:02:53	-6.733787	38.95362	122.371	0.6079962	-10.7269	0.13	3	100	0	50	17.70177	-1.96078	44.07875	
11:02:54	-6.733787	38.95362	122.371	0.653716	-7.27096	0.13	3	100	0	50	17.70126	-2.076549	44.09019	
11:02:54	-6.733788	38.95362	122.68	0.6919178	-4.663116	0.24	3	100	0	50	17.98161	-2.031577	44.06304	
11:02:54	-6.733789	38.95362	122.917	0.7001188	-3.792012	0.22	3	100	0	50	18.08059	-2.103445	44.03284	
11:02:54	-6.733789	38.95362	123.014	0.7074614	-3.539675	0.06	3	100	0	50	18.06169	-2.111909	43.98917	
11:02:54	-6.733789	38.95362	123.185	0.6939542	-4.186389	0.12	3	100	0	50	17.80151	-2.020132	43.95905	
11:02:55	-6.733789	38.95362	123.185	0.6826283	-4.124693	0.12	3	100	0	50	17.6341	-2.006422	43.95749	
11:02:55	-6.733791	38.95362	123.409	0.6728137	-4.502453	0.11	3	100	0	50	17.94215	-1.848863	43.95294	
11:02:55	-6.733791	38.95362	123.409	0.6617928	-4.819949	0.11	3	100	0	50	17.7486	-2.150352	43.94738	
11:02:55	-6.733793	38.95362	123.613	0.6734825	-3.649808	0.09	3	100	0	50	17.72384	-2.202177	43.94325	
11:02:55	-6.733794	38.95362	123.852	0.6876208	-2.534623	0.12	3	100	0	50	17.64284	-2.278776	43.94021	
11:02:56	-6.733794	38.95362	123.852	0.6897606	-2.091452	0.12	3	100	0	50	17.5895	-2.382474	43.9278	
11:02:56	-6.733794	38.95362	124.066	0.6915811	-1.96788	0.22	3	100	0	50	17.67167	-2.450773	43.88685	
11:02:56	-6.733795	38.95362	124.168	0.6865136	-2.117718	0.28	3	100	0	50	17.73326	-2.361008	43.85717	
11:02:56	-6.733795	38.95362	124.263	0.6817566	-2.505748	0.06	3	100	0	50	17.35067	-2.151008	43.85922	
11:02:56	-6.733795	38.95362	124.433	0.6977861	-1.696512	0.12	3	100	0	50	17.44434	-2.251188	43.89124	
11:02:57	-6.733797	38.95362	124.629	0.7120536	-1.189648	0.47	3	100	0	50	17.46398	-2.181523	43.90547	
11:02:57	-6.733797	38.95362	124.76	0.718084	-0.8728999	0.06	3	100	0	50	17.8978	-1.956485	43.91246	
11:02:57	-6.733798	38.95362	124.805	0.7179919	-0.6684264	0.35	3	100	0	50	17.65804	-2.1095	43.89902	
11:02:57	-6.733798	38.95362	124.788	0.7318553	0.3407446	0.34	3	100	0	50	17.79375	-1.928124	43.89173	
11:02:57	-6.733798	38.95362	124.959	0.7577878	1.729477	0.44	3	100	0	50	17.44512	-1.93231	43.90963	
11:02:58	-6.733797	38.95362	125.124	0.7670382	2.172316	0.13	3	100	0	50	17.26132	-2.353107	43.93929	
11:02:58	-6.733797	38.95362	125.216	0.7658759	1.697914	0.13	3	100	0	50	17.45931	-2.293734	43.92814	
11:02:58	-6.733797	38.95362	125.278	0.7522478	0.9874213	0.12	3	100	0	50	17.57401	-2.052736	43.92278	
11:02:58	-6.733798	38.95362	125.353	0.7318409	-0.004432979	0.14	3	100	0	50	17.55447	-2.066551	43.9431	
11:02:58	-6.733798	38.95362	125.353	0.7199388	-0.4016656	0.14	3	100	0	50	17.66945	-2.020144	43.93704	
11:02:59	-6.733798	38.95362	125.68	0.7134904	-0.9036981	0.22	3	100	0	50	17.59822	-2.015322	43.95386	
11:02:59	-6.733799	38.95362	125.725	0.6968241	-2.177196	0.17	3	100	0	50	17.97387	-1.975993	43.93341	
11:02:59	-6.733799	38.95362	125.802	0.6738499	-3.596526	0.19	3	100	0	50	17.95658	-1.958662	43.91135	
11:02:59	-6.733799	38.95362	125.902	0.6729544	-2.899982	0.25	3	100	0	50	17.70486	-2.176749	43.89289	
11:02:59	-6.733798	38.95362	126.017	0.6925919	-1.463441	0.24	3	100	0	50	17.63556	-2.060733	43.89256	
11:03:00	-6.733798	38.95362	126.088	0.7140412	-0.4955676	0.04	3	100	0	50	17.60065	-2.096428	43.9128	
11:03:00	-6.733799	38.95362	126.182	0.7354746	0.4922725	0.28	3	100	0	50	17.80231	-2.110713	43.91674	
11:03:00	-6.733799	38.95362	126.347	0.7414782	0.3497712	0.18	3	100	0	50	18.11496	-2.032639	43.88315	
11:03:00	-6.733799	38.95362	126.52	0.7385516	-0.08938447	0.17	3	100	0	50	18.12144	-2.048241	43.83795	
11:03:00	-6.7338	38.95362	126.637	0.7474132	0.07868917	0.19	3	100	0	50	18.09221	-2.045793	43.81285	
11:03:01	-6.733801	38.95362	126.831	0.7622945	0.8142243	0.42	3	100	0	50	18.05191	-1.937052	43.78161	
11:03:01	-6.733801	38.95362	126.899	0.7986188	2.415623	0.24	3	100	0	50	18.25476	-1.844251	43.7451	
11:03:01	-6.733802	38.95362	127.081	0.8510214	4.510887	0.06	3	100	0	50	18.12781	-1.869272	43.71439	
11:03:01	-6.733802	38.95362	127.18	0.9081041	6.906609	0.21	3	100	0	50	17.9414	-2.066904	43.69874	
11:03:01	-6.733802	38.95362	127.245	0.9677042	8.807297	0.17	3	100	0	50	18.10452	-2.156345	43.66523	
11:03:02	-6.733802	38.95362	127.385	1.014034	10.17302	0.01	3	100	0	50	17.7786	-1.909398	43.63519	
11:03:02	-6.733802	38.95362	127.446	0.9802675	7.263733	0.14	3	100	0	50	17.83805	-2.052076	43.63363	
11:03:02	-6.733803	38.95362	127.467	0.9488582	5.454923	0.39	3	100	0	50	18.0096	-2.07961	43.61417	
11:03:02	-6.733803	38.95362	127.533	0.8474729	-0.6807007	0.22	3	100	0	50	18.29481	-1.985696	43.56359	
11:03:02	-6.733803	38.95362	127.528	0.7460368	-5.707532	0.17	3	100	0	50	17.8672	-2.188075	43.5357	
11:03:03	-6.733803	38.95362	127.484	0.6927846	-8.421441	0.52	3	100	0	50	17.99435	-2.216928	43.51485	
11:03:03	-6.733804	38.95362	127.6	0.645048	-9.869499	0.17	3	100	0	50	18.44901	-2.164163	43.44035	
11:03:03	-6.733803	38.95362	127.699	0.617592	-10.18044	0.45	3	100	0	50	17.89902	-1.987411	43.41739	
11:03:03	-6.733803	38.95362	127.783	0.5912054	-10.50439	0.24	3	100	0	50	17.59385	-2.200944	43.43727	
11:03:03	-6.733802	38.95362	127.826	0.6084468	-8.634215	0.53	3	100	0	50	17.8668	-2.163707	43.43552	
11:03:04	-6.733802	38.95362	127.822	0.6278858	-6.423666	0.13	3	100	0	50	17.6296	-2.119601	43.42437	
11:03:04	-6.733802	38.95362	127.799	0.6248254	-6.323604	0.25	3	100	0	50	18.3128	-1.906104	43.38955	
11:03:04	-6.733802	38.95362	127.842	0.6219524	-6.450632	0.24	3	100	0	50	18.53623	-2.083453	43.33191	
11:03:04	-6.733802	38.95362	127.833	0.6248448	-5.58271	0.35	3	100	0	50	18.41707	-2.169626	43.26999	
11:03:04	-6.733803	38.95362	127.888	0.6279958	-5.518764	0.31	3	100	0	50	18.35056	-1.593402	43.23515	
11:03:05	-6.733803	38.95362	127.78	0.6198025	-5.541135	0.14	3	100	0	50	18.66941	-1.800211	43.19498	
11:03:05	-6.733805	38.95362	127.957	0.6134327	-5.410645	0.37	3	100	0	50	18.53333	-1.845123	43.13008	
11:03:05	-6.733805	38.95362	128.017	0.6082395	-5.34435	0.26	3	100	0	50	18.7206	-1.770491	43.07573	
11:03:05	-6.733806	38.95362	128.064	0.6039815	-5.369658	0.29	3	100	0	50	18.59466	-1.798253	43.00824	
11:03:05	-6.733806	38.95362	128.095	0.6159779	-4.58229	0.28	3	100	0	50	18.25097	-1.650864	42.98545	
11:03:06	-6.733807	38.95362	128.054	0.6285461	-3.436318	0.35	3	100	0	50	18.1874	-1.673166	42.9975	
11:03:06	-6.733807	38.95362	127.912	0.6221504	-3.593856	0.17	3	100	0	50	18.3659	-1.637294	42.99487	
11:03:06	-6.733807	38.95362	127.8	0.6166115	-3.03165	0.21	3	100	0	50	18.45019	-1.928113	42.99467	
11:03:06	-6.733807	38.95362	127.752	0.6629881	-0.9638662	0.16	3	100	0	50	18.33535	-1.771914	42.97137	
11:03:06	-6.733807	38.95362	127.667	0.6970464	0.453647	0.37	3	100	0	50	18.34697	-1.829703	42.95901	
11:03:07	-6.733808	38.95362	127.597	0.7218571	2.173172	0.12	3	100	0	50	18.65078	-1.899365	42.92138	
11:03:07	-6.733808	38.95362	127.568	0.7289931	2.452651	0.26	3	100	0	50	18.43482	-1.931135	42.8816	
11:03:07	-6.733808	38.95362	127.42	0.750688	3.11279	0.17	3	100	0	50	18.60153	-1.944265	42.83227	
11:03:07	-6.733808	38.95362	127.16	0.7829032	4.037552	0.51	3	100	0	50	18.45534	-1.871623	42.78452	
11:03:07	-6.733807	38.95362	126.984	0.8222526	5.590089	0.55	3	100	0	50	17.83114	-1.639689	42.8023	
11:03:08	-6.733808	38.95362	126.934	0.8644102	7.151198	0.26	3	100	0	50	17.71974	-1.704399	42.87232	
11:03:08	-6.733808	38.95362	126.869	0.8316422	4.899302	0.35	3	100	0	50	18.10202	-1.770259	42.91115	
11:03:08	-6.733808	38.95362	126.74	0.7560201	-0.1183478	0.17	3	100	0	50	18.71431	-1.999424	42.88223	
11:03:08	-6.733808	38.95362	126.647	0.6976501	-3.072727	0.19	3	100	0	50	18.49801	-1.890665	42.82917	
11:03:08	-6.733809	38.95362	126.639	0.6564597	-5.492058	0.48	3	100	0	50	18.07637	-2.010613	42.83264	
11:03:09	-6.733809	38.95362	126.517	0.6122745	-7.591568	0.26	3	100	0	50	18.41726	-1.426412	42.8295	
11:03:09	-6.733809	38.95362	126.4	0.5783613	-8.971622	0.12	3	100	0	50	18.09805	-1.778126	42.86009	
11:03:09	-6.733809	38.95362	126.422	0.5470993	-9.785556	0.04	3	100	0	50	18.59583	-2.005214	42.8382	
11:03:09	-6.733809	38.95362	126.314	0.5196372	-10.12551	0.35	3	100	0	50	18.53727	-1.942284	42.78394	
11:03:09	-6.733809	38.95362	126.112	0.5309852	-8.718992	0.29	3	100	0	50	18.35918	-2.31658	42.72542	
11:03:10	-6.733809	38.95362	126.008	0.5640607	-6.565409	0.24	3	100	0	50	18.5709	-2.231954	42.67174	
11:03:10	-6.733809	38.95362	125.924	0.6080555	-3.885195	0.35	3	100	0	50	18.5787	-2.140088	42.6145	
11:03:10	-6.733809	38.95362	125.825	0.6564867	-1.292338	0.01	3	100	0	50	18.17615	-2.111921	42.58192	
11:03:10	-6.733809	38.95362	125.682	0.7244138	2.728377	0.14	3	100	0	50	18.49998	-1.859073	42.56209	
11:03:10	-6.733809	38.95362	125.682	0.8004981	6.293553	0.16	3	100	0	50	18.55546	-2.057212	42.53754	
11:03:11	-6.733809	38.95362	125.61	0.8360442	7.864024	0.32	3	100	0	50	18.57885	-1.774298	42.51176	
11:03:11	-6.733809	38.95362	125.553	0.8344916	6.675896	0.18	3	100	0	50	18.19686	-1.828465	42.50265	
11:03:11	-6.73381	38.95362	125.404	0.823401	5.095484	0.08	3	100	0	50	18.37666	-1.870829	42.49284	
11:03:11	-6.733812	38.95362	125.382	0.8042456	3.494178	0.44	3	100	0	50	18.66637	-1.91774	42.45647	
11:03:11	-6.733813	38.95362	125.235	0.7858601	2.203819	0.33	3	100	0	50	18.84927	-1.592268	42.39837	
11:03:12	-6.733813	38.95362	125.094	0.7887377	2.081844	0.32	3	100	0	50	18.50553	-2.232127	42.35732	
11:03:12	-6.733814	38.95362	124.953	0.7907041	1.941887	0.22	3	100	0	50	18.5489	-1.296159	42.321	
11:03:12	-6.733814	38.95362	124.83	0.7915914	1.301132	0.17	3	100	0	50	18.74143	-1.596455	42.31591	
11:03:12	-6.733814	38.95362	124.647	0.7912021	0.5822101	0.44	3	100	0	50	18.34552	-1.671537	42.31322	
11:03:12	-6.733814	38.95362	124.494	0.8052766	0.5879315	0.17	3	100	0	50	18.18469	-1.927846	42.33848	
11:03:13	-6.733814	38.95362	124.389	0.8168412	0.7503545	0.19	3	100	0	50	18.66529	-1.856759	42.30997	
11:03:13	-6.733814	38.95362	124.352	0.8699526	3.454597	0.26	3	100	0	50	18.6561	-1.810571	42.27168	
11:03:13	-6.733815	38.95361	124.212	0.9086965	4.648545	0.29	3	100	0	50	18.58546	-1.276562	42.26468	
11:03:13	-6.733815	38.95361	124.108	0.9200353	4.920906	0.21	3	100	0	50	18.29152	-1.509051	42.30609	
11:03:13	-6.733815	38.95361	123.914	0.9290515	5.356062	0.25	3	100	0	50	18.60143	-1.826723	42.30479	
11:03:14	-6.733816	38.95361	123.835	0.9224629	4.283682	0.19	3	100	0	50	18.51862	-1.835722	42.28182	
11:03:14	-6.733818	38.95361	123.747	0.9157664	3.859145	0.48	3	100	0	50	18.67167	-1.377178	42.27347	
11:03:14	-6.733819	38.95361	123.713	0.8934881	1.879483	0.04	3	100	0	50	18.36223	-1.082798	42.32895	
11:03:14	-6.733819	38.95361	123.67	0.8741849	0.8991901	0.39	3	100	0	50	18.44689	-1.509706	42.37769	
11:03:14	-6.733819	38.95361	123.605	0.8583341	0.06822499	0.08	3	100	0	50	18.03507	-1.551174	42.42823	
11:03:15	-6.733819	38.95361	123.536	0.8431753	-0.761131	0.42	3	100	0	50	18.38304	-1.766824	42.45316	
11:03:15	-6.733819	38.95361	123.425	0.784531	-3.40128	0.14	3	100	0	50	18.10674	-1.978045	42.47138	
11:03:15	-6.733819	38.95361	123.318	0.7317519	-5.933214	0.35	3	100	0	50	18.39237	-1.820852	42.4626	
11:03:15	-6.733819	38.95361	123.248	0.7026463	-6.871718	0.18	3	100	0	50	18.01561	-1.699455	42.47346	
11:03:15	-6.733819	38.95361	123.284	0.6752372	-7.28223	0.31	3	100	0	50	18.39452	-1.898726	42.4745	
11:03:16	-6.73382	38.95361	123.188	0.698684	-5.248823	0.24	3	100	0	50	18.56661	-1.875612	42.43328	
11:03:16	-6.73382	38.95361	123.223	0.720403	-3.806549	0.37	3	100	0	50	18.0766	-1.762618	42.42709	
11:03:16	-6.733821	38.95361	123.258	0.7774329	-0.44951	0.26	3	100	0	50	18.32935	-1.985698	42.42487	
11:03:16	-6.733821	38.95361	123.174	0.8306271	2.487313	0.39	3	100	0	50	18.60034	-1.533529	42.42043	
11:03:16	-6.733822	38.95361	123.23	0.8663378	3.963892	0.18	3	100	0	50	18.63357	-1.732987	42.39676	
11:03:17	-6.733822	38.95361	123.175	0.8930395	4.889404	0.36	3	100	0	50	18.27149	-1.730895	42.39001	
11:03:17	-6.733822	38.95361	123.11	0.8919636	4.494238	0.24	3	100	0	50	18.11538	-1.881512	42.42058	
11:03:17	-6.733823	38.95361	123.124	0.8570653	2.367961	0.18	3	100	0	50	18.42964	-1.676581	42.41651	
11:03:17	-6.733823	38.95361	123.08	0.8230291	0.4777456	0.29	3	100	0	50	18.07512	-1.456582	42.43955	
11:03:17	-6.733822	38.95361	123.088	0.7957891	-1.807866	0.35	3	100	0	50	18.12829	-1.780989	42.47986	
11:03:18	-6.733823	38.95361	123.108	0.7949541	-1.963804	0.7	3	100	0	50	18.55645	-1.883721	42.46485	
11:03:18	-6.733824	38.95361	123.034	0.8104805	-0.8589405	0.26	3	100	0	50	19.00545	-1.689946	42.39281	
11:03:18	-6.733824	38.95361	122.996	0.8267773	0.3683908	0.47	3	100	0	50	18.38424	-1.710069	42.35919	
11:03:18	-6.733823	38.95361	122.967	0.8410155	0.5338784	0.36	3	100	0	50	17.86688	-1.68712	42.41344	
11:03:18	-6.733823	38.95361	122.899	0.8464069	0.8031127	0.21	3	100	0	50	18.15552	-1.911868	42.43838	
11:03:19	-6.733823	38.9536	122.849	0.8392619	0.5008289	0.21	3	100	0	50	18.30341	-1.760826	42.43978	
11:03:19	-6.733824	38.9536	122.753	0.8257827	0.05129727	0.14	3	100	0	50	18.26538	-1.397217	42.47053	
11:03:19	-6.733824	38.95361	122.601	0.8022651	-1.070103	0.71	3	100	0	50	18.41476	-1.788687	42.4847	
11:03:19	-6.733825	38.95361	122.51	0.7807113	-1.665879	0.35	3	100	0	50	18.96299	-1.733415	42.43116	
11:03:19	-6.733824	38.95361	122.364	0.7605419	-2.27811	0.39	3	100	0	50	18.49012	-1.669893	42.38204	
11:03:20	-6.733824	38.95361	122.268	0.7430654	-2.953548	0.31	3	100	0	50	18.04152	-1.869922	42.40915	
11:03:20	-6.733824	38.95361	122.15	0.7284929	-3.250802	0.63	3	100	0	50	18.49085	-1.783332	42.41624	
11:03:20	-6.733825	38.95361	122.047	0.72028	-3.336156	0.25	3	100	0	50	18.91051	-1.267803	42.3737	
11:03:20	-6.733825	38.95361	121.934	0.7146996	-3.741491	0.29	3	100	0	50	18.37037	-1.307962	42.38836	
11:03:20	-6.733825	38.95361	121.859	0.722639	-3.337036	0.36	3	100	0	50	18.12376	-1.672821	42.4467	
11:03:21	-6.733824	38.95361	121.765	0.7420796	-1.215931	0.63	3	100	0	50	18.27266	-1.918627	42.46153	
11:03:21	-6.733823	38.95361	121.725	0.7746537	0.6356869	0.12	3	100	0	50	18.12963	-2.017714	42.45934	
11:03:21	-6.733823	38.95361	121.688	0.8257125	3.578163	0.36	3	100	0	50	18.2205	-1.448938	42.46109	
11:03:21	-6.733822	38.95361	121.629	0.8675215	5.421257	0.45	3	100	0	50	18.0022	-1.587765	42.50879	
11:03:21	-6.733822	38.9536	121.667	0.8831936	5.436769	0.22	3	100	0	50	17.96441	-1.644711	42.56832	
11:03:22	-6.733822	38.95361	121.552	0.8962162	5.712168	0.26	3	100	0	50	18.23903	-1.631756	42.59775	
11:03:22	-6.733822	38.9536	121.593	0.9117569	5.982903	0.36	3	100	0	50	18.23929	-1.692376	42.63739	
11:03:22	-6.733821	38.95361	121.521	0.9240259	6.408959	0.19	3	100	0	50	18.04259	-1.692431	42.68363	
11:03:22	-6.733821	38.95361	121.457	0.9203016	5.910852	0.36	3	100	0	50	18.23343	-1.523806	42.73259	
11:03:22	-6.733822	38.95361	121.463	0.9165364	5.419584	0.19	3	100	0	50	18.74729	-1.444847	42.72712	
11:03:23	-6.733822	38.95361	121.405	0.787466	-2.003686	0.07	3	100	0	50	18.56185	-1.357369	42.72786	
11:03:23	-6.733823	38.95361	121.45	0.6696003	-7.777241	0.29	3	100	0	50	18.44594	-1.423583	42.7556	
11:03:23	-6.733824	38.95361	121.378	0.562801	-12.35105	0.34	3	100	0	50	18.60787	-1.426811	42.75054	
11:03:23	-6.733824	38.95361	121.27	0.4776118	-15.53591	0.26	3	100	0	50	18.42822	-1.167292	42.7484	
11:03:23	-6.733824	38.95361	121.181	0.40268	-17.87811	0.13	3	100	0	50	18.2807	-1.321456	42.78901	
11:03:24	-6.733824	38.95361	121.057	0.3375432	-19.9356	0.33	3	100	0	50	18.22004	-1.483251	42.80791	
11:03:24	-6.733824	38.95361	120.912	0.3152435	-19.33339	0.68	3	100	0	50	17.89325	-1.075975	42.87083	
11:03:24	-6.733823	38.9536	120.935	0.3005919	-18.07829	0.04	3	100	0	50	17.81171	-1.340702	42.97958	
11:03:24	-6.733823	38.9536	120.941	0.2835363	-17.01244	0.11	3	100	0	50	18.48373	-1.440338	43.00983	
11:03:24	-6.733823	38.9536	120.882	0.2708139	-16.37458	0.41	3	100	0	50	18.38386	-1.393625	43.02502	
11:03:25	-6.733823	38.9536	120.783	0.2986831	-13.58113	0.04	3	100	0	50	18.24936	-1.221816	43.07114	
11:03:25	-6.733823	38.9536	120.701	0.3268234	-10.70261	0.13	3	100	0	50	18.49505	-1.490086	43.08065	
11:03:25	-6.733823	38.9536	120.615	0.3439957	-8.705812	0.16	3	100	0	50	18.50586	-1.54554	43.05397	
11:03:25	-6.733823	38.9536	120.725	0.3601588	-7.068201	0.21	3	100	0	50	18.33012	-1.503859	43.05284	
11:03:25	-6.733824	38.9536	120.703	0.4513173	-1.624447	0.29	3	100	0	50	18.42835	-1.653967	43.05671	
11:03:26	-6.733823	38.95361	120.566	0.5352041	2.994692	0.47	3	100	0	50	18.5949	-1.655422	43.04299	
11:03:26	-6.733824	38.95361	120.537	0.5790297	4.787268	0.45	3	100	0	50	18.38752	-1.614035	43.05038	
11:03:26	-6.733825	38.95361	120.524	0.6139097	6.097571	0.26	3	100	0	50	18.94326	-1.271618	43.0211	
11:03:26	-6.733825	38.95361	120.473	0.6531532	7.339063	0.22	3	100	0	50	18.5582	-1.396245	43.01422	
11:03:26	-6.733826	38.95361	120.471	0.6957075	8.908607	0.03	3	100	0	50	18.53332	-1.22234	43.03141	
11:03:27	-6.733826	38.95361	120.481	0.7328726	10.10786	0.18	3	100	0	50	18.61881	-1.286504	43.05582	
11:03:27	-6.733826	38.95361	120.561	0.7639313	10.5792	0.19	3	100	0	50	18.51	-1.335914	43.05973	
11:03:27	-6.733827	38.95361	120.616	0.7988456	11.80148	0.25	3	100	0	50	18.46468	-1.187657	43.08645	
11:03:27	-6.733827	38.95361	120.586	0.8318688	11.9496	0.08	3	100	0	50	18.4748	-1.245656	43.13289	
11:03:27	-6.733828	38.95361	120.568	0.8278146	10.59284	0.21	3	100	0	50	18.71587	-1.293826	43.13169	
11:03:28	-6.733829	38.95361	120.537	0.7914425	7.846897	0.24	3	100	0	50	18.70778	-1.289763	43.12262	
11:03:28	-6.733829	38.95361	120.481	0.7675192	5.646424	0.16	3	100	0	50	18.51257	-1.32816	43.15253	
11:03:28	-6.73383	38.95361	120.465	0.756322	4.651217	0.11	3	100	0	50	18.81435	-1.45592	43.13775	
11:03:28	-6.73383	38.95361	120.396	0.7578509	3.827016	0.24	3	100	0	50	18.63083	-1.557555	43.11134	
11:03:28	-6.73383	38.95361	120.411	0.7789937	4.569202	0.34	3	100	0	50	18.32438	-1.561462	43.12494	
11:03:29	-6.73383	38.95361	120.424	0.7975612	5.075104	0.28	3	100	0	50	18.25194	-1.534819	43.13631	
11:03:29	-6.733831	38.95361	120.481	0.8143901	5.298524	0.11	3	100	0	50	18.4252	-1.467199	43.14972	
11:03:29	-6.733832	38.95361	120.45	0.8035572	4.232978	0.32	3	100	0	50	18.70608	-1.453169	43.12561	
11:03:29	-6.733834	38.95361	120.453	0.7668712	1.504439	0.11	3	100	0	50	18.6839	-1.292176	43.10212	
11:03:29	-6.733834	38.95361	120.517	0.708466	-1.569502	0.19	3	100	0	50	18.6194	-1.437278	43.10157	
11:03:30	-6.733834	38.95361	120.538	0.6337927	-5.426582	0.06	3	100	0	50	18.54935	-1.481429	43.11676	
11:03:30	-6.733835	38.95361	120.511	0.5704114	-8.101367	0.09	3	100	0	50	18.50647	-1.651819	43.11998	
11:03:30	-6.733835	38.95361	120.49	0.5224822	-10.2668	0.04	3	100	0	50	18.54997	-1.569166	43.1073	
11:03:30	-6.733835	38.95361	120.49	0.4820987	-11.71086	0.26	3	100	0	50	18.47685	-1.707214	43.09185	
11:03:30	-6.733835	38.95361	120.449	0.4583814	-11.50717	0.08	3	100	0	50	18.35925	-1.7963	43.09261	
11:03:31	-6.733835	38.95361	120.406	0.4409216	-11.61177	0.32	3	100	0	50	18.42278	-1.719978	43.07047	
11:03:31	-6.733835	38.95361	120.507	0.427261	-11.58969	0.13	3	100	0	50	18.4151	-1.766194	43.05441	
11:03:31	-6.733836	38.95361	120.475	0.4179635	-10.65944	0.13	3	100	0	50	18.59981	-1.535097	43.02616	
11:03:31	-6.733837	38.95361	120.495	0.4179913	-9.737856	0.11	3	100	0	50	18.66184	-1.341288	43.00715	
11:03:31	-6.733837	38.95361	120.564	0.4197835	-9.086917	0.12	3	100	0	50	18.6699	-1.384834	42.98964	
11:03:32	-6.733838	38.95361	120.545	0.4127204	-8.825087	0.06	3	100	0	50	18.66547	-1.450764	42.97264	
11:03:32	-6.733838	38.95361	120.521	0.4083317	-8.371973	0.11	3	100	0	50	18.6291	-1.514719	42.97213	
11:03:32	-6.733838	38.95361	120.551	0.438376	-5.283465	0.14	3	100	0	50	18.63961	-1.529283	42.96172	
11:03:32	-6.733839	38.95362	120.584	0.4685337	-2.761591	0.26	3	100	0	50	18.63898	-1.642119	42.93472	
11:03:32	-6.733839	38.95362	120.568	0.4679739	-2.678785	0.13	3	100	0	50	18.62476	-1.741252	42.88865	
11:03:33	-6.733839	38.95362	120.529	0.4685947	-2.106884	0.25	3	100	0	50	18.57614	-1.655015	42.85629	
11:03:33	-6.733838	38.95362	120.499	0.4855734	-1.198905	0.32	3	100	0	50	18.39256	-1.588571	42.84654	
11:03:33	-6.733838	38.95362	120.496	0.5002609	-0.1041115	0.14	3	100	0	50	18.22781	-1.421242	42.89223	
11:03:33	-6.733838	38.95362	120.431	0.5291853	1.348924	0.19	3	100	0	50	18.33546	-1.481043	42.92057	
11:03:33	-6.733838	38.95362	120.355	0.554933	2.528726	0.21	3	100	0	50	18.08966	-1.488449	42.96074	
11:03:34	-6.733837	38.95362	120.25	0.5558522	2.835422	0.29	3	100	0	50	18.02245	-1.554155	43.00833	
11:03:34	-6.733837	38.95362	120.1	0.5570517	2.949601	0.11	3	100	0	50	18.21295	-1.597066	43.0489	
11:03:34	-6.733837	38.95362	120.06	0.5720896	3.688617	0.04	3	100	0	50	18.32364	-1.826683	43.04185	
11:03:34	-6.733837	38.95362	119.967	0.5858238	4.522106	0.33	3	100	0	50	18.18358	-1.710776	43.03749	
11:03:34	-6.733837	38.95362	119.855	0.5476827	2.244564	0.09	3	100	0	50	18.13268	-1.621237	43.05895	
11:03:35	-6.733836	38.95362	119.818	0.5125037	0.3077213	0.13	3	100	0	50	18.24516	-1.852489	43.07361	
11:03:35	-6.733836	38.95362	119.725	0.4940074	-1.11642	0.04	3	100	0	50	18.27519	-1.899395	43.04022	
11:03:35	-6.733835	38.95362	119.584	0.4779496	-2.295481	0.17	3	100	0	50	18.25126	-1.769922	43.04694	
11:03:35	-6.733835	38.95362	119.52	0.5210544	0.006172387	0.24	3	100	0	50	18.22341	-1.841084	43.06139	
11:03:35	-6.733834	38.95362	119.463	0.5594535	1.432394	0.04	3	100	0	50	18.16601	-1.916159	43.06596	
11:03:36	-6.733834	38.95362	119.424	0.6169454	4.255587	0.31	3	100	0	50	18.09065	-1.871176	43.05748	
11:03:36	-6.733833	38.95362	119.355	0.6630121	5.83857	0.19	3	100	0	50	18.15009	-1.962899	43.07455	
11:03:36	-6.733832	38.95362	119.295	0.6996205	6.838591	0.17	3	100	0	50	18.25478	-1.959202	43.0349	
11:03:36	-6.733832	38.95362	119.198	0.7199014	7.460317	0.18	3	100	0	50	18.14997	-1.757359	43.041	
11:03:36	-6.733832	38.95362	119.085	0.7218346	6.311999	0.14	3	100	0	50	18.29095	-1.662808	43.06285	
11:03:37	-6.733832	38.95362	118.978	0.7004057	4.490892	0.13	3	100	0	50	18.24424	-1.711028	43.05233	
11:03:37	-6.733832	38.95362	118.87	0.6869482	3.334149	0.11	3	100	0	50	18.24992	-1.800597	43.04312	
11:03:37	-6.733832	38.95362	118.897	0.6845285	2.89953	0.12	3	100	0	50	18.26955	-1.88587	43.02068	
11:03:37	-6.733832	38.95362	118.925	0.6605849	0.7090368	0.11	3	100	0	50	18.14602	-1.882617	43.03172	
11:03:37	-6.733833	38.95362	118.914	0.6182955	-1.790369	0.09	3	100	0	50	18.18768	-1.885103	43.03856	
11:03:38	-6.733833	38.95362	118.9	0.5870634	-3.544137	0.19	3	100	0	50	18.11423	-1.923084	43.02998	
11:03:38	-6.733833	38.95362	118.892	0.5674603	-4.256606	0.17	3	100	0	50	18.08825	-1.985101	43.04329	
11:03:38	-6.733833	38.95362	118.864	0.5491328	-5.150085	0.12	3	100	0	50	18.22067	-2.034593	43.03932	
11:03:38	-6.733833	38.95362	118.921	0.5347599	-5.390325	0.19	3	100	0	50	18.32151	-1.882627	43.00824	
11:03:38	-6.733834	38.95362	118.839	0.5423854	-4.382313	0.14	3	100	0	50	18.37203	-1.79665	42.98963	
11:03:39	-6.733833	38.95362	118.777	0.5782546	-2.469646	0.17	3	100	0	50	18.14831	-1.875907	42.98484	
11:03:39	-6.733833	38.95362	118.73	0.6133403	-0.5119314	0.16	3	100	0	50	17.95383	-1.903666	43.02608	
11:03:39	-6.733833	38.95362	118.724	0.6415583	0.9087423	0.13	3	100	0	50	18.06005	-1.987908	43.0528	
11:03:39	-6.733833	38.95362	118.693	0.6523694	1.13888	0.09	3	100	0	50	18.21226	-1.981375	43.05857	
11:03:39	-6.733833	38.95362	118.505	0.6483831	0.7516038	0.18	3	100	0	50	18.12817	-1.819719	43.03458	
11:03:40	-6.733833	38.95362	118.427	0.6620064	1.467476	0.18	3	100	0	50	18.14587	-1.779001	43.05058	
11:03:40	-6.733833	38.95362	118.346	0.6885122	3.072629	0.09	3	100	0	50	18.1399	-1.871939	43.04743	
11:03:40	-6.733833	38.95362	118.214	0.6910805	2.925473	0.14	3	100	0	50	18.09974	-1.863727	43.0596	
11:03:40	-6.733833	38.95362	118.098	0.6575257	0.8952353	0.25	3	100	0	50	18.28218	-1.819875	43.05313	
11:03:40	-6.733833	38.95362	117.942	0.6400034	-0.05815214	0.08	3	100	0	50	18.19362	-1.869986	43.04193	
11:03:41	-6.733833	38.95362	117.902	0.6427056	0.4058023	0.06	3	100	0	50	18.02473	-1.930295	43.06361	
11:03:41	-6.733832	38.95362	117.822	0.645882	0.7576436	0.17	3	100	0	50	18.13882	-1.990621	43.06628	
11:03:41	-6.733832	38.95362	117.696	0.6151111	-0.8835753	0.14	3	100	0	50	18.22101	-2.012179	43.06756	
11:03:41	-6.733832	38.95362	117.565	0.5878205	-1.939666	0.12	3	100	0	50	18.0671	-1.997973	43.05775	
11:03:41	-6.733831	38.95362	117.359	0.6092585	-0.7832724	0.04	3	100	0	50	18.02068	-1.906874	43.06907	
11:03:42	-6.733831	38.95362	117.129	0.6268426	0.4471546	0.22	3	100	0	50	17.97252	-1.789943	43.1052	
11:03:42	-6.73383	38.95362	117.037	0.5988073	-1.523628	0.06	3	100	0	50	17.95911	-1.880059	43.14309	
11:03:42	-6.73383	38.95362	116.948	0.5733663	-2.807512	0.13	3	100	0	50	18.03123	-2.048195	43.14248	
11:03:42	-6.733829	38.95362	116.859	0.5852754	-1.922211	0.11	3	100	0	50	17.98424	-2.011107	43.14066	
11:03:42	-6.733829	38.95362	116.682	0.5965614	-0.9977283	0.11	3	100	0	50	18.0583	-1.9155	43.14261	
11:03:43	-6.733829	38.95362	116.571	0.6300443	0.8145154	0.02	3	100	0	50	18.11131	-1.915004	43.14773	
11:03:43	-6.733829	38.95362	116.401	0.657936	2.255337	0.17	3	100	0	50	18.02197	-1.850935	43.16817	
11:03:43	-6.733829	38.95362	116.296	0.7182829	5.195565	0.04	3	100	0	50	17.98829	-1.869239	43.2076	
11:03:43	-6.733829	38.95362	116.125	0.7725503	7.90558	0.09	3	100	0	50	18.04153	-2.005373	43.21795	
11:03:43	-6.733828	38.95362	116.016	0.7928786	8.246148	0.42	3	100	0	50	17.99122	-1.740277	43.22849	
11:03:44	-6.733828	38.95362	115.9	0.808148	8.506275	0.09	3	100	0	50	18.01217	-1.73566	43.25976	
11:03:44	-6.733828	38.95362	115.753	0.8428147	9.526607	0.12	3	100	0	50	17.95189	-1.882814	43.27341	
11:03:44	-6.733828	38.95362	115.662	0.8728063	10.66668	0.12	3	100	0	50	17.96255	-2.002367	43.28792	
11:03:44	-6.733827	38.95362	115.556	0.8823704	9.494037	0.04	3	100	0	50	18.03116	-2.016292	43.28397	
11:03:44	-6.733827	38.95362	115.499	0.8888634	9.20456	0.11	3	100	0	50	17.90743	-1.961481	43.29031	
11:03:45	-6.733827	38.95362	115.35	0.9047177	9.37974	0.06	3	100	0	50	17.94114	-2.00522	43.31143	
11:03:45	-6.733827	38.95362	115.276	0.9165418	9.143884	0.04	3	100	0	50	17.98865	-2.044449	43.29474	
11:03:45	-6.733827	38.95362	115.206	0.8877592	6.833939	0.19	3	100	0	50	17.87321	-2.094031	43.30101	
11:03:45	-6.733827	38.95362	115.259	0.8598715	4.312208	0.22	3	100	0	50	17.85664	-2.17682	43.31392	
11:03:46	-6.733826	38.95362	115.191	0.8351004	2.807249	0.17	3	100	0	50	17.91441	-2.142828	43.31813	
11:03:46	-6.733826	38.95362	115.097	0.8124266	1.776115	0.04	3	100	0	50	17.94512	-1.976209	43.30959	
11:03:46	-6.733825	38.95362	115.058	0.8177646	1.634331	0.11	3	100	0	50	17.91596	-1.890992	43.33134	
11:03:46	-6.733825	38.95362	114.938	0.8427886	3.240451	0.17	3	100	0	50	17.82923	-1.900639	43.36551	
11:03:46	-6.733824	38.95362	114.85	0.8586825	3.835639	0.22	3	100	0	50	17.75104	-1.893116	43.41179	
11:03:47	-6.733824	38.95362	114.876	0.8622839	3.74135	0.09	3	100	0	50	17.83089	-1.910341	43.45742	
11:03:47	-6.733824	38.95362	114.874	0.8518764	2.770359	0.06	3	100	0	50	17.9359	-1.969907	43.464	
11:03:47	-6.733823	38.95362	114.762	0.8336681	1.842962	0.25	3	100	0	50	17.8308	-1.825934	43.48566	
11:03:47	-6.733823	38.95362	114.688	0.7929215	-0.8256257	0.08	3	100	0	50	17.86666	-1.865034	43.53179	
11:03:47	-6.733822	38.95362	114.573	0.7395905	-3.947672	0.22	3	100	0	50	17.83009	-2.032899	43.54907	
11:03:48	-6.733822	38.95362	114.568	0.6881632	-6.404314	0.16	3	100	0	50	17.73744	-1.942954	43.5741	
11:03:48	-6.733822	38.95362	114.494	0.6409652	-8.787674	0.35	3	100	0	50	18.03231	-1.919692	43.58773	
11:03:48	-6.733822	38.95362	114.52	0.6393858	-8.192671	0.04	3	100	0	50	18.0059	-1.883385	43.56244	
11:03:48	-6.733822	38.95362	114.507	0.6702054	-5.833841	0.19	3	100	0	50	17.9803	-1.92255	43.57571	
11:03:48	-6.733822	38.95362	114.478	0.7165172	-2.868324	0.14	3	100	0	50	17.98483	-1.952874	43.5752	
11:03:49	-6.733822	38.95362	114.503	0.7647282	0.1273301	0.32	3	100	0	50	18.10805	-1.838317	43.57857	
11:03:49	-6.733822	38.95362	114.472	0.8277798	3.229869	0.14	3	100	0	50	17.98112	-1.86804	43.58589	
11:03:49	-6.733823	38.95362	114.454	0.8859484	5.630741	0.14	3	100	0	50	18.03119	-1.689936	43.60362	
11:03:49	-6.733823	38.95362	114.417	0.896949	5.516908	0.34	3	100	0	50	18.29396	-1.619623	43.61776	
11:03:49	-6.733824	38.95362	114.424	0.8806221	4.025539	0.04	3	100	0	50	18.09844	-1.763517	43.60816	
11:03:50	-6.733824	38.95362	114.353	0.8791509	3.797855	0.17	3	100	0	50	17.85301	-1.840414	43.62792	
11:03:50	-6.733824	38.95362	114.289	0.8863244	3.931159	0.06	3	100	0	50	17.92577	-1.816549	43.63855	
11:03:50	-6.733823	38.95363	114.217	0.8820004	3.582964	0.28	3	100	0	50	18.08861	-1.9773	43.63393	
11:03:50	-6.733823	38.95363	114.204	0.8611026	1.371511	0.11	3	100	0	50	17.88693	-1.916165	43.62413	
11:03:50	-6.733823	38.95363	114.118	0.861144	1.376193	0.29	3	100	0	50	17.60519	-1.794744	43.66343	
11:03:51	-6.733822	38.95363	114.114	0.8779893	2.446589	0.22	3	100	0	50	17.79506	-1.982491	43.71265	
11:03:51	-6.733822	38.95363	114.039	0.8937176	3.63512	0.16	3	100	0	50	17.95982	-1.97768	43.70416	
11:03:51	-6.733822	38.95363	113.982	0.8732781	2.510363	0.22	3	100	0	50	17.92196	-2.030396	43.70622	
11:03:51	-6.733823	38.95363	113.88	0.8547856	1.487088	0.26	3	100	0	50	18.00989	-2.054469	43.70401	
11:03:51	-6.733823	38.95363	113.841	0.8684907	2.542318	0.09	3	100	0	50	17.95945	-1.937123	43.67976	
11:03:52	-6.733823	38.95363	113.696	0.8797486	2.858302	0.31	3	100	0	50	18.08376	-1.908397	43.6602	
11:03:52	-6.733823	38.95364	113.469	0.914261	4.076127	0.26	3	100	0	50	17.92701	-2.052964	43.66209	
11:03:52	-6.733822	38.95364	113.115	0.93929	4.98265	0.5	3	100	0	50	17.79015	-2.32374	43.65859	
11:03:52	-6.733822	38.95364	112.965	0.9301732	3.982682	0.52	3	100	0	50	17.43132	-2.186997	43.66348	
11:03:52	-6.733821	38.95364	112.789	0.9206148	2.731099	0.22	3	100	0	50	17.82187	-1.831029	43.68411	
11:03:53	-6.733822	38.95364	112.683	0.9469215	3.419738	0.24	3	100	0	50	18.09368	-1.758559	43.69918	
11:03:53	-6.733822	38.95364	112.446	0.9672801	3.662492	0.21	3	100	0	50	18.00197	-1.832494	43.69091	
11:03:53	-6.733822	38.95364	112.401	0.9696919	3.835425	0.08	3	100	0	50	17.87545	-2.025088	43.69738	
11:03:53	-6.733822	38.95364	112.401	0.9717554	3.504774	0.08	3	100	0	50	17.77152	-1.847907	43.71378	
11:03:53	-6.733823	38.95364	112.152	0.9830493	2.929283	0.16	3	100	0	50	17.77725	-1.666884	43.7536	
11:03:54	-6.733823	38.95364	112.02	0.9921826	3.538363	0.33	3	100	0	50	17.80217	-1.675033	43.80024	
11:03:54	-6.733823	38.95364	111.959	1.056633	6.857815	0.09	3	100	0	50	17.6094	-1.675525	43.84482	
11:03:54	-6.733824	38.95364	111.874	1.109191	9.145039	0.33	3	100	0	50	17.8752	-1.802058	43.89701	
11:03:54	-6.733823	38.95364	111.699	1.154426	10.67656	0.14	3	100	0	50	17.60155	-1.848106	43.93281	
11:03:54	-6.733824	38.95364	111.624	1.189751	11.52238	0.09	3	100	0	50	17.71761	-1.88437	43.96211	
11:03:55	-6.733824	38.95364	111.563	1.239845	12.90633	0.04	3	100	0	50	17.91617	-2.03287	43.9529	
11:03:55	-6.733824	38.95364	111.461	1.282308	13.80662	0.12	3	100	0	50	17.95696	-1.992748	43.92384	
11:03:55	-6.733824	38.95364	111.422	1.218778	9.154345	0.12	3	100	0	50	17.98859	-2.056448	43.90036	
11:03:55	-6.733825	38.95364	111.407	1.159715	5.32161	0.18	3	100	0	50	17.83432	-1.972527	43.88863	
11:03:55	-6.733825	38.95364	111.284	1.116187	2.200378	0.25	3	100	0	50	17.93669	-1.796393	43.8906	
11:03:56	-6.733826	38.95364	111.303	1.076381	0.2474873	0.19	3	100	0	50	18.14056	-1.938576	43.87737	
11:03:56	-6.733826	38.95365	111.169	1.024686	-2.466635	0.07	3	100	0	50	18.11647	-1.974797	43.85428	
11:03:56	-6.733826	38.95365	111.125	0.9642612	-5.243091	0.14	3	100	0	50	17.98075	-1.917705	43.82642	
11:03:56	-6.733826	38.95365	111.057	0.9306487	-6.914738	0.21	3	100	0	50	17.78173	-1.962483	43.8204	
11:03:56	-6.733827	38.95365	111.001	0.9214738	-6.760009	0.06	3	100	0	50	17.9666	-2.094947	43.81091	
