Date	Latitude(deg) 	Longitude(deg)	hamsl(m)	hafl(m)	climbrate(cm/s)	GroundSpeed(m/s)	Airspeed(m/s)	Mav_Link(%)	Rssi_Link(%)	Throttle	Roll(deg)	Pitch(deg)	Yaw(deg)
18:48:59	47.43814	-122.3112	0.02	0	0	0	0	100	0	0	2.595214E-05	0.0001935858	4.384237E-11	
18:48:59	47.43814	-122.3112	0.02	0.02	0	0	3	100	0	4	2.595214E-05	0.0001935858	4.384237E-11	
18:48:59	47.43814	-122.3112	0.02	0.02	0	0	3	100	0	4	2.595214E-05	0.0001935858	4.384237E-11	
18:48:59	47.43814	-122.3112	0.02	0.02	0	0	3	100	0	4	2.595214E-05	0.0001935858	4.384237E-11	
18:48:59	47.43814	-122.3112	0.02	0.02	0	0	3	100	0	5	2.595214E-05	0.0001935858	4.384237E-11	
18:49:00	47.43814	-122.3112	0.02	0.02	0	0	3	100	0	5	2.595214E-05	0.0001935858	4.384237E-11	
18:49:00	47.43814	-122.3112	0.02	0.02	0	0	3	100	0	4	2.595214E-05	0.0001935858	4.384237E-11	
18:49:00	47.43814	-122.3112	0.02	0.02	0	0	3	100	0	4	2.595214E-05	0.0001935858	4.384237E-11	
18:49:00	47.43814	-122.3112	0.02	0.02	0	0	3	100	0	4	2.595214E-05	0.0001935858	4.384237E-11	
18:49:00	47.43814	-122.3112	0.02	0.02	0	0	3	100	0	4	2.595214E-05	0.0001935858	4.384237E-11	
18:49:01	47.43814	-122.3112	0.02	0.02	0	0	3	100	0	4	2.595214E-05	0.0001935858	4.384237E-11	
18:49:01	47.43814	-122.3112	0.02	0.02	0	0	3	100	0	5	2.595214E-05	0.0001935858	4.384237E-11	
18:49:01	0	0	0	0.02	0	0	3	100	0	5	-3.64735E-05	0.0002302038	1.887505	
18:49:01	0	0	0	-0.0878932	-78.59454	0	3	100	0	4	0.0001202852	-0.000270748	1.124299	
18:49:01	47.43814	-122.3112	0.02	-0.2175831	-77.3976	0	3	100	0	4	0.0002797677	-0.0006273022	0.5729244	
18:49:02	47.43814	-122.3112	0.02	-0.3248794	-74.41412	0	3	100	0	4	-0.0002475489	-0.0002483648	0.183302	
18:49:02	47.43814	-122.3112	0.02	-0.3960336	-70.63067	0	3	100	0	4	-0.000135973	0.0002782869	-0.1016837	
18:49:02	47.43814	-122.3112	0.02	-0.4453431	-66.07109	0	3	100	0	4	-0.0005113196	-0.001223789	-0.3041924	
18:49:02	47.43814	-122.3112	0.02	-0.4765324	-60.99474	0	3	100	0	4	-0.0009347038	-0.003044719	-0.4532929	
18:49:02	47.43814	-122.3112	0.02	-0.492249	-55.60436	0	3	100	0	4	-0.001356083	-0.004865958	-0.5632433	
18:49:03	47.43814	-122.3112	0.02	-0.4949966	-49.99231	0	3	100	0	4	-0.00138764	-0.00474628	-0.6398084	
18:49:03	47.43814	-122.3112	0.02	-0.4880966	-44.91902	0	3	100	0	4	-0.0005117128	-0.006138561	-0.6956874	
18:49:03	47.43814	-122.3112	0.02	-0.4718942	-39.32437	0	3	100	0	4	-6.224932E-05	-0.005974639	-0.7368394	
18:49:03	47.43814	-122.3112	0.02	-0.4484241	-33.86959	0	3	100	0	4	0.0004666544	-0.004812073	-0.7662043	
18:49:03	47.43814	-122.3112	0.02	-0.4161427	-28.11135	0	3	100	0	4	0.001542927	-0.003363675	-0.7864223	
18:49:04	47.43814	-122.3112	0.02	-0.3827174	-23.19749	0	3	100	0	5	0.001119512	-0.00334028	-0.800546	
18:49:04	47.43814	-122.3112	0.02	-0.346805	-18.62055	0	3	100	0	4	0.0003837572	-0.002584995	-0.8108227	
18:49:04	47.43814	-122.3112	0.02	-0.3120992	-14.6909	0	3	100	0	4	-0.0002632445	-0.003143358	-0.8180637	
18:49:04	47.43814	-122.3112	0.02	-0.2747927	-10.88534	0	3	100	0	4	-0.0008047396	-0.003425883	-0.8235589	
18:49:04	47.43814	-122.3112	0.02	-0.2333259	-7.064307	0	3	100	0	4	-0.001585386	-0.002794719	-0.8278599	
18:49:05	47.43814	-122.3112	0.02	-0.1998063	-4.241593	0	3	100	0	4	-0.002489177	-0.0009357521	-0.8306907	
18:49:05	47.43814	-122.3112	0.02	-0.1639911	-1.471468	0	3	100	0	4	-0.0009384037	0.001389481	-0.8322021	
18:49:05	47.43814	-122.3112	0.02	-0.1299911	0.9325141	0	3	100	0	4	0.0002250365	0.001257058	-0.8325589	
18:49:05	47.43814	-122.3112	0.02	-0.09589283	3.128117	0	3	100	0	5	0.001364227	0.0001213853	-0.8334133	
18:49:05	47.43814	-122.3112	0.02	-0.0698992	4.651064	0	3	100	0	4	0.002503441	-0.001014247	-0.8349562	
18:49:06	47.43814	-122.3112	0.02	-0.04336348	6.061648	0	3	100	0	4	0.003642699	-0.002149821	-0.837007	
18:49:06	47.43814	-122.3112	0.02	-0.01709422	7.29968	0	3	100	0	4	0.004782017	-0.003285326	-0.8394319	
18:49:06	47.43814	-122.3112	0.02	0.002100804	8.09009	0	3	100	0	4	0.005927097	-0.004426434	-0.8421462	
18:49:06	47.43814	-122.3112	0.02	0.02102822	8.757347	0	3	100	0	4	0.007066551	-0.005561787	-0.8450506	
18:49:06	47.43814	-122.3112	0.02	0.02102822	8.757347	0	3	100	0	4	0.008211777	-0.006702738	-0.8481203	
18:49:07	47.43814	-122.3112	0.02	0.02102822	8.757347	0	3	100	0	4	0.009351378	-0.007837935	-0.8512857	
18:49:07	47.43814	-122.3112	0.02	0.02102822	8.757347	0	3	100	0	4	0.01049675	-0.008978731	-0.8545489	
18:49:07	47.43814	-122.3112	0.02	0.02102822	8.757347	0	3	100	0	4	0.0116365	-0.01011377	-0.8578562	
18:49:07	47.43814	-122.3112	0.02	0.02102822	8.757347	0	3	100	0	4	0.01278203	-0.01125441	-0.8612245	
18:49:07	47.43814	-122.3112	0.02	0.02102822	8.757347	0	3	100	0	4	0.01379263	-0.01166791	-0.8604482	
18:49:08	47.43814	-122.3112	0.02	0.02806948	8.971703	0	3	100	0	4	0.01429747	-0.01068433	-0.8463894	
18:49:08	47.43814	-122.3112	0.02	0.04516484	9.402031	0	3	100	0	4	0.01224993	-0.009367368	-0.8361591	
18:49:08	47.43814	-122.3112	0.02	0.05676324	9.600917	0	3	100	0	5	0.008462313	-0.005954427	-0.8296931	
18:49:08	47.43814	-122.3112	0.02	0.06784625	9.693703	0	3	100	0	4	0.004274025	-0.003696027	-0.8267711	
18:49:08	47.43814	-122.3112	0.02	0.07692405	9.667364	0	3	100	0	4	3.798816E-05	0.0002748244	-0.8266211	
18:49:09	47.43814	-122.3112	0.02	0.08471676	9.526211	0	3	100	0	5	-0.00187845	0.000713764	-0.8278983	
18:49:09	47.43814	-122.3112	0.02	0.0901975	9.312741	0	3	100	0	4	-0.002719067	0.003476351	-0.8297728	
18:49:09	47.43814	-122.3112	0.02	0.0941871	9.035795	0	3	100	0	4	-0.002590176	0.005187687	-0.831668	
18:49:09	47.43814	-122.3112	0.02	0.09686996	8.716184	0	3	100	0	4	-0.002460745	0.006907563	-0.8340219	
18:49:09	47.43814	-122.3112	0.02	0.09832965	8.396934	0	3	100	0	4	-0.002332072	0.008618874	-0.8366927	
18:49:10	47.43814	-122.3112	0.02	0.09901696	8.023422	0	3	100	0	5	-0.002203519	0.01033018	-0.8396065	
18:49:10	47.43814	-122.3112	0.02	0.09882081	7.598765	0	3	100	0	4	-0.002124085	0.01261295	-0.8399864	
18:49:10	47.43814	-122.3112	0.02	0.09792262	7.171739	0	3	100	0	4	-0.0001824642	0.01521106	-0.8346856	
18:49:10	47.43814	-122.3112	0.02	0.096279	6.702916	0	3	100	0	4	0.00177506	0.01340918	-0.8299611	
18:49:10	47.43814	-122.3112	0.02	0.09413973	6.31229	0	3	100	0	4	0.002026754	0.009816594	-0.8269024	
18:49:11	47.43814	-122.3112	0.02	0.091782	5.951591	0	3	100	0	4	0.002076782	0.00462867	-0.8254543	
18:49:11	47.43814	-122.3112	0.02	0.08944444	5.638244	0	3	100	0	4	0.002126635	-0.0005592059	-0.8253361	
18:49:11	47.43814	-122.3112	0.02	0.08671387	5.310513	0	3	100	0	4	0.002176532	-0.005747046	-0.8261958	
18:49:11	47.43814	-122.3112	0.02	0.08361467	4.974503	0	3	100	0	4	0.002409845	-0.01081725	-0.8281336	
18:49:11	47.43814	-122.3112	0.02	0.08076601	4.692714	0	3	100	0	3	0.002871293	-0.01592144	-0.8318201	
18:49:12	47.43814	-122.3112	0.02	0.07797385	4.436094	0	3	100	0	4	0.00230436	-0.01744535	-0.8357007	
18:49:12	47.43814	-122.3112	0.02	0.07524012	4.201951	0	3	100	0	5	0.001566489	-0.01499924	-0.839469	
18:49:12	47.43814	-122.3112	0.02	0.07260383	3.991075	0	3	100	0	4	0.0008284464	-0.01255316	-0.8431919	
18:49:12	47.43814	-122.3112	0.02	0.0703233	3.819843	0	3	100	0	4	9.023819E-05	-0.01010714	-0.8468814	
18:49:12	47.43814	-122.3112	0.02	0.06769278	3.634953	0	3	100	0	4	-0.0006518236	-0.007648938	-0.850565	
18:49:13	47.43814	-122.3112	0.02	0.0656455	3.498691	0	3	100	0	4	-0.001169077	-0.00306664	-0.8491801	
18:49:13	47.43814	-122.3112	0.02	0.06334876	3.354523	0	3	100	0	4	-0.001651723	0.001145294	-0.8469567	
18:49:13	47.43814	-122.3112	0.02	0.06142931	3.241486	0	3	100	0	4	-0.001392817	0.003551713	-0.8444256	
18:49:13	47.43814	-122.3112	0.02	0.05965793	3.142664	0	3	100	0	4	-0.001840128	0.003637332	-0.8419651	
18:49:13	47.43814	-122.3112	0.02	0.05805947	3.057984	0	3	100	0	3	0.002062881	0.003041154	-0.8398799	
18:49:14	47.43814	-122.3112	0.02	0.05674843	2.991896	0	3	100	0	4	0.002096199	0.0007828772	-0.8373555	
18:49:14	47.43814	-122.3112	0.02	0.05542907	2.928959	0	3	100	0	4	0.001571925	-0.0007447019	-0.8356342	
18:49:14	47.43814	-122.3112	0.02	0.05425034	2.87518	0	3	100	0	4	0.000507973	-0.002514163	-0.8348435	
18:49:14	47.43814	-122.3112	0.02	0.05318248	2.828498	0	3	100	0	4	-0.0001165545	-0.001786966	-0.8348025	
18:49:14	47.43814	-122.3112	0.02	0.05215569	2.785948	0	3	100	0	4	-0.0005051488	-0.001640015	-0.8349317	
18:49:15	47.43814	-122.3112	0.02	0.05139727	2.755503	0	3	100	0	4	-0.0006047564	-0.0004737553	-0.8352227	
18:49:15	47.43814	-122.3112	0.02	0.0505938	2.724431	0	3	100	0	4	-0.0004672847	0.0002721836	-0.835219	
18:49:15	47.43814	-122.3112	0.02	0.04995296	2.699638	0	3	100	0	4	-0.0002109607	-0.002187938	-0.8351014	
18:49:15	47.43814	-122.3112	0.02	0.04942776	2.678832	0	3	100	0	4	-0.0003169688	-0.002467668	-0.8353277	
18:49:16	47.43814	-122.3112	0.02	0.04887407	2.656022	0	3	100	0	4	-2.298703E-05	-0.0007439127	-0.8353914	
18:49:16	47.43814	-122.3112	0.02	0.04847327	2.638984	0	3	100	0	4	0.0002574577	-0.0004331489	-0.83484	
18:49:16	47.43814	-122.3112	0.02	0.04807308	2.620743	0	3	100	0	5	0.0004105391	0.000543793	-0.8343546	
18:49:16	47.43814	-122.3112	0.02	0.04767239	2.600818	0	3	100	0	4	7.927384E-06	-0.0005510031	-0.8365652	
18:49:16	47.43814	-122.3112	0.02	0.04734835	2.583402	0	3	100	0	4	0.0002501664	-0.0001961288	-0.8393751	
18:49:17	47.43814	-122.3112	0.02	0.04705057	2.565741	0	3	100	0	4	-0.000989761	-0.00103625	-0.8420722	
18:49:17	47.43814	-122.3112	0.02	0.04677537	2.547631	0	3	100	0	4	-0.001622187	0.0006209129	-0.8447003	
18:49:17	47.43814	-122.3112	0.02	0.04651727	2.528718	0	3	100	0	4	-0.001873281	0.0007208802	-0.8473544	
18:49:17	47.43814	-122.3112	0.02	0.0462952	2.511375	0	3	100	0	4	-0.002123132	0.0008203313	-0.8502024	
18:49:17	47.43814	-122.3112	0.02	0.04605785	2.491709	0	3	100	0	4	-0.00237424	0.0009202612	-0.853218	
18:49:18	47.43814	-122.3112	0.02	0.04582848	2.471533	0	3	100	0	4	-0.002624106	0.001019676	-0.8563315	
18:49:18	47.43814	-122.3112	0.02	0.04560261	2.450495	0	3	100	0	4	-0.002875228	0.00111957	-0.8595437	
18:49:18	47.43814	-122.3112	0.02	0.04537899	2.42907	0	3	100	0	4	-0.003125107	0.001218949	-0.8628015	
18:49:18	47.43814	-122.3112	0.02	0.04537899	2.42907	0	3	100	0	4	-0.003376242	0.001318809	-0.8661209	
18:49:18	47.43814	-122.3112	0.02	0.04537899	2.42907	0	3	100	0	4	-0.003626134	0.001418155	-0.8694571	
18:49:19	47.43814	-122.3112	0.02	0.04537899	2.42907	0	3	100	0	4	-0.003877283	0.001517982	-0.8728347	
18:49:19	47.43814	-122.3112	0.02	0.04537899	2.42907	0	3	100	0	4	-0.003880972	0.001842315	-0.8750818	
18:49:19	47.43814	-122.3112	0.02	0.04515798	2.407652	0	3	100	0	4	-0.003732105	0.001890525	-0.8768668	
18:49:19	47.43814	-122.3112	0.02	0.04493603	2.385566	0	3	100	0	4	-0.003345971	6.287794E-05	-0.8782851	
18:49:19	47.43814	-122.3112	0.02	0.04473794	2.36476	0	3	100	0	4	-0.002886909	-0.002621349	-0.879813	
18:49:20	47.43814	-122.3112	0.02	0.04449177	2.338873	0	3	100	0	4	-0.002427745	-0.005305582	-0.8817646	
18:49:20	47.43814	-122.3112	0.02	0.04428528	2.317289	0	3	100	0	4	-0.002203753	-0.007875462	-0.8830414	
18:49:20	47.43814	-122.3112	0.02	0.0440369	2.291147	0	3	100	0	4	-0.001982146	-0.01062842	-0.8843088	
18:49:20	47.43814	-122.3112	0.02	0.04380392	2.265925	0	3	100	0	4	-0.002449709	-0.009683366	-0.885588	
18:49:20	47.43814	-122.3112	0.02	0.04356359	2.239621	0	3	100	0	4	-0.002332871	-0.01067427	-0.8867911	
18:49:21	47.43814	-122.3112	0.02	0.04334721	2.215859	0	3	100	0	4	-0.00207069	-0.01100438	-0.8879033	
18:49:21	47.43814	-122.3112	0.02	0.04310361	2.189487	0	3	100	0	4	-0.001651104	-0.01177963	-0.8889806	
18:49:21	47.43814	-122.3112	0.02	0.0428091	2.102186	0	3	100	0	4	-0.001662194	-0.01060779	-0.8899645	
18:49:21	47.43814	-122.3112	0.02	0.04241924	2.073996	0	3	100	0	4	-0.001887376	-0.009669407	-0.8909298	
18:49:21	47.43814	-122.3112	0.02	0.04205554	1.936325	0	3	100	0	4	-0.001948359	-0.007364535	-0.89234	
18:49:22	47.43814	-122.3112	0.02	0.04126112	1.696234	0	3	100	0	5	-0.002009046	-0.005071145	-0.8941987	
18:49:22	47.43814	-122.3112	0.02	0.04026719	1.486316	0	3	100	0	4	-0.002070088	-0.002766303	-0.8964051	
18:49:22	47.43814	-122.3112	0.02	0.03919919	1.304265	0	3	100	0	4	-0.002130908	-0.0004729401	-0.898849	
18:49:22	47.43814	-122.3112	0.02	0.03787705	1.113352	0	3	100	0	4	-0.002476979	1.4544E-05	-0.8998181	
18:49:22	47.43814	-122.3112	0.02	0.03654031	1.134032	0	3	100	0	4	-0.003098203	0.0006935722	-0.9002705	
18:49:23	47.43814	-122.3112	0.02	0.03560407	1.163733	0	3	100	0	4	-0.00336877	0.0005636507	-0.9004552	
18:49:23	47.43814	-122.3112	0.02	0.03496607	1.196216	0	3	100	0	4	-0.003649981	0.000787863	-0.9006409	
18:49:23	47.43814	-122.3112	0.02	0.03444765	1.237132	0	3	100	0	4	-0.003683342	0.001131992	-0.9007935	
18:49:23	47.43814	-122.3112	0.02	0.03408267	1.284597	0	3	100	0	4	-0.002617687	0.002269858	-0.9009781	
18:49:23	47.43814	-122.3112	0.02	0.03390823	1.325524	0	3	100	0	4	-0.002475049	0.003146229	-0.9010982	
18:49:24	47.43814	-122.3112	0.02	0.03382783	1.374255	0	3	100	0	4	-0.001550155	0.003207306	-0.9011306	
18:49:24	47.43814	-122.3112	0.02	0.0338477	1.413296	0	3	100	0	4	-0.001171636	0.004787744	-0.901147	
18:49:24	47.43814	-122.3112	0.02	0.03394196	1.454668	0	3	100	0	4	-0.002268741	0.003982105	-0.9005086	
18:49:24	47.43814	-122.3112	0.02	0.03408913	1.491771	0	3	100	0	4	-0.002366005	0.002906608	-0.899981	
18:49:24	47.43814	-122.3112	0.02	0.03429442	1.528503	0	3	100	0	4	-0.002640559	0.001762663	-0.9001591	
18:49:25	47.43814	-122.3112	0.02	0.03450556	1.557976	0	3	100	0	4	-0.002915122	0.0006186866	-0.9009396	
18:49:25	47.43814	-122.3112	0.02	0.03472874	1.583591	0	3	100	0	4	-0.003191043	-0.0005310367	-0.9021705	
18:49:25	47.43814	-122.3112	0.02	0.03495433	1.604766	0	3	100	0	4	-0.003419252	-0.001706873	-0.9037305	
18:49:25	47.43814	-122.3112	0.02	0.0351735	1.621486	0	3	100	0	4	-0.003609467	-0.003266698	-0.9033325	
18:49:25	47.43814	-122.3112	0.02	0.03538051	1.634185	0	3	100	0	5	-0.003613002	-0.004501522	-0.9029852	
18:49:26	47.43814	-122.3112	0.02	0.03556838	1.642531	0	3	100	0	4	-0.003114148	-0.004561924	-0.9026152	
18:49:26	47.43814	-122.3112	0.02	0.03571772	1.646712	0	3	100	0	5	-0.003155385	-0.004261073	-0.9022015	
18:49:26	47.43814	-122.3112	0.02	0.03587027	1.647997	0	3	100	0	4	-0.002992211	-0.001995435	-0.9017426	
18:49:26	47.43814	-122.3112	0.02	0.03597262	1.645903	0	3	100	0	4	-0.002647164	-0.001513331	-0.9013094	
18:49:26	47.43814	-122.3112	0.02	0.03606428	1.640042	0	3	100	0	4	-0.002572734	-0.001511928	-0.9008235	
18:49:27	47.43814	-122.3112	0.02	0.03611857	1.631744	0	3	100	0	4	-0.002418874	-0.001816715	-0.9004094	
18:49:27	47.43814	-122.3112	0.02	0.0361441	1.622392	0	3	100	0	4	-0.003029507	-0.0003777725	-0.8999754	
18:49:27	47.43814	-122.3112	0.02	0.03614608	1.608461	0	3	100	0	4	-0.003778803	0.0002547639	-0.8994094	
18:49:27	47.43814	-122.3112	0.02	0.03612076	1.593746	0	3	100	0	4	-0.003474015	0.001683346	-0.8988421	
18:49:27	47.43814	-122.3112	0.02	0.03607698	1.578938	0	3	100	0	4	-0.003055608	0.003864759	-0.8983275	
18:49:28	47.43814	-122.3112	0.02	0.03600048	1.559827	0	3	100	0	4	-0.002749315	0.005229622	-0.8977293	
18:49:28	47.43814	-122.3112	0.02	0.03581353	1.40255	0	3	100	0	4	-0.002688224	0.006430882	-0.8971686	
18:49:28	47.43814	-122.3112	0.02	0.03546407	1.384715	0	3	100	0	4	-0.002235904	0.006049888	-0.8966468	
18:49:28	47.43814	-122.3112	0.02	0.03515354	1.368863	0	3	100	0	5	-0.002087218	0.004765026	-0.8960918	
18:49:28	47.43814	-122.3112	0.02	0.03486865	1.354034	0	3	100	0	4	-0.002271845	0.005189374	-0.895576	
18:49:29	47.43814	-122.3112	0.02	0.03460681	1.340233	0	3	100	0	4	-0.004839205	0.004602421	-0.8950459	
18:49:29	47.43814	-122.3112	0.02	0.03437242	1.327458	0	3	100	0	4	-0.004173966	0.005096993	-0.8946223	
18:49:29	47.43814	-122.3112	0.02	0.03407352	1.217084	0	3	100	0	4	-0.0025524	0.006030989	-0.894022	
18:49:29	47.43814	-122.3112	0.02	0.03370433	1.207046	0	3	100	0	4	-0.00242314	0.006017517	-0.8927972	
18:49:29	47.43814	-122.3112	0.02	0.03339499	1.199153	0	3	100	0	5	-0.002022251	0.006903817	-0.8916078	
18:49:30	47.43814	-122.3112	0.02	0.03312734	1.19297	0	3	100	0	4	-0.002091182	0.006937187	-0.8904648	
18:49:30	47.43814	-122.3112	0.02	0.03289873	1.18798	0	3	100	0	4	-0.001855275	0.006211903	-0.889346	
18:49:30	47.43814	-122.3112	0.02	0.03272302	1.18405	0	3	100	0	4	-0.001780477	0.006284642	-0.8882377	
18:49:30	47.43814	-122.3112	0.02	0.03255519	1.179992	0	3	100	0	5	-0.002035019	0.007285341	-0.8871669	
18:49:30	47.43814	-122.3112	0.02	0.03241116	1.175861	0	3	100	0	4	-0.001497127	0.006671397	-0.8861904	
18:49:31	47.43814	-122.3112	0.02	0.03228596	1.171719	0	3	100	0	4	-0.001257051	0.006599343	-0.8851502	
18:49:31	47.43814	-122.3112	0.02	0.03216591	1.167004	0	3	100	0	4	-0.0011438	0.005171498	-0.8841776	
18:49:31	47.43814	-122.3112	0.02	0.03207163	1.162585	0	3	100	0	4	-0.0009399488	0.00366417	-0.8832792	
18:49:31	47.43814	-122.3112	0.02	0.03198488	1.157825	0	3	100	0	4	-0.0003297178	0.003517304	-0.8824527	
18:49:31	47.43814	-122.3112	0.02	0.03190415	1.152433	0	3	100	0	4	-0.0008767996	0.00207886	-0.8816637	
18:49:32	47.43814	-122.3112	0.02	0.03182827	1.146425	0	3	100	0	5	-0.001322356	0.0005792952	-0.8809772	
18:49:32	47.43814	-122.3112	0.02	0.03175499	1.139833	0	3	100	0	4	-0.001028683	-0.0004732691	-0.8802831	
18:49:32	47.43814	-122.3112	0.02	0.03168299	1.132646	0	3	100	0	4	-0.0008493795	-0.0007025108	-0.8797114	
18:49:32	47.43814	-122.3112	0.02	0.03160876	1.124265	0	3	100	0	4	-0.0003775906	-0.001101975	-0.879137	
18:49:32	47.43814	-122.3112	0.02	0.03153251	1.115152	0	3	100	0	4	-0.0003413885	-0.001785175	-0.8785761	
18:49:33	47.43814	-122.3112	0.02	0.03145309	1.105404	0	3	100	0	4	-0.0009020011	-0.0003733082	-0.8780198	
18:49:33	47.43814	-122.3112	0.02	0.0312719	0.9968678	0	3	100	0	5	-0.0003802517	0.0004953159	-0.8774413	
18:49:33	47.43814	-122.3112	0.02	0.03099871	0.9870155	0	3	100	0	4	-0.0004396748	0.00226342	-0.876969	
18:49:33	47.43814	-122.3112	0.02	0.03078119	0.9792616	0	3	100	0	4	-0.0007144152	0.001686469	-0.8764041	
18:49:33	47.43814	-122.3112	0.02	0.0305937	0.9725884	0	3	100	0	4	-0.0006568477	0.002220964	-0.8760363	
18:49:34	47.43814	-122.3112	0.02	0.03042605	0.9662767	0	3	100	0	4	-0.001084086	0.00377377	-0.8754887	
18:49:34	47.43814	-122.3112	0.02	0.0302784	0.9042382	0	3	100	0	4	-0.0004851586	0.005042918	-0.8749977	
18:49:34	47.43814	-122.3112	0.02	0.02991655	0.8397584	0	3	100	0	4	-0.0009357465	0.006512337	-0.8744345	
18:49:34	47.43814	-122.3112	0.02	0.02963716	0.837571	0	3	100	0	4	-0.0009644566	0.007553397	-0.8732339	
18:49:34	47.43814	-122.3112	0.02	0.02940465	0.8368679	0	3	100	0	4	-0.0008275014	0.007313726	-0.8720202	
18:49:35	47.43814	-122.3112	0.02	0.02922922	0.8371924	0	3	100	0	4	-0.0008972725	0.006705954	-0.8709283	
18:49:35	47.43814	-122.3112	0.02	0.02905721	0.8387187	0	3	100	0	4	-0.0005890926	0.007567241	-0.869808	
18:49:35	47.43814	-122.3112	0.02	0.02893503	0.8405346	0	3	100	0	4	-0.001198948	0.005484817	-0.8687087	
18:49:35	47.43814	-122.3112	0.02	0.02884684	0.8421918	0	3	100	0	4	-0.001776151	0.005843426	-0.8680552	
18:49:35	47.43814	-122.3112	0.02	0.02877031	0.8438718	0	3	100	0	4	-0.002353397	0.006202024	-0.8678401	
18:49:36	47.43814	-122.3112	0.02	0.02870536	0.8454449	0	3	100	0	4	-0.002930677	0.00656061	-0.8679479	
18:49:36	47.43814	-122.3112	0.02	0.02866023	0.8464729	0	3	100	0	4	-0.003510871	0.006920974	-0.868296	
18:49:36	47.43814	-122.3112	0.02	0.02862767	0.8467833	0	3	100	0	4	-0.003707643	0.008049499	-0.8681765	
18:49:36	47.43814	-122.3112	0.02	0.02859794	0.84655	0	3	100	0	4	-0.004852783	0.008910951	-0.8673688	
18:49:36	47.43814	-122.3112	0.02	0.02856988	0.8452855	0	3	100	0	6	-0.004521781	0.01044761	-0.866582	
18:49:37	47.43814	-122.3112	0.02	0.02854668	0.8433077	0	3	100	0	4	-0.004498932	0.01169089	-0.8657606	
18:49:37	47.43814	-122.3112	0.02	0.02852313	0.8403373	0	3	100	0	4	-0.003168437	0.01340512	-0.8649174	
18:49:37	47.43814	-122.3112	0.02	0.02849712	0.8363708	0	3	100	0	4	-0.002564695	0.01458971	-0.8640062	
18:49:37	47.43814	-122.3112	0.02	0.02843462	0.8108397	0	3	100	0	5	-0.00234088	0.01379968	-0.8630341	
18:49:37	47.43814	-122.3112	0.02	0.02836906	0.8057712	0	3	100	0	4	-0.0020994	0.01191059	-0.8620697	
18:49:38	47.43814	-122.3112	0.02	0.02830539	0.8002098	0	3	100	0	4	-0.001692859	0.01271188	-0.8612411	
18:49:38	47.43814	-122.3112	0.02	0.02824421	0.7944311	0	3	100	0	4	-0.001312698	0.0136964	-0.8603899	
18:49:38	47.43814	-122.3112	0.02	0.02818797	0.7887037	0	3	100	0	4	-0.002179663	0.01313677	-0.8595171	
18:49:38	47.43814	-122.3112	0.02	0.02812649	0.7820728	0	3	100	0	4	-0.0008210535	0.01312951	-0.8586841	
18:49:38	47.43814	-122.3112	0.02	0.02805687	0.774417	0	3	100	0	4	0.0008484615	0.01300156	-0.8577957	
18:49:39	47.43814	-122.3112	0.02	0.02799858	0.7679084	0	3	100	0	4	0.0007317254	0.01166576	-0.8569309	
18:49:39	47.43814	-122.3112	0.02	0.02792604	0.7596957	0	3	100	0	4	0.0009299497	0.01074386	-0.856129	
18:49:39	47.43814	-122.3112	0.02	0.02786415	0.7525448	0	3	100	0	4	0.0009672799	0.009031433	-0.8554162	
18:49:39	47.43814	-122.3112	0.02	0.0277869	0.743434	0	3	100	0	5	0.001085813	0.008923094	-0.8545867	
18:49:39	47.43814	-122.3112	0.02	0.02771376	0.7348994	0	3	100	0	4	0.0007593453	0.009198297	-0.8534145	
18:49:40	47.43814	-122.3112	0.02	0.02763705	0.7260499	0	3	100	0	4	-0.0002657459	0.007924567	-0.8522729	
18:49:40	47.43814	-122.3112	0.02	0.02755883	0.7171577	0	3	100	0	4	-0.0002531915	0.008126051	-0.8512079	
18:49:40	47.43814	-122.3112	0.02	0.0274793	0.7082099	0	3	100	0	4	-0.0003964546	0.007092776	-0.8501828	
18:49:40	47.43814	-122.3112	0.02	0.0273969	0.699021	0	3	100	0	4	-0.0005736157	0.006902078	-0.8493869	
18:49:40	47.43814	-122.3112	0.02	0.02732147	0.6907468	0	3	100	0	4	-0.0007499383	0.006712328	-0.8489356	
18:49:41	47.43814	-122.3112	0.02	0.02722789	0.6808068	0	3	100	0	4	-0.0009262915	0.006522576	-0.848735	
18:49:41	47.43814	-122.3112	0.02	0.02715055	0.6728354	0	3	100	0	5	-0.001102666	0.00633282	-0.8487192	
18:49:41	47.43814	-122.3112	0.02	0.02706442	0.6640996	0	3	100	0	5	-0.001279055	0.006143063	-0.8488398	
18:49:41	47.43814	-122.3112	0.02	0.02696952	0.6546313	0	3	100	0	4	-0.001686241	0.007181208	-0.8484679	
18:49:41	47.43814	-122.3112	0.02	0.02688262	0.6460604	0	3	100	0	4	-0.001975541	0.008802195	-0.8478588	
18:49:42	47.43814	-122.3112	0.02	0.02679568	0.6375384	0	3	100	0	4	-0.001907915	0.008898679	-0.8472714	
18:49:42	47.43814	-122.3112	0.02	0.0267107	0.6292867	0	3	100	0	4	-0.001987698	0.009831286	-0.8468812	
18:49:42	47.43814	-122.3112	0.02	0.02663435	0.6219554	0	3	100	0	4	-0.002067916	0.01076855	-0.8467247	
18:49:42	47.43814	-122.3112	0.02	0.02654982	0.6138929	0	3	100	0	5	-0.002147767	0.01170114	-0.8467422	
18:49:42	47.43814	-122.3112	0.02	0.02646659	0.6060777	0	3	100	0	5	-0.002228044	0.0126384	-0.8468878	
18:49:43	47.43814	-122.3112	0.02	0.02637593	0.5976007	0	3	100	0	4	-0.002307945	0.01357098	-0.8471269	
18:49:43	47.43814	-122.3112	0.02	0.02629477	0.5900894	0	3	100	0	5	-0.002406741	0.01282084	-0.8466281	
18:49:43	47.43814	-122.3112	0.02	0.02622286	0.5833243	0	3	100	0	5	-0.00171543	0.01324442	-0.8456588	
18:49:43	47.43814	-122.3112	0.02	0.02614393	0.5757755	0	3	100	0	4	-0.001195733	0.01442517	-0.8446762	
18:49:43	47.43814	-122.3112	0.02	0.02606561	0.5682389	0	3	100	0	4	-0.0006646437	0.01616221	-0.8437128	
18:49:44	47.43814	-122.3112	0.02	0.02599425	0.5613646	0	3	100	0	4	-0.0004520122	0.01494301	-0.8427588	
18:49:44	47.43814	-122.3112	0.02	0.02591746	0.5539842	0	3	100	0	4	-0.0003330746	0.01365547	-0.8418343	
18:49:44	47.43814	-122.3112	0.02	0.02583257	0.5459391	0	3	100	0	4	-0.0005122071	0.01288535	-0.8409916	
18:49:44	47.43814	-122.3112	0.02	0.02575682	0.5387134	0	3	100	0	4	-0.0006577797	0.01264513	-0.84022	
18:49:44	47.43814	-122.3112	0.02	0.02568107	0.5314395	0	3	100	0	4	-0.0005004077	0.01228368	-0.8391206	
18:49:45	47.43814	-122.3112	0.02	0.02560608	0.5242711	0	3	100	0	4	4.686988E-05	0.01208598	-0.8381496	
18:49:45	47.43814	-122.3112	0.02	0.02553362	0.51748	0	3	100	0	5	0.0007013304	0.01201419	-0.8374573	
18:49:45	47.43814	-122.3112	0.02	0.02546813	0.511434	0	3	100	0	4	0.001355745	0.01194241	-0.8369835	
18:49:45	47.43814	-122.3112	0.02	0.02538951	0.5043033	0	3	100	0	5	0.002010125	0.01187062	-0.8366705	
18:49:45	47.43814	-122.3112	0.02	0.02531976	0.49799	0	3	100	0	4	0.002664481	0.01179884	-0.8364766	
18:49:46	47.43814	-122.3112	0.02	0.02525803	0.4923991	0	3	100	0	4	0.003322089	0.01172669	-0.8363696	
18:49:46	47.43814	-122.3112	0.02	0.02521737	0.488706	0	3	100	0	4	0.003976414	0.0116549	-0.8363277	
18:49:46	47.43814	-122.3112	0.02	0.02521737	0.488706	0	3	100	0	4	0.004448629	0.01156523	-0.8358981	
18:49:46	47.43814	-122.3112	0.02	0.02518362	0.4856289	0	3	100	0	4	0.004379403	0.01212676	-0.8345659	
18:49:46	47.43814	-122.3112	0.02	0.02511069	0.4789837	0	3	100	0	4	0.004331227	0.01184567	-0.8332363	
18:49:47	47.43814	-122.3112	0.02	0.02505163	0.4735994	0	3	100	0	4	0.00417737	0.01043864	-0.8319784	
18:49:47	47.43814	-122.3112	0.02	0.02498195	0.4671597	0	3	100	0	4	0.004100077	0.01007755	-0.8308231	
18:49:47	47.43814	-122.3112	0.02	0.02492476	0.4618374	0	3	100	0	4	0.003693156	0.009645334	-0.8297646	
18:49:47	47.43814	-122.3112	0.02	0.0248569	0.4555189	0	3	100	0	4	0.00352423	0.009243535	-0.8287838	
18:49:47	47.43814	-122.3112	0.02	0.02479588	0.4498805	0	3	100	0	4	0.003711012	0.008936149	-0.8278295	
18:49:48	47.43814	-122.3112	0.02	0.02473513	0.4443209	0	3	100	0	4	0.004791075	0.008555887	-0.8269577	
18:49:48	47.43814	-122.3112	0.02	0.02467654	0.4388805	0	3	100	0	4	0.003240787	0.01044525	-0.82607	
18:49:48	47.43814	-122.3112	0.02	0.02462343	0.4338978	0	3	100	0	4	0.0021259	0.01285264	-0.8253216	
18:49:48	47.43814	-122.3112	0.02	0.02456026	0.4279297	0	3	100	0	4	0.001010986	0.01526006	-0.8248062	
18:49:48	47.43814	-122.3112	0.02	0.02450871	0.4230878	0	3	100	0	4	-0.0001095298	0.01767951	-0.8244613	
18:49:49	47.43814	-122.3112	0.02	0.02444699	0.4172861	0	3	100	0	5	-0.001224499	0.02008694	-0.8242449	
18:49:49	47.43814	-122.3112	0.02	0.0243914	0.4120603	0	3	100	0	4	-0.001928344	0.01938403	-0.8237342	
18:49:49	47.43814	-122.3112	0.02	0.02434181	0.4073925	0	3	100	0	4	-0.002916461	0.01721885	-0.8232345	
18:49:49	47.43814	-122.3112	0.02	0.02428224	0.4017531	0	3	100	0	4	-0.003904643	0.01505366	-0.8229026	
18:49:49	47.43814	-122.3112	0.02	0.02422848	0.3966201	0	3	100	0	5	-0.004897808	0.01287764	-0.8226932	
18:49:50	47.43814	-122.3112	0.02	0.02417523	0.3915266	0	3	100	0	4	-0.005886061	0.01071245	-0.8225762	
18:49:50	47.43814	-122.3112	0.02	0.02412793	0.3870062	0	3	100	0	4	-0.006712424	0.00897796	-0.8225234	
18:49:50	47.43814	-122.3112	0.02	0.02406947	0.3813465	0	3	100	0	4	-0.006502638	0.008414547	-0.8224796	
18:49:50	47.43814	-122.3112	0.02	0.02401701	0.3762997	0	3	100	0	4	-0.006124008	0.008419683	-0.8224265	
18:49:50	47.43814	-122.3112	0.02	0.02396499	0.3713237	0	3	100	0	4	-0.006102709	-0.001269886	-0.8222889	
18:49:51	47.43814	-122.3112	0.02	0.02377672	0.2484063	0	3	100	0	4	-0.005454659	0.009292564	-0.8222224	
18:49:51	47.43814	-122.3112	0.02	0.02353493	0.2460661	0	3	100	0	4	-0.005212595	0.01030816	-0.8220996	
18:49:51	47.43814	-122.3112	0.02	0.02333597	0.2458115	0	3	100	0	4	-0.004569654	0.01228014	-0.8218815	
18:49:51	47.43814	-122.3112	0.02	0.02319083	0.2469472	0	3	100	0	4	-0.004708892	0.009676036	-0.8216026	
18:49:52	47.43814	-122.3112	0.02	0.02299212	0.1506362	0	3	100	0	4	-0.004311958	0.01006261	-0.8213696	
18:49:52	47.43814	-122.3112	0.02	0.02269858	0.1561929	0	3	100	0	4	-0.004286699	0.006652093	-0.8211487	
18:49:52	47.43814	-122.3112	0.02	0.02249153	0.1428104	0	3	100	0	4	-0.004519205	0.007599746	-0.8210354	
18:49:52	47.43814	-122.3112	0.02	0.02221364	0.07372484	0	3	100	0	4	-0.003900644	0.004698587	-0.8209116	
18:49:52	47.43814	-122.3112	0.02	0.02192939	0.08762592	0	3	100	0	4	-0.003775729	0.004742506	-0.820837	
18:49:53	47.43814	-122.3112	0.02	0.02174965	0.1024571	0	3	100	0	4	-0.003427417	0.003939303	-0.8207596	
18:49:53	47.43814	-122.3112	0.02	0.02163111	0.1189114	0	3	100	0	4	-0.003065821	0.002788728	-0.8206929	
18:49:53	47.43814	-122.3112	0.02	0.02156513	0.1364613	0	3	100	0	4	-0.002873712	0.004194967	-0.8206266	
18:49:53	47.43814	-122.3112	0.02	0.02154482	0.1539757	0	3	100	0	4	-0.003059796	0.003175999	-0.8205059	
18:49:53	47.43814	-122.3112	0.02	0.02156094	0.1715793	0	3	100	0	4	-0.00290005	0.001257369	-0.8204234	
18:49:54	47.43814	-122.3112	0.02	0.02160093	0.186994	0	3	100	0	4	-0.00294986	0.001217294	-0.8204008	
18:49:54	47.43814	-122.3112	0.02	0.02167287	0.2044972	0	3	100	0	4	-0.002794178	0.0006811646	-0.8203743	
18:49:54	47.43814	-122.3112	0.02	0.02175651	0.2195414	0	3	100	0	4	-0.001704341	-0.0004425295	-0.8203847	
18:49:54	47.43814	-122.3112	0.02	0.02184131	0.2320698	0	3	100	0	5	-0.001128715	-0.00110633	-0.8203946	
18:49:54	47.43814	-122.3112	0.02	0.02195274	0.2459366	0	3	100	0	4	-0.000993969	-0.0009276977	-0.8203943	
18:49:55	47.43814	-122.3112	0.02	0.02205695	0.2570705	0	3	100	0	4	-0.00132412	-0.0009245736	-0.8203984	
18:49:55	47.43814	-122.3112	0.02	0.02215288	0.2661194	0	3	100	0	4	-0.0009795469	-0.003190116	-0.8204521	
18:49:55	47.43814	-122.3112	0.02	0.02226473	0.2754002	0	3	100	0	5	-0.001261722	-0.002567879	-0.8205068	
18:49:55	47.43814	-122.3112	0.02	0.02236074	0.28229	0	3	100	0	4	-0.001818574	-0.002251022	-0.8205414	
18:49:55	47.43814	-122.3112	0.02	0.02244283	0.2874252	0	3	100	0	4	-0.002582158	-0.003578769	-0.820576	
18:49:56	47.43814	-122.3112	0.02	0.02253472	0.2923014	0	3	100	0	2	-0.002145541	-0.003859962	-0.8206656	
18:49:56	47.43814	-122.3112	0.02	0.02261	0.295467	0	3	100	0	4	-0.001114921	-0.004320887	-0.8207387	
18:49:56	47.43814	-122.3112	0.02	0.02267555	0.2974734	0	3	100	0	4	-0.0007080145	-0.003844077	-0.8207909	
18:49:56	47.43814	-122.3112	0.02	0.02272649	0.298412	0	3	100	0	5	-0.00065747	-0.00306298	-0.8208076	
18:49:56	47.43814	-122.3112	0.02	0.02277912	0.2985851	0	3	100	0	4	-0.0008876061	-0.002003535	-0.8207836	
18:49:57	47.43814	-122.3112	0.02	0.02281628	0.297875	0	3	100	0	4	-0.0005904592	-0.004276779	-0.820752	
18:49:57	47.43814	-122.3112	0.02	0.02284304	0.2965243	0	3	100	0	4	-0.0003597091	-0.005656734	-0.8207992	
18:49:57	47.43814	-122.3112	0.02	0.02286363	0.2944425	0	3	100	0	4	-0.001316998	-0.004658754	-0.8208095	
18:49:57	47.43814	-122.3112	0.02	0.02287691	0.2915125	0	3	100	0	4	-0.001131171	-0.006695707	-0.8208283	
18:49:57	47.43814	-122.3112	0.02	0.02288101	0.2882888	0	3	100	0	4	-0.001008048	-0.007964664	-0.8208823	
18:49:58	47.43814	-122.3112	0.02	0.02287799	0.2847126	0	3	100	0	4	0.0003129728	-0.01049911	-0.8209577	
18:49:58	47.43814	-122.3112	0.02	0.02286988	0.2812491	0	3	100	0	4	-0.0006793137	-0.01080967	-0.821128	
18:49:58	47.43814	-122.3112	0.02	0.02285527	0.2770922	0	3	100	0	4	-0.001952715	-0.01190467	-0.8213395	
18:49:58	47.43814	-122.3112	0.02	0.02283535	0.2726831	0	3	100	0	4	-0.001860321	-0.01204789	-0.8215734	
18:49:58	47.43814	-122.3112	0.02	0.02281123	0.26821	0	3	100	0	4	-0.002664932	-0.009104021	-0.8218051	
18:49:59	47.43814	-122.3112	0.02	0.02278246	0.2635405	0	3	100	0	4	-0.001875411	-0.009727468	-0.8220159	
18:49:59	47.43814	-122.3112	0.02	0.02274781	0.2584855	0	3	100	0	4	-0.001839499	-0.009362254	-0.8221704	
18:49:59	47.43814	-122.3112	0.02	0.02271675	0.2543162	0	3	100	0	4	-0.001913114	-0.009717478	-0.8223105	
18:49:59	47.43814	-122.3112	0.02	0.0226764	0.2492954	0	3	100	0	5	-0.001580187	-0.01128689	-0.8224674	
18:49:59	47.43814	-122.3112	0.02	0.02263793	0.244782	0	3	100	0	4	-0.001293295	-0.01278926	-0.82256	
18:50:00	47.43814	-122.3112	0.02	0.02259876	0.2404455	0	3	100	0	4	-0.00100498	-0.01429913	-0.8225946	
18:50:00	47.43814	-122.3112	0.02	0.02256272	0.23658	0	3	100	0	4	-0.0007181101	-0.01580149	-0.8225864	
18:50:00	47.43814	-122.3112	0.02	0.02251839	0.2320575	0	3	100	0	4	-0.0004312494	-0.01730386	-0.8225465	
18:50:00	47.43814	-122.3112	0.02	0.02247817	0.2281317	0	3	100	0	4	-5.283502E-05	-0.01861936	-0.8228853	
18:50:00	47.43814	-122.3112	0.02	0.02244212	0.2246915	0	3	100	0	4	-8.116216E-06	-0.02128988	-0.8233562	
18:50:01	47.43814	-122.3112	0.02	0.02239841	0.2205968	0	3	100	0	4	-0.0003947564	-0.02071179	-0.8238446	
18:50:01	47.43814	-122.3112	0.02	0.02235937	0.2170308	0	3	100	0	5	-0.001059753	-0.0196226	-0.8242828	
18:50:01	47.43814	-122.3112	0.02	0.02232486	0.2139236	0	3	100	0	4	-0.000214354	-0.01782587	-0.8246658	
18:50:01	47.43814	-122.3112	0.02	0.02228355	0.2102287	0	3	100	0	4	9.000465E-05	-0.01477015	-0.8249237	
18:50:01	47.43814	-122.3112	0.02	0.02224728	0.2070032	0	3	100	0	3	0.0003530708	-0.01182097	-0.825094	
18:50:02	47.43814	-122.3112	0.02	0.02221164	0.2039156	0	3	100	0	4	0.0006174329	-0.008857056	-0.8252068	
18:50:02	47.43814	-122.3112	0.02	0.02218028	0.2012161	0	3	100	0	4	0.0008817837	-0.005893138	-0.8252758	
18:50:02	47.43814	-122.3112	0.02	0.02214305	0.1980616	0	3	100	0	4	0.001144813	-0.002943966	-0.8253127	
18:50:02	47.43814	-122.3112	0.02	0.02211048	0.195317	0	3	100	0	4	0.001409155	1.995261E-05	-0.8253261	
18:50:02	47.43814	-122.3112	0.02	0.02208823	0.1934379	0	3	100	0	5	0.001264648	0.002680066	-0.8251231	
18:50:03	47.43814	-122.3112	0.02	0.02205743	0.1908277	0	3	100	0	4	0.001019355	0.005264833	-0.8248864	
18:50:03	47.43814	-122.3112	0.02	0.02202451	0.1880418	0	3	100	0	4	0.0007740663	0.007849603	-0.8246982	
18:50:03	47.43814	-122.3112	0.02	0.02199844	0.1858676	0	3	100	0	4	0.0009194798	0.007322062	-0.824355	
18:50:03	47.43814	-122.3112	0.02	0.02197031	0.1835364	0	3	100	0	5	0.0004941135	0.008386417	-0.8239381	
18:50:03	47.43814	-122.3112	0.02	0.02194052	0.1810631	0	3	100	0	4	0.0005839419	0.007836522	-0.8235353	
18:50:04	47.43814	-122.3112	0.02	0.02191697	0.1790911	0	3	100	0	4	0.0004801761	0.006863147	-0.8231364	
18:50:04	47.43814	-122.3112	0.02	0.02188916	0.1766981	0	3	100	0	4	0.0008205489	0.006364993	-0.8227984	
18:50:04	47.43814	-122.3112	0.02	0.02186459	0.1745213	0	3	100	0	4	0.001527322	0.005008159	-0.8224698	
18:50:04	47.43814	-122.3112	0.02	0.02184051	0.1723501	0	3	100	0	4	0.001789093	0.003448891	-0.8221044	
18:50:04	47.43814	-122.3112	0.02	0.02181873	0.1703781	0	3	100	0	4	0.00169684	0.003267073	-0.8217887	
18:50:05	47.43814	-122.3112	0.02	0.02179317	0.1680586	0	3	100	0	4	0.00212314	0.001920317	-0.8214907	
18:50:05	47.43814	-122.3112	0.02	0.02177263	0.1661924	0	3	100	0	4	0.001645711	0.0004162019	-0.8212155	
18:50:05	47.43814	-122.3112	0.02	0.02174821	0.1639265	0	3	100	0	4	0.0009217294	-0.001903297	-0.8209845	
18:50:05	47.43814	-122.3112	0.02	0.02172824	0.1620337	0	3	100	0	4	0.0001977405	-0.004222791	-0.8208001	
18:50:05	47.43814	-122.3112	0.02	0.02170416	0.1597623	0	3	100	0	4	0.0004316306	-0.005034703	-0.8207963	
18:50:06	47.43814	-122.3112	0.02	0.02168263	0.1576816	0	3	100	0	4	0.001177394	-0.005680494	-0.8208625	
18:50:06	47.43814	-122.3112	0.02	0.02166327	0.1558283	0	3	100	0	4	0.001923155	-0.006326285	-0.8208913	
18:50:06	47.43814	-122.3112	0.02	0.02164203	0.1538224	0	3	100	0	4	0.002668913	-0.006972076	-0.8208925	
18:50:06	47.43814	-122.3112	0.02	0.02161884	0.1516468	0	3	100	0	4	0.003422127	-0.00762433	-0.8208728	
18:50:06	47.43814	-122.3112	0.02	0.02160011	0.1498794	0	3	100	0	4	0.00416788	-0.008270128	-0.8208384	
18:50:07	47.43814	-122.3112	0.02	0.02157956	0.1479247	0	3	100	0	4	0.00491736	-0.008919156	-0.8207926	
18:50:07	47.43814	-122.3112	0.02	0.02157541	0.1475361	0	3	100	0	4	0.005663108	-0.009564955	-0.8207389	
18:50:07	47.43814	-122.3112	0.02	0.02156166	0.1043955	0	3	100	0	4	0.005914853	-0.008286868	-0.8204232	
18:50:07	47.43814	-122.3112	0.02	0.02146481	0.1029914	0	3	100	0	4	0.00603593	-0.007989098	-0.8200377	
18:50:07	47.43814	-122.3112	0.02	0.02138358	0.102395	0	3	100	0	5	0.006006153	-0.007883561	-0.8196617	
18:50:08	47.43814	-122.3112	0.02	0.02127407	0.00298129	0	3	100	0	4	0.006820276	-0.006124801	-0.8192952	
18:50:08	47.43814	-122.3112	0.02	0.02102591	0.005165521	0	3	100	0	4	0.006908922	-0.007177399	-0.8189096	
18:50:08	47.43814	-122.3112	0.02	0.02084772	0.009466549	0	3	100	0	4	0.006540333	-0.005242291	-0.8185481	
18:50:08	47.43814	-122.3112	0.02	0.02071413	0.01534443	0	3	100	0	4	0.006438249	-0.002620155	-0.8181754	
18:50:08	47.43814	-122.3112	0.02	0.02062584	0.02160519	0	3	100	0	4	0.006619961	-0.003397993	-0.8177559	
18:50:09	47.43814	-122.3112	0.02	0.02055758	0.02943841	0	3	100	0	4	0.006447034	-0.005479196	-0.8173786	
18:50:09	47.43814	-122.3112	0.02	0.02051671	0.03789309	0	3	100	0	4	0.006319732	-0.006911214	-0.8170725	
18:50:09	47.43814	-122.3112	0.02	0.02049955	0.0465653	0	3	100	0	4	0.006189044	-0.007244197	-0.8168307	
18:50:09	47.43814	-122.3112	0.02	0.02050158	0.05525036	0	3	100	0	4	0.006223363	-0.005636091	-0.8166103	
18:50:09	47.43814	-122.3112	0.02	0.02051906	0.06375984	0	3	100	0	5	0.005606364	-0.01152356	-0.8163828	
18:50:10	47.43814	-122.3112	0.02	0.02055248	0.07281745	0	3	100	0	5	0.005673053	-0.003795994	-0.8161468	
18:50:10	47.43814	-122.3112	0.02	0.02058792	0.07978766	0	3	100	0	4	0.005826565	0.004613361	-0.8159446	
18:50:10	47.43814	-122.3112	0.02	0.02063357	0.08701466	0	3	100	0	4	0.00574988	0.01084006	-0.8156809	
18:50:10	47.43814	-122.3112	0.02	0.02068905	0.09432437	0	3	100	0	4	0.004044012	0.01154455	-0.8151748	
18:50:10	47.43814	-122.3112	0.02	0.02073635	0.09968771	0	3	100	0	4	0.002870592	0.01119315	-0.8146819	
18:50:11	47.43814	-122.3112	0.02	0.02078955	0.1050004	0	3	100	0	5	0.002275524	0.01215927	-0.8141527	
18:50:11	47.43814	-122.3112	0.02	0.02084802	0.1101237	0	3	100	0	4	0.002701849	0.01129254	-0.8136687	
18:50:11	47.43814	-122.3112	0.02	0.02089828	0.1139934	0	3	100	0	4	0.002495578	0.008290724	-0.8131995	
18:50:11	47.43814	-122.3112	0.02	0.02094153	0.1169449	0	3	100	0	4	0.002473887	0.00643112	-0.8128219	
18:50:11	47.43814	-122.3112	0.02	0.02098997	0.1198189	0	3	100	0	4	0.002075973	0.006146611	-0.8125104	
18:50:12	47.43814	-122.3112	0.02	0.02095889	0.001308719	0	3	100	0	4	0.002951149	0.006135054	-0.8122488	
18:50:12	47.43814	-122.3112	0.02	0.02071979	-0.03448968	0	3	100	0	4	0.002175961	0.005626445	-0.8119978	
18:50:12	47.43814	-122.3112	0.02	0.02052851	-0.02866384	0	3	100	0	4	0.001084416	0.005391505	-0.8117917	
18:50:12	47.43814	-122.3112	0.02	0.02038417	-0.02091653	0	3	100	0	4	-0.0006708476	0.005481767	-0.8116302	
18:50:12	47.43814	-122.3112	0.02	0.02028269	-0.01192106	0	3	100	0	4	-0.0008119157	0.004673156	-0.811587	
18:50:13	47.43814	-122.3112	0.02	0.02021804	-0.002054472	0	3	100	0	4	-0.001150262	0.003409525	-0.8116036	
18:50:13	47.43814	-122.3112	0.02	0.02018624	0.007287673	0	3	100	0	4	-0.001192015	0.00383757	-0.8116472	
18:50:13	47.43814	-122.3112	0.02	0.0201757	0.01917308	0	3	100	0	4	-0.0005786954	0.003826867	-0.8116885	
18:50:13	47.43814	-122.3112	0.02	0.02018921	0.0300045	0	3	100	0	4	0.0001443231	0.003940182	-0.8116733	
18:50:13	47.43814	-122.3112	0.02	0.02022005	0.04051654	0	3	100	0	5	-0.000739172	0.005263797	-0.8116251	
18:50:14	47.43814	-122.3112	0.02	0.02026365	0.0504573	0	3	100	0	4	-0.0006771539	0.004029476	-0.8115909	
18:50:14	47.43814	-122.3112	0.02	0.02031717	0.05985781	0	3	100	0	4	-0.001094768	0.004110264	-0.8115996	
18:50:14	47.43814	-122.3112	0.02	0.02037783	0.06861994	0	3	100	0	4	-0.001053725	0.004564818	-0.8116001	
18:50:14	47.43814	-122.3112	0.02	0.02043659	0.07592637	0	3	100	0	4	-0.0007495421	0.005316899	-0.8115799	
18:50:14	47.43814	-122.3112	0.02	0.02050357	0.08324478	0	3	100	0	4	0.0001066043	0.005378494	-0.8115601	
18:50:15	47.43814	-122.3112	0.02	0.02057838	0.09042792	0	3	100	0	4	0.0003871522	0.004151751	-0.8115148	
18:50:15	47.43814	-122.3112	0.02	0.02063638	0.09539241	0	3	100	0	4	0.000462493	0.001480835	-0.8114769	
18:50:15	47.43814	-122.3112	0.02	0.02070609	0.1007302	0	3	100	0	4	-7.676674E-05	-0.0001268645	-0.8115112	
18:50:15	47.43814	-122.3112	0.02	0.02076681	0.1048327	0	3	100	0	4	0.0003326991	-0.0006032392	-0.8115661	
18:50:15	47.43814	-122.3112	0.02	0.02082179	0.1080985	0	3	100	0	4	0.000279803	-0.001150549	-0.8115689	
18:50:16	47.43814	-122.3112	0.02	0.02087267	0.1107141	0	3	100	0	4	0.0008569897	-0.002774399	-0.8116919	
18:50:16	47.43814	-122.3112	0.02	0.02091831	0.1126715	0	3	100	0	4	-8.142832E-05	-0.002398135	-0.811848	
18:50:16	47.43814	-122.3112	0.02	0.0209577	0.1139929	0	3	100	0	4	-0.0002072008	-0.002974722	-0.8120047	
18:50:16	47.43814	-122.3112	0.02	0.02098887	0.1147285	0	3	100	0	4	-3.19625E-05	-0.00269548	-0.812193	
18:50:16	47.43814	-122.3112	0.02	0.02102124	0.1150921	0	3	100	0	4	0.0006969451	-0.002781837	-0.8123617	
18:50:17	47.43814	-122.3112	0.02	0.02104557	0.1149636	0	3	100	0	5	0.001114503	-0.001480095	-0.8125005	
18:50:17	47.43814	-122.3112	0.02	0.0210643	0.1144662	0	3	100	0	4	0.001228122	-0.001123616	-0.812583	
18:50:17	47.43814	-122.3112	0.02	0.02107713	0.1137364	0	3	100	0	5	0.001134289	-0.000489906	-0.8126327	
18:50:17	47.43814	-122.3112	0.02	0.02108812	0.1125507	0	3	100	0	4	0.002000313	-0.0007016642	-0.8126549	
18:50:17	47.43814	-122.3112	0.02	0.02109379	0.1112351	0	3	100	0	4	0.001658935	-0.00137908	-0.812696	
18:50:18	47.43814	-122.3112	0.02	0.02109576	0.1098464	0	3	100	0	4	0.00281541	-0.0002652058	-0.8128006	
18:50:18	47.43814	-122.3112	0.02	0.02109447	0.1080612	0	3	100	0	4	0.002517221	-0.0003089169	-0.8127552	
18:50:18	47.43814	-122.3112	0.02	0.02109028	0.1063124	0	3	100	0	4	0.002923895	-0.001477742	-0.8126999	
18:50:18	47.43814	-122.3112	0.02	0.02108344	0.1044349	0	3	100	0	4	0.003645679	-0.00214429	-0.8127307	
18:50:18	47.43814	-122.3112	0.02	0.02106697	0.06428307	0	3	100	0	6	0.001033232	-0.001229752	-0.812796	
18:50:19	47.43814	-122.3112	0.02	0.02088902	0.002341616	0	3	100	0	4	0.0003480148	-0.003155	-0.8128502	
18:50:19	47.43814	-122.3112	0.02	0.02072982	0.003004201	0	3	100	0	4	-0.0003406307	-0.005089875	-0.8128533	
18:50:19	47.43814	-122.3112	0.02	0.02061354	0.004953167	0	3	100	0	4	-0.001025854	-0.007015122	-0.8128185	
18:50:19	47.43814	-122.3112	0.02	0.02051252	0.008232165	0	3	100	0	4	-0.001604503	-0.008709639	-0.8128104	
18:50:19	47.43814	-122.3112	0.02	0.02043036	0.0129899	0	3	100	0	4	-0.001543574	-0.01204833	-0.8132522	
18:50:20	47.43814	-122.3112	0.02	0.02038399	0.01739574	0	3	100	0	5	-0.001021683	-0.01348323	-0.8137568	
18:50:20	47.43814	-122.3112	0.02	0.02035015	0.02277515	0	3	100	0	4	-0.001105664	-0.01217545	-0.814289	
18:50:20	47.43814	-122.3112	0.02	0.02033276	0.02844322	0	3	100	0	4	-0.000985535	-0.01329452	-0.8147485	
18:50:20	47.43814	-122.3112	0.02	0.02032929	0.03417578	0	3	100	0	4	-0.000743614	-0.01241112	-0.8152091	
18:50:20	47.43814	-122.3112	0.02	0.02033839	0.04041765	0	3	100	0	4	-0.0007874627	-0.01245579	-0.8156123	
18:50:21	47.43814	-122.3112	0.02	0.02035384	0.04536157	0	3	100	0	4	-0.0009904812	-0.01271769	-0.8160264	
18:50:21	47.43814	-122.3112	0.02	0.02037967	0.05102633	0	3	100	0	5	-0.001412372	-0.01375885	-0.8165089	
18:50:21	47.43814	-122.3112	0.02	0.02040858	0.05589751	0	3	100	0	4	-0.001538102	-0.01417332	-0.8170335	
18:50:21	47.43814	-122.3112	0.02	0.02044094	0.06039447	0	3	100	0	4	-0.001461445	-0.01397323	-0.8176058	
18:50:21	47.43814	-122.3112	0.02	0.02047472	0.06440166	0	3	100	0	4	-0.001400079	-0.01449606	-0.818144	
18:50:22	47.43814	-122.3112	0.02	0.02050921	0.06796169	0	3	100	0	4	-0.001381616	-0.01315359	-0.818575	
18:50:22	47.43814	-122.3112	0.02	0.02054039	0.07081167	0	3	100	0	4	-0.001363281	-0.01181778	-0.8188803	
18:50:22	47.43814	-122.3112	0.02	0.02057409	0.07355011	0	3	100	0	4	-0.001344972	-0.01048198	-0.8190944	
18:50:22	47.43814	-122.3112	0.02	0.02060909	0.07605559	0	3	100	0	4	-0.001326678	-0.009146166	-0.8192415	
18:50:22	47.43814	-122.3112	0.02	0.0206359	0.07772616	0	3	100	0	6	-0.001308396	-0.007810356	-0.819339	
18:50:23	47.43814	-122.3112	0.02	0.02066338	0.07920467	0	3	100	0	4	-0.00129012	-0.006474548	-0.8194001	
18:50:23	47.43814	-122.3112	0.02	0.02066338	0.07920467	0	3	100	0	5	-0.001271849	-0.005138742	-0.8194341	
18:50:23	47.43814	-122.3112	0.02	0.02066338	0.07920467	0	3	100	0	4	-0.00125358	-0.003802935	-0.8194485	
18:50:23	47.43814	-122.3112	0.02	0.02066338	0.07920467	0	3	100	0	4	-0.001235312	-0.002467127	-0.8194481	
18:50:23	47.43814	-122.3112	0.02	0.02066338	0.07920467	0	3	100	0	4	-0.0009455452	-0.002000188	-0.8195736	
18:50:24	47.43814	-122.3112	0.02	0.02068812	0.08030974	0	3	100	0	4	-0.0007591053	-0.003371995	-0.8196902	
18:50:24	47.43814	-122.3112	0.02	0.02070808	0.08101948	0	3	100	0	4	-0.0005726655	-0.004743803	-0.8197652	
18:50:24	47.43814	-122.3112	0.02	0.02072922	0.0815509	0	3	100	0	4	-0.0004246923	-0.004404347	-0.8198962	
18:50:24	47.43814	-122.3112	0.02	0.02074535	0.08172134	0	3	100	0	4	-0.0003057873	-0.002949319	-0.820056	
18:50:24	47.43814	-122.3112	0.02	0.02075856	0.0816392	0	3	100	0	4	-0.0001862939	-0.001487015	-0.8201632	
18:50:25	47.43814	-122.3112	0.02	0.02076896	0.0813154	0	3	100	0	4	-6.739813E-05	-3.198685E-05	-0.820231	
18:50:25	47.43814	-122.3112	0.02	0.02077661	0.08078738	0	3	100	0	4	5.209071E-05	0.001430317	-0.8202704	
18:50:25	47.43814	-122.3112	0.02	0.02078137	0.08016574	0	3	100	0	4	0.0001709849	0.002885346	-0.8202884	
18:50:25	47.43814	-122.3112	0.02	0.02078436	0.07935868	0	3	100	0	5	0.000290474	0.004347651	-0.8202906	
18:50:25	47.43814	-122.3112	0.02	0.02078436	0.07935868	0	3	100	0	4	0.0004093696	0.00580268	-0.8202814	
18:50:26	47.43814	-122.3112	0.02	0.02078456	0.07925788	0	3	100	0	5	-6.563651E-05	0.007535329	-0.8199772	
18:50:26	47.43814	-122.3112	0.02	0.02078516	0.07832581	0	3	100	0	4	4.94765E-05	0.008478981	-0.8196401	
18:50:26	47.43814	-122.3112	0.02	0.02078358	0.07716324	0	3	100	0	4	0.0004217132	0.009076033	-0.8193216	
18:50:26	47.43814	-122.3112	0.02	0.02078032	0.07603896	0	3	100	0	5	0.000795801	0.009676071	-0.8190826	
18:50:26	47.43814	-122.3112	0.02	0.0207755	0.07484332	0	3	100	0	4	0.00116802	0.01027312	-0.8189042	
18:50:27	47.43814	-122.3112	0.02	0.02076934	0.07360311	0	3	100	0	5	0.001540233	0.01087017	-0.8187695	
18:50:27	47.43814	-122.3112	0.02	0.02076198	0.07234656	0	3	100	0	4	0.001912441	0.01146722	-0.8186675	
18:50:27	47.43814	-122.3112	0.02	0.0207537	0.07109115	0	3	100	0	4	0.002286505	0.01206725	-0.8185887	
18:50:27	47.43814	-122.3112	0.02	0.02075185	0.07082327	0	3	100	0	4	0.001927667	0.01081643	-0.8180491	
18:50:27	47.43814	-122.3112	0.02	0.02074256	0.06954437	0	3	100	0	4	0.001897171	0.01161405	-0.8174934	
18:50:28	47.43814	-122.3112	0.02	0.02073271	0.0682826	0	3	100	0	4	0.001774578	0.01283118	-0.8169971	
18:50:28	47.43814	-122.3112	0.02	0.02072235	0.06703755	0	3	100	0	4	0.001651965	0.01404831	-0.8166282	
18:50:28	47.43814	-122.3112	0.02	0.02071156	0.0658135	0	3	100	0	4	0.001573338	0.01512949	-0.8163531	
18:50:28	47.43814	-122.3112	0.02	0.0207006	0.0646343	0	3	100	0	4	0.001723371	0.0141226	-0.8156871	
18:50:28	47.43814	-122.3112	0.02	0.02069046	0.06358511	0	3	100	0	4	0.001217923	0.01416338	-0.8150586	
18:50:29	47.43814	-122.3112	0.02	0.02067826	0.06237264	0	3	100	0	5	0.001483925	0.01378347	-0.8144894	
18:50:29	47.43814	-122.3112	0.02	0.02066708	0.06128754	0	3	100	0	4	0.001040947	0.01322811	-0.8139525	
18:50:29	47.43814	-122.3112	0.02	0.0206572	0.06035925	0	3	100	0	4	0.001039702	0.01334071	-0.813484	
18:50:29	47.43814	-122.3112	0.02	0.0206463	0.05936705	0	3	100	0	4	0.00103091	0.01351425	-0.8130379	
18:50:30	47.43814	-122.3112	0.02	0.02063454	0.05833074	0	3	100	0	4	0.0009473009	0.01292649	-0.812613	
18:50:30	47.43814	-122.3112	0.02	0.02062427	0.0574426	0	3	100	0	4	0.0007050193	0.01249113	-0.812196	
18:50:30	47.43814	-122.3112	0.02	0.02061415	0.05657034	0	3	100	0	4	0.0004672601	0.01220938	-0.8117595	
18:50:30	47.43814	-122.3112	0.02	0.02060524	0.05579701	0	3	100	0	4	0.0005919829	0.01100448	-0.8113586	
18:50:30	47.43814	-122.3112	0.02	0.02059477	0.05489879	0	3	100	0	4	0.000432264	0.01029407	-0.8110055	
18:50:31	47.43814	-122.3112	0.02	0.02058553	0.05411054	0	3	100	0	5	0.0002649019	0.01105524	-0.8106585	
18:50:31	47.43814	-122.3112	0.02	0.02057639	0.0533204	0	3	100	0	4	-0.0001456441	0.01122486	-0.8103109	
18:50:31	47.43814	-122.3112	0.02	0.02056767	0.05256368	0	3	100	0	4	0.0004302383	0.009547602	-0.8100016	
18:50:31	47.43814	-122.3112	0.02	0.02055988	0.05188409	0	3	100	0	4	0.0007956285	0.008548274	-0.8096356	
18:50:31	47.43814	-122.3112	0.02	0.02055077	0.05108679	0	3	100	0	5	0.001157951	0.008739896	-0.8092942	
18:50:32	47.43814	-122.3112	0.02	0.02054283	0.05038595	0	3	100	0	4	0.0008377416	0.009402161	-0.8089553	
18:50:32	47.43814	-122.3112	0.02	0.02053494	0.04968485	0	3	100	0	5	0.002240577	0.008784811	-0.8086362	
18:50:32	47.43814	-122.3112	0.02	0.02052727	0.04900317	0	3	100	0	4	0.002365105	0.00825044	-0.8083054	
18:50:32	47.43814	-122.3112	0.02	0.02051973	0.04833875	0	3	100	0	4	0.002224451	0.008077524	-0.8080102	
18:50:32	47.43814	-122.3112	0.02	0.02051312	0.04775975	0	3	100	0	4	0.001599156	0.008536064	-0.8077404	
18:50:33	47.43814	-122.3112	0.02	0.02030889	-0.08937294	0	3	100	0	4	0.001182296	0.009963763	-0.8075016	
18:50:33	47.43814	-122.3112	0.02	0.02011035	-0.08719298	0	3	100	0	4	0.0006529362	0.008970516	-0.8072278	
18:50:33	47.43814	-122.3112	0.02	0.0199157	-0.0820081	0	3	100	0	4	0.001134584	0.008366053	-0.8070045	
18:50:33	47.43814	-122.3112	0.02	0.01978565	-0.07545665	0	3	100	0	5	0.001093965	0.00655647	-0.8068104	
18:50:33	47.43814	-122.3112	0.02	0.01970017	-0.06839514	0	3	100	0	4	0.0009557647	0.006621312	-0.8066668	
18:50:34	47.43814	-122.3112	0.02	0.01963669	-0.05960575	0	3	100	0	4	0.0007985621	0.005791027	-0.8065259	
18:50:34	47.43814	-122.3112	0.02	0.01960056	-0.04950841	0	3	100	0	4	0.0008475627	0.004399408	-0.8064219	
18:50:34	47.43814	-122.3112	0.02	0.01959196	-0.04071556	0	3	100	0	4	0.001215863	0.005267131	-0.8063564	
18:50:34	47.43814	-122.3112	0.02	0.01960162	-0.03088849	0	3	100	0	4	0.001480378	0.005849964	-0.8062981	
18:50:34	47.43814	-122.3112	0.02	0.01962807	-0.02112034	0	3	100	0	4	0.00142832	0.006099316	-0.8062129	
18:50:35	47.43814	-122.3112	0.02	0.01966666	-0.01187105	0	3	100	0	4	0.0003444717	0.007418921	-0.8061077	
18:50:35	47.43814	-122.3112	0.02	0.01972032	-0.002149225	0	3	100	0	4	-9.343552E-05	0.006785274	-0.8059741	
18:50:35	47.43814	-122.3112	0.02	0.01959073	-0.1887185	0	3	100	0	4	0.0008068134	0.006065203	-0.8059078	
18:50:35	47.43814	-122.3112	0.02	0.01932673	-0.1773755	0	3	100	0	4	0.0006091796	0.003490817	-0.8059263	
18:50:35	47.43814	-122.3112	0.02	0.01901332	-0.2600152	0	3	100	0	4	0.0009128469	0.002944167	-0.8060224	
18:50:36	47.43814	-122.3112	0.02	0.01875258	-0.2437351	0	3	100	0	3	0.001338027	0.002107938	-0.8061321	
18:50:36	47.43814	-122.3112	0.02	0.01853378	-0.2206088	0	3	100	0	4	0.0007273438	0.00159339	-0.8062546	
18:50:36	47.43814	-122.3112	0.02	0.01842773	-0.2003045	0	3	100	0	4	0.0009940694	0.001838623	-0.8063834	
18:50:36	47.43814	-122.3112	0.02	0.01836805	-0.1739261	0	3	100	0	4	0.000995556	0.001293176	-0.8064853	
18:50:36	47.43814	-122.3112	0.02	0.01837148	-0.1495277	0	3	100	0	4	0.0008765641	0.0008067095	-0.8065415	
18:50:37	47.43814	-122.3112	0.02	0.01841365	-0.127287	0	3	100	0	4	0.001124212	0.001962143	-0.8066422	
18:50:37	47.43814	-122.3112	0.02	0.01850556	-0.100653	0	3	100	0	4	0.001448706	0.001088774	-0.8067158	
18:50:37	47.43814	-122.3112	0.02	0.01861776	-0.07761966	0	3	100	0	5	0.001005014	0.001591364	-0.806789	
18:50:37	47.43814	-122.3112	0.02	0.0187386	-0.05754452	0	3	100	0	4	0.0008115399	0.002947864	-0.8068848	
18:50:37	47.43814	-122.3112	0.02	0.01889903	-0.03507373	0	3	100	0	4	0.0008328522	0.002316763	-0.806955	
18:50:38	47.43814	-122.3112	0.02	0.01905723	-0.01588551	0	3	100	0	4	0.0007166319	0.0003036839	-0.8070783	
18:50:38	47.43814	-122.3112	0.02	0.01922068	0.001669497	0	3	100	0	4	0.0008220297	-0.0008351071	-0.8072679	
18:50:38	47.43814	-122.3112	0.02	0.01938485	0.01751878	0	3	100	0	4	0.0003620251	-0.002775288	-0.8075206	
18:50:38	47.43814	-122.3112	0.02	0.01954516	0.0315233	0	3	100	0	4	0.002179962	-0.003869617	-0.8078625	
18:50:38	47.43814	-122.3112	0.02	0.01968559	0.04273228	0	3	100	0	4	0.001617302	-0.00309246	-0.8081207	
18:50:39	47.43814	-122.3112	0.02	0.01984758	0.05450545	0	3	100	0	4	0.001226118	-0.002703172	-0.8083315	
18:50:39	47.43814	-122.3112	0.02	0.01998384	0.06346262	0	3	100	0	4	0.001288787	-0.002173395	-0.8085122	
18:50:39	47.43814	-122.3112	0.02	0.02010107	0.07046289	0	3	100	0	4	0.0006769142	-0.002876394	-0.8086945	
18:50:39	47.43814	-122.3112	0.02	0.02022867	0.07728885	0	3	100	0	4	0.001010411	-0.003822242	-0.8089266	
18:50:39	47.43814	-122.3112	0.02	0.02033471	0.08226226	0	3	100	0	4	0.0008081894	-0.004404411	-0.8090937	
18:50:40	47.43814	-122.3112	0.02	0.02041995	0.0857288	0	3	100	0	4	0.0006069695	-0.004983685	-0.8091785	
18:50:40	47.43814	-122.3112	0.02	0.02050342	0.08857758	0	3	100	0	4	0.0004057685	-0.005689686	-0.8092386	
18:50:40	47.43814	-122.3112	0.02	0.02058352	0.09065463	0	3	100	0	4	0.000213891	-0.00688542	-0.8095586	
18:50:40	47.43814	-122.3112	0.02	0.02064359	0.09164765	0	3	100	0	4	4.591168E-05	-0.007823346	-0.809792	
18:50:40	47.43814	-122.3112	0.02	0.02068973	0.09195899	0	3	100	0	5	6.532655E-05	-0.006728045	-0.8101782	
18:50:41	47.43814	-122.3112	0.02	0.02073588	0.09167624	0	3	100	0	4	8.462415E-05	-0.005638192	-0.8104373	
18:50:41	47.43814	-122.3112	0.02	0.02076855	0.09089228	0	3	100	0	4	9.997415E-05	-0.004471275	-0.8106356	
18:50:41	47.43814	-122.3112	0.02	0.0207935	0.0896699	0	3	100	0	4	8.832723E-05	-0.002553456	-0.810867	
18:50:41	47.43814	-122.3112	0.02	0.02080985	0.08826198	0	3	100	0	5	0.0001845125	-0.004768115	-0.8110611	
18:50:41	47.43814	-122.3112	0.02	0.02082245	0.0862764	0	3	100	0	4	0.0001576411	-0.004315489	-0.8112991	
18:50:42	47.43814	-122.3112	0.02	0.02082799	0.08425869	0	3	100	0	4	0.0003829276	-0.005533259	-0.8116041	
18:50:42	47.43814	-122.3112	0.02	0.02082862	0.08206938	0	3	100	0	5	0.001510057	-0.003540062	-0.8119313	
18:50:42	47.43814	-122.3112	0.02	0.02082482	0.07970957	0	3	100	0	4	0.00144711	-0.003175654	-0.8122343	
18:50:42	47.43814	-122.3112	0.02	0.02081739	0.07733667	0	3	100	0	4	0.001860744	-0.004103696	-0.8124627	
18:50:42	47.43814	-122.3112	0.02	0.02080706	0.07497419	0	3	100	0	4	0.001651563	-0.002114841	-0.8127173	
18:50:43	47.43814	-122.3112	0.02	0.02079549	0.07283387	0	3	100	0	4	0.001646206	-0.002381011	-0.812908	
18:50:43	47.43814	-122.3112	0.02	0.02078067	0.07049521	0	3	100	0	4	0.001527594	-0.003483995	-0.8130999	
18:50:43	47.43814	-122.3112	0.02	0.02064316	-0.08764888	0	3	100	0	4	0.001495992	-0.002588579	-0.8133071	
18:50:43	47.43814	-122.3112	0.02	0.02038742	-0.08735002	0	3	100	0	5	0.001324918	-0.002901455	-0.8134758	
18:50:43	47.43814	-122.3112	0.02	0.02013909	-0.08398093	0	3	100	0	4	0.001134247	-0.004591962	-0.8136528	
18:50:44	47.43814	-122.3112	0.02	0.01996269	-0.07845758	0	3	100	0	4	0.001255594	-0.004946523	-0.8138373	
18:50:44	47.43814	-122.3112	0.02	0.0198302	-0.07113458	0	3	100	0	4	0.0009862384	-0.005073589	-0.814052	
18:50:44	47.43814	-122.3112	0.02	0.01973867	-0.06264888	0	3	100	0	4	0.0007723442	-0.00513983	-0.8142282	
18:50:44	47.43814	-122.3112	0.02	0.01967958	-0.05313246	0	3	100	0	4	0.0008320592	-0.005538495	-0.8143975	
18:50:44	47.43814	-122.3112	0.02	0.01965017	-0.04324773	0	3	100	0	4	0.0006546934	-0.005190239	-0.8145807	
18:50:45	47.43814	-122.3112	0.02	0.01964464	-0.03298056	0	3	100	0	4	0.0004796895	-0.005686258	-0.8147388	
18:50:45	47.43814	-122.3112	0.02	0.01965704	-0.0237052	0	3	100	0	4	0.000339518	-0.007053139	-0.8149207	
18:50:45	47.43814	-122.3112	0.02	0.01968959	-0.01274117	0	3	100	0	4	0.0002018842	-0.008773276	-0.8151503	
18:50:45	47.43814	-122.3112	0.02	0.01972804	-0.003961775	0	3	100	0	4	0.000281247	-0.008324798	-0.8154196	
18:50:45	47.43814	-122.3112	0.02	0.01978679	0.006390501	0	3	100	0	4	2.722837E-05	-0.007372145	-0.8156575	
18:50:46	47.43814	-122.3112	0.02	0.01984709	0.01510178	0	3	100	0	4	7.849134E-05	-0.008044242	-0.8159091	
18:50:46	47.43814	-122.3112	0.02	0.01990489	0.02233327	0	3	100	0	4	-0.0003653243	-0.007527646	-0.8161542	
18:50:46	47.43814	-122.3112	0.02	0.01997148	0.02969622	0	3	100	0	4	-0.0007362069	-0.00855464	-0.8163882	
18:50:46	47.43814	-122.3112	0.02	0.02003842	0.03629817	0	3	100	0	4	8.88424E-05	-0.008678455	-0.8166502	
18:50:46	47.43814	-122.3112	0.02	0.02011031	0.04263953	0	3	100	0	4	0.0001951236	-0.007798685	-0.8169001	
18:50:47	47.43814	-122.3112	0.02	0.02017396	0.04768154	0	3	100	0	4	0.0004682864	-0.008587444	-0.817179	
18:50:47	47.43814	-122.3112	0.02	0.02023326	0.05192994	0	3	100	0	4	0.0003699201	-0.009691692	-0.8174857	
18:50:47	47.43814	-122.3112	0.02	0.02028525	0.05529882	0	3	100	0	4	0.0007478715	-0.00919905	-0.8178151	
18:50:47	47.43814	-122.3112	0.02	0.02033711	0.05831431	0	3	100	0	4	0.0001217154	-0.008109737	-0.8180882	
18:50:47	47.43814	-122.3112	0.02	0.02031839	-0.0547012	0	3	100	0	4	0.0002639646	-0.008455257	-0.8183376	
18:50:48	47.43814	-122.3112	0.02	0.02016039	-0.05107996	0	3	100	0	4	0.000587804	-0.008483604	-0.8185928	
18:50:48	47.43814	-122.3112	0.02	0.02003112	-0.04536065	0	3	100	0	4	0.000425822	-0.007866972	-0.8188447	
18:50:48	47.43814	-122.3112	0.02	0.01995404	-0.03956813	0	3	100	0	4	0.0002810122	-0.00579003	-0.8190661	
18:50:48	47.43814	-122.3112	0.02	0.01989133	-0.03162696	0	3	100	0	4	0.0005513423	-0.005913096	-0.8192378	
18:50:48	47.43814	-122.3112	0.02	0.01986224	-0.02466272	0	3	100	0	4	0.0005754483	-0.006386355	-0.8194155	
18:50:49	47.43814	-122.3112	0.02	0.01984964	-0.01661492	0	3	100	0	4	0.00150094	-0.005980387	-0.8196024	
18:50:49	47.43814	-122.3112	0.02	0.01985577	-0.007725739	0	3	100	0	4	0.0009219999	-0.004317673	-0.8197288	
18:50:49	47.43814	-122.3112	0.02	0.01987356	-0.0004774393	0	3	100	0	4	0.0009499582	-0.003850324	-0.8198091	
18:50:49	47.43814	-122.3112	0.02	0.01990361	0.00724295	0	3	100	0	4	0.0002905294	-0.001613991	-0.8198744	
18:50:49	47.43814	-122.3112	0.02	0.01994617	0.01528669	0	3	100	0	4	0.0003700824	-0.002113065	-0.8199091	
18:50:50	47.43814	-122.3112	0.02	0.01998678	0.02152837	0	3	100	0	4	0.0006233802	-0.003183278	-0.8199615	
18:50:50	47.43814	-122.3112	0.02	0.02003489	0.0278636	0	3	100	0	5	-0.0002196695	-0.003020581	-0.8200398	
18:50:50	47.43814	-122.3112	0.02	0.02008541	0.03366118	0	3	100	0	4	-0.0006465592	-0.002994609	-0.8201197	
18:50:50	47.43814	-122.3112	0.02	0.02014197	0.03938638	0	3	100	0	4	-0.0007567633	-0.003825156	-0.8202192	
18:50:50	47.43814	-122.3112	0.02	0.02018787	0.04354649	0	3	100	0	6	-0.0005291184	-0.004530693	-0.8203441	
18:50:51	47.43814	-122.3112	0.02	0.02024175	0.0479412	0	3	100	0	4	-0.00105812	-0.003512457	-0.8204592	
18:50:51	47.43814	-122.3112	0.02	0.02028996	0.0514636	0	3	100	0	4	-0.0004820101	-0.004491148	-0.820562	
18:50:51	47.43814	-122.3112	0.02	0.02033044	0.05412328	0	3	100	0	4	0.0003198012	-0.00328299	-0.8206826	
18:50:51	47.43814	-122.3112	0.02	0.02028152	-0.06190172	0	3	100	0	4	0.0005677786	-0.004015215	-0.8207721	
18:50:52	47.43814	-122.3112	0.02	0.02013378	-0.05851391	0	3	100	0	4	0.0003575758	-0.00501113	-0.8208472	
18:50:52	47.43814	-122.3112	0.02	0.01999442	-0.05251797	0	3	100	0	4	0.0004258671	-0.006413961	-0.8209535	
18:50:52	47.43814	-122.3112	0.02	0.01990548	-0.04586521	0	3	100	0	4	-0.0004448743	-0.005526938	-0.8210837	
18:50:52	47.43814	-122.3112	0.02	0.01979911	-0.1164215	0	3	100	0	5	-0.0008584719	-0.006404628	-0.82121	
18:50:52	47.43814	-122.3112	0.02	0.01964351	-0.1080816	0	3	100	0	4	-0.0005281189	-0.007348647	-0.8213916	
18:50:53	47.43814	-122.3112	0.02	0.01951057	-0.09616248	0	3	100	0	4	-0.0005714674	-0.006881232	-0.8215739	
18:50:53	47.43814	-122.3112	0.02	0.01943492	-0.0840088	0	3	100	0	4	-0.0002801686	-0.006154106	-0.8217099	
18:50:53	47.43814	-122.3112	0.02	0.01939622	-0.07101791	0	3	100	0	4	0.0005518204	-0.006076578	-0.8218088	
18:50:53	47.43814	-122.3112	0.02	0.0193891	-0.05790179	0	3	100	0	4	0.0001354422	-0.005279761	-0.8218728	
18:50:53	47.43814	-122.3112	0.02	0.01940577	-0.06480747	0	3	100	0	5	4.229649E-05	-0.006434388	-0.8219347	
18:50:54	47.43814	-122.3112	0.02	0.0193726	-0.07157479	0	3	100	0	4	3.257939E-05	-0.007215212	-0.8220493	
18:50:54	47.43814	-122.3112	0.02	0.01936942	-0.05775471	0	3	100	0	4	0.0002584605	-0.005925625	-0.8221223	
18:50:54	47.43814	-122.3112	0.02	0.019299	-0.1619208	0	3	100	0	5	0.000120637	-0.00431035	-0.8221607	
18:50:54	47.43814	-122.3112	0.02	0.0191435	-0.1463968	0	3	100	0	5	0.0001282652	-0.005200783	-0.8221665	
18:50:54	47.43814	-122.3112	0.02	0.01905374	-0.1310038	0	3	100	0	4	0.0004089807	-0.005118371	-0.8221705	
18:50:55	47.43814	-122.3112	0.02	0.01900052	-0.1108614	0	3	100	0	4	0.0003957319	-0.005473458	-0.8222224	
18:50:55	47.43814	-122.3112	0.02	0.01899645	-0.09432603	0	3	100	0	4	0.0005014074	-0.005862957	-0.8222934	
18:50:55	47.43814	-122.3112	0.02	0.01902514	-0.07591983	0	3	100	0	4	-2.58366E-05	-0.004011994	-0.8223498	
18:50:55	47.43814	-122.3112	0.02	0.01902103	-0.1531917	0	3	100	0	4	-0.0008303339	-0.003556322	-0.8223473	
18:50:55	47.43814	-122.3112	0.02	0.01893737	-0.1344011	0	3	100	0	4	-0.0001340182	-0.004354914	-0.8223565	
18:50:56	47.43814	-122.3112	0.02	0.01890411	-0.1146188	0	3	100	0	4	4.281771E-06	-0.004812894	-0.8223846	
