Date	Latitude(deg) 	Longitude(deg)	hamsl(m)	hafl(m)	climbrate(cm/s)	GroundSpeed(m/s)	Airspeed(m/s)	Mav_Link(%)	Rssi_Link(%)	Throttle	Roll(deg)	Pitch(deg)	Yaw(deg)
14:56:11	-6.728669	38.94612	127.594	0	0	0.22	0	100	0	0	7.756167	-5.860903	-44.05115	
14:56:11	-6.728669	38.94612	128.935	-0.3812504	-1.085002	0.31	3	100	0	4	7.74666	-5.925118	-44.07738	
14:56:12	-6.728669	38.94612	128.985	-0.440958	-5.26323	0.11	3	100	0	4	8.136297	-5.73697	-44.10406	
14:56:12	-6.728669	38.94612	129.026	-0.4969217	-8.94003	0.19	3	100	0	4	8.159621	-5.834807	-44.12426	
14:56:12	-6.728669	38.94612	128.977	-0.5703096	-12.61757	0.07	3	100	0	4	7.981865	-5.80412	-44.11121	
14:56:12	-6.728668	38.94612	129.002	-0.6297342	-14.92221	0.09	3	100	0	4	8.04647	-6.063546	-44.1279	
14:56:12	-6.728668	38.94612	129.043	-0.325002	2.018273	0.14	3	100	0	4	8.040339	-6.037377	-44.14636	
14:56:13	-6.728667	38.94612	129.198	-0.0977798	13.50455	0.09	3	100	0	4	8.166067	-6.190924	-44.13757	
14:56:13	-6.728667	38.94612	129.154	0.1873843	25.94034	0.19	3	100	0	4	8.121252	-6.043697	-44.1306	
14:56:13	-6.728667	38.94612	129.14	0.3921351	33.79132	0.18	3	100	0	4	8.204159	-6.346004	-44.13488	
14:56:13	-6.728667	38.94612	129.114	0.3462786	27.43326	0.22	3	100	0	4	8.141802	-5.96941	-44.14812	
14:56:13	-6.728667	38.94612	129.255	0.2983274	21.96404	0.22	3	100	0	4	8.413947	-6.049947	-44.19162	
14:56:14	-6.728667	38.94612	129.255	0.3264217	21.06554	0.31	3	100	0	4	8.159883	-5.901707	-44.17266	
14:56:14	-6.728666	38.94612	129.302	0.3470789	19.70211	0.39	3	100	0	4	8.557381	-6.026779	-44.22215	
14:56:14	-6.728666	38.94612	129.411	0.2439663	11.81536	0.11	3	100	0	4	8.54797	-5.751476	-44.29391	
14:56:14	-6.728666	38.94612	129.42	0.1456829	4.877576	0.04	3	100	0	4	8.163606	-6.028933	-44.27267	
14:56:14	-6.728666	38.94612	129.381	0.05201055	-1.005453	0.26	3	100	0	4	8.188474	-6.151216	-44.2584	
14:56:15	-6.728666	38.94612	129.383	-0.03526024	-6.193237	0.13	3	100	0	4	8.481505	-6.163541	-44.27253	
14:56:15	-6.728666	38.94612	129.405	-0.1074301	-10.51742	0.11	3	100	0	4	8.147067	-6.174118	-44.26925	
14:56:15	-6.728666	38.94612	129.499	-0.1693499	-13.96233	0.17	3	100	0	4	8.161131	-6.032054	-44.29784	
14:56:15	-6.728666	38.94612	129.546	-0.2100727	-15.25151	0.06	3	100	0	4	8.173509	-5.948901	-44.29534	
14:56:15	-6.728666	38.94612	129.554	-0.2430607	-16.11937	0.04	3	100	0	4	8.101048	-6.106304	-44.27308	
14:56:16	-6.728666	38.94612	129.639	-0.2710502	-16.86362	0.19	3	100	0	4	8.167095	-6.134824	-44.25856	
14:56:16	-6.728666	38.94612	129.676	-0.2950255	-17.44766	0.08	3	100	0	4	7.967869	-6.005915	-44.31915	
14:56:16	-6.728666	38.94612	129.66	-0.3108158	-17.11254	0.14	3	100	0	4	8.081341	-6.163348	-44.32735	
14:56:16	-6.728666	38.94612	129.73	-0.3194387	-16.40448	0.11	3	100	0	4	8.264217	-6.014079	-44.31952	
14:56:16	-6.728666	38.94612	129.774	-0.3019046	-14.3977	0.11	3	100	0	4	8.084679	-6.158528	-44.30492	
14:56:17	-6.728666	38.94612	129.735	-0.2617671	-11.59618	0.14	3	100	0	4	8.015085	-6.108064	-44.3313	
14:56:17	-6.728666	38.94612	129.705	-0.243645	-9.65888	0.08	3	100	0	4	8.287374	-5.982961	-44.36489	
14:56:17	-6.728666	38.94612	129.765	-0.2523099	-9.516226	0.04	3	100	0	6	8.238993	-5.950055	-44.37622	
14:56:17	-6.728665	38.94612	129.794	-0.2454463	-8.749628	0.09	3	100	0	4	8.186127	-5.961331	-44.37368	
14:56:17	-6.728665	38.94612	129.863	-0.2203481	-7.667561	0.16	3	99	0	4	8.187693	-5.864279	-44.38528	
14:56:18	-6.728665	38.94612	129.884	-0.1975114	-6.65802	0.08	3	99	0	4	8.187832	-5.788196	-44.45486	
14:56:18	-6.728665	38.94612	129.95	-0.1816178	-5.795131	0.07	3	99	0	4	8.241059	-5.913484	-44.4651	
14:56:18	-6.728665	38.94612	129.938	-0.1708445	-5.67305	0.09	3	99	0	4	8.124464	-5.874326	-44.43274	
14:56:18	-6.728665	38.94612	130.006	-0.1657482	-5.384769	0.13	3	99	0	5	8.210677	-5.856756	-44.43759	
14:56:18	-6.728664	38.94612	129.98	-0.1358244	-3.36147	0.11	3	99	0	4	8.29141	-5.900403	-44.4929	
14:56:19	-6.728664	38.94612	129.981	-0.09202874	-1.009736	0.11	3	99	0	4	8.237207	-5.856023	-44.50525	
14:56:19	-6.728664	38.94612	130.013	-0.08125426	-0.935613	0.39	3	99	0	4	8.080542	-6.076331	-44.48368	
14:56:19	-6.728665	38.94612	130.043	-0.1008205	-2.582894	0.19	3	99	0	4	7.726417	-5.85861	-44.44186	
14:56:19	-6.728664	38.94612	130.114	-0.1189642	-4.833438	0.04	3	99	0	4	7.916709	-6.055584	-44.44007	
14:56:19	-6.728664	38.94612	130.125	-0.1359489	-6.46626	0.21	3	99	0	5	8.178168	-5.922562	-44.46804	
14:56:20	-6.728664	38.94612	130.03	-0.152017	-7.617625	0.18	3	99	0	4	8.275592	-5.758342	-44.46564	
14:56:20	-6.728664	38.94612	129.968	-0.1895497	-9.259837	0.04	3	99	0	4	8.165494	-6.170651	-44.45922	
14:56:20	-6.728664	38.94612	129.944	-0.2226916	-10.74938	0.26	3	99	0	4	8.184571	-6.004871	-44.44403	
14:56:20	-6.728664	38.94612	129.937	-0.2600532	-12.98203	0.03	3	99	0	4	8.462642	-5.849129	-44.50727	
14:56:20	-6.728663	38.94612	129.95	-0.2932113	-13.76519	0.06	3	99	0	4	8.1935	-5.932183	-44.51323	
14:56:21	-6.728663	38.94612	129.927	-0.2616493	-11.82778	0.18	3	99	0	4	8.197524	-5.842272	-44.51907	
14:56:21	-6.728663	38.94612	129.9	-0.2320508	-9.329028	0.45	3	99	0	4	8.274086	-5.775202	-44.51899	
14:56:21	-6.728662	38.94612	129.9	-0.2259028	-8.948475	0.17	3	99	0	4	8.557719	-5.73256	-44.55605	
14:56:21	-6.728663	38.94612	129.924	-0.219453	-8.646779	0.22	3	99	0	4	7.860596	-5.832931	-44.51151	
14:56:21	-6.728663	38.94612	129.904	-0.2188842	-8.258068	0.18	3	99	0	4	7.901702	-5.730264	-44.50863	
14:56:22	-6.728663	38.94612	129.927	-0.2182772	-8.304872	0.09	3	99	0	4	7.932644	-5.783619	-44.49532	
14:56:22	-6.728663	38.94612	129.986	-0.2689207	-10.77669	0.16	3	99	0	4	7.87446	-6.013818	-44.46438	
14:56:22	-6.728663	38.94612	129.97	-0.3138509	-12.72145	0.18	3	99	0	4	7.97402	-5.784828	-44.50622	
14:56:22	-6.728663	38.94612	130.011	-0.3545488	-14.56152	0.12	3	99	0	4	7.951992	-5.757713	-44.51173	
14:56:22	-6.728663	38.94612	130.048	-0.3904163	-15.21458	0.14	3	99	0	4	7.858302	-5.996215	-44.4791	
14:56:23	-6.728663	38.94612	130.061	-0.3822075	-13.76457	0.11	3	99	0	4	7.853398	-5.881243	-44.46125	
14:56:23	-6.728663	38.94612	130.063	-0.3723772	-12.16134	0.07	3	99	0	4	8.133294	-6.015892	-44.45996	
14:56:23	-6.728663	38.94612	130.112	-0.3887177	-12.58182	0.18	3	99	0	4	8.031323	-5.84503	-44.50933	
14:56:23	-6.728663	38.94612	130.121	-0.4025723	-12.41286	0.06	3	99	0	4	7.869757	-5.872652	-44.47444	
14:56:23	-6.728663	38.94612	130.085	-0.4210788	-12.96886	0.02	3	99	0	4	8.135502	-5.847398	-44.50827	
14:56:24	-6.728663	38.94612	130.132	-0.4369176	-13.18999	0.22	3	99	0	4	8.151956	-5.930704	-44.49831	
14:56:24	-6.728663	38.94612	130.087	-0.5099263	-16.3737	0.25	3	99	0	4	8.242421	-5.697839	-44.54105	
14:56:24	-6.728664	38.94612	130.109	-0.5749973	-19.29957	0.17	3	99	0	4	7.900459	-5.672493	-44.52153	
14:56:24	-6.728664	38.94612	130.152	-0.62906	-20.64134	0.14	3	99	0	4	7.996331	-5.725955	-44.51296	
14:56:24	-6.728664	38.94612	130.191	-0.6746747	-21.25953	0.17	3	99	0	4	7.917162	-5.872115	-44.4854	
14:56:25	-6.728664	38.94612	130.157	-0.7043144	-21.18952	0.06	3	99	0	4	7.90401	-5.865876	-44.47815	
14:56:25	-6.728664	38.94612	130.203	-0.7263038	-20.8495	0.17	3	99	0	4	8.015641	-5.917055	-44.48188	
14:56:25	-6.728664	38.94612	130.164	-0.737874	-20.14417	0.11	3	99	0	4	8.015264	-5.756222	-44.44527	
14:56:25	-6.728664	38.94612	130.219	-0.7437956	-18.9381	0.12	3	99	0	4	8.135255	-6.005452	-44.44244	
14:56:25	-6.728663	38.94612	130.29	-0.7440522	-17.92319	0.04	3	99	0	4	8.161435	-5.787265	-44.42831	
14:56:26	-6.728663	38.94612	130.273	-0.7397562	-16.1601	0.04	3	99	0	4	8.140207	-5.822544	-44.4964	
14:56:26	-6.728664	38.94612	130.303	-0.7561733	-16.60792	0.18	3	99	0	3	8.058009	-5.814355	-44.49333	
14:56:26	-6.728664	38.94612	130.328	-0.7812443	-16.65016	0.19	3	99	0	4	7.97292	-5.705748	-44.46489	
14:56:26	-6.728664	38.94612	130.293	-0.7741026	-14.84929	0.12	3	99	0	4	8.227915	-5.676185	-44.47375	
14:56:26	-6.728664	38.94612	130.298	-0.7366865	-11.8511	0.25	3	99	0	5	8.068074	-5.694185	-44.48989	
14:56:27	-6.728664	38.94612	130.368	-0.6893193	-8.339177	0.21	3	99	0	4	8.080827	-5.558785	-44.52279	
14:56:27	-6.728664	38.94612	130.395	-0.634342	-4.846749	0.13	3	99	0	4	7.96361	-5.632656	-44.50495	
14:56:27	-6.728664	38.94612	130.395	-0.56141	-0.9030412	0.07	3	99	0	4	8.147453	-5.78345	-44.50637	
14:56:27	-6.728664	38.94612	130.467	-0.4904375	2.079594	0.09	3	99	0	4	7.949514	-5.766965	-44.47616	
14:56:27	-6.728664	38.94612	130.519	-0.4211302	5.358089	0.09	3	99	0	4	7.931438	-5.744853	-44.52662	
14:56:28	-6.728664	38.94612	130.545	-0.3703707	7.230075	0.09	3	99	0	4	7.997964	-5.686556	-44.5327	
14:56:28	-6.728664	38.94612	130.603	-0.3413782	7.680144	0.25	3	99	0	4	8.055212	-5.674756	-44.51945	
14:56:28	-6.728664	38.94612	130.625	-0.3269429	7.075116	0.09	3	99	0	4	8.098053	-5.563747	-44.51454	
14:56:28	-6.728664	38.94612	130.651	-0.3175932	6.929609	0.07	3	99	0	4	7.983419	-5.836238	-44.54061	
14:56:28	-6.728664	38.94612	130.784	-0.3106533	5.882364	0.26	3	99	0	4	8.11598	-5.781454	-44.55877	
14:56:29	-6.728664	38.94612	130.838	-0.3438672	2.948725	0.14	3	99	0	4	7.855091	-5.648257	-44.51558	
14:56:29	-6.728664	38.94612	130.869	-0.4279992	-1.571694	0.14	3	99	0	4	7.914252	-5.809271	-44.50491	
14:56:29	-6.728664	38.94612	130.965	-0.4932794	-5.016669	0.22	3	99	0	4	7.904155	-5.874496	-44.47711	
14:56:29	-6.728664	38.94612	131	-0.5381075	-6.734601	0.07	3	99	0	4	8.010126	-5.739367	-44.50258	
14:56:29	-6.728664	38.94612	131.085	-0.5732125	-7.989254	0.25	3	99	0	4	8.070278	-5.901705	-44.49243	
14:56:30	-6.728664	38.94612	131.106	-0.6186169	-9.815238	0.13	3	99	0	4	8.202139	-5.683297	-44.47226	
14:56:30	-6.728664	38.94612	131.143	-0.6581839	-10.61487	0.18	3	99	0	4	8.179039	-5.786111	-44.47161	
14:56:30	-6.728663	38.94612	131.197	-0.666766	-10.62044	0.08	3	99	0	4	8.13066	-5.728836	-44.48998	
14:56:30	-6.728664	38.94612	131.181	-0.6727507	-10.47794	0.14	3	99	0	4	7.947259	-5.835192	-44.47849	
14:56:30	-6.728663	38.94612	131.157	-0.6625162	-9.240644	0.08	3	99	0	4	7.873767	-5.830622	-44.45619	
14:56:31	-6.728663	38.94612	131.2	-0.6535795	-8.156432	0.24	3	99	0	4	7.987119	-5.946422	-44.44021	
14:56:31	-6.728663	38.94612	131.142	-0.6869823	-9.724025	0.16	3	99	0	4	8.103436	-5.822018	-44.43528	
14:56:31	-6.728662	38.94612	131.199	-0.7197319	-11.01122	0.25	3	99	0	4	7.889566	-6.16073	-44.40516	
14:56:31	-6.728662	38.94612	131.252	-0.7567255	-12.2628	0.13	3	99	0	4	7.952862	-5.872539	-44.38209	
14:56:31	-6.728662	38.94612	131.268	-0.7884087	-12.65681	0.03	3	99	0	4	8.015347	-6.053298	-44.35486	
14:56:32	-6.728662	38.94612	131.326	-0.7979245	-12.72128	0.06	3	99	0	6	7.943037	-6.14431	-44.32467	
14:56:32	-6.728662	38.94612	131.313	-0.8060153	-12.73913	0.07	3	99	0	4	7.901052	-6.148263	-44.33653	
14:56:32	-6.728662	38.94612	131.337	-0.7705004	-9.658759	0.22	3	99	0	4	7.974971	-6.13674	-44.34697	
14:56:32	-6.728662	38.94612	131.274	-0.739555	-7.095639	0.21	3	99	0	4	7.726544	-6.158377	-44.27896	
14:56:32	-6.728662	38.94612	131.245	-0.7114414	-5.150618	0.16	3	99	0	4	7.807434	-6.225427	-44.24049	
14:56:33	-6.728662	38.94612	131.285	-0.68997	-4.093457	0.14	3	99	0	4	7.891844	-6.002974	-44.23737	
14:56:33	-6.728661	38.94612	131.358	-0.6027871	0.4221126	0.01	3	99	0	4	7.85546	-6.067618	-44.23325	
14:56:33	-6.728661	38.94612	131.407	-0.5246816	4.032341	0.08	3	99	0	4	8.008997	-6.090596	-44.21964	
14:56:33	-6.728661	38.94612	131.44	-0.4556864	7.148587	0.09	3	99	0	4	8.052921	-6.032114	-44.19822	
14:56:33	-6.728661	38.94612	131.434	-0.4003162	8.824915	0.16	3	99	0	4	7.970309	-5.945266	-44.15493	
14:56:34	-6.728661	38.94612	131.467	-0.4081176	7.129436	0.13	3	99	0	4	7.907337	-5.89026	-44.18161	
14:56:34	-6.728661	38.94612	131.482	-0.4170812	6.114606	0.24	3	99	0	4	7.838076	-5.991443	-44.184	
14:56:34	-6.728661	38.94612	131.531	-0.427334	5.06908	0.18	3	99	0	4	7.822818	-6.009706	-44.16027	
14:56:34	-6.72866	38.94612	131.583	-0.4369118	4.144903	0.09	3	99	0	4	8.208683	-5.966641	-44.18549	
14:56:34	-6.728659	38.94612	131.577	-0.4520566	2.669211	0.11	3	99	0	4	8.150248	-6.108953	-44.18226	
14:56:35	-6.728659	38.94612	131.571	-0.4740141	0.6458449	0.17	3	99	0	4	8.131643	-6.106759	-44.20345	
14:56:35	-6.728659	38.94612	131.595	-0.4872352	-0.1509655	0.11	3	99	0	4	7.966714	-5.934383	-44.1603	
14:56:35	-6.728659	38.94612	131.599	-0.4887147	-0.7567511	0.18	3	99	0	4	8.097585	-5.957692	-44.15844	
14:56:35	-6.728659	38.94612	131.599	-0.4965663	-1.361356	0.09	3	99	0	4	8.226843	-6.003762	-44.16775	
14:56:35	-6.728659	38.94612	131.585	-0.5088943	-2.387191	0.12	3	99	0	4	8.079191	-6.007724	-44.21755	
14:56:36	-6.728659	38.94612	131.596	-0.5025695	-2.39721	0.09	3	99	0	5	7.917797	-6.088354	-44.18745	
14:56:36	-6.728658	38.94612	131.67	-0.4862124	-2.157139	0.24	3	99	0	4	8.033265	-6.039066	-44.17856	
14:56:36	-6.728658	38.94612	131.649	-0.4598606	-1.033302	0.09	3	99	0	4	7.895909	-5.802403	-44.15807	
14:56:36	-6.728658	38.94612	131.608	-0.4319961	0.4693192	0.22	3	99	0	4	8.081043	-5.976393	-44.1704	
14:56:36	-6.728658	38.94612	131.517	-0.4116088	1.356056	0.09	3	99	0	4	8.073527	-5.895113	-44.18534	
14:56:37	-6.728658	38.94612	131.49	-0.4065148	1.618869	0.14	3	99	0	4	7.893507	-5.939692	-44.16676	
14:56:37	-6.728658	38.94612	131.523	-0.3963939	1.308285	0.19	3	99	0	4	8.020525	-5.998047	-44.16156	
14:56:37	-6.728658	38.94612	131.524	-0.3835781	2.00275	0.19	3	99	0	4	7.988093	-5.943653	-44.15798	
14:56:37	-6.728657	38.94612	131.467	-0.3786282	2.158998	0.19	3	99	0	4	7.820797	-5.958927	-44.21552	
14:56:37	-6.728657	38.94612	131.427	-0.3807628	1.934224	0.12	3	99	0	4	7.91412	-6.24487	-44.20117	
14:56:38	-6.728656	38.94612	131.425	-0.3809883	1.522101	0.09	3	99	0	4	8.053	-6.058219	-44.18125	
14:56:38	-6.728656	38.94612	131.497	-0.3793129	1.167246	0.29	3	99	0	4	7.980765	-5.997872	-44.14938	
14:56:38	-6.728657	38.94612	131.448	-0.387299	0.1973708	0.21	3	99	0	4	7.774163	-5.823226	-44.14757	
14:56:38	-6.728657	38.94612	131.402	-0.4036644	-0.8581057	0.14	3	99	0	4	7.912913	-5.921258	-44.16132	
14:56:38	-6.728656	38.94612	131.346	-0.4345289	-2.639977	0.13	3	99	0	4	8.117738	-6.082017	-44.16246	
14:56:39	-6.728656	38.94612	131.319	-0.4856938	-5.075903	0.29	3	99	0	4	7.928589	-6.00242	-44.12967	
14:56:39	-6.728657	38.94612	131.305	-0.5083374	-5.25229	0.19	3	99	0	4	7.837501	-5.870497	-44.13844	
14:56:39	-6.728657	38.94612	131.249	-0.5034181	-4.708706	0.14	3	99	0	4	7.734	-6.009068	-44.12886	
14:56:39	-6.728657	38.94612	131.235	-0.4655823	-2.754776	0.09	3	98	0	4	8.075009	-6.019815	-44.12481	
14:56:40	-6.728657	38.94612	131.34	-0.431792	-0.9252454	0.19	3	98	0	4	7.910318	-6.058402	-44.07928	
14:56:40	-6.728657	38.94612	131.365	-0.3776459	1.900756	0.09	3	98	0	4	7.854702	-6.079614	-44.08372	
14:56:40	-6.728657	38.94612	131.341	-0.3327453	4.244411	0.18	3	98	0	4	7.991951	-5.933468	-44.08927	
14:56:40	-6.728657	38.94612	131.327	-0.2890128	6.137965	0.11	3	98	0	4	7.97806	-5.870314	-44.0824	
14:56:40	-6.728657	38.94612	131.322	-0.250791	6.958935	0.29	3	98	0	4	8.012212	-5.889519	-44.07705	
14:56:41	-6.728657	38.94612	131.315	-0.2866353	4.877636	0.04	3	98	0	4	8.178932	-5.824143	-44.09784	
14:56:41	-6.728657	38.94612	131.317	-0.3194407	2.86161	0.22	3	98	0	4	8.131162	-5.947254	-44.17577	
14:56:41	-6.728657	38.94612	131.329	-0.3576248	-0.04666797	0.29	3	98	0	4	8.066489	-5.775967	-44.2	
14:56:41	-6.728658	38.94612	131.275	-0.3901463	-2.119905	0.12	3	98	0	4	7.928437	-5.837795	-44.16645	
14:56:41	-6.728658	38.94612	131.245	-0.4225155	-3.706322	0.24	3	98	0	4	8.062557	-6.111364	-44.15649	
14:56:42	-6.728658	38.94612	131.164	-0.4512219	-4.748699	0.37	3	98	0	4	7.759465	-6.113173	-44.10753	
14:56:42	-6.728658	38.94612	131.07	-0.4937203	-6.872481	0.08	3	98	0	4	7.722684	-5.903754	-44.08936	
14:56:42	-6.728658	38.94612	131.059	-0.5284323	-8.407604	0.26	3	98	0	4	7.865556	-5.925308	-44.08906	
14:56:42	-6.728659	38.94612	131.034	-0.56873	-9.5114	0.19	3	98	0	3	7.592489	-5.881383	-44.04663	
14:56:42	-6.728659	38.94612	131.051	-0.6031712	-10.13441	0.12	3	98	0	4	7.728668	-5.865773	-44.0426	
14:56:43	-6.728659	38.94612	131.102	-0.6844995	-13.46809	0.18	3	98	0	4	7.891094	-5.831881	-44.08228	
14:56:43	-6.728659	38.94612	131.109	-0.7570605	-16.85948	0.06	3	98	0	4	7.838734	-5.870427	-44.06627	
14:56:43	-6.728659	38.94612	131.111	-0.8219427	-18.1747	0.09	3	98	0	4	7.870515	-6.014929	-44.04187	
14:56:43	-6.728659	38.94612	131.148	-0.8673116	-19.40484	0.13	3	98	0	4	7.888135	-6.013592	-44.02076	
14:56:43	-6.728659	38.94612	131.104	-0.9038816	-19.36043	0.18	3	98	0	4	7.915615	-5.91137	-44.04641	
14:56:44	-6.728659	38.94612	131.162	-0.9310675	-19.33674	0.12	3	98	0	4	7.822931	-5.988848	-44.03262	
14:56:44	-6.728659	38.94612	131.138	-0.919626	-17.24474	0.09	3	98	0	4	7.958825	-5.960508	-44.0424	
14:56:44	-6.728659	38.94612	131.128	-0.9078753	-15.14498	0.22	3	98	0	4	7.951912	-5.970931	-44.02098	
14:56:44	-6.728659	38.94612	131.165	-0.8940223	-13.1507	0.16	3	98	0	4	8.129308	-5.752142	-44.04761	
14:56:44	-6.728659	38.94612	131.187	-0.879913	-11.00588	0.09	3	98	0	4	8.121673	-5.809116	-44.14006	
14:56:45	-6.728659	38.94612	131.171	-0.8584862	-8.547444	0.13	3	98	0	4	8.095228	-5.950299	-44.13747	
14:56:45	-6.728659	38.94612	131.226	-0.8250905	-5.991131	0.03	3	98	0	4	7.969583	-5.927466	-44.11282	
14:56:45	-6.728659	38.94612	131.216	-0.7718183	-2.628935	0.13	3	98	0	4	8.035058	-5.930186	-44.10506	
14:56:45	-6.728659	38.94612	131.261	-0.7003194	0.9068732	0.02	3	99	0	4	7.994199	-5.928743	-44.1268	
14:56:45	-6.72866	38.94612	131.289	-0.6910172	0.6780744	0.16	3	99	0	4	8.033719	-5.950735	-44.1442	
14:56:46	-6.72866	38.94612	131.311	-0.7205944	-1.510493	0.09	3	99	0	4	7.976974	-5.94249	-44.12264	
14:56:46	-6.72866	38.94612	131.347	-0.7513154	-3.468798	0.14	3	99	0	4	8.156593	-5.85359	-44.12797	
14:56:46	-6.72866	38.94612	131.356	-0.7799519	-4.916827	0.22	3	99	0	4	8.298051	-5.821644	-44.14642	
14:56:46	-6.72866	38.94612	131.283	-0.7848645	-4.886534	0.19	3	99	0	4	8.355367	-5.801241	-44.17128	
14:56:46	-6.72866	38.94612	131.287	-0.7666825	-3.344097	0.04	3	99	0	4	8.277248	-5.875278	-44.17659	
14:56:47	-6.72866	38.94612	131.288	-0.7577376	-2.77871	0.22	3	99	0	4	8.118471	-6.013329	-44.15322	
14:56:47	-6.72866	38.94612	131.28	-0.7573639	-2.736489	0.16	3	99	0	4	8.060957	-5.962615	-44.14675	
14:56:47	-6.72866	38.94612	131.305	-0.7479849	-2.156033	0.12	3	99	0	4	8.106583	-5.737257	-44.19395	
14:56:47	-6.72866	38.94612	131.375	-0.7331007	-1.208553	0.24	3	99	0	3	8.158789	-5.69031	-44.22733	
14:56:47	-6.72866	38.94612	131.398	-0.7178163	-0.3898067	0.26	3	99	0	4	8.339239	-5.408772	-44.26145	
14:56:48	-6.72866	38.94612	131.355	-0.7033135	0.3574829	0.11	3	99	0	4	8.400476	-5.494448	-44.29701	
14:56:48	-6.728661	38.94612	131.376	-0.6739854	1.567526	0.34	3	99	0	4	8.084137	-5.563182	-44.31751	
14:56:48	-6.728661	38.94612	131.439	-0.6214085	3.936751	0.19	3	99	0	5	7.995737	-5.582546	-44.34832	
14:56:48	-6.728661	38.94612	131.569	-0.6189675	3.588508	0.26	3	98	0	4	8.281434	-5.411246	-44.36357	
14:56:49	-6.728661	38.94612	131.578	-0.7137639	-2.084689	0.24	3	98	0	4	8.247863	-5.404191	-44.42976	
14:56:49	-6.728661	38.94612	131.53	-0.8295127	-7.217813	0.06	3	98	0	4	8.311809	-5.412935	-44.49244	
14:56:49	-6.728661	38.94612	131.592	-0.8480351	-7.43053	0.24	3	98	0	4	8.293056	-5.538552	-44.5107	
14:56:49	-6.728661	38.94612	131.701	-0.8635162	-7.589119	0.14	3	98	0	4	8.170228	-5.524469	-44.50942	
14:56:50	-6.728661	38.94612	131.701	-0.8813612	-7.974304	0.17	3	98	0	4	8.385321	-5.613946	-44.54143	
14:56:50	-6.728661	38.94612	131.713	-0.8953404	-8.203652	0.17	3	98	0	6	8.626214	-5.584479	-44.61893	
14:56:50	-6.728661	38.94612	131.677	-0.8799028	-7.090535	0.06	3	98	0	4	8.542864	-5.552359	-44.66197	
14:56:50	-6.728661	38.94612	131.642	-0.8650885	-5.970097	0.24	3	98	0	4	8.430779	-5.703448	-44.66223	
14:56:50	-6.728661	38.94612	131.623	-0.8161487	-2.229667	0.13	3	98	0	4	8.49262	-5.708267	-44.69415	
14:56:51	-6.72866	38.94612	131.694	-0.7704639	0.5063684	0.09	3	98	0	4	8.616081	-5.521202	-44.78525	
14:56:51	-6.72866	38.94612	131.717	-0.7461252	1.584109	0.06	3	98	0	4	8.527163	-5.580809	-44.8131	
14:56:51	-6.72866	38.94612	131.69	-0.7268206	1.965642	0.14	3	98	0	4	8.570709	-5.562588	-44.82182	
14:56:51	-6.728659	38.94612	131.782	-0.7238785	1.680926	0.14	3	98	0	4	8.657797	-5.491732	-44.84698	
14:56:51	-6.728659	38.94612	131.768	-0.7214778	1.874791	0.13	3	98	0	4	8.567411	-5.382753	-44.89513	
14:56:52	-6.728659	38.94612	131.803	-0.6988137	3.08907	0.22	3	98	0	4	8.559197	-5.380826	-44.93384	
14:56:52	-6.728658	38.94612	131.808	-0.6801132	3.815769	0.07	3	98	0	4	8.564077	-5.449218	-44.94928	
14:56:52	-6.728658	38.94612	131.781	-0.6783355	3.893321	0.26	3	98	0	4	8.521179	-5.506452	-44.96167	
14:56:52	-6.728658	38.94612	131.85	-0.6778684	2.578805	0.07	3	98	0	4	8.493577	-5.523206	-44.96485	
14:56:52	-6.728658	38.94612	131.941	-0.6983849	1.429875	0.32	3	98	0	4	8.349412	-5.421021	-45.00542	
14:56:53	-6.728658	38.94612	132.012	-0.7167396	0.7980353	0.09	3	98	0	4	8.427186	-5.361106	-45.03209	
14:56:53	-6.728657	38.94612	132.13	-0.6807781	2.389991	0.16	3	98	0	4	8.351016	-5.442236	-45.03482	
14:56:53	-6.728657	38.94612	132.181	-0.6519888	3.788511	0.29	3	98	0	4	8.431839	-5.449076	-45.04536	
14:56:53	-6.728656	38.94612	132.292	-0.6220142	4.729355	0.09	3	98	0	4	8.31039	-5.562554	-45.05339	
14:56:53	-6.728656	38.94612	132.335	-0.5970266	4.820364	0.13	3	98	0	4	8.097162	-5.674347	-45.06649	
14:56:54	-6.728656	38.94612	132.381	-0.5861873	4.632876	0.16	3	98	0	4	8.219846	-5.645356	-45.05251	
14:56:54	-6.728656	38.94612	132.456	-0.5787879	4.366432	0.11	3	98	0	4	8.212416	-5.603264	-45.04665	
14:56:54	-6.728656	38.94612	132.483	-0.5599451	5.458885	0.12	3	98	0	3	8.209551	-5.605656	-45.03423	
14:56:54	-6.728656	38.94612	132.551	-0.5257093	6.858107	0.12	3	98	0	4	8.346253	-5.610735	-45.11215	
14:56:54	-6.728655	38.94612	132.536	-0.479203	8.839605	0.12	3	98	0	4	8.235173	-5.689579	-45.09034	
14:56:55	-6.728655	38.94612	132.607	-0.4226448	10.37344	0.12	3	98	0	4	8.210137	-5.56172	-45.06088	
14:56:55	-6.728655	38.94612	132.655	-0.3554577	12.52915	0.09	3	98	0	4	8.24473	-5.46805	-45.05121	
14:56:55	-6.728655	38.94612	132.739	-0.2888227	14.75005	0.16	3	98	0	4	8.152548	-5.544742	-45.10104	
14:56:55	-6.728655	38.94612	132.769	-0.2876373	12.89825	0.03	3	98	0	4	8.198699	-5.586708	-45.09661	
14:56:55	-6.728655	38.94612	132.741	-0.3443022	8.448383	0.36	3	98	0	4	8.495738	-5.462511	-45.11803	
14:56:56	-6.728655	38.94612	132.753	-0.3888585	5.127243	0.14	3	98	0	4	8.569796	-5.417184	-45.14589	
14:56:56	-6.728654	38.94612	132.78	-0.420642	2.130451	0.06	3	98	0	4	8.395783	-5.548246	-45.15338	
14:56:56	-6.728654	38.94612	132.78	-0.457946	-0.4929317	0.06	3	98	0	4	8.234755	-5.754175	-45.20728	
14:56:56	-6.728654	38.94612	132.763	-0.5044104	-3.022175	0.18	3	98	0	4	8.105675	-5.814063	-45.16908	
14:56:56	-6.728654	38.94612	132.954	-0.5306858	-4.169667	0.29	3	98	0	4	8.106306	-5.630113	-45.12425	
14:56:57	-6.728654	38.94612	132.947	-0.5514424	-5.153631	0.22	3	98	0	4	8.311646	-5.603733	-45.11609	
14:56:57	-6.728654	38.94612	132.892	-0.5659672	-5.444419	0.09	3	98	0	4	8.340183	-5.747164	-45.14771	
14:56:57	-6.728654	38.94612	132.899	-0.5771601	-5.630533	0.13	3	98	0	4	8.198996	-5.83862	-45.14249	
14:56:57	-6.728654	38.94612	132.866	-0.6114441	-6.657848	0.04	3	98	0	4	8.356827	-5.855155	-45.14363	
14:56:58	-6.728654	38.94612	132.906	-0.6653233	-9.05993	0.09	3	98	0	4	8.392921	-5.843983	-45.12255	
14:56:58	-6.728654	38.94612	133.006	-0.7112471	-10.67492	0.14	3	98	0	4	8.321354	-6.017846	-45.10938	
14:56:58	-6.728654	38.94612	132.908	-0.7585176	-12.46678	0.14	3	98	0	4	8.528978	-6.017587	-45.16396	
14:56:58	-6.728654	38.94612	132.941	-0.7879678	-12.58746	0.29	3	98	0	4	8.373676	-5.814303	-45.13198	
14:56:58	-6.728654	38.94612	132.981	-0.7959777	-12.08886	0.01	3	98	0	4	8.421829	-5.939316	-45.10677	
14:56:59	-6.728653	38.94612	133.1	-0.776518	-10.14603	0.09	3	98	0	4	8.500611	-6.008581	-45.09039	
14:56:59	-6.728653	38.94612	133.091	-0.7320458	-6.909711	0.14	3	98	0	4	8.393963	-6.00381	-45.11547	
14:56:59	-6.728653	38.94612	133.146	-0.6895363	-4.052811	0.09	3	98	0	4	8.545694	-6.00775	-45.10207	
14:56:59	-6.728653	38.94612	133.235	-0.6368436	-0.9635164	0.19	3	98	0	4	8.442986	-6.062901	-45.06364	
14:56:59	-6.728653	38.94612	133.277	-0.5886494	1.558812	0.18	3	98	0	4	8.338012	-6.07045	-45.01973	
14:57:00	-6.728653	38.94612	133.287	-0.6244737	-0.2687995	0.13	3	98	0	4	8.438869	-6.112649	-45.05737	
14:57:00	-6.728653	38.94612	133.333	-0.6607999	-1.948779	0.25	3	98	0	4	8.441899	-6.189758	-45.05967	
14:57:00	-6.728653	38.94612	133.409	-0.6492942	-0.5788885	0.06	3	98	0	4	8.516632	-5.999108	-45.03055	
14:57:00	-6.728653	38.94612	133.41	-0.6397024	0.6032559	0.07	3	98	0	4	8.62942	-5.910355	-45.03561	
14:57:00	-6.728653	38.94612	133.411	-0.6630182	-0.001445494	0.09	3	98	0	4	8.523834	-5.915829	-45.01512	
14:57:01	-6.728653	38.94612	133.457	-0.6827554	-0.7150587	0.12	3	98	0	4	8.612578	-5.969602	-45.05698	
14:57:01	-6.728653	38.94612	133.453	-0.683121	-0.74112	0.09	3	98	0	4	8.49292	-6.020989	-45.03235	
14:57:01	-6.728652	38.94612	133.513	-0.6831146	-0.4183893	0.06	3	98	0	4	8.440012	-6.0203	-45.01599	
14:57:01	-6.728652	38.94612	133.57	-0.6888728	-0.9050613	0.17	3	98	0	4	8.573211	-5.85587	-44.99897	
14:57:01	-6.728652	38.94612	133.633	-0.6940997	-0.8152655	0.11	3	98	0	4	8.533302	-5.836928	-45.0118	
14:57:02	-6.728652	38.94612	133.636	-0.7004799	-1.07399	0.03	3	98	0	4	8.373639	-5.93083	-45.01264	
14:57:02	-6.728652	38.94612	133.675	-0.705569	-1.58935	0.12	3	98	0	4	8.320143	-6.07024	-44.97564	
14:57:02	-6.728651	38.94612	133.746	-0.7071411	-1.482005	0.11	3	98	0	4	8.482835	-6.099926	-44.95224	
14:57:02	-6.728651	38.94612	133.763	-0.7086295	-1.756656	0.08	3	98	0	4	8.264096	-6.080121	-44.9285	
14:57:02	-6.728651	38.94612	133.734	-0.6788351	0.1330759	0.26	3	98	0	4	8.249289	-6.105109	-44.94007	
14:57:03	-6.728651	38.94612	133.734	-0.6512982	1.442356	0.26	3	98	0	4	8.545958	-6.135463	-44.96248	
14:57:03	-6.728651	38.94612	133.772	-0.5778702	5.22508	0.11	3	98	0	4	8.551231	-6.130382	-44.9477	
14:57:03	-6.728651	38.94612	133.766	-0.5119745	7.922016	0.17	3	98	0	4	8.507059	-6.026309	-44.92227	
14:57:03	-6.728651	38.94612	133.703	-0.5328841	5.561578	0.07	3	98	0	4	8.305593	-6.193557	-44.91704	
14:57:03	-6.728651	38.94612	133.726	-0.5533779	4.392663	0.07	3	98	0	4	8.298743	-6.01773	-44.8991	
14:57:04	-6.728651	38.94612	133.687	-0.6214164	-0.2311425	0.02	3	98	0	4	8.375515	-6.008346	-44.88724	
14:57:04	-6.728651	38.94612	133.687	-0.6834414	-3.219747	0.02	3	98	0	4	8.342978	-6.009717	-44.88176	
14:57:04	-6.728651	38.94612	133.662	-0.7379873	-6.301643	0.13	3	98	0	5	8.285254	-5.922776	-44.90749	
14:57:04	-6.728651	38.94612	133.643	-0.7969863	-8.651856	0.11	3	98	0	4	8.180524	-6.02575	-44.95348	
14:57:04	-6.728651	38.94612	133.543	-0.8472448	-9.774782	0.16	3	98	0	4	8.168898	-6.10427	-44.90846	
14:57:05	-6.728651	38.94612	133.593	-0.8908742	-10.86281	0.21	3	98	0	4	8.205832	-5.97941	-44.88391	
14:57:05	-6.728651	38.94612	133.584	-0.907254	-9.685216	0.26	3	98	0	4	8.132627	-5.91933	-44.83885	
14:57:05	-6.728651	38.94612	133.584	-0.9085719	-8.183752	0.26	3	98	0	4	8.412733	-5.892781	-44.91456	
14:57:05	-6.728651	38.94612	133.518	-0.8894488	-6.397654	0.01	3	98	0	4	8.400365	-6.025966	-44.89447	
14:57:05	-6.728651	38.94612	133.487	-0.8598279	-4.196881	0.14	3	98	0	4	8.417851	-6.011775	-44.8703	
14:57:06	-6.728651	38.94612	133.462	-0.8121021	-1.087468	0.02	3	98	0	4	8.466105	-5.927938	-44.85174	
14:57:06	-6.728651	38.94612	133.436	-0.7545624	2.100939	0.22	3	98	0	4	8.314318	-6.083114	-44.85094	
14:57:06	-6.728651	38.94612	133.337	-0.7140446	4.232147	0.09	3	98	0	5	8.316863	-5.895094	-44.86864	
14:57:06	-6.728651	38.94612	133.375	-0.6887349	5.023142	0.04	3	98	0	4	8.205025	-5.998259	-44.85136	
14:57:06	-6.728651	38.94612	133.357	-0.6472318	7.020638	0.04	3	98	0	4	8.254051	-6.035909	-44.81257	
14:57:07	-6.728651	38.94612	133.349	-0.5913963	9.296644	0.14	3	98	0	4	8.265235	-6.049235	-44.80463	
14:57:07	-6.728651	38.94612	133.33	-0.546216	10.74854	0.14	3	98	0	4	8.384423	-6.005018	-44.85162	
14:57:07	-6.728651	38.94612	133.335	-0.5092638	12.03079	0.07	3	98	0	5	8.190635	-6.067081	-44.8201	
14:57:07	-6.728651	38.94612	133.435	-0.4658766	13.65577	0.22	3	98	0	4	8.2631	-6.018111	-44.80178	
14:57:07	-6.728651	38.94612	133.406	-0.4221342	14.48897	0.11	3	98	0	4	8.109937	-6.08653	-44.75044	
14:57:08	-6.728651	38.94612	133.466	-0.370902	15.7903	0.26	3	98	0	4	8.16903	-6.059617	-44.7348	
14:57:08	-6.728651	38.94612	133.466	-0.3176579	17.18819	0.14	3	98	0	5	8.041716	-6.046171	-44.68365	
14:57:08	-6.728651	38.94612	133.434	-0.2776462	18.01849	0.09	3	98	0	4	8.370447	-6.100144	-44.69164	
14:57:08	-6.728651	38.94612	133.443	-0.2481934	18.44179	0.29	3	98	0	4	8.2626	-6.041073	-44.65979	
14:57:08	-6.728651	38.94612	133.443	-0.2440452	16.94199	0.29	3	98	0	4	8.332333	-5.760988	-44.64315	
14:57:09	-6.728651	38.94612	133.449	-0.2625408	13.86492	0.32	3	98	0	4	8.523983	-5.716919	-44.69957	
14:57:09	-6.728651	38.94612	133.445	-0.2821622	11.79557	0.04	3	98	0	4	8.385056	-5.880152	-44.70714	
14:57:09	-6.72865	38.94612	133.491	-0.3138715	8.704677	0.12	3	98	0	4	8.367351	-5.906196	-44.68446	
14:57:09	-6.72865	38.94613	133.418	-0.3447209	6.44622	0.13	3	98	0	4	8.23742	-6.119351	-44.6519	
14:57:09	-6.72865	38.94613	133.439	-0.3982247	3.152442	0.19	3	98	0	4	8.187035	-6.254686	-44.66728	
14:57:10	-6.72865	38.94613	133.388	-0.4471711	0.262694	0.09	3	98	0	4	7.966676	-6.126368	-44.63426	
14:57:10	-6.72865	38.94612	133.45	-0.4638641	-0.8194135	0.22	3	98	0	5	7.94293	-6.235473	-44.59864	
14:57:10	-6.72865	38.94612	133.494	-0.478547	-1.283855	0.09	3	98	0	4	7.837018	-6.2823	-44.55606	
14:57:10	-6.72865	38.94613	133.468	-0.4963484	-2.463772	0.24	3	98	0	4	7.932421	-6.242507	-44.5216	
14:57:10	-6.728649	38.94613	133.593	-0.51229	-3.085981	0.02	3	98	0	4	8.055079	-6.033512	-44.57458	
14:57:11	-6.728649	38.94613	133.623	-0.5214503	-3.407817	0.08	3	98	0	4	8.073227	-6.208454	-44.56078	
14:57:11	-6.728648	38.94613	133.665	-0.5287858	-3.304584	0.06	3	98	0	4	8.119724	-6.217302	-44.53601	
14:57:11	-6.728648	38.94613	133.643	-0.5541497	-4.174146	0.07	3	98	0	5	8.09403	-6.209178	-44.50549	
14:57:11	-6.728648	38.94613	133.69	-0.5765483	-4.663949	0.08	3	98	0	4	8.015054	-6.209076	-44.49529	
14:57:11	-6.728648	38.94613	133.736	-0.6028539	-5.848487	0.36	3	98	0	4	8.021572	-6.175709	-44.46938	
14:57:12	-6.728648	38.94613	133.609	-0.6256422	-6.539437	0.07	3	98	0	4	7.735049	-6.378687	-44.40735	
14:57:12	-6.728648	38.94613	133.546	-0.6287596	-6.625691	0.09	3	98	0	4	8.050099	-6.351207	-44.38817	
14:57:12	-6.728649	38.94613	133.465	-0.6301026	-5.642644	0.28	3	98	0	4	8.138019	-6.35269	-44.37996	
14:57:12	-6.728649	38.94613	133.427	-0.5836869	-2.875812	0.04	3	98	0	4	7.797203	-6.197329	-44.35862	
14:57:12	-6.728649	38.94613	133.468	-0.5318656	-0.05469827	0.09	3	98	0	4	7.909723	-6.1506	-44.32173	
14:57:13	-6.728649	38.94613	133.42	-0.4600452	2.745092	0.32	3	98	0	4	7.987841	-6.073215	-44.28944	
14:57:13	-6.728649	38.94613	133.472	-0.3962265	5.889148	0.31	3	98	0	4	7.934002	-5.878146	-44.25211	
14:57:13	-6.728648	38.94613	133.462	-0.3330431	8.492737	0.06	3	98	0	4	8.180845	-5.892898	-44.28658	
14:57:13	-6.728648	38.94613	133.494	-0.2780194	9.696431	0.18	3	98	0	4	8.064837	-6.152254	-44.2783	
14:57:13	-6.728647	38.94613	133.594	-0.2255512	11.53599	0.04	3	98	0	6	8.233068	-6.168283	-44.2592	
14:57:14	-6.728647	38.94613	133.604	-0.1804648	12.44224	0.06	3	98	0	4	8.09732	-6.141312	-44.23743	
14:57:14	-6.728647	38.94613	133.613	-0.1636572	12.01295	0.38	3	98	0	4	8.0038	-6.168413	-44.1987	
14:57:14	-6.728647	38.94613	133.661	-0.1715579	10.41309	0.07	3	98	0	4	8.267301	-5.957522	-44.23644	
14:57:14	-6.728647	38.94613	133.67	-0.1572094	10.23782	0.14	3	98	0	4	8.090838	-6.194081	-44.21441	
14:57:14	-6.728647	38.94613	133.697	-0.1240188	10.78022	0.26	3	98	0	4	7.915406	-6.153471	-44.17987	
14:57:15	-6.728647	38.94613	133.755	-0.102226	10.88306	0.28	3	98	0	4	7.802126	-5.933058	-44.1361	
14:57:15	-6.728647	38.94613	133.744	-0.08268144	11.10413	0.13	3	98	0	4	7.994494	-5.829287	-44.17927	
14:57:15	-6.728647	38.94613	133.792	-0.1266453	7.945224	0.13	3	99	0	4	7.93503	-5.946631	-44.19289	
14:57:15	-6.728647	38.94613	133.825	-0.2210744	1.601877	0.22	3	99	0	5	7.843958	-6.097977	-44.17912	
14:57:15	-6.728647	38.94613	133.834	-0.2973545	-2.440963	0.12	3	99	0	4	8.192472	-6.025146	-44.18743	
14:57:16	-6.728646	38.94613	133.868	-0.3529972	-5.168309	0.14	3	99	0	4	7.949613	-6.012454	-44.1432	
14:57:16	-6.728646	38.94613	133.911	-0.4026734	-7.330799	0.12	3	99	0	4	8.157099	-5.982578	-44.1677	
14:57:16	-6.728646	38.94613	133.868	-0.438737	-8.534191	0.21	3	99	0	4	8.021326	-5.950956	-44.14662	
14:57:16	-6.728646	38.94613	133.824	-0.472838	-9.577491	0.12	3	99	0	4	8.255455	-6.031098	-44.16726	
14:57:16	-6.728646	38.94613	133.877	-0.5063512	-11.2061	0.04	3	99	0	4	8.198993	-6.038598	-44.16015	
14:57:17	-6.728646	38.94613	133.913	-0.5519129	-12.82943	0.19	3	99	0	4	8.099492	-6.05872	-44.21162	
14:57:17	-6.728646	38.94613	133.899	-0.6065657	-14.71074	0.06	3	99	0	4	8.24499	-6.026363	-44.22653	
14:57:17	-6.728645	38.94613	133.967	-0.6560383	-15.99275	0.11	3	99	0	4	8.030333	-6.032076	-44.16982	
14:57:17	-6.728645	38.94613	133.97	-0.7013533	-17.03137	0.22	3	99	0	4	8.156086	-6.082116	-44.16297	
14:57:17	-6.728645	38.94613	134.024	-0.7577861	-17.98741	0.11	3	99	0	4	8.235932	-5.89297	-44.17284	
14:57:18	-6.728645	38.94613	134.091	-0.8231776	-19.66204	0.19	3	99	0	4	8.172265	-5.949122	-44.21064	
14:57:18	-6.728645	38.94613	134.068	-0.8828034	-20.52979	0.11	3	99	0	4	7.967475	-5.829227	-44.17772	
14:57:18	-6.728644	38.94613	134.224	-0.9394256	-21.59316	0.26	3	99	0	4	8.164184	-5.971428	-44.19038	
14:57:18	-6.728644	38.94613	134.254	-0.9698675	-20.85203	0.14	3	99	0	4	8.345786	-6.111114	-44.20282	
14:57:18	-6.728644	38.94613	134.261	-0.9685666	-18.54259	0.02	3	99	0	4	8.206662	-6.185871	-44.21191	
14:57:19	-6.728644	38.94613	134.197	-0.9643118	-17.13115	0.14	3	99	0	4	8.101843	-6.105768	-44.21073	
14:57:19	-6.728643	38.94613	134.229	-0.9778249	-15.79634	0.04	3	99	0	4	8.127001	-6.221731	-44.19019	
14:57:19	-6.728643	38.94613	134.264	-0.9862643	-14.17072	0.17	3	99	0	4	7.964263	-6.069796	-44.15751	
14:57:19	-6.728644	38.94613	134.307	-0.9589344	-12.08782	0.26	3	99	0	4	7.97234	-5.856132	-44.17231	
14:57:19	-6.728644	38.94613	134.414	-0.9356993	-10.64011	0.18	3	99	0	4	7.994051	-5.724689	-44.18589	
14:57:20	-6.728644	38.94613	134.465	-0.8570479	-5.914716	0.09	3	99	0	4	8.03675	-5.851208	-44.19693	
14:57:20	-6.728645	38.94613	134.453	-0.7898057	-1.225148	0.08	3	99	0	4	8.004419	-5.966927	-44.17467	
14:57:20	-6.728645	38.94613	134.431	-0.7625307	0.7705927	0.18	3	98	0	4	7.987345	-6.162866	-44.15103	
14:57:20	-6.728645	38.94613	134.467	-0.7368837	2.129228	0.14	3	98	0	4	7.912717	-5.970202	-44.17167	
14:57:20	-6.728645	38.94613	134.436	-0.7033811	4.058445	0.04	3	99	0	4	7.913451	-6.110522	-44.13646	
14:57:21	-6.728645	38.94613	134.463	-0.6724141	5.691939	0.16	3	99	0	4	8.141285	-6.107607	-44.13279	
14:57:21	-6.728645	38.94613	134.478	-0.6509588	5.947667	0.16	3	99	0	4	8.069576	-5.878559	-44.09832	
14:57:21	-6.728645	38.94613	134.518	-0.6340257	6.520808	0.16	3	99	0	4	8.087235	-5.848564	-44.13156	
14:57:21	-6.728646	38.94613	134.509	-0.5805738	8.890012	0.04	3	99	0	4	7.89665	-5.987639	-44.10744	
14:57:21	-6.728646	38.94613	134.508	-0.537437	10.3845	0.12	3	99	0	4	8.078861	-6.108828	-44.09206	
14:57:22	-6.728646	38.94613	134.483	-0.4978268	11.96831	0.01	3	99	0	4	8.086005	-5.951478	-44.06618	
14:57:22	-6.728645	38.94613	134.533	-0.4593259	13.09253	0.04	3	99	0	4	8.083304	-6.062346	-44.05887	
14:57:22	-6.728646	38.94613	134.525	-0.456474	11.71142	0.13	3	99	0	4	8.101317	-5.983186	-44.11999	
14:57:22	-6.728646	38.94613	134.541	-0.4568239	10.91877	0.09	3	99	0	4	8.005623	-5.920724	-44.11288	
14:57:22	-6.728645	38.94613	134.611	-0.4391272	10.38639	0.09	3	99	0	4	8.183944	-5.915679	-44.12395	
14:57:23	-6.728645	38.94613	134.659	-0.4269363	10.19766	0.19	3	99	0	4	8.200805	-6.082559	-44.1242	
14:57:23	-6.728646	38.94613	134.616	-0.3892566	11.35888	0.18	3	99	0	4	7.987566	-6.00499	-44.14493	
14:57:23	-6.728646	38.94613	134.642	-0.3533832	12.04448	0.02	3	99	0	4	7.990284	-6.025106	-44.14437	
14:57:23	-6.728646	38.94613	134.705	-0.3047954	13.2406	0.13	3	99	0	4	8.181448	-6.006902	-44.14542	
14:57:23	-6.728646	38.94613	134.685	-0.2597018	14.0957	0.09	3	99	0	4	8.191607	-5.818701	-44.13761	
14:57:24	-6.728646	38.94613	134.696	-0.2458274	13.48595	0.01	3	99	0	4	8.079471	-6.015287	-44.12322	
14:57:24	-6.728646	38.94613	134.773	-0.2553129	11.83411	0.09	3	99	0	4	8.132666	-5.997371	-44.14262	
14:57:24	-6.728646	38.94613	134.77	-0.2780331	9.37633	0.28	3	99	0	4	8.269815	-6.08879	-44.14566	
14:57:24	-6.728646	38.94613	134.699	-0.3091577	7.248396	0.13	3	99	0	4	8.303905	-5.743294	-44.1442	
14:57:24	-6.728646	38.94613	134.648	-0.3443525	4.935293	0.18	3	99	0	4	8.142473	-5.887425	-44.1229	
14:57:25	-6.728646	38.94613	134.701	-0.3821639	2.337398	0.09	3	99	0	4	8.066767	-6.21999	-44.13836	
14:57:25	-6.728646	38.94613	134.694	-0.4240734	-0.3947624	0.22	3	99	0	4	8.170102	-5.945561	-44.14424	
14:57:25	-6.728646	38.94613	134.674	-0.4687335	-2.840528	0.06	3	99	0	4	8.44717	-6.052584	-44.17575	
14:57:25	-6.728646	38.94613	134.66	-0.4876738	-3.200336	0.07	3	99	0	4	8.282388	-6.028156	-44.14603	
14:57:25	-6.728646	38.94613	134.739	-0.4898811	-2.662123	0.04	3	99	0	4	8.129869	-6.061778	-44.13284	
14:57:26	-6.728646	38.94613	134.58	-0.4898874	-2.362012	0.16	3	99	0	4	8.221644	-6.08989	-44.15263	
14:57:26	-6.728647	38.94613	134.497	-0.4886759	-2.151567	0.03	3	99	0	4	8.379233	-6.082527	-44.15096	
14:57:26	-6.728647	38.94613	134.471	-0.4876844	-2.094171	0.16	3	99	0	4	8.197899	-5.979554	-44.1335	
14:57:26	-6.728647	38.94613	134.392	-0.487018	-1.97053	0.21	3	99	0	4	8.26164	-5.918403	-44.14688	
14:57:26	-6.728648	38.94613	134.397	-0.4995515	-2.9533	0.08	3	98	0	4	8.43727	-6.122568	-44.22666	
14:57:27	-6.728648	38.94613	134.407	-0.5231078	-3.88521	0.26	3	98	0	4	8.248269	-5.95608	-44.20622	
14:57:27	-6.728649	38.94613	134.436	-0.5286719	-4.05931	0.22	3	98	0	4	7.967586	-5.900436	-44.16263	
14:57:27	-6.728649	38.94613	134.387	-0.523419	-3.152215	0.02	3	98	0	4	8.295007	-5.780948	-44.17376	
14:57:27	-6.728649	38.94613	134.407	-0.5103937	-2.167584	0.08	3	98	0	4	8.265656	-5.991	-44.17314	
14:57:27	-6.728649	38.94613	134.502	-0.4932487	-1.101377	0.13	3	98	0	4	8.201802	-6.1127	-44.1843	
14:57:28	-6.72865	38.94613	134.475	-0.5225108	-2.602286	0.26	3	98	0	4	8.124866	-6.12259	-44.16268	
14:57:28	-6.72865	38.94613	134.499	-0.592598	-6.060422	0.07	3	98	0	4	7.935273	-6.032668	-44.11925	
14:57:28	-6.72865	38.94613	134.532	-0.6203299	-6.832822	0.08	3	99	0	4	8.193717	-6.075568	-44.1228	
14:57:28	-6.72865	38.94613	134.461	-0.6106533	-5.463947	0.14	3	99	0	6546	8.323608	-5.971605	-44.1491	
14:57:28	-6.728651	38.94613	134.391	-0.5999481	-3.831706	0.19	3	99	0	6546	8.074007	-5.908315	-44.11863	
14:57:29	-6.728651	38.94613	134.42	-0.5886919	-2.644187	0.22	3	99	0	6546	8.0268	-5.924852	-44.10977	
14:57:29	-6.728651	38.94613	134.341	-0.5779665	-2.028079	0.08	3	99	0	6546	8.059969	-6.053023	-44.08463	
14:57:29	-6.728651	38.94613	134.307	-0.5654227	-0.68727	0.32	3	99	0	6546	8.207794	-5.96773	-44.10547	
14:57:29	-6.728651	38.94613	134.32	-0.5545673	-0.1866116	0.17	3	99	0	6546	8.104609	-5.575825	-44.14161	
14:57:29	-6.728652	38.94613	134.261	-0.5422785	0.6808907	0.03	3	99	0	6546	8.185152	-5.755693	-44.17155	
14:57:30	-6.728652	38.94613	134.17	-0.5311282	1.152042	0.22	3	99	0	6546	8.32136	-5.917892	-44.17866	
14:57:30	-6.728652	38.94613	134.146	-0.5583216	-0.416817	0.18	3	99	0	6546	8.095186	-5.994614	-44.15675	
14:57:30	-6.728652	38.94613	134.126	-0.5828344	-1.59339	0.07	3	99	0	6546	8.229624	-5.800365	-44.24622	
14:57:30	-6.728652	38.94613	134.13	-0.5770065	-1.412986	0.16	3	99	0	6546	8.393063	-5.939316	-44.27462	
14:57:30	-6.728652	38.94613	134.157	-0.5724098	-1.053126	0.22	3	99	0	6546	8.181867	-5.952415	-44.24243	
14:57:31	-6.728653	38.94613	134.181	-0.6059598	-2.926679	0.25	3	99	0	6546	8.111935	-5.917732	-44.23196	
14:57:31	-6.728653	38.94613	134.172	-0.6344123	-4.984977	0.29	3	99	0	6546	8.303501	-5.614494	-44.23192	
14:57:31	-6.728653	38.94613	134.114	-0.676735	-6.695744	0.04	3	99	0	6546	8.568976	-5.708549	-44.26762	
14:57:31	-6.728653	38.94613	134.048	-0.7114278	-8.204198	0.16	3	99	0	6548	8.355535	-5.942367	-44.26774	
14:57:31	-6.728653	38.94613	134.026	-0.7184138	-7.885293	0.25	3	99	0	6546	8.299968	-6.039205	-44.25736	
14:57:32	-6.728653	38.94613	134.088	-0.7239222	-7.564591	0.61	3	99	0	6546	8.268678	-5.651462	-44.25886	
14:57:32	-6.728653	38.94613	134.219	-0.7680746	-9.215264	0.52	3	99	0	6546	8.27581	-5.267997	-44.31057	
14:57:32	-6.728654	38.94613	134.208	-0.8063526	-10.48473	0.11	3	99	0	6546	8.342117	-5.469258	-44.37215	
14:57:32	-6.728654	38.94613	134.185	-0.7910345	-8.835929	0.12	3	99	0	6546	8.18523	-6.040677	-44.37334	
14:57:32	-6.728654	38.94613	134.099	-0.777906	-8.254002	0.04	3	99	0	6546	8.315094	-6.305991	-44.36884	
14:57:33	-6.728653	38.94613	134.164	-0.7940874	-8.201623	0.29	3	99	0	6546	7.802869	-6.347702	-44.38599	
14:57:33	-6.728653	38.94613	134.201	-0.8060863	-7.352498	0.14	3	99	0	6545	7.774391	-6.525177	-44.36001	
14:57:33	-6.728653	38.94613	134.257	-0.7796188	-4.846769	0.19	3	99	0	6546	7.946174	-6.409959	-44.3396	
14:57:33	-6.728653	38.94613	134.343	-0.7564414	-3.255899	0.22	3	99	0	6546	7.89792	-6.4173	-44.27818	
14:57:33	-6.728653	38.94613	134.346	-0.7276977	-1.700202	0.12	3	99	0	6546	7.969982	-6.402565	-44.2729	
14:57:34	-6.728653	38.94613	134.387	-0.6943873	-0.3221518	0.18	3	99	0	6546	7.943936	-6.170435	-44.30091	
14:57:34	-6.728653	38.94613	134.411	-0.642178	2.526308	0.06	3	99	0	6546	7.966201	-6.375844	-44.27367	
14:57:34	-6.728653	38.94613	134.378	-0.5631877	6.408466	0.26	3	99	0	6546	8.318996	-6.158337	-44.23292	
14:57:34	-6.728654	38.94613	134.424	-0.488522	10.09526	0.13	3	99	0	6546	5.157985	-6.097409	-43.92737	
14:57:34	-6.728654	38.94613	134.514	-0.4085197	15.73404	0.24	3	99	0	6546	3.243106	-5.819971	-42.74399	
14:57:35	-6.728654	38.94613	134.533	-0.4092754	7.881255	0.19	3	99	0	6546	7.611288	-6.201318	-42.18516	
14:57:35	-6.728654	38.94613	134.645	-0.4587495	9.046803	0.25	3	99	0	6546	5.737569	-6.281818	-42.26159	
14:57:35	-6.728654	38.94613	134.629	-0.4667612	9.0747	0.33	3	99	0	6546	5.661204	-6.076509	-42.14956	
14:57:35	-6.728654	38.94613	134.696	-0.453	9.127062	0.26	3	99	0	6546	6.146991	-6.252254	-42.14339	
14:57:35	-6.728654	38.94613	134.73	-0.4497429	8.280728	0.16	3	99	0	6546	7.110292	-6.178164	-42.24564	
14:57:36	-6.728654	38.94613	134.836	-0.457725	7.458159	0.19	3	99	0	6546	7.28302	-6.316756	-42.31245	
14:57:36	-6.728653	38.94613	135.008	-0.450464	6.710719	0.06	3	99	0	6546	7.239858	-6.347122	-42.33088	
14:57:36	-6.728653	38.94613	135.002	-0.4199476	7.742289	0.16	3	99	0	6546	7.23688	-6.17816	-42.31754	
14:57:36	-6.728654	38.94613	134.998	-0.4243224	6.591075	0.22	3	99	0	6546	7.360693	-5.929993	-42.38452	
14:57:36	-6.728653	38.94613	135.011	-0.4478697	4.589269	0.25	3	99	0	6546	7.452417	-5.919668	-42.42654	
14:57:37	-6.728653	38.94613	135.158	-0.4849591	2.607903	0.48	3	99	0	6546	7.472632	-5.994323	-42.43056	
14:57:37	-6.728654	38.94613	135.056	-0.5287015	-0.2924296	0.29	3	99	0	6546	7.088613	-5.510149	-42.38776	
14:57:37	-6.728654	38.94613	135.214	-0.5520181	-1.95175	0.04	3	99	0	6546	7.149232	-5.761788	-42.40183	
14:57:37	-6.728654	38.94613	135.236	-0.5630326	-2.128866	0.03	3	99	0	6546	7.290384	-5.984642	-42.50043	
14:57:37	-6.728654	38.94613	135.103	-0.5619737	-1.753314	0.31	3	99	0	6546	7.210452	-6.067403	-42.48981	
14:57:38	-6.728654	38.94613	135.25	-0.5450379	-0.2355871	0.02	3	99	0	6546	7.171898	-6.183491	-42.45565	
14:57:38	-6.728654	38.94613	135.25	-0.5251865	1.067693	0.18	3	99	0	6546	7.087435	-5.935051	-42.4636	
14:57:38	-6.728653	38.94613	135.336	-0.5001667	2.258131	0.19	3	99	0	6546	7.7973	-5.772245	-42.58264	
14:57:38	-6.728653	38.94613	135.195	-0.47978	3.404397	0.22	3	99	0	6546	7.054935	-5.968599	-42.68499	
14:57:38	-6.728653	38.94613	135.234	-0.4404631	5.807599	0.14	3	99	0	6546	7.227868	-5.668923	-42.70954	
14:57:39	-6.728653	38.94613	135.268	-0.4053835	7.298385	0.21	3	99	0	6546	6.948234	-5.82517	-42.66901	
14:57:39	-6.728653	38.94613	135.238	-0.4048299	6.246214	0.41	3	99	0	6546	6.974824	-5.837646	-42.67198	
14:57:39	-6.728653	38.94613	135.172	-0.4050246	6.340396	0.31	3	99	0	6546	7.501304	-5.411005	-42.71173	
14:57:39	-6.728653	38.94613	135.152	-0.400127	5.959458	0.5	3	99	0	6547	7.037225	-5.960391	-42.68599	
14:57:39	-6.728653	38.94613	134.788	-0.3964623	5.626947	0.72	3	99	0	6546	6.730479	-5.947019	-42.63253	
14:57:40	-6.728653	38.94612	134.603	-0.4442889	2.952632	0.55	3	99	0	6546	7.034538	-6.422325	-42.59382	
14:57:40	-6.728653	38.94612	134.424	-0.4876181	0.865151	0.77	3	99	0	6546	7.795549	-6.296185	-42.57799	
14:57:40	-6.728652	38.94612	134.525	-0.4844873	1.169014	0.06	3	99	0	6546	7.294517	-6.399275	-42.62971	
14:57:40	-6.728652	38.94612	134.416	-0.4817947	0.3612227	0.19	3	99	0	6546	7.536322	-5.794093	-42.63105	
14:57:40	-6.728653	38.94612	134.478	-0.4762236	-0.04083696	0.26	3	99	0	6546	7.445186	-5.73192	-42.6079	
14:57:41	-6.728652	38.94612	134.438	-0.4725498	-0.4089694	0.17	3	99	0	6546	7.184425	-5.546219	-42.70467	
14:57:41	-6.728652	38.94612	134.539	-0.5041535	-1.209462	0.39	3	99	0	6546	7.121984	-5.927289	-42.72139	
14:57:41	-6.728652	38.94612	134.606	-0.5296625	-3.183942	0.26	3	99	0	6546	6.548104	-6.025973	-42.68861	
14:57:41	-6.728652	38.94612	134.69	-0.5612217	-4.03441	0.22	3	99	0	6546	7.739632	-5.843273	-42.6968	
14:57:41	-6.728652	38.94612	134.473	-0.5892691	-5.217023	0.22	3	99	0	6546	8.733996	-5.606293	-42.80033	
14:57:42	-6.728651	38.94612	134.445	-0.6723984	-8.628924	0.12	3	99	0	6546	8.332163	-5.751483	-42.8975	
14:57:42	-6.728651	38.94612	134.425	-0.7457876	-11.44551	0.13	3	99	0	6546	8.074327	-5.813997	-42.92883	
14:57:42	-6.728651	38.94612	134.338	-0.7876704	-12.08259	0.51	3	98	0	6546	7.967144	-6.006464	-42.91099	
14:57:42	-6.728651	38.94612	134.291	-0.8192502	-12.78294	0.04	3	98	0	6546	7.945469	-6.022687	-42.93322	
14:57:42	-6.728651	38.94612	134.248	-0.8816329	-15.57245	0.19	3	98	0	6546	6.466303	-5.553029	-42.89806	
14:57:43	-6.728651	38.94612	134.276	-0.9350303	-15.04329	0.19	3	98	0	6546	3.195835	-5.765767	-43.00281	
14:57:43	-6.728652	38.94612	134.138	-0.9622279	-16.90911	0.35	3	98	0	6546	5.316661	-5.437006	-42.76349	
14:57:43	-6.728653	38.94612	134.122	-0.9832501	-15.36329	0.09	3	98	0	6544	7.793841	-5.792727	-41.91479	
14:57:43	-6.728653	38.94612	134.175	-0.9981583	-18.7201	0.18	3	98	0	6546	8.06266	-5.783504	-42.27412	
14:57:43	-6.728652	38.94612	134.184	-1.007285	-15.8915	0.29	3	98	0	6546	8.34751	-5.886207	-42.53449	
14:57:44	-6.728652	38.94612	134.277	-1.009699	-13.94007	0.35	3	98	0	6546	9.679799	-5.772202	-42.46611	
14:57:44	-6.728652	38.94612	134.211	-1.000741	-4.304728	0.26	3	98	0	6546	8.264894	-4.334299	-42.46513	
14:57:44	-6.728651	38.94612	134.308	-0.9498159	4.103377	0.29	3	98	0	6546	5.337215	-3.390338	-43.0176	
14:57:44	-6.728651	38.94612	134.41	-0.9062892	-5.595138	0.16	3	98	0	6546	2.853666	-3.208021	-43.22049	
14:57:44	-6.728651	38.94612	134.478	-0.8806591	-1.559274	0.16	3	98	0	6546	2.049966	-2.270307	-41.85803	
14:57:45	-6.728651	38.94612	134.404	-0.8714426	-6.67922	0.16	3	99	0	6546	4.089508	-2.110796	-41.80161	
14:57:45	-6.728651	38.94612	134.451	-0.8718811	-3.832331	0.09	3	99	0	6546	5.252531	-1.902665	-41.85701	
14:57:45	-6.728651	38.94612	134.536	-0.8846952	-11.74032	0.07	3	99	0	6546	3.340953	-1.829389	-42.13109	
14:57:45	-6.728651	38.94612	134.583	-0.9322194	-4.848416	0.11	3	99	0	6546	3.572603	-1.4455	-41.91588	
14:57:46	-6.728652	38.94612	134.61	-0.995808	-5.335628	0.42	3	98	0	6546	2.451196	-1.555034	-42.50635	
14:57:46	-6.728652	38.94612	134.758	-1.040287	-11.3033	0.09	3	98	0	6546	2.815539	-1.450822	-42.29537	
14:57:46	-6.728652	38.94612	134.877	-1.031233	-8.972878	0.28	3	98	0	6546	3.952977	-0.8125688	-42.15829	
14:57:46	-6.728652	38.94612	134.919	-1.00795	-7.677917	0.14	3	98	0	6546	3.140471	-1.0598	-42.14638	
14:57:46	-6.728652	38.94612	135.116	-0.9601088	-5.972339	0.04	3	98	0	6546	3.765593	-0.955979	-42.15464	
14:57:47	-6.728653	38.94612	135.212	-0.8967069	-0.6080974	0.22	3	98	0	6546	4.34375	-0.5636487	-42.05837	
14:57:47	-6.728653	38.94612	135.307	-0.8372065	2.163157	0.13	3	98	0	6546	5.508799	-0.3546505	-42.38992	
14:57:47	-6.728653	38.94612	135.325	-0.767229	9.532903	0.16	3	98	0	6546	5.656108	-0.2899878	-42.36304	
14:57:47	-6.728653	38.94612	135.379	-0.7105953	14.87833	0.41	3	98	0	6546	1.905009	0.436783	-42.67769	
14:57:47	-6.728653	38.94612	135.501	-0.6849887	14.47333	0.04	3	98	0	6546	-0.5396571	0.7516336	-43.11343	
14:57:48	-6.728653	38.94612	135.345	-0.6498924	13.04786	0.69	3	98	0	6546	-1.774629	0.8946409	-42.9146	
14:57:48	-6.728653	38.94612	135.428	-0.594123	12.96461	0.52	3	98	0	6546	-2.450221	1.65887	-43.29367	
14:57:48	-6.728653	38.94612	135.518	-0.565518	8.541753	0.31	3	98	0	6546	1.464691	2.809493	-44.18727	
14:57:48	-6.728653	38.94612	135.644	-0.5393269	7.250982	0.14	3	98	0	6546	1.274844	3.830716	-46.00687	
14:57:48	-6.728654	38.94612	135.846	-0.5225177	9.690916	0.25	3	98	0	6546	3.687446	4.738534	-45.18211	
14:57:49	-6.728654	38.94612	135.992	-0.4954483	10.39666	0.11	3	98	0	6546	6.131836	7.115771	-44.17415	
14:57:49	-6.728654	38.94612	136.082	-0.4696074	12.91879	0.16	3	98	0	6546	2.820041	8.750504	-45.62268	
14:57:49	-6.728655	38.94612	136.189	-0.4758143	9.859282	0.38	3	98	0	6546	5.400383	9.630561	-45.68198	
14:57:49	-6.728655	38.94612	136.39	-0.4875781	3.801062	0	3	98	0	6546	4.024751	9.437566	-46.4838	
14:57:49	-6.728655	38.94612	136.447	-0.4611904	4.440453	0.39	3	98	0	6546	4.397382	9.388789	-47.38777	
14:57:50	-6.728655	38.94612	136.422	-0.4402269	4.254408	0.14	3	98	0	6544	6.287029	9.664249	-47.7466	
14:57:50	-6.728655	38.94612	136.481	-0.4007147	6.414627	0.28	3	98	0	6546	7.214811	11.10188	-48.66147	
14:57:50	-6.728655	38.94612	136.472	-0.3717315	7.792904	0.26	3	98	0	6546	7.306154	11.37445	-49.711	
14:57:50	-6.728655	38.94612	136.393	-0.3398743	13.21702	0.18	3	98	0	6546	6.97916	12.45663	-50.91962	
14:57:50	-6.728656	38.94612	136.324	-0.3074928	12.01663	0.39	3	98	0	6546	5.82336	12.96998	-51.62694	
14:57:51	-6.728657	38.94612	136.234	-0.2507327	13.01136	0.33	3	98	0	6546	6.266977	13.30512	-52.18243	
14:57:51	-6.728658	38.94612	136.167	-0.2064852	13.80095	0.22	3	98	0	6546	6.624824	13.05918	-52.73137	
14:57:51	-6.728658	38.94612	136.069	-0.1633985	17.22992	0.17	3	99	0	6546	7.781616	13.09625	-52.64069	
14:57:51	-6.728658	38.94611	135.942	-0.1226264	18.25345	0.52	3	99	0	6546	7.668276	12.93678	-52.74308	
14:57:51	-6.728658	38.94611	136.002	-0.1280249	16.12707	0.53	3	99	0	6546	7.087241	13.11441	-53.36738	
14:57:52	-6.728658	38.94611	136.081	-0.1343608	15.90205	0.19	3	99	0	6546	6.549916	13.53649	-54.45269	
14:57:52	-6.728658	38.94611	136.147	-0.1106958	16.76499	0.26	3	99	0	6546	6.473911	13.35361	-55.49295	
14:57:52	-6.728658	38.94611	136.279	-0.09342419	17.89068	0.17	3	99	0	6546	6.301087	13.64793	-55.87963	
14:57:52	-6.728658	38.94612	136.3	-0.05287551	18.09999	0.11	3	99	0	6546	5.910746	14.12773	-56.56195	
14:57:52	-6.728658	38.94612	136.289	-0.02085541	17.93971	0.25	3	99	0	6546	4.449709	14.16611	-58.0659	
14:57:53	-6.728658	38.94612	136.355	0.01872024	17.32533	0.47	3	99	0	6546	3.16834	13.93973	-59.06681	
14:57:53	-6.728658	38.94612	136.429	0.04614393	16.09395	0.35	3	99	0	6546	3.392707	13.81496	-59.24364	
14:57:53	-6.728659	38.94612	136.464	0.0527401	17.21028	0.45	3	99	0	6546	3.075339	13.73277	-59.89891	
14:57:53	-6.72866	38.94612	136.485	0.02898865	14.52551	0.42	3	99	0	6546	3.946473	13.69639	-60.19378	
14:57:53	-6.72866	38.94612	136.51	-0.01013987	8.590569	0.21	3	99	0	6546	4.268136	12.95438	-60.50966	
14:57:54	-6.72866	38.94612	136.546	-0.07465613	1.846956	0.37	3	99	0	6546	4.780801	11.47858	-60.96083	
14:57:54	-6.72866	38.94612	136.485	-0.1420002	3.40487	0.19	3	99	0	6546	4.350766	11.47843	-61.39346	
14:57:54	-6.72866	38.94612	136.315	-0.1900357	2.676201	0.02	3	99	0	6546	4.082925	11.82003	-61.68933	
14:57:54	-6.72866	38.94612	136.26	-0.2494824	-1.354982	0.13	3	99	0	6546	4.137767	11.61075	-62.20867	
14:57:54	-6.72866	38.94612	136.122	-0.3190777	-4.592575	0.03	3	99	0	6546	3.782864	11.46412	-62.57065	
14:57:55	-6.728661	38.94612	136.029	-0.390045	-9.794203	0.36	3	99	0	6546	4.345689	11.30063	-62.82502	
14:57:55	-6.728661	38.94612	136.095	-0.456093	-13.5711	0.08	3	99	0	6546	4.229551	9.965297	-63.06012	
14:57:55	-6.728661	38.94612	136.131	-0.5085877	-20.57113	0.42	3	99	0	6546	4.847583	8.380879	-62.85459	
14:57:55	-6.728662	38.94612	136.218	-0.5278878	-17.27848	0.39	3	99	0	6546	4.267011	6.825722	-62.68599	
14:57:55	-6.728662	38.94612	136.046	-0.54809	-19.33666	0.09	3	99	0	6546	2.929218	4.523437	-62.21262	
14:57:56	-6.728662	38.94612	135.772	-0.5723569	-20.97817	0.06	3	99	0	6546	-1.256217	1.450702	-61.15451	
14:57:56	-6.728662	38.94612	135.619	-0.5943066	-18.55625	0.42	3	99	0	6546	-0.4936312	-0.2398644	-59.63841	
14:57:56	-6.728662	38.94612	135.438	-0.6161186	-17.03533	0.97	3	99	0	6546	-5.814742	-3.234623	-58.74562	
14:57:56	-6.728662	38.94611	135.402	-0.6402314	-13.90236	0.45	3	99	0	6546	-4.207156	-3.259044	-57.73635	
14:57:56	-6.728662	38.94611	135.298	-0.6711954	-15.19194	0.74	3	99	0	6546	-4.365444	-3.03263	-56.91792	
14:57:57	-6.728662	38.94611	135.309	-0.7149909	-15.8119	0.72	3	99	0	6546	-4.510301	-2.456082	-56.31481	
14:57:57	-6.728662	38.94611	135.476	-0.7575344	-15.45802	0.22	3	99	0	6546	-2.971719	-1.729241	-55.78529	
14:57:57	-6.728662	38.94611	135.493	-0.8123738	-23.74214	0.12	3	99	0	6546	-0.1080108	-1.739265	-55.42042	
14:57:57	-6.728662	38.94611	135.569	-0.8698224	-26.22583	0.22	3	99	0	6546	-0.01500906	-2.076252	-54.76036	
14:57:58	-6.728662	38.94611	135.727	-0.8957863	-22.19921	0.28	3	99	0	6546	-0.1518815	-1.865464	-54.23717	
14:57:58	-6.728662	38.94611	135.695	-0.8898803	-19.60219	0.16	3	98	0	6546	-0.8970906	-2.400154	-53.23438	
14:57:58	-6.728662	38.94611	135.913	-0.9013136	-18.15678	0.19	3	98	0	6546	-2.073786	-2.564001	-52.09872	
14:57:59	-6.728662	38.94611	136.008	-0.946848	-21.3698	0.18	3	98	0	6546	-1.800138	-2.657624	-51.5803	
14:57:59	-6.728662	38.94611	136.03	-0.9683542	-22.52819	0.51	3	98	0	6546	-1.25586	-3.040393	-51.09081	
14:57:59	-6.728662	38.94611	136.039	-0.9686643	-20.59367	0.26	3	98	0	6546	-1.13042	-3.028396	-50.5708	
14:57:59	-6.728661	38.94611	136.268	-0.9659695	-18.93419	0.22	3	98	0	6546	-0.9613421	-2.972281	-50.07946	
14:57:59	-6.728661	38.94611	136.462	-0.9844357	-18.73512	0.18	3	98	0	6546	-0.9354919	-2.683046	-49.62812	
14:58:00	-6.728662	38.94611	136.497	-1.001632	-19.1302	0.09	3	98	0	6546	-0.9385612	-2.509899	-49.25594	
14:58:00	-6.728662	38.94611	136.494	-0.9735284	-16.02984	0.13	3	98	0	6546	-0.7315191	-2.785175	-48.91753	
14:58:00	-6.728661	38.94611	136.495	-0.9487188	-14.28601	0.26	3	98	0	6546	-0.6832696	-3.053321	-48.53186	
14:58:00	-6.728661	38.94611	136.499	-0.8910168	-10.67343	0.26	3	98	0	6546	-0.8265675	-3.083865	-48.12399	
14:58:00	-6.728661	38.94611	136.532	-0.8381318	-7.829365	0.04	3	98	0	6546	-0.754365	-2.989597	-47.72652	
14:58:00	-6.728661	38.94611	136.589	-0.7431817	-3.320727	0.19	3	98	0	6546	-0.7277308	-2.726976	-47.39104	
14:58:01	-6.728662	38.94611	136.451	-0.66801	-0.1186613	0.18	3	98	0	6546	-0.5876823	-2.68348	-47.06882	
14:58:01	-6.728662	38.94611	136.464	-0.6256691	1.608007	0.18	3	98	0	6546	-0.3812061	-2.72309	-46.75465	
14:58:01	-6.728662	38.94611	136.515	-0.5891874	2.401585	0.25	3	98	0	6546	-0.4254045	-2.679479	-46.43535	
14:58:01	-6.728662	38.94611	136.586	-0.6935018	-3.73282	0.39	3	98	0	6546	-0.7388514	-2.908082	-46.13753	
14:58:01	-6.728662	38.94611	136.701	-0.77161	-7.90329	0.26	3	98	0	6546	0.5113789	-2.689436	-45.89271	
14:58:02	-6.728662	38.94611	136.631	-0.7999015	-8.879883	0.19	3	98	0	6546	0.8022901	-2.924649	-45.71178	
14:58:02	-6.728662	38.94611	136.582	-0.8211536	-9.124777	0.66	3	98	0	6546	0.09950578	-3.42124	-45.5159	
14:58:02	-6.728662	38.94611	136.613	-0.8927342	-12.48994	0.26	3	99	0	6547	-0.03993962	-3.290842	-45.24964	
14:58:02	-6.728662	38.94611	136.625	-0.9568745	-15.08152	0.35	3	99	0	6546	0.30959	-2.718759	-45.14618	
14:58:03	-6.728662	38.94611	136.635	-0.9717492	-14.81406	0.28	3	99	0	6546	0.3158088	-2.929706	-44.98543	
14:58:03	-6.728662	38.94611	136.669	-0.9830551	-14.1337	0.04	3	99	0	6546	0.3154505	-3.03572	-44.80334	
14:58:03	-6.728662	38.94611	136.535	-0.9902004	-13.34066	0.19	3	99	0	6546	0.3201243	-3.032611	-44.6217	
14:58:03	-6.728662	38.94611	136.505	-0.9954075	-12.81268	0.16	3	99	0	6546	0.5114152	-3.097992	-44.56258	
14:58:03	-6.728662	38.94611	136.538	-0.985319	-11.11021	0.02	3	99	0	6546	0.5353923	-3.03321	-44.35143	
14:58:04	-6.728662	38.94611	136.526	-0.9539149	-9.264321	0.22	3	99	0	6546	0.351512	-2.936128	-44.08564	
14:58:04	-6.728662	38.94611	136.633	-0.9289541	-7.148595	0.09	3	99	0	6546	0.5270118	-3.068439	-43.84414	
14:58:04	-6.728662	38.94611	136.662	-0.9063065	-5.384928	0.09	3	99	0	6546	0.3922194	-2.925518	-43.6511	
14:58:04	-6.728662	38.94611	136.662	-0.8429678	-1.372733	0.09	3	98	0	6546	0.03887793	-3.043797	-43.47303	
14:58:04	-6.728662	38.94611	136.737	-0.7587364	3.598188	0.11	3	98	0	6546	0.212593	-3.158627	-43.2496	
14:58:05	-6.728663	38.94611	136.91	-0.6830722	6.430481	0.32	3	98	0	6546	0.344498	-2.829823	-43.01034	
14:58:05	-6.728663	38.94611	137.224	-0.622468	8.734332	0.31	3	98	0	6546	0.3791145	-2.940187	-42.84893	
14:58:05	-6.728663	38.94611	137.224	-0.5703559	9.308335	0.31	3	98	0	6546	0.2910812	-2.64653	-42.77744	
14:58:05	-6.728663	38.94612	137.352	-0.5463136	8.620898	0.04	3	98	0	6546	0.2931346	-2.736744	-42.63469	
14:58:05	-6.728663	38.94612	137.405	-0.5327332	8.274949	0.36	3	98	0	6546	0.1124086	-3.146193	-42.43505	
14:58:06	-6.728663	38.94612	137.373	-0.5333008	7.309977	0.34	3	98	0	6546	0.0302438	-3.273541	-42.23932	
14:58:06	-6.728663	38.94611	137.107	-0.5486915	5.829676	0.39	3	98	0	6546	0.3287346	-3.388399	-42.09902	
14:58:06	-6.728664	38.94611	137.019	-0.5786476	2.707803	0.21	3	98	0	6546	0.4775867	-3.188388	-42.03825	
14:58:06	-6.728664	38.94611	136.888	-0.6069841	0.1837177	0.35	3	98	0	6545	0.2711472	-3.188508	-41.86385	
14:58:06	-6.728664	38.94611	136.888	-0.632702	-1.41322	0.35	3	98	0	6546	0.3133365	-3.366151	-41.68108	
14:58:07	-6.728664	38.94611	136.886	-0.6793458	-4.387194	0.04	3	98	0	6546	0.4474033	-3.173868	-41.51394	
14:58:07	-6.728665	38.94611	136.684	-0.7310727	-6.71661	0.35	3	98	0	6546	0.2468169	-3.063076	-41.48046	
14:58:07	-6.728666	38.94611	136.401	-0.7690961	-8.74649	0.02	3	98	0	6546	0.2717125	-3.107771	-41.35526	
14:58:07	-6.728666	38.94612	136.395	-0.7828583	-8.872398	0.19	3	99	0	6546	0.2557795	-3.018909	-41.23137	
14:58:07	-6.728666	38.94612	136.398	-0.7898675	-9.291697	0.57	3	99	0	6546	-0.1667722	-3.083708	-41.0545	
14:58:08	-6.728666	38.94612	136.42	-0.7886816	-8.705544	0.09	3	99	0	6546	0.109032	-3.642783	-40.94411	
14:58:08	-6.728666	38.94612	136.454	-0.7870597	-8.459253	0.29	3	99	0	6547	-0.08824565	-3.237667	-40.79311	
14:58:08	-6.728666	38.94612	136.22	-0.7884039	-8.516172	0.29	3	99	0	6546	-0.01062716	-3.350742	-40.65545	
14:58:08	-6.728666	38.94612	136.218	-0.7889609	-8.259402	0.53	3	99	0	6546	-0.178419	-3.324912	-40.49143	
14:58:08	-6.728665	38.94612	136.199	-0.7537706	-5.911687	0.48	3	99	0	6546	-0.1283742	-3.52668	-40.33265	
14:58:09	-6.728664	38.94612	136.145	-0.7221157	-4.595683	0.29	3	99	0	6546	0.5677156	-3.569336	-40.25191	
14:58:09	-6.728664	38.94612	136.145	-0.6621791	-1.026768	0.29	3	99	0	6546	0.8036532	-3.425833	-40.15046	
14:58:09	-6.728665	38.94612	136.053	-0.6126006	1.661459	0.38	3	99	0	6547	0.6994582	-3.418854	-40.01457	
14:58:09	-6.728666	38.94612	136.112	-0.5854828	2.612836	0.29	3	99	0	6546	0.6852937	-2.753331	-39.89391	
14:58:09	-6.728666	38.94612	136.048	-0.5636739	3.046792	0.17	3	99	0	6546	0.5534917	-2.692172	-39.87446	
14:58:10	-6.728666	38.94612	136.04	-0.5613986	2.0732	0.35	3	99	0	6546	0.368905	-3.138621	-39.80973	
14:58:10	-6.728666	38.94612	136.076	-0.5609369	1.194035	0.36	3	99	0	6546	0.3983919	-3.490164	-39.70022	
14:58:10	-6.728666	38.94612	136.028	-0.5513704	0.6625878	0.08	3	99	0	6546	0.1469521	-3.536959	-39.54382	
14:58:10	-6.728666	38.94612	136.111	-0.5437165	0.4336821	0.31	3	99	0	6546	0.3319863	-3.317177	-39.42385	
14:58:10	-6.728666	38.94612	136.128	-0.5578121	-1.537604	0.16	3	99	0	6546	0.666892	-3.080547	-39.40317	
14:58:11	-6.728666	38.94612	136.175	-0.5719628	-2.539682	0.11	3	99	0	6546	0.3835531	-3.080354	-39.33337	
14:58:11	-6.728666	38.94613	136.084	-0.5361034	-1.232996	0.21	3	99	0	6546	0.1811636	-3.061671	-39.21282	
