Date	Latitude(deg) 	Longitude(deg)	hamsl(m)	hafl(m)	climbrate(cm/s)	GroundSpeed(m/s)	Airspeed(m/s)	Mav_Link(%)	Rssi_Link(%)	Throttle	Roll(deg)	Pitch(deg)	Yaw(deg)
13:54:27	-6.728636	38.94614	131.591	0	0	0.14	0	100	0	0	0.3390252	-1.056439	13.62805	
13:54:28	-6.728637	38.94614	131.623	-0.5127929	-0.580389	0.07	3	100	0	6546	0.4835817	-1.042071	13.62879	
13:54:28	-6.728638	38.94614	132.825	-0.6452026	-9.722805	0.12	3	100	0	6546	0.5954383	-1.137646	13.59626	
13:54:28	-6.728638	38.94615	132.83	-0.8673788	-21.75659	0.12	3	100	0	6546	0.8455353	-1.139649	13.52146	
13:54:28	-6.728638	38.94615	132.874	-0.9740198	-27.02273	0.02	3	100	0	6546	0.7105296	-1.102751	13.41781	
13:54:28	-6.728638	38.94615	132.889	-0.8989493	-22.95819	0.08	3	100	0	6547	0.8805447	-1.140068	13.33029	
13:54:29	-6.728638	38.94615	132.892	-0.7564393	-14.57886	0.07	3	100	0	6546	0.5698347	-1.174746	13.18426	
13:54:29	-6.728638	38.94615	132.903	-0.4998294	-0.782967	0.08	3	100	0	6546	0.7030232	-1.197731	13.10121	
13:54:29	-6.728638	38.94615	132.894	-0.2924739	8.04833	0.07	3	100	0	6546	0.5063578	-1.154227	12.92889	
13:54:29	-6.728638	38.94615	132.858	-0.2715005	3.826068	0.09	3	100	0	6546	0.7880667	-1.370168	12.45736	
13:54:29	-6.728638	38.94615	132.842	-0.2603699	3.665761	0.09	3	100	0	6546	0.129799	-1.270546	12.37756	
13:54:30	-6.728638	38.94615	132.853	-0.3548909	-3.023896	0.04	3	100	0	6546	0.539171	-1.387871	12.33344	
13:54:30	-6.728638	38.94615	132.793	-0.4339248	-7.268091	0.02	3	100	0	6546	0.2650676	-1.390477	12.27633	
13:54:30	-6.728638	38.94615	132.796	-0.4662478	-10.97782	0.12	3	100	0	6546	0.4528171	-1.53037	12.24272	
13:54:30	-6.728638	38.94615	132.742	-0.4990361	-13.22606	0.08	3	100	0	6546	0.3578089	-1.419933	12.27201	
13:54:30	-6.728638	38.94615	132.694	-0.6096271	-20.04937	0.13	3	100	0	6546	0.3152878	-1.512414	12.31008	
13:54:31	-6.728638	38.94615	132.733	-0.7121147	-25.41636	0.19	3	100	0	6546	0.2766713	-1.399059	12.26296	
13:54:31	-6.728638	38.94615	132.707	-0.7959244	-28.94139	0.16	3	100	0	6546	0.1947363	-1.384513	12.1799	
13:54:31	-6.728638	38.94615	132.699	-0.8633841	-32.02076	0.08	3	100	0	6546	0.2469242	-1.378626	12.18828	
13:54:31	-6.728638	38.94615	132.653	-0.9760376	-36.3119	0.19	3	100	0	6546	0.2215536	-1.37868	12.15546	
13:54:31	-6.728638	38.94615	132.613	-1.074212	-39.7046	0.11	3	100	0	6546	0.2181483	-1.55423	12.19338	
13:54:32	-6.728638	38.94615	132.594	-1.132419	-40.64043	0.04	3	100	0	6546	0.2510772	-1.506127	12.22085	
13:54:32	-6.728638	38.94615	132.589	-1.176766	-41.13666	0.14	3	100	0	6546	0.2311548	-1.71994	12.25605	
13:54:32	-6.728638	38.94615	132.568	-1.183862	-39.40694	0.13	3	100	0	6546	0.3699815	-1.506386	12.18741	
13:54:32	-6.728638	38.94615	132.555	-1.187274	-38.50707	0.13	3	100	0	6546	0.3802243	-1.278568	12.1882	
13:54:32	-6.728638	38.94615	132.541	-1.183339	-36.25874	0.09	3	100	0	6546	0.3468104	-1.27584	12.15483	
13:54:33	-6.728638	38.94615	132.56	-1.174963	-33.76208	0.17	3	100	0	6546	0.1756739	-1.49654	12.23048	
13:54:33	-6.728638	38.94615	132.474	-1.145795	-30.52569	0.22	3	100	0	6546	0.138251	-1.342962	12.24228	
13:54:33	-6.728638	38.94615	132.49	-1.116292	-27.81333	0.19	3	100	0	6546	0.3568282	-1.512588	12.2313	
13:54:33	-6.728638	38.94615	132.49	-1.169622	-29.69854	0.19	3	100	0	6546	0.3568221	-1.495877	12.17136	
13:54:33	-6.728637	38.94615	132.514	-1.214652	-30.90304	0.22	3	100	0	6546	0.2901976	-1.591034	12.20816	
13:54:34	-6.728637	38.94615	132.523	-1.241268	-30.52609	0.12	3	100	0	6546	0.408464	-1.538466	12.19763	
13:54:34	-6.728637	38.94615	132.508	-1.262583	-30.64882	0.08	3	100	0	6546	0.2111188	-1.545969	12.21225	
13:54:34	-6.728637	38.94615	132.505	-1.27776	-29.08245	0.08	3	100	0	6546	0.114691	-1.463621	12.20625	
13:54:34	-6.728637	38.94615	132.505	-1.287283	-28.33419	0.08	3	100	0	6546	0.1412968	-1.427757	12.25295	
13:54:34	-6.728637	38.94615	132.478	-1.299214	-27.65167	0.08	3	100	0	6546	0.2818581	-1.441195	12.24981	
13:54:35	-6.728637	38.94615	132.483	-1.319306	-26.7625	0.09	3	100	0	6546	0.1130719	-1.528913	12.20522	
13:54:35	-6.728637	38.94615	132.499	-1.321095	-26.16182	0.06	3	100	0	6546	0.09651905	-1.565298	12.19505	
13:54:35	-6.728637	38.94615	132.448	-1.313759	-24.95324	0.14	3	100	0	6546	0.08485457	-1.457187	12.15145	
13:54:35	-6.728637	38.94615	132.448	-1.316514	-24.69191	0.14	3	100	0	6546	-0.02128247	-1.412001	12.15671	
13:54:35	-6.728637	38.94615	132.453	-1.323557	-23.51872	0.03	3	100	0	6546	0.01355902	-1.477548	12.17275	
13:54:36	-6.728636	38.94615	132.441	-1.304222	-21.91068	0.09	3	100	0	6546	0.1075263	-1.468182	12.15014	
13:54:36	-6.728636	38.94615	132.438	-1.272181	-19.7763	0.04	3	100	0	6546	0.01076896	-1.530264	12.14218	
13:54:36	-6.728636	38.94615	132.472	-1.231899	-15.4	0.04	3	100	0	6546	0.1062341	-1.501566	12.12494	
13:54:36	-6.728636	38.94615	132.522	-1.18784	-13.83165	0.14	3	100	0	6546	-0.03541128	-1.311448	12.0762	
13:54:36	-6.728636	38.94615	132.522	-1.140621	-11.26578	0.14	3	100	0	6546	0.3757995	-1.293149	12.13064	
13:54:37	-6.728636	38.94615	132.584	-1.093081	-10.61889	0.06	3	100	0	6546	0.06864107	-1.192093	12.08635	
13:54:37	-6.728636	38.94615	132.654	-1.055016	-9.715116	0.08	3	100	0	6546	0.09105889	-1.112658	12.04814	
13:54:37	-6.728636	38.94615	132.712	-1.023544	-8.916718	0.06	3	100	0	6546	0.1514397	-1.089033	12.09236	
13:54:37	-6.728636	38.94615	132.733	-1.016035	-8.996597	0.18	3	100	0	6546	0.01715869	-1.192308	12.15217	
13:54:37	-6.728636	38.94615	132.733	-1.02098	-9.559707	0.18	3	100	0	6546	0.08274122	-1.018393	12.15139	
13:54:38	-6.728636	38.94616	132.885	-1.023397	-9.842844	0.09	3	100	0	6546	-0.03324712	-1.084071	12.23173	
13:54:38	-6.728636	38.94616	132.879	-1.022548	-9.287972	0.04	3	100	0	6546	0.01146838	-1.182484	12.21617	
13:54:38	-6.728636	38.94616	132.872	-1.052406	-11.62984	0.04	3	100	0	6546	-0.06057753	-1.088407	12.2342	
13:54:38	-6.728636	38.94616	132.896	-1.109204	-15.23866	0.06	3	100	0	6546	0.1220102	-1.144248	12.26572	
13:54:38	-6.728636	38.94616	132.896	-1.142967	-17.19962	0.06	3	100	0	6546	-0.07671855	-1.160102	12.27295	
13:54:39	-6.728636	38.94616	132.904	-1.154948	-17.4249	0.08	3	100	0	6546	0.0096539	-1.155207	12.29833	
13:54:39	-6.728636	38.94616	132.938	-1.164281	-16.55387	0.06	3	100	0	6546	0.0158241	-1.141516	12.36604	
13:54:39	-6.728636	38.94616	133.022	-1.142536	-15.38852	0.03	3	100	0	6546	0.02555691	-1.17096	12.33353	
13:54:39	-6.728636	38.94616	133.073	-1.122023	-13.73108	0.13	3	100	0	6546	0.04780791	-1.086355	12.32976	
13:54:39	-6.728636	38.94616	133.073	-1.058284	-10.71811	0.13	3	100	0	6546	-0.1719554	-1.181675	12.35044	
13:54:40	-6.728636	38.94616	133.035	-1.006693	-8.345634	0.17	3	100	0	6546	-0.2364053	-1.121861	12.42527	
13:54:40	-6.728635	38.94616	133.045	-0.9608361	-6.253166	0.09	3	100	0	6546	-0.2870048	-1.288788	12.45627	
13:54:40	-6.728635	38.94616	133.036	-0.9248955	-5.164747	0.08	3	100	0	6546	-0.121116	-1.280752	12.54694	
13:54:40	-6.728635	38.94616	133.053	-0.9419096	-6.959421	0.04	3	100	0	6546	0.008655814	-1.25336	12.52227	
13:54:40	-6.728635	38.94616	133.09	-0.9593682	-8.805098	0.09	3	100	0	6546	-0.0409461	-1.162858	12.57687	
13:54:41	-6.728635	38.94616	133.106	-1.01098	-11.64694	0.04	3	100	0	6546	-0.1391322	-1.184889	12.60151	
13:54:41	-6.728635	38.94616	133.142	-1.063796	-15.07792	0.13	3	100	0	6546	-0.1081899	-1.138438	12.60159	
13:54:41	-6.728635	38.94616	133.177	-1.133586	-18.32552	0.08	3	100	0	6546	-0.3503807	-1.081802	12.66424	
13:54:41	-6.728635	38.94616	133.238	-1.196341	-21.6481	0.04	3	100	0	6546	0.2053567	-1.201453	12.64852	
13:54:41	-6.728635	38.94616	133.26	-1.278986	-24.54361	0.14	3	100	0	6546	-0.2008635	-1.083716	12.65646	
13:54:42	-6.728635	38.94616	133.225	-1.357619	-27.27293	0.07	3	100	0	6546	-0.003770322	-1.223268	12.69747	
13:54:42	-6.728634	38.94616	133.196	-1.406793	-28.32384	0.12	3	100	0	6546	-0.0384386	-1.16636	12.68833	
13:54:42	-6.728634	38.94616	133.217	-1.4525	-28.67889	0.06	3	100	0	6546	-0.2050627	-1.170001	12.68617	
13:54:42	-6.728634	38.94616	133.23	-1.498436	-29.16457	0.07	3	100	0	6546	-0.02990457	-1.058563	12.72251	
13:54:42	-6.728634	38.94616	133.284	-1.536911	-29.41893	0.04	3	100	0	6546	-0.04553128	-1.189446	12.79031	
13:54:43	-6.728634	38.94616	133.33	-1.530953	-27.42413	0.09	3	100	0	6546	0.06349298	-1.142767	12.76499	
13:54:43	-6.728634	38.94616	133.336	-1.521466	-24.54869	0.06	3	100	0	6546	0.1306215	-1.139835	12.80365	
13:54:43	-6.728634	38.94616	133.315	-1.565541	-25.71966	0.12	3	100	0	6546	-0.04973569	-1.126876	12.88526	
13:54:43	-6.728633	38.94616	133.313	-1.603107	-26.71304	0.11	3	100	0	6546	0.1560428	-1.078509	12.83305	
13:54:44	-6.728633	38.94616	133.316	-1.62238	-26.1139	0.08	3	100	0	6546	0.1776846	-1.206241	12.8709	
13:54:44	-6.728633	38.94616	133.342	-1.63636	-25.15498	0.06	3	100	0	6546	0.08575725	-1.227563	12.82702	
13:54:44	-6.728633	38.94616	133.371	-1.648191	-24.19426	0.12	3	100	0	6546	-0.009081582	-1.192234	12.78549	
13:54:44	-6.728633	38.94616	133.422	-1.659224	-22.77078	0.09	3	100	0	6546	0.1131173	-1.2502	12.80179	
13:54:44	-6.728633	38.94616	133.455	-1.663679	-22.12823	0.09	3	100	0	6546	0.1577591	-1.25782	12.73256	
13:54:45	-6.728633	38.94616	133.455	-1.664654	-20.98431	0.09	3	100	0	6546	0.1930173	-1.177592	12.73207	
13:54:45	-6.728633	38.94616	133.512	-1.656391	-20.00277	0.07	3	100	0	6546	0.1578442	-1.220386	12.76227	
13:54:45	-6.728633	38.94616	133.544	-1.643788	-18.45354	0.11	3	100	0	6546	0.3982262	-1.16101	12.70091	
13:54:45	-6.728633	38.94616	133.553	-1.633139	-16.97492	0.06	3	100	0	6546	0.4002919	-1.052213	12.7104	
13:54:45	-6.728633	38.94616	133.558	-1.624564	-15.13715	0.04	3	100	0	6546	0.31786	-1.108709	12.60201	
13:54:46	-6.728633	38.94616	133.536	-1.593933	-13.37208	0.09	3	100	0	6546	0.3705729	-1.103778	12.59757	
13:54:46	-6.728633	38.94616	133.555	-1.556557	-10.86222	0.04	3	100	0	6546	0.2951414	-1.01874	12.63029	
13:54:46	-6.728633	38.94616	133.561	-1.529239	-8.926419	0.06	3	100	0	6546	0.3039479	-1.078762	12.65512	
13:54:46	-6.728633	38.94616	133.539	-1.518961	-8.728761	0.04	3	100	0	6546	0.30684	-1.00891	12.5281	
13:54:46	-6.728633	38.94616	133.537	-1.513662	-8.383371	0.06	3	100	0	6546	0.3269538	-1.130508	12.5548	
13:54:46	-6.728632	38.94616	133.535	-1.511323	-8.732204	0.13	3	100	0	6546	0.4047006	-1.158406	12.55324	
13:54:47	-6.728632	38.94616	133.551	-1.536768	-10.52346	0.11	3	100	0	6546	0.3983497	-1.228258	12.52155	
13:54:47	-6.728632	38.94616	133.58	-1.573064	-12.11025	0.09	3	100	0	6546	0.4121396	-1.178963	12.5457	
13:54:47	-6.728632	38.94616	133.548	-1.608154	-13.50752	0.08	3	100	0	6546	0.2045314	-1.138478	12.57994	
13:54:47	-6.728632	38.94616	133.551	-1.633471	-14.20296	0.07	3	100	0	6546	0.2817305	-0.9977982	12.50436	
13:54:47	-6.728632	38.94616	133.577	-1.623813	-13.46122	0.08	3	100	0	6546	0.3421703	-1.017834	12.50429	
13:54:48	-6.728632	38.94616	133.599	-1.593627	-10.86035	0.02	3	100	0	6546	0.3209888	-0.956892	12.50721	
13:54:48	-6.728632	38.94616	133.635	-1.553546	-7.59057	0.09	3	100	0	6546	0.2935422	-1.041982	12.49532	
13:54:48	-6.728632	38.94616	133.624	-1.506888	-5.173527	0.14	3	100	0	6546	0.2085088	-0.958223	12.52864	
13:54:48	-6.728632	38.94616	133.672	-1.454876	-2.664967	0.22	3	100	0	6546	0.1435688	-0.8987121	12.59046	
13:54:49	-6.728632	38.94616	133.673	-1.398918	-0.103036	0.39	3	100	0	6546	0.2665498	-0.7656549	12.49372	
13:54:49	-6.728633	38.94616	133.549	-1.349196	2.259471	0.26	3	100	0	6546	0.03637413	-0.4376389	12.53236	
13:54:49	-6.728633	38.94616	133.491	-1.350276	1.517159	0.04	3	100	0	6546	0.0605836	-0.5840855	12.58229	
13:54:49	-6.728632	38.94616	133.464	-1.351884	1.668814	0.14	3	100	0	6546	0.1640297	-0.8638098	12.58602	
13:54:49	-6.728632	38.94616	133.435	-1.326672	2.292882	0.08	3	100	0	6546	0.04320147	-0.7921388	12.64412	
13:54:50	-6.728632	38.94616	133.455	-1.305147	3.223092	0.09	3	100	0	6546	0.1471034	-0.9516263	12.65808	
13:54:50	-6.728632	38.94616	133.47	-1.247948	5.597797	0.08	3	100	0	6546	0.1614478	-0.9594676	12.61619	
13:54:50	-6.728632	38.94616	133.469	-1.197062	7.781617	0.08	3	100	0	6546	0.1407319	-0.9720463	12.661	
13:54:50	-6.728632	38.94616	133.481	-1.151875	8.810128	0.12	3	100	0	6546	0.003730711	-0.9196162	12.67184	
13:54:50	-6.728631	38.94616	133.491	-1.114298	8.808656	0.12	3	100	0	6546	-0.1629891	-0.9710189	12.71993	
13:54:51	-6.728631	38.94616	133.491	-1.012415	12.82433	0.12	3	100	0	6546	0.1198464	-1.026375	12.75585	
13:54:51	-6.728631	38.94616	133.473	-0.931099	14.87347	0.04	3	100	0	6546	0.09195729	-1.03887	12.77976	
13:54:51	-6.728631	38.94616	133.444	-0.9531329	11.48329	0.07	3	100	0	6546	0.01260016	-0.9792038	12.7718	
13:54:51	-6.728631	38.94616	133.456	-0.9748163	9.144101	0.04	3	100	0	6546	0.1611584	-0.8637165	12.80277	
13:54:51	-6.728631	38.94616	133.484	-1.037647	4.405987	0.16	3	100	0	6546	0.02963842	-0.9121054	12.75615	
13:54:52	-6.728631	38.94616	133.469	-1.090245	1.083765	0.24	3	100	0	6546	0.2035789	-1.051713	12.80077	
13:54:52	-6.728631	38.94616	133.458	-1.161459	-3.263183	0.04	3	100	0	6546	-0.06546978	-0.7500041	12.85993	
13:54:52	-6.728631	38.94616	133.433	-1.22714	-7.038861	0.13	3	100	0	6546	0.1475984	-0.8969446	12.86281	
13:54:52	-6.728631	38.94615	133.445	-1.272695	-8.712031	0.14	3	100	0	6546	0.2235138	-1.020822	12.81002	
13:54:52	-6.728631	38.94615	133.496	-1.314601	-11.55749	0.06	3	100	0	6546	-0.02986657	-0.9863479	12.79318	
13:54:53	-6.728631	38.94615	133.511	-1.377786	-13.9612	0.02	3	100	0	6546	0.158649	-0.9717702	12.71866	
13:54:53	-6.72863	38.94615	133.503	-1.428562	-16.08781	0.11	3	100	0	6546	0.267092	-1.082006	12.7295	
13:54:53	-6.72863	38.94615	133.506	-1.439324	-15.85014	0.11	3	100	0	6546	0.1611909	-1.00607	12.77314	
13:54:53	-6.728629	38.94615	133.54	-1.446627	-14.87642	0.09	3	100	0	6546	0.3071263	-1.167028	12.73423	
13:54:53	-6.728629	38.94615	133.55	-1.390679	-11.65822	0.03	3	100	0	6546	0.3642962	-1.095573	12.71475	
13:54:54	-6.728629	38.94615	133.557	-1.344978	-8.773473	0.02	3	100	0	6546	0.2623801	-1.096624	12.72267	
13:54:54	-6.728629	38.94615	133.546	-1.317917	-6.992377	0.11	3	100	0	6546	0.2470942	-1.084898	12.64169	
13:54:54	-6.728629	38.94615	133.553	-1.322797	-7.17075	0.02	3	100	0	6546	0.2092666	-1.164482	12.65769	
13:54:54	-6.728628	38.94615	133.566	-1.316613	-6.554439	0.03	3	100	0	6546	0.2531247	-1.092156	12.67322	
13:54:54	-6.728628	38.94615	133.569	-1.295993	-5.215782	0.01	3	100	0	6546	0.2423194	-1.108232	12.66028	
13:54:55	-6.728627	38.94615	133.598	-1.272809	-3.932269	0.09	3	100	0	6546	0.2573619	-1.102767	12.63546	
13:54:55	-6.728627	38.94615	133.61	-1.251061	-3.21156	0	3	100	0	6546	0.3291051	-1.156625	12.62072	
13:54:55	-6.728627	38.94615	133.647	-1.255385	-3.818449	0.01	3	100	0	6546	0.3048164	-1.054187	12.69028	
13:54:55	-6.728627	38.94615	133.691	-1.274761	-4.92908	0.11	3	100	0	6546	0.3361219	-1.042993	12.76605	
13:54:55	-6.728627	38.94615	133.716	-1.2743	-5.013377	0.04	3	100	0	6546	0.4165477	-1.015773	12.79486	
13:54:56	-6.728626	38.94615	133.734	-1.263646	-4.789204	0.06	3	100	0	6546	0.3398489	-1.027416	12.6494	
13:54:56	-6.728626	38.94615	133.741	-1.237631	-3.270169	0.04	3	100	0	6546	0.3360204	-1.024043	12.66319	
13:54:56	-6.728626	38.94615	133.746	-1.190709	-0.4641236	0.08	3	100	0	6546	0.3880224	-1.123279	12.63526	
13:54:56	-6.728626	38.94615	133.746	-1.152281	1.293527	0.03	3	100	0	6546	0.4433048	-1.062915	12.66606	
13:54:56	-6.728626	38.94615	133.738	-1.129049	2.426829	0.08	3	100	0	6546	0.3565776	-1.088211	12.69731	
13:54:57	-6.728626	38.94615	133.755	-1.101086	3.538938	0.14	3	100	0	6546	0.3888469	-1.178464	12.66914	
13:54:57	-6.728626	38.94615	133.771	-1.072253	3.895274	0.08	3	100	0	6546	0.3157814	-1.162372	12.63354	
13:54:57	-6.728625	38.94615	133.801	-1.049106	4.641921	0.02	3	100	0	6546	0.5936234	-1.172766	12.65244	
13:54:57	-6.728625	38.94615	133.829	-1.030158	4.77847	0.09	3	100	0	6546	0.5561225	-1.130187	12.60575	
13:54:58	-6.728625	38.94615	133.841	-1.01956	4.698845	0.03	3	100	0	6546	0.6071643	-1.258973	12.5973	
13:54:58	-6.728624	38.94615	133.848	-1.01593	3.666481	0.09	3	100	0	6544	0.5634111	-1.169072	12.62433	
13:54:58	-6.728624	38.94615	133.884	-1.02148	2.084711	0.17	3	100	0	6546	0.6413491	-1.271478	12.64124	
13:54:58	-6.728624	38.94615	133.913	-1.038337	0.7100095	0.04	3	100	0	6546	0.7080227	-1.281475	12.53163	
13:54:58	-6.728624	38.94615	133.906	-1.045445	0.01842793	0.04	3	100	0	6546	0.6855202	-1.214467	12.51591	
13:54:58	-6.728624	38.94615	133.901	-1.039417	0.03885294	0.09	3	100	0	6546	0.5216408	-1.164182	12.4627	
13:54:59	-6.728623	38.94615	133.906	-1.034111	0.3818062	0.16	3	100	0	6546	0.529658	-1.090385	12.45149	
13:54:59	-6.728623	38.94615	133.92	-1.002324	2.38298	0.17	3	100	0	6546	0.5326665	-1.233497	12.45234	
13:54:59	-6.728624	38.94615	133.92	-0.9736061	3.517578	0.14	3	100	0	6546	0.6480195	-0.9981568	12.44998	
13:54:59	-6.728624	38.94615	133.893	-0.9610957	3.303063	0.08	3	100	0	6546	0.5813438	-0.9855553	12.34242	
13:54:59	-6.728624	38.94615	133.879	-0.9522941	3.03741	0.09	3	100	0	6546	0.5162362	-1.041464	12.30581	
13:55:00	-6.728624	38.94615	133.901	-0.960172	1.783953	0.19	3	100	0	6546	0.5674187	-1.029297	12.2629	
13:55:00	-6.728624	38.94615	133.878	-0.9691761	0.7426181	0.09	3	100	0	6546	0.7495202	-1.11085	12.28063	
13:55:00	-6.728623	38.94615	133.892	-0.9757748	0.4301532	0.11	3	100	0	6546	0.3827069	-1.163361	12.30195	
13:55:00	-6.728623	38.94615	133.885	-0.9821132	-0.5612742	0.19	3	100	0	6546	0.4728259	-1.19429	12.33135	
13:55:00	-6.728623	38.94615	133.881	-0.9745534	-0.09439611	0.07	3	100	0	6546	0.450166	-1.007618	12.26624	
13:55:01	-6.728623	38.94615	133.891	-0.967917	0.3529193	0.03	3	100	0	6546	0.4911212	-1.220052	12.27702	
13:55:01	-6.728623	38.94615	133.951	-0.9839621	-0.7568265	0.12	3	100	0	6546	0.6189556	-1.174572	12.23262	
13:55:01	-6.728622	38.94615	133.994	-0.9993889	-2.197609	0.07	3	100	0	6546	0.5953551	-1.133046	12.24741	
13:55:01	-6.728622	38.94615	134.025	-0.9511938	0.3031849	0.09	3	100	0	6546	0.6700363	-1.109099	12.21125	
13:55:01	-6.728622	38.94615	134.017	-0.9115384	2.047049	0.22	3	100	0	6546	0.6580021	-1.131154	12.23465	
13:55:02	-6.728622	38.94615	134.016	-0.8862635	3.135957	0.12	3	100	0	6546	0.6132135	-1.086204	12.18627	
13:55:02	-6.728622	38.94615	134.027	-0.8644348	3.825827	0.06	3	100	0	6546	0.7435389	-1.323992	12.19755	
13:55:02	-6.728621	38.94615	134.045	-0.8265514	5.648086	0.12	3	100	0	6546	0.6459791	-1.333942	12.15611	
13:55:02	-6.728621	38.94615	134.074	-0.7904893	6.611726	0.09	3	100	0	6546	0.792302	-1.281888	12.11958	
13:55:02	-6.728621	38.94615	134.112	-0.7445114	7.958269	0.13	3	100	0	6546	0.6279753	-1.21634	12.16851	
13:55:03	-6.728621	38.94615	134.125	-0.7044526	8.738074	0.14	3	100	0	6546	0.9617597	-1.305205	12.15314	
13:55:03	-6.728621	38.94615	134.163	-0.7150308	7.308534	0.09	3	100	0	6546	0.6935087	-1.357451	12.05616	
13:55:03	-6.728621	38.94615	134.216	-0.7256083	6.259456	0.01	3	100	0	6546	0.7521184	-1.19199	12.07142	
13:55:03	-6.728621	38.94615	134.26	-0.7403043	4.522034	0.04	3	100	0	6546	0.5311181	-1.176346	12.06212	
13:55:03	-6.728621	38.94615	134.325	-0.7563026	3.385422	0.04	3	100	0	6546	0.543443	-1.200696	12.02531	
13:55:04	-6.728621	38.94615	134.403	-0.782362	1.680944	0.09	3	100	0	6546	0.6163982	-1.185954	12.04347	
13:55:04	-6.728621	38.94615	134.452	-0.8213974	-0.4142054	0.06	3	100	0	6546	0.4252211	-1.136612	11.98067	
13:55:04	-6.72862	38.94615	134.498	-0.8361394	-1.723956	0.06	3	100	0	6546	0.2816001	-1.165197	11.98458	
13:55:04	-6.72862	38.94615	134.528	-0.8182023	-0.9227232	0.07	3	100	0	6546	0.4774985	-1.151542	11.9757	
13:55:04	-6.72862	38.94615	134.561	-0.7981032	-0.3278712	0.09	3	100	0	6546	0.5946935	-1.216111	11.99032	
13:55:05	-6.72862	38.94615	134.591	-0.7740983	0.7901399	0.04	3	100	0	6546	0.5399324	-1.227422	11.99183	
13:55:05	-6.72862	38.94614	134.645	-0.7669437	1.099046	0.03	3	100	0	6546	0.4311297	-1.179761	12.03755	
13:55:05	-6.72862	38.94614	134.679	-0.7754077	0.3267219	0.02	3	100	0	6546	0.5847121	-1.141975	11.99321	
13:55:05	-6.72862	38.94614	134.709	-0.7985713	-0.8813414	0.07	3	100	0	6546	0.5745988	-1.198982	11.95305	
13:55:05	-6.72862	38.94614	134.724	-0.8357821	-2.810921	0.04	3	100	0	6546	1.037993	-1.197547	11.89799	
13:55:06	-6.72862	38.94614	134.737	-0.8799697	-4.185027	0.03	3	100	0	6546	0.8639258	-1.170189	11.82573	
13:55:06	-6.72862	38.94614	134.734	-0.9328607	-6.465962	0.09	3	100	0	6546	0.851076	-1.124166	11.83245	
13:55:06	-6.72862	38.94614	134.765	-0.9678643	-7.363747	0.11	3	100	0	6546	0.9142762	-1.112594	11.86571	
13:55:06	-6.72862	38.94614	134.781	-0.9883546	-7.695567	0.03	3	100	0	6546	1.015795	-1.050613	11.75811	
13:55:06	-6.72862	38.94614	134.775	-0.9983577	-7.606562	0.17	3	100	0	6546	0.7581232	-1.151384	11.6861	
13:55:07	-6.72862	38.94614	134.727	-1.001928	-6.61939	0.04	3	100	0	6546	0.910011	-1.233814	11.63657	
13:55:07	-6.728621	38.94614	134.679	-1.004421	-6.274173	0.07	3	100	0	6547	0.8008071	-1.168699	11.64597	
13:55:07	-6.728621	38.94614	134.671	-1.006828	-5.903003	0.02	3	100	0	6546	1.22485	-1.13899	11.66789	
13:55:07	-6.728621	38.94614	134.674	-0.9824143	-3.408429	0.02	3	100	0	6546	0.7547856	-1.173444	11.67155	
13:55:07	-6.728621	38.94614	134.65	-0.9341988	-0.5518569	0.06	3	100	0	6546	0.9466974	-1.103763	11.61715	
13:55:08	-6.728621	38.94614	134.686	-0.8925833	1.701438	0.04	3	100	0	6546	0.6461068	-1.138354	11.55524	
13:55:08	-6.728621	38.94614	134.702	-0.8591517	2.654774	0.09	3	100	0	6546	0.7359861	-1.140243	11.48444	
13:55:08	-6.728621	38.94614	134.716	-0.8104159	4.832408	0.31	3	100	0	6546	0.6943464	-0.8544208	11.46075	
13:55:08	-6.728621	38.94614	134.621	-0.7422102	7.702783	0.09	3	100	0	6546	0.4167718	-0.6617309	11.49183	
13:55:08	-6.728621	38.94614	134.641	-0.6877658	9.571067	0.22	3	100	0	6546	0.5159386	-0.862607	11.57769	
13:55:09	-6.728621	38.94614	134.659	-0.6919928	8.180028	0.06	3	100	0	6546	0.4166904	-1.062271	11.59069	
13:55:09	-6.728621	38.94614	134.659	-0.697411	6.974504	0.06	3	100	0	6546	0.3454352	-0.9285847	11.60965	
13:55:09	-6.728621	38.94614	134.653	-0.6622115	7.954947	0.32	3	100	0	6546	0.3572054	-0.910502	11.63011	
13:55:09	-6.728621	38.94614	134.741	-0.6345173	8.547969	0.08	3	100	0	6546	0.3538679	-0.9167264	11.70912	
13:55:09	-6.728621	38.94614	134.71	-0.6420215	7.38848	0.06	3	100	0	6545	0.2386689	-0.7566297	11.73626	
13:55:10	-6.728621	38.94614	134.711	-0.650541	6.327254	0.11	3	100	0	6546	0.279593	-0.7075003	11.79561	
13:55:10	-6.728621	38.94614	134.725	-0.661368	4.999136	0.08	3	100	0	6546	0.496953	-0.6616906	11.71436	
13:55:10	-6.728622	38.94614	134.733	-0.6743642	2.30761	0.07	3	100	0	6546	0.07154933	-0.7099792	11.78552	
13:55:10	-6.728622	38.94614	134.758	-0.7144752	0.1492761	0.04	3	100	0	6546	0.3201874	-0.7006911	11.84842	
13:55:10	-6.728622	38.94614	134.815	-0.7471952	-1.501261	0.11	3	100	0	6546	0.2724582	-0.7785206	11.88738	
13:55:11	-6.728622	38.94614	134.843	-0.7956429	-4.121636	0.07	3	100	0	6546	0.2066325	-0.8115902	11.97541	
13:55:11	-6.728622	38.94614	134.868	-0.8391105	-6.165531	0.02	3	100	0	6546	0.4446283	-0.7916978	12.01553	
13:55:11	-6.728622	38.94614	134.875	-0.8591896	-6.936737	0.14	3	100	0	6546	0.06548362	-0.7863196	11.98056	
13:55:11	-6.728622	38.94614	134.879	-0.8747127	-7.242653	0.11	3	100	0	6546	0.1036162	-0.7074679	12.01901	
13:55:11	-6.728622	38.94614	134.909	-0.8457168	-5.045537	0.11	3	100	0	6546	0.1524919	-0.7332597	11.90092	
13:55:12	-6.728623	38.94614	134.905	-0.8184401	-3.571348	0.06	3	100	0	6546	0.00259043	-0.7594731	11.95867	
13:55:12	-6.728623	38.94614	134.876	-0.8153244	-3.468464	0.06	3	100	0	6546	0.1401318	-0.8478549	12.03163	
13:55:12	-6.728623	38.94614	134.877	-0.8126608	-3.209017	0.09	3	100	0	6546	0.2496967	-0.9233572	12.02211	
13:55:12	-6.728623	38.94614	134.891	-0.7820393	-1.187416	0.04	3	100	0	6546	0.2573125	-0.9490534	12.00811	
13:55:12	-6.728624	38.94614	134.881	-0.7562791	0.4298373	0.06	3	100	0	6546	0.4811268	-0.9175763	12.03898	
13:55:13	-6.728624	38.94614	134.888	-0.7694811	-0.003506197	0.02	3	100	0	6546	0.2709373	-0.9113986	12.05973	
13:55:13	-6.728624	38.94614	134.933	-0.7811013	-0.4432423	0.08	3	100	0	6546	0.3585191	-0.9089661	12.10227	
13:55:13	-6.728624	38.94614	134.935	-0.8099765	-2.24355	0.04	3	100	0	6546	0.3908016	-0.916634	12.11251	
13:55:13	-6.728624	38.94614	134.943	-0.8339744	-2.93554	0.02	3	100	0	6546	0.2900282	-0.9377238	12.15955	
13:55:13	-6.728624	38.94614	134.93	-0.8372429	-2.675087	0.04	3	100	0	6546	0.3573962	-0.9515489	12.13486	
13:55:14	-6.728625	38.94614	134.918	-0.8117136	-1.011532	0.09	3	100	0	6546	0.3838255	-0.9411431	12.11763	
13:55:14	-6.728625	38.94614	134.92	-0.7795775	0.4546871	0.18	3	100	0	6546	0.3302668	-0.9042724	12.12223	
13:55:14	-6.728625	38.94614	134.91	-0.7386505	2.592252	0.11	3	100	0	6546	0.3665421	-0.922245	12.16854	
13:55:14	-6.728626	38.94614	134.911	-0.6971264	4.756896	0.04	3	100	0	6546	0.3242328	-1.006989	12.22837	
13:55:14	-6.728626	38.94614	134.931	-0.6527686	6.709445	0.01	3	100	0	6546	0.2805353	-1.0664	12.24728	
13:55:15	-6.728626	38.94614	134.926	-0.6314991	7.087564	0.04	3	100	0	6546	0.3006634	-1.084264	12.2304	
13:55:15	-6.728626	38.94614	134.915	-0.6316059	6.027535	0.19	3	100	0	6546	0.2853337	-1.194707	12.25953	
13:55:15	-6.728626	38.94614	134.886	-0.6369601	4.961286	0.04	3	100	0	6546	0.260167	-1.216141	12.28909	
13:55:15	-6.728626	38.94614	134.875	-0.648951	4.118727	0.04	3	100	0	6546	0.2871248	-1.083747	12.3559	
13:55:16	-6.728626	38.94614	134.892	-0.6434616	3.78721	0.19	3	100	0	6546	0.3155886	-1.177349	12.4108	
13:55:16	-6.728626	38.94614	134.866	-0.6156161	4.338348	0.01	3	100	0	6547	0.2736346	-1.236259	12.38219	
13:55:16	-6.728626	38.94614	134.87	-0.5865363	4.959548	0.12	3	100	0	6546	0.09417111	-1.139063	12.34858	
13:55:16	-6.728626	38.94614	134.883	-0.5503234	6.547249	0.12	3	100	0	6546	0.1547233	-1.167299	12.38346	
13:55:16	-6.728626	38.94614	134.86	-0.5447673	6.58391	0.01	3	100	0	6546	0.1943188	-1.155403	12.38881	
13:55:16	-6.728626	38.94614	134.848	-0.5627949	4.489644	0.06	3	100	0	6546	0.239064	-1.063468	12.4006	
13:55:17	-6.728626	38.94614	134.828	-0.5909799	2.330614	0.12	3	100	0	6546	0.2554262	-1.089438	12.42888	
13:55:17	-6.728627	38.94614	134.773	-0.6260836	-0.007505389	0.07	3	100	0	6546	0.1280999	-1.092382	12.39766	
13:55:17	-6.728627	38.94614	134.801	-0.639191	-0.3594071	0.09	3	100	0	6546	0.07446554	-1.110225	12.41154	
13:55:17	-6.728627	38.94614	134.817	-0.6323695	-0.3614596	0.17	3	100	0	6546	-0.04001448	-1.129088	12.45583	
13:55:17	-6.728627	38.94614	134.813	-0.6195747	0.3661773	0.03	3	100	0	6546	0.09985016	-1.083328	12.47319	
13:55:18	-6.728627	38.94614	134.821	-0.5989936	1.239297	0.18	3	100	0	6546	0.323137	-1.074632	12.48557	
13:55:18	-6.728627	38.94614	134.824	-0.5801787	1.268434	0.09	3	100	0	6546	0.1340609	-1.036083	12.53752	
13:55:18	-6.728627	38.94614	134.826	-0.5608442	1.538728	0.17	3	100	0	6546	0.07391827	-0.9661251	12.45669	
13:55:18	-6.728627	38.94614	134.79	-0.5457627	1.673171	0.09	3	100	0	6546	0.1062125	-0.9782349	12.41085	
13:55:18	-6.728627	38.94614	134.784	-0.6057214	-1.775062	0.09	3	100	0	6546	0.03839595	-1.100648	12.47536	
13:55:19	-6.728627	38.94614	134.769	-0.6600167	-4.851935	0.09	3	100	0	6546	0.09774921	-1.146839	12.52825	
13:55:19	-6.728627	38.94614	134.744	-0.7180759	-7.840641	0.08	3	100	0	6546	-0.004180105	-1.246904	12.56952	
13:55:19	-6.728627	38.94614	134.7	-0.7656626	-10.57962	0.09	3	100	0	6546	0.09006859	-1.351931	12.60602	
13:55:19	-6.728628	38.94614	134.683	-0.8081905	-11.98685	0.12	3	100	0	6546	0.159223	-1.253413	12.56016	
13:55:19	-6.728628	38.94614	134.649	-0.8455802	-13.12697	0.04	3	100	0	6546	0.03466503	-1.272626	12.56679	
13:55:20	-6.728628	38.94614	134.655	-0.8744686	-13.43427	0.16	3	100	0	6546	0.2146471	-1.231849	12.57081	
13:55:20	-6.728628	38.94614	134.654	-0.8988068	-12.91405	0.24	3	100	0	6546	0.3082709	-1.080463	12.59103	
13:55:20	-6.728628	38.94614	134.652	-0.8980677	-11.74755	0.52	3	100	0	6546	0.4274679	-0.6528378	12.5947	
13:55:20	-6.728629	38.94614	134.516	-0.8956159	-10.80007	0.14	3	100	0	6546	0.4202441	-0.5952707	12.64388	
13:55:20	-6.728629	38.94614	134.495	-0.9058191	-10.12476	0.21	3	100	0	6546	0.4819551	-0.9161669	12.61427	
13:55:21	-6.728629	38.94614	134.454	-0.9124559	-9.39064	0.24	3	100	0	6546	0.5446219	-1.111385	12.55323	
13:55:21	-6.728629	38.94614	134.45	-0.9109728	-8.918412	0.09	3	100	0	6546	0.3627873	-1.036474	12.53158	
13:55:21	-6.728629	38.94614	134.428	-0.9085816	-7.585426	0.14	3	100	0	6546	0.08238877	-0.9039809	12.5955	
13:55:21	-6.728629	38.94614	134.417	-0.9175706	-7.448408	0.08	3	100	0	6546	0.1230888	-0.9074429	12.67411	
13:55:21	-6.728629	38.94614	134.444	-0.9257785	-7.239248	0.04	3	100	0	6546	-0.03146177	-0.9824907	12.74124	
13:55:22	-6.72863	38.94614	134.43	-0.9750187	-10.00611	0.14	3	100	0	6546	0.3525426	-1.002112	12.82295	
13:55:22	-6.72863	38.94614	134.395	-1.019493	-11.41996	0.09	3	100	0	6546	0.01189345	-0.9915783	12.85931	
13:55:22	-6.72863	38.94614	134.381	-1.060092	-12.1486	0.04	3	100	0	6546	0.2357749	-0.9799986	12.92517	
13:55:22	-6.72863	38.94614	134.444	-1.091512	-12.66762	0.07	3	100	0	6546	0.1727241	-0.9269915	13.07025	
13:55:22	-6.72863	38.94614	134.404	-1.146017	-14.74549	0.07	3	100	0	6546	0.1686142	-0.9687766	13.12131	
13:55:23	-6.72863	38.94614	134.263	-1.19393	-16.33847	0.85	3	100	0	6546	-0.0002111888	-0.152191	13.12925	
13:55:23	-6.72863	38.94614	134.176	-1.204432	-15.86594	0.48	3	100	0	6546	-0.1487382	0.2194626	13.06047	
13:55:23	-6.72863	38.94614	134.032	-1.210606	-14.71175	0.21	3	100	0	6546	0.05621798	-0.09791028	13.09354	
13:55:23	-6.728631	38.94614	133.93	-1.218292	-13.2839	0.06	3	100	0	6546	-0.06922248	-0.3603528	13.08902	
13:55:23	-6.728631	38.94614	133.904	-1.228743	-12.37154	0.06	3	100	0	6547	-0.05990103	-0.4943623	13.16906	
13:55:24	-6.728631	38.94614	133.896	-1.243129	-11.95522	0.04	3	100	0	6546	-0.06335904	-0.4811247	13.19703	
13:55:24	-6.728631	38.94614	133.896	-1.265862	-11.7874	0.09	3	100	0	6546	-0.130896	-0.5596973	13.23624	
13:55:24	-6.728631	38.94614	133.915	-1.301262	-11.94674	0.08	3	100	0	6548	-0.2564237	-0.5439874	13.2368	
13:55:24	-6.728631	38.94614	133.922	-1.344048	-13.21128	0.13	3	100	0	6546	-0.03397448	-0.5844076	13.25856	
13:55:24	-6.728631	38.94614	133.895	-1.361096	-12.70905	0.24	3	100	0	6546	-0.09709573	-0.4951741	13.29432	
13:55:25	-6.728631	38.94614	133.883	-1.361063	-11.11445	0.04	3	100	0	6546	-0.03950133	-0.5084706	13.35945	
13:55:25	-6.728631	38.94614	133.883	-1.349795	-10.18563	0.04	3	100	0	6546	0.3914946	-0.6084628	13.38653	
13:55:25	-6.728631	38.94614	133.914	-1.329476	-8.258936	0.12	3	100	0	6546	0.5633801	-0.587979	13.34725	
13:55:25	-6.728631	38.94614	133.861	-1.304352	-5.856556	0.19	3	100	0	6546	0.533142	-0.5222867	13.25429	
13:55:25	-6.728632	38.94614	133.863	-1.274811	-4.163063	0.14	3	100	0	6546	0.5511678	-0.6483783	13.17024	
13:55:26	-6.728632	38.94614	133.873	-1.24397	-2.389268	0.02	3	100	0	6546	0.4147771	-0.7228877	13.15658	
13:55:26	-6.728632	38.94614	133.873	-1.206827	-0.08481159	0.02	3	100	0	6546	0.2483719	-0.7662608	13.14496	
13:55:26	-6.728632	38.94614	133.929	-1.181022	1.690311	0.04	3	100	0	6546	0.1410219	-0.783708	13.14277	
13:55:26	-6.728632	38.94614	134.015	-1.160724	2.636409	0.03	3	100	0	6546	0.1939996	-0.7447334	13.13929	
13:55:26	-6.728632	38.94614	134.047	-1.146537	2.842568	0.03	3	100	0	6546	0.1710229	-0.7843862	13.03543	
13:55:27	-6.728632	38.94614	134.068	-1.136681	2.424158	0.12	3	100	0	6546	0.04498956	-0.8878616	13.04567	
13:55:27	-6.728632	38.94614	134.068	-1.115705	3.41258	0.12	3	100	0	6546	0.07027639	-0.9945267	13.08109	
13:55:27	-6.728632	38.94614	134.09	-1.08352	4.85944	0.12	3	100	0	6546	-0.03412124	-0.9469283	13.14654	
13:55:27	-6.728632	38.94614	134.108	-1.061635	4.848407	0.09	3	100	0	6546	0.174113	-1.074028	13.17617	
13:55:27	-6.728633	38.94614	134.076	-1.052669	4.827315	0.07	3	100	0	6546	0.1640505	-1.094702	13.14556	
13:55:28	-6.728633	38.94614	134.083	-1.041145	4.855448	0.18	3	100	0	6546	-0.01314336	-1.131246	13.15796	
13:55:28	-6.728633	38.94614	134.083	-1.024336	4.619824	0.18	3	100	0	6546	-0.2190821	-1.202137	13.19511	
13:55:28	-6.728633	38.94614	134.058	-1.012249	4.267438	0.26	3	100	0	6546	-0.3273259	-1.301706	13.22054	
13:55:28	-6.728632	38.94614	134.039	-1.026705	2.987453	0.17	3	100	0	6546	-0.2282865	-1.205358	13.24969	
13:55:28	-6.728632	38.94614	134.043	-1.040839	1.768007	0.03	3	100	0	6546	-0.1952832	-1.013399	13.33835	
13:55:29	-6.728632	38.94614	134.038	-0.9940493	3.473342	0.07	3	100	0	6546	-0.08398163	-0.9186163	13.33032	
13:55:29	-6.728632	38.94614	134.038	-0.9565454	5.081955	0.07	3	100	0	6546	-0.03005942	-0.8682593	13.29535	
13:55:29	-6.728632	38.94614	134.003	-0.9166604	7.352554	0.04	3	100	0	6546	-0.03558066	-0.8763279	13.2378	
13:55:29	-6.728633	38.94614	133.962	-0.8809163	8.253345	0.08	3	100	0	6546	-0.05776086	-0.8514683	13.20647	
13:55:29	-6.728633	38.94614	133.941	-0.8571778	8.410794	0.08	3	100	0	6546	-0.05549812	-0.917799	13.2419	
13:55:30	-6.728633	38.94614	133.936	-0.8376837	8.000539	0.08	3	100	0	6546	0.0374344	-0.9853982	13.28951	
13:55:30	-6.728633	38.94614	133.936	-0.8005363	8.250193	0.08	3	100	0	6546	0.166876	-1.07335	13.19573	
13:55:30	-6.728632	38.94614	133.866	-0.7722123	9.591146	0.09	3	100	0	6546	0.2394004	-1.160497	13.16351	
13:55:30	-6.728632	38.94614	133.866	-0.7979758	7.104513	0.09	3	100	0	6546	0.2627192	-0.884266	13.15262	
13:55:30	-6.728631	38.94614	133.862	-0.8230543	4.81909	0.12	3	100	0	6546	0.1988926	-0.7142664	13.12707	
13:55:31	-6.728631	38.94614	133.862	-0.8808062	1.128981	0.12	3	100	0	6546	0.1250189	-0.8598006	13.09409	
13:55:31	-6.728631	38.94614	133.882	-0.9282988	-1.364171	0.18	3	100	0	6546	0.02337742	-1.075034	13.10908	
13:55:31	-6.728631	38.94614	133.877	-0.9845797	-4.267467	0.04	3	100	0	6546	0.009431005	-1.183176	13.04319	
13:55:31	-6.728631	38.94614	133.845	-1.030155	-6.297497	0.13	3	100	0	6546	0.09395476	-0.9985	13.02406	
13:55:31	-6.728631	38.94614	133.856	-1.096017	-9.221597	0.14	3	100	0	6546	0.1320598	-1.087439	13.03203	
13:55:32	-6.728631	38.94614	133.844	-1.155087	-11.17241	0.16	3	100	0	6546	0.2003583	-1.137913	13.04744	
13:55:32	-6.728631	38.94614	133.808	-1.195055	-12.83353	0.02	3	100	0	6546	0.1135261	-1.084536	13.09221	
13:55:32	-6.728631	38.94614	133.792	-1.230104	-13.74229	0.17	3	100	0	6546	0.2552863	-1.017225	13.11032	
13:55:32	-6.728631	38.94614	133.782	-1.270556	-14.91338	0.09	3	100	0	6546	0.209756	-1.110872	13.01983	
13:55:33	-6.728631	38.94614	133.782	-1.304755	-15.06099	0.09	3	100	0	6546	0.3419104	-1.070833	13.0798	
13:55:33	-6.728631	38.94614	133.723	-1.312071	-13.56798	0.04	3	100	0	6546	0.4256089	-1.035053	13.11375	
13:55:33	-6.728631	38.94614	133.674	-1.316424	-12.21678	0.12	3	100	0	6546	0.357679	-0.9924024	13.10685	
13:55:33	-6.728631	38.94614	133.603	-1.321124	-11.35695	0.17	3	100	0	6546	0.3887232	-0.858725	13.10732	
13:55:33	-6.728631	38.94614	133.588	-1.327086	-10.76686	0.19	3	100	0	6546	0.3796193	-0.7839357	13.10429	
13:55:33	-6.728631	38.94614	133.55	-1.343419	-10.93465	0.04	3	100	0	6546	0.2564027	-0.8741584	13.0215	
13:55:34	-6.728631	38.94614	133.504	-1.368104	-11.65465	0.12	3	100	0	6546	0.3943681	-0.9297529	12.99604	
13:55:34	-6.728631	38.94614	133.443	-1.368401	-10.86398	0.09	3	100	0	6546	0.5041146	-1.018683	13.00195	
13:55:34	-6.728631	38.94614	133.415	-1.354321	-8.544394	0.13	3	100	0	6547	0.540828	-1.000463	12.9628	
13:55:34	-6.728631	38.94614	133.404	-1.318598	-5.884588	0.04	3	100	0	6546	0.531523	-1.091046	12.9033	
13:55:34	-6.728631	38.94614	133.398	-1.272323	-2.507968	0.12	3	100	0	6546	0.4167313	-1.03946	12.8877	
13:55:35	-6.728631	38.94614	133.362	-1.213001	1.226461	0.12	3	100	0	6546	0.4052652	-0.9872767	12.82058	
13:55:35	-6.728631	38.94614	133.347	-1.14798	5.099976	0.08	3	100	0	6546	0.2452019	-1.015801	12.78	
13:55:35	-6.728631	38.94614	133.356	-1.063103	9.045673	0.08	3	100	0	6546	0.2502636	-1.073833	12.7419	
13:55:35	-6.728631	38.94614	133.342	-0.9625454	14.00631	0.14	3	100	0	6546	-0.02909895	-0.9955595	12.80706	
13:55:36	-6.72863	38.94614	133.377	-0.8357862	18.55049	0.09	3	100	0	6546	0.0001723263	-0.9580241	12.86899	
13:55:36	-6.72863	38.94614	133.389	-0.6916871	23.9366	0.13	3	100	0	6546	0.1905292	-1.046174	12.90931	
13:55:36	-6.72863	38.94614	133.425	-0.6038423	25.69667	0.11	3	100	0	6546	0.199091	-1.069157	12.85086	
13:55:36	-6.72863	38.94614	133.417	-0.5541682	25.54719	0.07	3	100	0	6546	0.2651146	-1.010593	12.85519	
13:55:36	-6.72863	38.94614	133.391	-0.5721053	21.99675	0.14	3	100	0	6546	-0.1160733	-1.040111	12.84669	
13:55:36	-6.72863	38.94614	133.424	-0.6289061	16.48375	0.09	3	100	0	6546	0.2547861	-1.243277	12.87374	
13:55:37	-6.728629	38.94614	133.451	-0.6745358	13.3407	0.06	3	100	0	6546	-1.319598	-1.305898	13.02184	
13:55:37	-6.728629	38.94614	133.45	-0.7089919	9.775532	0.12	3	100	0	6546	0.06173038	-1.204659	13.08992	
13:55:37	-6.728629	38.94614	133.467	-0.7319937	7.092723	0.13	3	100	0	6546	0.06504094	-1.114474	13.09464	
13:55:37	-6.728629	38.94614	133.468	-0.7416422	6.325789	0.09	3	100	0	6546	0.2014229	-1.323259	13.07992	
13:55:37	-6.728629	38.94614	133.506	-0.7165072	7.482066	0.03	3	100	0	6546	0.2298053	-1.298324	13.08331	
13:55:38	-6.728629	38.94614	133.533	-0.6606645	9.155972	0.12	3	100	0	6546	0.5349452	-1.346427	13.12586	
13:55:38	-6.728629	38.94614	133.546	-0.6159278	11.26355	0.17	3	100	0	6546	0.4184833	-1.22311	13.15113	
13:55:38	-6.728629	38.94614	133.527	-0.6092716	10.33894	0.11	3	100	0	6546	0.2536174	-1.115535	13.11648	
13:55:38	-6.728629	38.94614	133.536	-0.6050605	9.747358	0.17	3	100	0	6546	0.2920038	-1.168198	13.01353	
13:55:38	-6.728629	38.94614	133.536	-0.6318662	7.746705	0.17	3	100	0	6546	0.6887724	-1.20691	12.98447	
13:55:39	-6.728629	38.94614	133.483	-0.6567509	5.509116	0.22	3	100	0	6546	0.453684	-1.220055	13.01033	
13:55:39	-6.728629	38.94614	133.448	-0.6618844	4.672981	0.03	3	100	0	6546	0.6575599	-1.047957	13.05085	
13:55:39	-6.728629	38.94614	133.459	-0.6685302	3.436518	0.08	3	100	0	6546	1.045738	-1.089746	13.00667	
13:55:39	-6.728629	38.94614	133.533	-0.6225538	5.744853	0.22	3	100	0	6546	0.3938289	-1.260398	12.90845	
13:55:39	-6.728629	38.94614	133.533	-0.5806801	7.614758	0.22	3	100	0	6546	0.6404145	-0.9713134	12.92503	
13:55:40	-6.728629	38.94614	133.479	-0.5751257	7.056842	0.04	3	100	0	6546	0.6571528	-0.6325002	12.89271	
13:55:40	-6.728629	38.94614	133.415	-0.5711519	7.041998	0.11	3	100	0	6546	0.6779125	-0.8162533	12.8545	
13:55:40	-6.728629	38.94614	133.427	-0.593729	5.300613	0.26	3	100	0	6546	0.7050282	-1.005124	12.83453	
13:55:40	-6.728629	38.94614	133.453	-0.6178772	3.30769	0.26	3	100	0	6546	0.513552	-1.187734	12.83142	
13:55:40	-6.728629	38.94614	133.453	-0.635313	1.929664	0.26	3	100	0	6546	0.6608426	-1.258078	12.81822	
13:55:41	-6.728628	38.94614	133.405	-0.6489061	0.6417718	0.02	3	100	0	6546	0.9731306	-0.7343243	12.74962	
13:55:41	-6.728628	38.94614	133.362	-0.6747633	-0.7458873	0.09	3	100	0	6546	1.087978	-0.6468496	12.71051	
13:55:41	-6.728628	38.94614	133.408	-0.6933294	-0.8330208	0.22	3	100	0	6546	0.7452917	-0.6088471	12.68007	
13:55:41	-6.728628	38.94614	133.38	-0.7216007	-2.106873	0.13	3	100	0	6546	0.7676401	-0.8300762	12.68594	
13:55:41	-6.728629	38.94614	133.39	-0.7466181	-3.026663	0.08	3	100	0	6546	0.5269398	-0.867413	12.7168	
13:55:42	-6.728629	38.94614	133.374	-0.7760716	-4.241017	0.07	3	100	0	6546	0.561253	-0.8005757	12.66582	
13:55:42	-6.728629	38.94614	133.389	-0.7976381	-5.23272	0.08	3	100	0	6546	0.248042	-0.803076	12.66117	
13:55:42	-6.728629	38.94614	133.395	-0.8613221	-8.01055	0.14	3	100	0	6546	0.8342485	-0.7637947	12.69044	
13:55:42	-6.728629	38.94614	133.38	-0.9186716	-9.9438	0.26	3	100	0	6546	0.3808948	-0.9519438	12.69692	
13:55:42	-6.728629	38.94614	133.37	-0.9545094	-10.96036	0.09	3	100	0	6546	0.9482356	-0.8673083	12.68056	
13:55:43	-6.728629	38.94614	133.369	-0.9859127	-11.45596	0.06	3	100	0	6546	0.5385113	-0.8275487	12.67637	
13:55:43	-6.72863	38.94614	133.361	-1.018233	-11.78355	0.07	3	100	0	6546	0.5756965	-0.9475693	12.57283	
13:55:43	-6.72863	38.94614	133.381	-1.055311	-12.93978	0.08	3	100	0	6546	0.7120166	-1.009197	12.54306	
13:55:43	-6.728629	38.94614	133.441	-1.095694	-13.95579	0.11	3	100	0	6546	0.6444345	-1.050322	12.49432	
13:55:44	-6.728629	38.94614	133.487	-1.140971	-14.09295	0.12	3	100	0	6546	0.5361351	-1.075389	12.51171	
13:55:44	-6.728629	38.94614	133.528	-1.199724	-16.14705	0.03	3	100	0	6546	0.5384254	-1.131201	12.53753	
13:55:44	-6.728629	38.94614	133.621	-1.251886	-17.85091	0.03	3	100	0	6546	0.5457764	-1.025584	12.54942	
13:55:44	-6.728629	38.94614	133.726	-1.284571	-17.65604	0.04	3	100	0	6546	0.4512137	-1.068413	12.44879	
13:55:44	-6.72863	38.94614	133.822	-1.29465	-16.83163	0.09	3	100	0	6546	0.5635691	-1.035921	12.45111	
13:55:45	-6.72863	38.94614	133.822	-1.310316	-15.97348	0.09	3	100	0	6546	0.5803818	-1.150339	12.48449	
13:55:45	-6.72863	38.94614	133.869	-1.328831	-14.96486	0.09	3	100	0	6546	0.4362558	-1.142422	12.49314	
13:55:45	-6.72863	38.94614	133.93	-1.359054	-15.39289	0.12	3	100	0	6546	0.3495698	-1.038994	12.52524	
13:55:45	-6.72863	38.94614	133.979	-1.407315	-16.28566	0.08	3	100	0	6546	0.4014685	-1.113963	12.54413	
13:55:45	-6.72863	38.94614	134.005	-1.442959	-16.17527	0.08	3	100	0	6546	0.4035347	-1.063491	12.52018	
13:55:45	-6.72863	38.94614	134.046	-1.465503	-15.88606	0.02	3	100	0	6546	0.5122614	-0.9799228	12.52542	
13:55:46	-6.72863	38.94614	134.037	-1.454103	-13.35016	0.03	3	100	0	6546	0.2401904	-1.016898	12.51727	
13:55:46	-6.72863	38.94614	134.05	-1.423488	-10.70157	0.19	3	100	0	6546	0.3970442	-1.05034	12.52611	
13:55:46	-6.728631	38.94614	134.078	-1.384335	-7.129293	0.09	3	100	0	6546	0.2794285	-0.9364706	12.57752	
13:55:46	-6.728631	38.94614	134.078	-1.341442	-4.353069	0.18	3	100	0	6546	0.3576373	-1.144011	12.63574	
13:55:47	-6.728631	38.94614	134.111	-1.284545	-0.5311062	0.09	3	100	0	6546	0.3882019	-1.298283	12.56632	
13:55:47	-6.72863	38.94614	134.199	-1.210787	3.403297	0.13	3	100	0	6546	0.4124634	-1.155718	12.52589	
13:55:47	-6.72863	38.94614	134.24	-1.183608	4.142991	0.04	3	100	0	6546	0.7438359	-1.375096	12.49598	
13:55:47	-6.72863	38.94614	134.254	-1.211257	2.35072	0.09	3	100	0	6546	0.6017192	-1.256129	12.47903	
13:55:47	-6.72863	38.94614	134.288	-1.231293	1.157246	0.06	3	100	0	6546	0.6425959	-1.356558	12.51721	
13:55:48	-6.728631	38.94614	134.317	-1.249052	0.1427462	0.19	3	100	0	6546	0.6230485	-1.259039	12.53386	
13:55:48	-6.72863	38.94614	134.352	-1.26431	-0.6538717	0.18	3	100	0	6546	0.36366	-1.276436	12.49737	
13:55:48	-6.72863	38.94614	134.378	-1.246989	1.02554	0.04	3	100	0	6546	0.5411787	-1.475341	12.50625	
13:55:48	-6.72863	38.94614	134.454	-1.230586	1.660638	0.16	3	100	0	6546	0.5330927	-1.343165	12.48167	
13:55:48	-6.72863	38.94614	134.526	-1.253841	0.5134282	0.14	3	100	0	6546	0.7735737	-1.186341	12.48341	
13:55:49	-6.72863	38.94614	134.594	-1.277371	-0.9265255	0.29	3	100	0	6546	0.731169	-1.242804	12.50995	
13:55:49	-6.72863	38.94614	134.605	-1.304853	-2.777468	0.18	3	100	0	6546	0.6826978	-0.9619668	12.43783	
13:55:49	-6.72863	38.94614	134.555	-1.331311	-3.673849	0.01	3	100	0	6546	0.7268593	-1.148081	12.42401	
13:55:49	-6.72863	38.94614	134.557	-1.313551	-2.395772	0.21	3	100	0	6546	0.6220056	-1.275701	12.41552	
13:55:49	-6.72863	38.94614	134.611	-1.296458	-0.9160999	0.26	3	100	0	6546	0.5551142	-1.476126	12.43341	
13:55:50	-6.72863	38.94614	134.701	-1.225094	3.161546	0.24	3	100	0	6546	0.6125918	-1.534055	12.47747	
13:55:50	-6.72863	38.94614	134.732	-1.166302	6.407754	0.08	3	100	0	6546	0.6101889	-1.495199	12.49261	
13:55:50	-6.72863	38.94614	134.792	-1.035814	12.55999	0.09	3	100	0	6546	0.8135051	-1.301403	12.43359	
13:55:50	-6.72863	38.94614	134.847	-0.9313627	16.79619	0.19	3	100	0	6546	0.7814589	-1.283128	12.41725	
13:55:50	-6.72863	38.94614	134.9	-0.8225194	20.85526	0.07	3	100	0	6546	0.5412056	-1.073632	12.3099	
13:55:50	-6.72863	38.94614	134.935	-0.7300823	23.29466	0.17	3	100	0	6546	0.6819385	-1.214913	12.30927	
13:55:51	-6.72863	38.94614	134.951	-0.684577	23.98578	0.14	3	100	0	6546	0.5874867	-1.165051	12.34115	
13:55:51	-6.72863	38.94614	134.991	-0.638905	24.53733	0.04	3	100	0	6546	0.7152896	-1.318957	12.3644	
13:55:51	-6.728631	38.94614	135.003	-0.6625419	21.41636	0.09	3	100	0	6546	0.7677053	-1.112405	12.25104	
13:55:51	-6.72863	38.94614	135.017	-0.6902969	17.92677	0.18	3	100	0	6546	0.723654	-1.096572	12.19486	
13:55:52	-6.72863	38.94614	135.041	-0.7450318	13.64253	0.09	3	100	0	6546	0.8132932	-1.35128	12.08967	
13:55:52	-6.728631	38.94614	135.059	-0.7887024	9.928003	0.02	3	100	0	6546	0.8398964	-1.265676	12.07737	
13:55:52	-6.728631	38.94614	135.112	-0.8226324	7.187975	0.13	3	100	0	6546	0.6587704	-1.313439	12.03346	
13:55:52	-6.728631	38.94614	135.129	-0.8516849	5.138876	0.09	3	100	0	6547	0.5712935	-1.194497	12.06108	
13:55:52	-6.728631	38.94614	135.152	-0.9116918	1.843792	0.04	3	100	0	6546	0.586263	-1.283804	12.01135	
13:55:53	-6.72863	38.94614	135.18	-0.9726239	-1.443383	0.59	3	100	0	6546	0.4798314	-1.331517	12.0579	
13:55:53	-6.728631	38.94614	135.039	-1.025794	-4.13748	0.65	3	100	0	6546	1.007823	-0.5935906	12.02162	
13:55:53	-6.728631	38.94614	134.932	-1.068925	-5.882098	0.13	3	100	0	6546	0.8389052	-0.6051408	11.97503	
13:55:53	-6.728631	38.94614	134.962	-1.078525	-6.207359	0.26	3	100	0	6546	0.6184432	-1.039359	12.01808	
13:55:53	-6.728631	38.94614	135.047	-1.042233	-3.593393	0.16	3	100	0	6546	0.6322435	-1.265137	12.04798	
13:55:54	-6.728631	38.94614	135.076	-1.022286	-2.280029	0.14	3	100	0	6546	0.4759217	-1.122189	12.02712	
13:55:54	-6.728631	38.94614	135.055	-1.010819	-1.656477	0.04	3	100	0	6546	0.4578567	-1.013028	12.36542	
13:55:54	-6.728631	38.94614	134.79	-0.9892222	0.1766025	0.74	3	100	0	6546	0.5615616	-0.7583013	12.70482	
13:55:54	-6.728631	38.94614	134.617	-0.9543663	1.729309	0.34	3	100	0	6546	1.943295	-0.5602794	12.68995	
13:55:54	-6.728631	38.94614	134.53	-0.9444783	2.308816	0.36	3	100	0	6546	1.518677	-0.749424	12.58971	
13:55:55	-6.728631	38.94615	134.521	-0.9493027	1.374544	0	3	100	0	6546	1.493316	-0.8488845	12.70061	
13:55:55	-6.728631	38.94615	134.544	-0.9780934	-0.6011215	0.04	3	100	0	6546	0.8346447	-0.8918827	12.71214	
13:55:55	-6.728631	38.94615	134.567	-1.021329	-3.599859	0.06	3	100	0	6546	1.19278	-0.7603388	12.64825	
13:55:55	-6.728631	38.94615	134.577	-1.069367	-4.480569	0.07	3	100	0	6546	1.060998	-0.8348282	12.56205	
13:55:55	-6.728631	38.94614	134.589	-1.12507	-6.261521	0.04	3	100	0	6546	1.157214	-0.9443381	12.53041	
13:55:56	-6.728631	38.94614	134.589	-1.164087	-7.547321	0.03	3	100	0	6546	1.056248	-0.8538023	12.54542	
13:55:56	-6.728631	38.94614	134.589	-1.192195	-8.030412	0.03	3	100	0	6546	1.049884	-0.8758721	12.53764	
13:55:56	-6.728631	38.94614	134.585	-1.197846	-7.641076	0.21	3	100	0	6546	1.070841	-0.9060889	12.48061	
13:55:56	-6.728631	38.94614	134.664	-1.183947	-6.019396	0.14	3	100	0	6546	1.048653	-1.017126	12.44636	
13:55:56	-6.728631	38.94614	134.6	-1.148259	-4.000021	0.29	3	100	0	6546	1.072382	-0.8629742	12.40569	
13:55:57	-6.728631	38.94614	134.505	-1.091874	-0.6631727	0.07	3	100	0	6546	1.208002	-0.1065859	12.35945	
13:55:57	-6.728631	38.94614	134.505	-1.057619	1.24356	0.07	3	100	0	6546	1.333911	-0.2699562	12.35341	
13:55:57	-6.728631	38.94614	134.466	-1.052037	1.556269	0.08	3	100	0	6546	1.257569	-0.4946959	12.37404	
13:55:57	-6.728631	38.94614	134.456	-1.042957	1.921247	0.04	3	100	0	6546	1.106119	-0.4664636	12.2609	
13:55:57	-6.728631	38.94614	134.459	-1.029312	2.045329	0.04	3	100	0	6546	1.267981	-0.5195726	12.19804	
13:55:58	-6.728631	38.94614	134.447	-1.018753	2.297493	0.13	3	100	0	6546	1.191573	-0.6529946	12.17307	
13:55:58	-6.728631	38.94614	134.447	-0.9915212	3.73445	0.13	3	100	0	6546	1.180256	-0.7552208	12.18293	
13:55:58	-6.728631	38.94614	134.435	-0.9618396	4.978699	0.08	3	100	0	6546	1.064467	-0.8377111	12.19167	
13:55:58	-6.728631	38.94614	134.446	-0.9481869	5.580113	0.08	3	100	0	6546	1.101636	-0.8142249	12.1875	
13:55:58	-6.728631	38.94615	134.451	-0.9361796	5.699622	0.08	3	100	0	6546	0.9660221	-0.9011728	12.08896	
13:55:59	-6.728631	38.94615	134.431	-0.968985	3.657719	0.01	3	100	0	6546	0.9787126	-0.9354281	12.07385	
13:55:59	-6.728631	38.94615	134.414	-1.003249	1.562736	0.19	3	100	0	6546	1.027177	-0.9457986	12.06168	
13:55:59	-6.728631	38.94615	134.403	-1.039501	-0.224494	0.07	3	100	0	6546	1.074829	-1.075475	12.11124	
13:55:59	-6.728631	38.94615	134.379	-1.070928	-0.658224	0.06	3	100	0	6546	1.194238	-0.9448329	12.09048	
13:55:59	-6.728631	38.94615	134.38	-1.09491	-1.713533	0.16	3	100	0	6546	1.121452	-0.978651	12.08989	
13:56:00	-6.728631	38.94615	134.412	-1.113924	-1.99662	0.08	3	100	0	6546	1.158959	-1.041386	11.98789	
13:56:00	-6.728631	38.94615	134.422	-1.127642	-2.502427	0.06	3	100	0	6546	1.089301	-0.9991847	11.93294	
13:56:00	-6.728631	38.94615	134.437	-1.140442	-3.080737	0.14	3	100	0	6546	1.11533	-0.9762313	11.90814	
13:56:00	-6.728631	38.94615	134.404	-1.13201	-2.021232	0.11	3	100	0	6546	1.274886	-0.9735168	11.89732	
13:56:00	-6.728631	38.94615	134.351	-1.122065	-0.6326869	0.16	3	100	0	6546	1.196399	-0.87106	11.9269	
13:56:01	-6.728631	38.94615	134.326	-1.129412	-1.173114	0.04	3	100	0	6546	1.319689	-0.9878235	11.92397	
13:56:01	-6.728631	38.94615	134.291	-1.136507	-0.9734783	0.13	3	100	0	6546	1.088098	-1.00139	11.8228	
13:56:01	-6.72863	38.94615	134.328	-1.194518	-3.75885	0.14	3	100	0	6546	1.02858	-1.030377	11.68865	
13:56:01	-6.72863	38.94615	134.354	-1.24638	-6.018888	0.14	3	100	0	6546	1.151753	-1.151925	11.68733	
13:56:01	-6.72863	38.94615	134.361	-1.308031	-8.625022	0.14	3	100	0	6546	1.178994	-1.107318	11.69802	
13:56:02	-6.72863	38.94615	134.369	-1.357972	-10.864	0.06	3	100	0	6546	1.043917	-0.8654401	11.74363	
13:56:02	-6.72863	38.94615	134.375	-1.342522	-9.144275	0.08	3	100	0	6546	1.101521	-1.057509	11.74809	
13:56:02	-6.72863	38.94615	134.395	-1.325931	-6.743354	0.08	3	100	0	6546	1.047132	-1.028808	11.64826	
13:56:02	-6.728629	38.94615	134.392	-1.307423	-5.118001	0.19	3	100	0	6546	1.271201	-1.018935	11.61824	
13:56:02	-6.728629	38.94615	134.384	-1.287993	-3.973079	0.06	3	100	0	6546	1.423016	-1.138822	11.5906	
13:56:03	-6.728629	38.94615	134.403	-1.255203	-1.738674	0.11	3	100	0	6546	1.305643	-1.044917	11.54564	
13:56:03	-6.728629	38.94615	134.403	-1.199831	1.287983	0.11	3	100	0	6546	1.290521	-1.079681	11.56843	
13:56:03	-6.728629	38.94615	134.391	-1.145459	4.229899	0.12	3	100	0	6546	1.341152	-1.126355	11.52094	
13:56:03	-6.728629	38.94615	134.298	-1.067057	8.337811	0.14	3	100	0	6546	1.45617	-1.029349	11.42248	
13:56:03	-6.728629	38.94615	134.231	-0.9950825	11.08748	0.19	3	100	0	6546	1.251717	-0.7661548	11.40144	
13:56:04	-6.728629	38.94615	134.158	-0.9253795	13.5737	0.04	3	100	0	6546	1.160349	-0.7663305	11.3776	
13:56:04	-6.728629	38.94615	134.151	-0.9093097	13.08185	0.09	3	100	0	6546	1.254163	-0.8849243	11.39751	
13:56:04	-6.728629	38.94615	134.141	-0.9247704	11.31242	0.09	3	100	0	6546	1.319775	-0.8166888	11.41136	
13:56:04	-6.728629	38.94615	134.123	-0.9210424	10.81504	0.09	3	100	0	6546	1.227997	-0.7994552	11.39314	
13:56:04	-6.728629	38.94615	134.053	-0.8942652	11.21309	0.13	3	100	0	6546	1.350483	-0.8731139	11.29566	
13:56:05	-6.728629	38.94615	134.04	-0.8343992	13.39196	0.08	3	100	0	6546	1.193103	-0.9917855	11.28516	
13:56:05	-6.728629	38.94615	134.022	-0.7269364	17.93111	0.13	3	100	0	6546	1.159316	-0.8619838	11.26059	
13:56:05	-6.728629	38.94615	133.964	-0.6149948	22.38908	0.18	3	100	0	6546	1.217208	-0.8086159	11.28712	
13:56:05	-6.728629	38.94615	133.96	-0.4813783	26.33225	0.03	3	100	0	6546	1.147057	-0.8279887	11.36543	
13:56:05	-6.728629	38.94614	133.952	-0.3896538	28.93514	0.11	3	100	0	6546	1.204384	-0.8915626	11.35292	
13:56:06	-6.728629	38.94614	133.921	-0.3215958	29.9314	0.14	3	100	0	6546	1.201524	-0.8093355	11.29313	
13:56:06	-6.728629	38.94615	133.864	-0.2926864	28.62092	0.03	3	100	0	6546	1.316199	-0.8385001	11.27782	
13:56:06	-6.728629	38.94615	133.827	-0.2896151	26.25982	0.09	3	100	0	6546	1.243024	-0.9769992	11.30003	
13:56:06	-6.728629	38.94615	133.819	-0.2827794	24.5998	0.07	3	100	0	6546	1.298461	-1.037188	11.27395	
13:56:06	-6.728628	38.94615	133.785	-0.2688064	22.84029	0.17	3	100	0	6546	1.270921	-1.085446	11.26709	
13:56:07	-6.728628	38.94615	133.817	-0.2679442	20.59117	0.07	3	100	0	6546	1.226435	-1.115797	11.23897	
13:56:07	-6.728628	38.94615	133.818	-0.2816235	17.90251	0.16	3	100	0	6546	1.229319	-0.9993983	11.18377	
13:56:07	-6.728628	38.94615	133.799	-0.2993534	15.267	0.03	3	100	0	6548	1.188417	-0.9747581	11.12176	
13:56:07	-6.728628	38.94615	133.801	-0.3230039	12.44828	0.08	3	100	0	6546	1.31305	-0.8995005	11.13357	
13:56:07	-6.728628	38.94615	133.796	-0.3423578	10.90072	0.09	3	100	0	6546	1.343328	-0.8463996	11.08827	
13:56:08	-6.728628	38.94615	133.772	-0.3726477	8.090531	0.03	3	100	0	6546	1.405389	-0.866866	11.11924	
13:56:08	-6.728628	38.94615	133.74	-0.3993786	5.869614	0.08	3	100	0	6546	1.382083	-0.9041482	11.07768	
13:56:08	-6.728628	38.94615	133.71	-0.4352997	3.808017	0.17	3	100	0	6546	1.331045	-0.9025738	11.05339	
13:56:08	-6.728628	38.94615	133.665	-0.4646903	2.230327	0.13	3	100	0	6546	1.183495	-1.028059	11.06044	
13:56:08	-6.728628	38.94615	133.63	-0.5079027	-0.08917093	0.09	3	100	0	6546	1.271833	-1.009712	11.06268	
13:56:09	-6.728628	38.94615	133.594	-0.5468809	-1.844149	0.14	3	100	0	6546	1.471725	-1.017878	11.06966	
13:56:09	-6.728628	38.94615	133.594	-0.6457204	-7.314637	0.14	3	100	0	6546	1.247633	-0.8997072	11.074	
13:56:09	-6.728628	38.94615	133.6	-0.7347497	-10.93399	0.07	3	100	0	6546	1.178714	-0.8653079	11.00683	
13:56:09	-6.728628	38.94615	133.652	-0.8031271	-13.17635	0.04	3	100	0	6546	1.218898	-0.8656321	11.04259	
13:56:09	-6.728628	38.94615	133.665	-0.8562108	-14.58197	0.04	3	100	0	6546	1.131762	-0.8384194	11.0388	
13:56:10	-6.728627	38.94615	133.673	-0.8392297	-12.71425	0.04	3	100	0	6546	1.09599	-0.8555202	11.08362	
13:56:10	-6.728627	38.94615	133.624	-0.8214694	-10.32109	0.32	3	100	0	6546	1.019229	-0.7537703	11.15891	
13:56:10	-6.728627	38.94615	133.641	-0.7944832	-8.027184	0.09	3	100	0	6546	0.9398872	-0.6687959	11.25391	
13:56:10	-6.728627	38.94615	133.634	-0.7713162	-6.191667	0.09	3	100	0	6546	1.059079	-0.8287043	11.23758	
13:56:10	-6.728627	38.94615	133.67	-0.7594498	-5.199326	0.06	3	100	0	6546	1.132176	-0.8483704	11.23332	
13:56:11	-6.728627	38.94615	133.64	-0.7475668	-3.757245	0.03	3	100	0	6546	1.087081	-0.9335743	11.19741	
13:56:11	-6.728627	38.94615	133.64	-0.7786623	-4.902936	0.03	3	100	0	6546	0.9886796	-0.9790956	11.19023	
13:56:11	-6.728627	38.94615	133.632	-0.8084448	-5.845604	0.09	3	100	0	6546	0.9578566	-0.9896624	11.25975	
13:56:11	-6.728627	38.94615	133.645	-0.8297601	-6.491926	0.02	3	100	0	6546	0.9579273	-0.9910066	11.3278	
13:56:11	-6.728627	38.94615	133.625	-0.8475216	-6.344652	0.08	3	100	0	6546	1.016965	-1.016072	11.28554	
13:56:12	-6.728627	38.94615	133.634	-0.8792948	-7.421146	0.09	3	100	0	6546	1.006242	-0.9962412	11.35958	
13:56:12	-6.728628	38.94615	133.654	-0.9070953	-8.12387	0.09	3	100	0	6546	0.9725642	-0.9905847	11.34531	
13:56:12	-6.728627	38.94615	133.69	-0.8915252	-6.542231	0.08	3	100	0	6546	1.024571	-0.9994569	11.41559	
13:56:12	-6.728627	38.94615	133.743	-0.8775778	-5.050348	0.03	3	100	0	6546	1.089554	-1.064272	11.43341	
13:56:12	-6.728627	38.94615	133.806	-0.8659658	-3.797746	0.06	3	100	0	6546	1.136854	-1.052429	11.46924	
13:56:13	-6.728627	38.94615	133.843	-0.8590693	-3.033941	0.12	3	100	0	6546	1.157288	-1.048945	11.4021	
13:56:13	-6.728627	38.94615	133.912	-0.8288723	-0.8429567	0.06	3	100	0	6546	1.154629	-0.9955539	11.43876	
13:56:13	-6.728627	38.94615	133.957	-0.7607907	2.965086	0.09	3	100	0	6546	1.198852	-1.010252	11.41465	
13:56:13	-6.728627	38.94615	134.019	-0.728802	3.946121	0.14	3	100	0	6546	1.248171	-1.084522	11.41034	
13:56:13	-6.728627	38.94615	134.087	-0.7162784	4.691561	0.04	3	100	0	6546	1.255051	-1.135852	11.41821	
13:56:14	-6.728627	38.94615	134.122	-0.7379528	4.042191	0.06	3	100	0	6546	1.192033	-1.060347	11.46273	
13:56:14	-6.728627	38.94615	134.178	-0.7797819	1.093764	0.19	3	100	0	6546	1.127182	-0.987608	11.46609	
13:56:14	-6.728627	38.94615	134.198	-0.800721	-0.2533875	0.18	3	100	0	6546	1.101875	-0.8757191	11.45225	
13:56:14	-6.728627	38.94615	134.241	-0.8098988	-0.6614729	0.22	3	100	0	6546	1.158629	-0.8677746	11.48183	
13:56:14	-6.728627	38.94615	134.315	-0.8222229	-1.344557	0.22	3	100	0	6546	1.138512	-0.8397178	11.49506	
13:56:15	-6.728627	38.94615	134.369	-0.8372648	-1.785897	0.04	3	100	0	6546	1.118158	-0.9341536	11.47594	
13:56:15	-6.728627	38.94615	134.369	-0.8284041	-1.536974	0.04	3	100	0	6546	1.043969	-1.191541	11.53002	
13:56:15	-6.728627	38.94615	134.404	-0.7835925	0.8029522	0.16	3	100	0	6546	1.045298	-1.300373	11.4696	
13:56:15	-6.728627	38.94615	134.387	-0.7474227	2.736442	0.06	3	100	0	6546	1.04402	-1.294656	11.43231	
13:56:15	-6.728626	38.94615	134.456	-0.7149401	4.168676	0.04	3	100	0	6546	1.115684	-1.398913	11.43981	
13:56:16	-6.728626	38.94615	134.484	-0.7130678	3.534364	0.07	3	100	0	6546	1.069802	-1.423955	11.4945	
13:56:16	-6.728626	38.94615	134.474	-0.7368836	2.182008	0.14	3	100	0	6546	1.052234	-1.34199	11.5457	
13:56:16	-6.728626	38.94615	134.49	-0.757735	1.377758	0.14	3	100	0	6546	1.078232	-1.337517	11.57423	
13:56:16	-6.728626	38.94615	134.517	-0.7796654	0.1963317	0.14	3	100	0	6546	1.202846	-1.355325	11.4667	
13:56:16	-6.728626	38.94615	134.547	-0.8091998	-0.8669302	0.08	3	100	0	6546	1.139444	-1.341884	11.39347	
13:56:17	-6.728626	38.94615	134.573	-0.850548	-2.771585	0.19	3	100	0	6546	1.093317	-1.307212	11.44026	
13:56:17	-6.728626	38.94615	134.574	-0.8739318	-3.298711	0.14	3	100	0	6546	1.107484	-1.248798	11.46593	
13:56:17	-6.728626	38.94615	134.543	-0.8826845	-3.446605	0.09	3	100	0	6546	1.030448	-1.33645	11.5083	
13:56:17	-6.728626	38.94615	134.534	-0.8891621	-3.469779	0.11	3	100	0	6546	1.056267	-1.452846	11.5319	
13:56:17	-6.728626	38.94615	134.542	-0.8956486	-2.687616	0.01	3	100	0	6546	1.052263	-1.476189	11.51493	
13:56:18	-6.728626	38.94615	134.557	-0.899336	-1.732884	0.04	3	100	0	6546	1.076752	-1.458612	11.5177	
13:56:18	-6.728626	38.94615	134.586	-0.8618219	0.4798239	0.04	3	100	0	6547	1.050742	-1.473061	11.56339	
13:56:18	-6.728626	38.94615	134.612	-0.8312693	1.875655	0.04	3	100	0	6546	1.04285	-1.448033	11.59261	
13:56:18	-6.728626	38.94615	134.618	-0.8302507	2.031093	0.09	3	100	0	6546	1.036735	-1.345977	11.65474	
13:56:18	-6.728626	38.94615	134.658	-0.8288727	2.477058	0.09	3	100	0	6546	1.080408	-1.313961	11.68954	
13:56:19	-6.728626	38.94615	134.692	-0.8603452	0.9809466	0.11	3	100	0	6546	1.177744	-1.399385	11.59967	
13:56:19	-6.728626	38.94615	134.699	-0.888266	-0.4295559	0.11	3	100	0	6546	1.159393	-1.408004	11.55436	
13:56:19	-6.728626	38.94615	134.716	-0.9046951	-1.108028	0.09	3	100	0	6546	1.076984	-1.296356	11.57799	
13:56:19	-6.728626	38.94615	134.659	-0.9179056	-1.645744	0.13	3	100	0	6546	1.001737	-1.214209	11.62609	
13:56:20	-6.728626	38.94615	134.642	-0.9397829	-2.666895	0.01	3	100	0	6546	0.9968297	-1.243944	11.63012	
13:56:20	-6.728626	38.94615	134.672	-0.9594204	-3.297047	0.08	3	100	0	6546	1.045195	-1.265879	11.55974	
13:56:20	-6.728626	38.94615	134.719	-0.9699231	-3.392561	0.29	3	100	0	6546	1.149927	-1.051367	11.47234	
13:56:20	-6.728626	38.94615	134.767	-0.9780867	-3.782677	0.39	3	100	0	6546	1.198002	-0.8072555	11.45729	
13:56:20	-6.728626	38.94615	134.731	-1.048244	-7.305711	0.37	3	100	0	6546	1.201547	-0.7405042	11.48022	
13:56:20	-6.728626	38.94615	134.706	-1.110986	-10.23877	0.19	3	100	0	6545	1.221276	-0.8740699	11.48857	
13:56:21	-6.728626	38.94615	134.713	-1.131729	-10.10782	0.19	3	100	0	6546	1.267647	-1.088764	11.52182	
13:56:21	-6.728626	38.94615	134.713	-1.148694	-10.77606	0.19	3	100	0	6546	1.19967	-1.402628	11.48345	
13:56:21	-6.728626	38.94615	134.749	-1.164316	-10.28967	0.21	3	100	0	6546	1.151474	-1.566232	11.39559	
13:56:21	-6.728626	38.94615	134.809	-1.174753	-9.830993	0.01	3	100	0	6546	1.068866	-1.405234	11.36814	
13:56:21	-6.728626	38.94615	134.831	-1.234235	-11.76518	0.18	3	100	0	6546	0.978455	-1.298531	11.36289	
13:56:22	-6.728626	38.94615	134.916	-1.286187	-13.20114	0.09	3	100	0	6546	0.9168231	-1.378043	11.42498	
13:56:22	-6.728626	38.94615	135.011	-1.318952	-14.15795	0.22	3	100	0	6546	0.9717334	-1.417747	11.50664	
13:56:22	-6.728625	38.94615	135.034	-1.344272	-14.63469	0.07	3	100	0	6546	1.019447	-1.378856	11.55656	
13:56:22	-6.728625	38.94615	135.058	-1.352937	-13.97931	0.03	3	100	0	6546	0.9959785	-1.234167	11.51943	
13:56:22	-6.728626	38.94615	135.067	-1.336556	-11.44361	0.14	3	100	0	6546	0.9746081	-1.135492	11.50512	
13:56:23	-6.728626	38.94615	135.077	-1.295747	-7.881074	0.09	3	100	0	6546	0.9501145	-1.275386	11.5533	
13:56:23	-6.728626	38.94615	135.066	-1.224753	-3.40364	0.04	3	100	0	6547	1.015082	-1.403333	11.62547	
