Date	Latitude(deg) 	Longitude(deg)	hamsl(m)	hafl(m)	climbrate(cm/s)	GroundSpeed(m/s)	Airspeed(m/s)	Mav_Link(%)	Rssi_Link(%)	Throttle	Roll(deg)	Pitch(deg)	Yaw(deg)
09:55:01	-6.733776	38.95362	112.943	0	0	0.19	0	100	0	0	0	0	0	
09:55:01	-6.733776	38.95362	112.925	0.7502735	-0.6214918	0.29	3	100	0	5	-1.480936	-1.405036	67.31063	
09:55:02	-6.733776	38.95362	110.94	0.6845748	-7.081616	0.06	3	100	0	5	-1.018872	-1.317996	67.26249	
09:55:02	-6.733775	38.95362	110.865	0.6845748	-7.081616	0.18	3	100	0	5	-1.376759	-1.29967	67.2711	
09:55:02	-6.733776	38.95362	110.748	0.3114271	-29.95257	0.24	3	100	0	5	-1.245175	-1.38894	67.28028	
09:55:02	-6.733776	38.95362	110.749	-0.01655938	-47.01603	0.17	3	100	0	5	-1.161999	-1.318659	67.27221	
09:55:02	-6.733775	38.95362	110.702	-0.263793	-57.6108	0.16	3	100	0	4	-1.440297	-1.502531	67.20016	
09:55:03	-6.733775	38.95362	110.533	-0.3740572	-61.33847	0.07	3	100	0	4	-1.612836	-1.244463	67.1965	
09:55:03	-6.733775	38.95362	110.449	-0.3491992	-56.68956	0.08	3	100	0	5	-1.540773	-1.386759	67.22219	
09:55:03	-6.733775	38.95362	110.297	-0.2200272	-46.55508	0.02	3	100	0	5	-1.464444	-1.435179	67.22596	
09:55:03	-6.733775	38.95362	110.235	-0.07362288	-37.00134	0.09	3	100	0	4	-1.475463	-1.358893	67.20473	
09:55:03	-6.733775	38.95362	110.197	0.1228566	-25.51604	0.09	3	100	0	5	-1.593131	-1.408443	67.17453	
09:55:04	-6.733775	38.95362	110.136	0.2776258	-17.73874	0.28	3	100	0	5	-1.495785	-1.221848	67.19437	
09:55:04	-6.733774	38.95362	110.255	0.4076632	-11.39673	0.31	3	100	0	4	-1.190849	-1.373053	67.2069	
09:55:04	-6.733774	38.95362	110.278	0.5166594	-6.828682	0.41	3	100	0	5	-1.544864	-1.530517	67.22356	
09:55:04	-6.733773	38.95362	110.3	0.5966946	-4.400048	0.42	3	100	0	5	-1.64409	-1.656846	67.11664	
09:55:04	-6.733773	38.95362	110.189	0.680016	-1.931365	0.11	3	100	0	5	-1.988491	-1.269286	67.12236	
09:55:05	-6.733772	38.95362	110.229	0.7450881	-0.7760395	0.16	3	100	0	5	-1.440621	-1.23926	67.14134	
09:55:05	-6.733772	38.95362	110.176	0.7993931	-0.2474538	0.12	3	100	0	5	-1.571788	-1.244045	67.16655	
09:55:05	-6.733772	38.95362	109.983	0.8053828	-2.11568	0.09	3	100	0	4	-1.253639	-0.938529	67.15027	
09:55:05	-6.733772	38.95362	109.877	0.8060371	-4.532454	0.03	3	100	0	4	-1.325169	-0.9291288	67.13767	
09:55:05	-6.733771	38.95363	109.701	0.8072149	-6.623681	0.17	3	100	0	5	-1.394949	-0.9986616	67.16953	
09:55:06	-6.733771	38.95363	109.535	0.8053014	-7.915912	0.06	3	100	0	5	-1.567644	-0.9478787	67.22102	
09:55:06	-6.733771	38.95363	109.383	0.7611477	-11.86533	0.16	3	100	0	5	-1.443202	-1.011919	67.28264	
09:55:06	-6.733771	38.95363	109.266	0.7223153	-14.9713	0.09	3	100	0	5	-1.215117	-1.177647	67.2462	
09:55:06	-6.733771	38.95363	109.113	0.6984046	-16.55868	0.37	3	100	0	5	-1.474555	-1.069385	67.24974	
09:55:06	-6.733771	38.95363	109.101	0.6731306	-18.81059	0.19	3	100	0	5	-1.082591	-0.9217278	67.27438	
09:55:07	-6.73377	38.95363	109.102	0.6182224	-22.24544	0.31	3	100	0	4	-1.586032	-1.064759	67.31857	
09:55:07	-6.733769	38.95363	109.09	0.5675983	-25.41852	0.04	3	100	0	5	-1.683469	-1.176543	67.2412	
09:55:07	-6.733769	38.95363	109.011	0.5662663	-25.33081	0.13	3	100	0	5	-1.347776	-1.151061	67.26044	
09:55:07	-6.733769	38.95363	108.896	0.565277	-25.29011	0.02	3	100	0	4	-1.235259	-1.173469	67.27756	
09:55:07	-6.733769	38.95363	108.844	0.6015718	-22.64597	0.03	3	100	0	5	-1.396281	-1.126866	67.30616	
09:55:08	-6.733769	38.95363	108.745	0.6325449	-20.57626	0.18	3	100	0	4	-1.443027	-1.131052	67.3159	
09:55:08	-6.733768	38.95363	108.65	0.6656351	-18.89027	0.04	3	100	0	5	-1.617043	-1.223087	67.23444	
09:55:08	-6.733768	38.95363	108.49	0.6957279	-17.67553	0.14	3	100	0	4	-1.435444	-1.11605	67.24473	
09:55:08	-6.733768	38.95363	108.381	0.7209535	-16.70609	0.09	3	100	0	5	-1.332088	-1.225481	67.28284	
09:55:08	-6.733768	38.95364	108.295	0.7404793	-16.69199	0.11	3	100	0	5	-1.578665	-1.378042	68.29418	
09:55:09	-6.733768	38.95363	108.479	0.7627932	-15.79503	0.21	3	100	0	4	-2.747644	-1.431512	66.8109	
09:55:09	-6.733767	38.95363	108.533	0.7808148	-16.02748	0.24	3	100	0	5	1.009082	-2.869363	65.90524	
09:55:09	-6.733767	38.95364	108.432	0.78591	-11.62724	0.09	3	100	0	4	-1.343827	-7.215898	71.49303	
09:55:09	-6.733767	38.95364	108.49	0.7923699	-15.77553	0.14	3	100	0	4	-1.662458	-1.222187	73.57407	
09:55:09	-6.733767	38.95364	108.486	0.7774917	-18.96264	0.12	3	100	0	6	-1.846973	-1.736324	72.40601	
09:55:10	-6.733767	38.95364	108.489	0.7561378	-25.79378	0.14	3	100	0	5	-1.811912	-1.362991	71.95991	
09:55:10	-6.733767	38.95364	108.352	0.7119184	-25.76387	0.28	3	100	0	5	-1.690825	-1.228616	71.95909	
09:55:10	-6.733767	38.95364	108.284	0.6459892	-27.21405	0.24	3	100	0	4	-1.506647	-1.403412	71.967	
09:55:10	-6.733767	38.95364	108.196	0.5989848	-28.87053	0.09	3	100	0	4	-1.558219	-1.628454	71.98328	
09:55:10	-6.733767	38.95364	108.084	0.578261	-29.01118	0.14	3	100	0	5	-1.687059	-1.474797	71.93449	
09:55:11	-6.733766	38.95364	108.149	0.5700152	-28.37511	0.17	3	100	0	5	-1.715767	-1.778065	71.95068	
09:55:11	-6.733766	38.95364	108.109	0.5710541	-26.64012	0.28	3	100	0	4	-1.061165	-1.713035	71.8876	
09:55:11	-6.733766	38.95364	108.049	0.5780585	-24.86937	0.28	3	100	0	4	3.598547	-0.9298832	70.83544	
09:55:11	-6.733765	38.95364	107.933	0.5878471	-21.92135	0.35	3	100	0	4	8.002538	-1.269377	69.22391	
09:55:11	-6.733765	38.95364	107.821	0.5758525	-21.71454	0.45	3	100	0	5	-1.044483	-1.572301	69.26937	
09:55:12	-6.733765	38.95364	107.642	0.5240089	-24.79119	0.21	3	100	0	4	-0.898507	-1.47964	69.01479	
09:55:12	-6.733765	38.95364	107.711	0.4699905	-26.62975	0.36	3	100	0	5	-1.34938	-1.468438	69.11884	
09:55:12	-6.733764	38.95364	107.883	0.4154686	-27.79331	0.14	3	100	0	5	-1.847051	-1.617815	69.13453	
09:55:12	-6.733764	38.95364	107.739	0.3770116	-28.95591	0.14	3	100	0	5	-1.333	-1.311237	69.13374	
09:55:12	-6.733764	38.95364	107.661	0.3611617	-28.29337	0.11	3	100	0	5	-1.480074	-1.102864	69.16824	
09:55:13	-6.733764	38.95364	107.526	0.3254611	-29.23257	0.06	3	100	0	5	-1.564164	-1.149817	69.23171	
09:55:13	-6.733764	38.95364	107.553	0.2793087	-30.55022	0.02	3	100	0	4	-1.493848	-1.253478	69.29519	
09:55:13	-6.733763	38.95364	107.688	0.2373804	-31.54786	0.18	3	100	0	5	-1.552892	-1.242664	69.35201	
09:55:13	-6.733763	38.95364	107.603	0.2039426	-31.29398	0.14	3	100	0	4	-1.685013	-1.121732	69.33366	
09:55:13	-6.733763	38.95364	107.536	0.185017	-30.79509	0.13	3	100	0	4	-1.728066	-1.213688	69.39732	
09:55:14	-6.733763	38.95364	107.61	0.1865831	-29.58732	0.29	3	100	0	4	-1.599752	-1.209412	69.45654	
09:55:14	-6.733762	38.95364	107.699	0.2318556	-25.60357	0.31	3	100	0	5	-1.358459	-1.29508	69.50609	
09:55:14	-6.733762	38.95364	107.469	0.3338329	-18.64547	0.14	3	100	0	5	-1.838084	-1.189173	69.44788	
09:55:14	-6.733762	38.95364	107.397	0.4380961	-12.62074	0.14	3	100	0	6	-1.554338	-1.249701	69.47409	
09:55:14	-6.733762	38.95364	107.325	0.4819535	-9.979234	0.14	3	100	0	5	-1.678721	-1.28928	69.51133	
09:55:15	-6.733762	38.95364	107.203	0.5213348	-8.667362	0.14	3	100	0	5	-1.543948	-1.235353	69.54179	
09:55:15	-6.733762	38.95364	107.098	0.4580795	-12.29945	0.14	3	100	0	4	-1.688537	-1.283365	69.55166	
09:55:15	-6.733762	38.95364	106.896	0.4003446	-15.70037	0.13	3	100	0	5	-1.75101	-1.428559	69.56055	
09:55:15	-6.733762	38.95364	106.711	0.3277429	-19.56702	0.17	3	100	0	5	-1.633202	-1.202574	69.58549	
09:55:15	-6.733762	38.95364	106.658	0.2553835	-22.68131	0.18	3	100	0	5	-1.652387	-1.152229	69.63822	
09:55:16	-6.733762	38.95364	106.397	0.2692306	-20.90246	0.29	3	100	0	6	-1.738099	-1.201036	69.7012	
09:55:16	-6.733762	38.95364	106.305	0.2834714	-19.37219	0.22	3	100	0	5	-1.459713	-1.049868	69.64999	
09:55:16	-6.733762	38.95364	106.182	0.3588286	-15.20858	0.22	3	100	0	5	-1.566856	-1.14523	69.66982	
09:55:16	-6.733762	38.95364	106.018	0.4333957	-11.24755	0.21	3	100	0	4	-1.724141	-1.227306	69.70274	
09:55:16	-6.733763	38.95364	105.878	0.4678997	-9.456025	0.14	3	100	0	5	-1.440013	-1.165098	69.74283	
09:55:17	-6.733763	38.95364	105.876	0.4987354	-8.297804	0.08	3	100	0	5	-1.46204	-1.243412	69.70924	
09:55:17	-6.733763	38.95364	105.738	0.5141855	-7.826785	0.13	3	100	0	5	-1.584295	-1.291894	69.69737	
09:55:17	-6.733763	38.95364	105.687	0.5274348	-7.087334	0.09	3	100	0	4	-1.701137	-1.316271	69.73703	
09:55:17	-6.733763	38.95364	105.553	0.5617402	-5.792374	0.14	3	100	0	5	-1.605967	-1.33627	69.77339	
09:55:17	-6.733763	38.95364	105.473	0.5955029	-4.456211	0.25	3	100	0	5	-1.5753	-1.488196	69.78375	
09:55:18	-6.733763	38.95364	105.375	0.6113318	-4.113301	0.14	3	100	0	5	-1.453768	-1.195854	69.68275	
09:55:18	-6.733763	38.95364	105.34	0.6232683	-3.879352	0.22	3	100	0	5	-1.560938	-1.292216	69.71124	
09:55:18	-6.733763	38.95365	105.063	0.6836802	-1.130554	0.22	3	100	0	5	-1.302472	-0.8701361	69.75555	
09:55:18	-6.733764	38.95365	104.797	0.7379801	1.063608	0.25	3	100	0	4	-1.351485	-0.8936151	69.82567	
09:55:18	-6.733764	38.95365	104.521	0.8122601	3.294549	0.07	3	100	0	5	-1.219525	-1.057135	69.78906	
09:55:19	-6.733764	38.95365	104.306	0.8760597	4.910836	0.18	3	100	0	4	-1.378643	-1.187686	69.79785	
09:55:19	-6.733764	38.95365	104.403	0.9082121	5.341047	0.35	3	100	0	4	-1.491301	-1.052975	69.84782	
09:55:19	-6.733763	38.95365	104.498	0.934729	5.0209	0.13	3	100	0	5	-1.585626	-1.267784	69.89921	
09:55:19	-6.733764	38.95365	104.591	0.9506776	4.204046	0.17	3	100	0	5	-1.259425	-1.019365	69.91956	
09:55:19	-6.733764	38.95365	104.616	0.9599425	3.13286	0.08	3	100	0	4	-1.332601	-0.8748914	69.90348	
09:55:20	-6.733763	38.95365	104.573	0.9284185	0.2961845	0.02	3	100	0	4	-1.424427	-0.9462723	69.93539	
09:55:20	-6.733763	38.95365	104.546	0.8431937	-5.529359	0.19	3	100	0	4	-1.509757	-1.108587	69.9845	
09:55:20	-6.733763	38.95365	104.453	0.7681211	-9.752994	0.06	3	100	0	4	-1.643979	-1.234297	70.02418	
09:55:20	-6.733762	38.95365	104.453	0.7007014	-13.37533	0.14	3	100	0	4	-1.546062	-1.19749	69.99464	
09:55:20	-6.733762	38.95365	104.486	0.6348962	-16.57634	0.21	3	100	0	4	-1.475605	-1.287056	69.97779	
09:55:21	-6.733762	38.95365	104.559	0.5643786	-19.55358	0.04	3	100	0	4	-1.428471	-1.286387	69.99638	
09:55:21	-6.733762	38.95365	104.618	0.5168805	-21.49961	0.14	3	100	0	4	-1.524453	-1.184778	70.03617	
09:55:21	-6.733762	38.95365	104.771	0.4879872	-21.59949	0.11	3	100	0	4	-1.526139	-1.246424	70.05779	
09:55:21	-6.733762	38.95365	104.828	0.4744931	-21.38816	0.14	3	100	0	5	-1.615705	-1.246835	69.95012	
09:55:21	-6.733762	38.95365	104.806	0.4837607	-19.99725	0.19	3	100	0	5	-1.676095	-1.258883	69.97633	
09:55:22	-6.733762	38.95365	104.729	0.5097339	-17.66914	0.22	3	100	0	4	-1.512057	-1.329939	69.99649	
09:55:22	-6.733762	38.95365	104.776	0.5583195	-14.04141	0.16	3	100	0	4	-1.643652	-1.357197	70.02675	
09:55:22	-6.733762	38.95365	104.769	0.5932592	-12.29474	0.22	3	100	0	5	-1.617531	-1.317836	69.99908	
09:55:22	-6.733762	38.95365	104.79	0.6063108	-11.35928	0.06	3	100	0	4	-1.528628	-1.307952	69.99763	
09:55:22	-6.733762	38.95365	104.876	0.5804321	-12.87008	0.13	3	100	0	5	-1.573585	-1.196389	70.0244	
09:55:23	-6.733762	38.95365	105.08	0.518782	-16.28258	0.07	3	100	0	5	-1.579667	-1.208041	70.05282	
09:55:23	-6.733762	38.95365	105.123	0.4907261	-17.14876	0.08	3	100	0	4	-1.640031	-1.134099	70.07424	
09:55:23	-6.733762	38.95365	105.225	0.4930622	-16.37956	0.11	3	100	0	5	-1.667345	-1.250612	70.06483	
09:55:23	-6.733762	38.95365	105.258	0.4984043	-15.51156	0.01	3	100	0	4	-1.660062	-1.250993	70.08911	
09:55:23	-6.733762	38.95365	105.231	0.5060714	-14.83237	0.11	3	100	0	4	-1.720758	-1.148221	70.12866	
09:55:24	-6.733762	38.95365	105.127	0.5187061	-13.01452	0.19	3	100	0	5	-1.671718	-1.057306	70.16936	
09:55:24	-6.733761	38.95366	105.118	0.537657	-11.24929	0.19	3	100	0	4	-1.543871	-1.142373	70.11782	
09:55:24	-6.733761	38.95366	105.192	0.5581328	-9.425979	0.36	3	100	0	5	-1.607361	-1.402566	70.12253	
09:55:24	-6.733761	38.95366	105.339	0.5854353	-7.883076	0.19	3	100	0	5	-1.385204	-1.494959	70.11888	
09:55:24	-6.733761	38.95366	105.414	0.6095656	-6.975471	0.22	3	100	0	5	-1.48782	-1.425559	70.12517	
09:55:25	-6.73376	38.95366	105.448	0.6050681	-7.302423	0.12	3	100	0	5	-1.625957	-1.411336	70.09879	
09:55:25	-6.73376	38.95366	105.434	0.6011852	-7.534641	0.12	3	100	0	5	-1.604859	-1.327843	70.1024	
09:55:25	-6.73376	38.95366	105.497	0.6027572	-7.701585	0.17	3	100	0	5	-1.493572	-1.359859	70.13122	
09:55:25	-6.73376	38.95366	105.54	0.6041855	-7.397939	0.06	3	100	0	5	-1.547014	-1.356081	70.14405	
09:55:25	-6.73376	38.95366	105.497	0.5697513	-9.180077	0.01	3	100	0	5	-1.591341	-1.256005	70.16557	
09:55:26	-6.73376	38.95366	105.47	0.539332	-10.22134	0.13	3	100	0	4	-1.59249	-1.23374	70.10362	
09:55:26	-6.733759	38.95366	105.579	0.5341225	-10.06033	0.11	3	100	0	5	-1.654978	-1.290934	70.11292	
09:55:26	-6.733759	38.95366	105.623	0.5308975	-9.662993	0.14	3	100	0	5	-1.727262	-1.266575	70.1337	
09:55:26	-6.733759	38.95366	105.662	0.5604454	-7.570018	0.09	3	100	0	5	-1.637369	-1.17838	70.17016	
09:55:26	-6.733759	38.95366	105.638	0.588248	-5.954331	0.04	3	100	0	5	-1.705288	-1.198182	70.14588	
09:55:27	-6.733759	38.95366	105.649	0.5646031	-7.200365	0.32	3	100	0	4	-1.865983	-1.188619	70.1517	
09:55:27	-6.733758	38.95366	105.621	0.5445801	-8.353968	0.07	3	100	0	5	-1.987423	-1.175695	70.19685	
09:55:27	-6.733758	38.95366	105.56	0.5806717	-6.55937	0.17	3	100	0	5	-1.843734	-1.203109	70.23711	
09:55:27	-6.733758	38.95366	105.521	0.6130989	-5.077281	0.19	3	100	0	5	-1.813242	-1.126408	70.24658	
09:55:27	-6.733758	38.95366	105.46	0.6000149	-5.441196	0.25	3	100	0	4	-1.866989	-1.111425	70.145	
09:55:28	-6.733758	38.95366	105.34	0.5884389	-5.915912	0.14	3	100	0	4	-1.910864	-1.143007	70.17341	
09:55:28	-6.733757	38.95366	105.155	0.6481496	-2.804361	0.25	3	100	0	5	-1.8534	-1.140988	70.2225	
09:55:28	-6.733757	38.95366	105.074	0.6970612	-0.3184593	0.12	3	100	0	5	-1.906291	-1.134898	70.26418	
09:55:28	-6.733757	38.95366	104.958	0.7281078	0.2085722	0.25	3	100	0	4	-1.966099	-1.197666	70.22028	
09:55:28	-6.733757	38.95366	104.871	0.7543009	0.5987318	0.19	3	100	0	4	-2.057406	-1.270838	70.21519	
09:55:29	-6.733757	38.95366	104.793	0.7901133	2.052105	0.24	3	100	0	4	-2.06925	-1.27966	70.26263	
09:55:29	-6.733756	38.95366	104.721	0.8184079	2.625123	0.01	3	100	0	5	-1.991031	-1.237669	70.29631	
09:55:29	-6.733756	38.95366	104.764	0.8374367	3.215303	0.21	3	100	0	5	-1.961172	-1.238141	70.31732	
09:55:29	-6.733756	38.95366	104.753	0.841574	2.650255	0.19	3	100	0	4	-1.891114	-1.123168	70.3063	
09:55:29	-6.733756	38.95366	104.726	0.8292189	1.110975	0.09	3	100	0	4	-1.89237	-1.257177	70.34042	
09:55:30	-6.733756	38.95366	104.714	0.796132	-1.438502	0.18	3	100	0	5	-1.917631	-1.416106	70.36433	
09:55:30	-6.733756	38.95366	104.677	0.7744567	-3.506847	0.04	3	100	0	5	-1.911162	-1.382306	70.3829	
09:55:30	-6.733755	38.95366	104.67	0.7701802	-3.799654	0.22	3	100	0	4	-2.061226	-1.241293	70.33412	
09:55:30	-6.733755	38.95366	104.646	0.7535089	-4.854366	0.13	3	100	0	4	-1.992297	-1.199201	70.29463	
09:55:30	-6.733755	38.95366	104.631	0.7256911	-6.928926	0.04	3	100	0	5	-1.9381	-1.297248	70.31818	
09:55:31	-6.733755	38.95366	104.616	0.7046275	-8.403474	0.22	3	100	0	5	-2.041551	-1.23789	70.34564	
09:55:31	-6.733755	38.95366	104.58	0.6901855	-8.769302	0.19	3	100	0	4	-2.1397	-1.179549	70.40141	
09:55:31	-6.733755	38.95366	104.575	0.6883228	-8.536694	0.19	3	100	0	5	-2.103189	-1.401961	70.31049	
09:55:31	-6.733755	38.95366	104.599	0.7043087	-7.197784	0.03	3	100	0	5	-2.051987	-1.527011	70.27589	
09:55:31	-6.733755	38.95366	104.643	0.7264107	-5.550669	0.07	3	100	0	5	-2.031031	-1.410579	70.28534	
09:55:32	-6.733755	38.95366	104.646	0.7550094	-4.312818	0.09	3	100	0	5	-2.101654	-1.397022	70.30849	
09:55:32	-6.733755	38.95366	104.663	0.7707493	-3.661781	0.12	3	100	0	4	-2.118153	-1.368836	70.23761	
09:55:32	-6.733755	38.95366	104.705	0.771859	-3.363834	0.16	3	100	0	4	-2.079593	-1.312229	70.25597	
09:55:32	-6.733755	38.95366	104.822	0.7645879	-4.078307	0.29	3	100	0	4	-2.018365	-1.464378	70.29037	
09:55:32	-6.733755	38.95366	104.99	0.7497228	-5.01575	0.24	3	100	0	5	-2.095137	-1.602639	70.24291	
09:55:33	-6.733755	38.95366	105.13	0.7382642	-6.191497	0.09	3	100	0	5	-2.100709	-1.378133	70.25066	
09:55:33	-6.733755	38.95366	105.149	0.7295247	-6.915037	0.14	3	100	0	5	-1.856997	-1.726309	70.16817	
09:55:33	-6.733755	38.95366	105.265	0.7162352	-7.700974	0.09	3	100	0	5	-1.845249	-3.471223	70.65112	
09:55:33	-6.733755	38.95366	105.394	0.7018705	4.615291	0.16	3	100	0	5	-3.615382	-7.538091	73.03635	
09:55:33	-6.733755	38.95366	105.452	0.7340333	17.36109	0.09	3	100	0	5	-2.761826	-8.618644	72.23569	
09:55:34	-6.733755	38.95366	105.589	0.7735875	13.33877	0.41	3	100	0	4	-3.628081	-7.712746	70.4651	
09:55:34	-6.733755	38.95366	105.709	0.8046452	16.27377	0.09	3	100	0	4	-4.624894	-8.577666	69.94932	
09:55:34	-6.733755	38.95366	105.698	0.9043285	21.97208	0.02	3	100	0	5	-7.272369	-10.21644	68.63356	
09:55:34	-6.733755	38.95366	105.736	0.9977304	27.49857	0.32	3	100	0	5	-10.0628	-12.9502	63.56682	
09:55:34	-6.733755	38.95366	105.956	1.118656	24.20157	0.14	3	100	0	5	-7.082618	-13.48388	53.99516	
09:55:35	-6.733755	38.95366	106.043	1.191006	8.382909	0.18	3	100	0	4	-7.842545	-12.50083	40.74532	
09:55:35	-6.733755	38.95366	106.2	1.225761	6.68577	0.22	3	100	0	5	-8.654437	-10.28995	23.21753	
09:55:35	-6.733755	38.95366	106.324	1.24771	-4.012323	0.31	3	100	0	5	-5.527742	-5.095976	5.435212	
09:55:35	-6.733755	38.95366	106.291	1.229705	-8.852664	0.29	3	100	0	4	-2.247419	-0.7109051	-6.83487	
09:55:35	-6.733755	38.95366	106.376	1.215923	-0.7607607	0.11	3	100	0	5	10.7957	-0.3311954	-12.07521	
09:55:36	-6.733755	38.95366	106.507	1.234058	9.065276	0.13	3	100	0	4	-4.592082	-0.2229212	-11.94852	
09:55:36	-6.733756	38.95366	106.538	1.257979	8.523905	0.33	3	100	0	5	-9.638376	3.806094	-12.46798	
09:55:36	-6.733756	38.95366	106.631	1.248339	2.148794	0.42	3	100	0	4	16.50403	3.362523	-15.0484	
09:55:36	-6.733756	38.95366	106.681	1.231017	1.669339	0.22	3	100	0	5	3.769688	3.203061	-15.41412	
09:55:36	-6.733756	38.95366	106.908	1.193186	0.7863898	0.42	3	100	0	5	-5.115198	6.259399	-15.76634	
09:55:37	-6.733755	38.95366	106.855	1.154754	-4.204394	0.5	3	100	0	5	13.3874	4.80549	-16.28259	
09:55:37	-6.733755	38.95366	106.902	1.134108	-2.95926	0.26	3	100	0	5	4.762253	4.47634	-15.10931	
09:55:37	-6.733756	38.95366	107.061	1.120028	-2.441215	0	3	100	0	5	-4.475465	6.122348	-14.9688	
09:55:37	-6.733756	38.95365	107.19	1.036661	-8.664064	0.31	3	100	0	5	18.90478	3.504624	-18.55085	
09:55:37	-6.733756	38.95365	107.32	0.9446524	-15.23541	0.22	3	100	0	5	11.01664	2.34667	-18.40595	
09:55:38	-6.733756	38.95365	107.486	0.9305912	-8.471535	0.08	3	100	0	5	0.2998668	4.379366	-17.96405	
09:55:38	-6.733756	38.95365	107.718	0.9211891	-10.14543	0.24	3	100	0	4	18.19377	3.400133	-21.25766	
09:55:38	-6.733756	38.95365	107.893	0.9032842	-9.385445	0.04	3	100	0	4	17.02365	2.286481	-20.82912	
09:55:38	-6.733757	38.95365	107.961	0.9021758	-1.647518	0.11	3	100	0	5	0.353298	2.511855	-18.96443	
09:55:38	-6.733757	38.95365	108.031	0.9171014	-2.403315	0.12	3	100	0	5	14.27834	1.885319	-21.06456	
09:55:39	-6.733757	38.95365	108.22	0.9248353	-4.435943	0.19	3	100	0	5	12.19148	3.237161	-20.85006	
09:55:39	-6.733756	38.95365	108.354	0.9358216	-0.5166141	0.09	3	100	0	5	1.867965	4.007586	-19.2337	
09:55:39	-6.733756	38.95365	108.343	0.9551604	9.51507	0.17	3	100	0	4	9.067274	2.657838	-20.88661	
09:55:39	-6.733756	38.95365	108.43	0.9789897	19.17975	0.14	3	100	0	5	-0.3666858	3.258565	-19.21135	
09:55:39	-6.733756	38.95365	108.488	0.9872274	18.8462	0.17	3	100	0	5	-0.2549958	4.749568	-18.32439	
09:55:40	-6.733757	38.95365	108.658	0.9997191	10.40605	0.28	3	100	0	4	3.809574	5.497402	-16.04154	
09:55:40	-6.733757	38.95364	108.854	0.9953508	2.04984	0.04	3	100	0	4	6.030669	7.812608	-11.09033	
09:55:40	-6.733757	38.95364	108.96	1.050545	11.73288	0.25	3	100	0	5	2.439547	6.366424	-7.139755	
09:55:40	-6.733756	38.95364	108.968	1.145886	14.58654	0.37	3	100	0	4	-0.1170698	4.166343	-4.906651	
09:55:40	-6.733756	38.95364	109.081	1.227456	10.0424	0.11	3	100	0	5	-0.1104315	1.25069	-3.122326	
09:55:41	-6.733755	38.95364	109.117	1.287972	9.085564	0.42	3	100	0	4	0.1652607	-0.3552508	-1.026706	
09:55:41	-6.733755	38.95364	109.174	1.325776	6.476744	0.77	3	100	0	4	0.9082245	-1.831804	0.1457162	
09:55:41	-6.733754	38.95364	109.251	1.327891	3.692873	0.04	3	100	0	5	0.5173418	-2.497713	-0.3231926	
09:55:41	-6.733754	38.95364	109.195	1.316937	4.135527	0.09	3	100	0	5	0.716122	-3.732421	-2.118215	
09:55:42	-6.733754	38.95364	109.233	1.286815	-1.825379	0.18	3	100	0	4	1.866696	-3.786883	-1.839259	
09:55:42	-6.733753	38.95364	109.358	1.263056	-1.150021	0.25	3	100	0	5	2.837674	-5.696064	-1.712581	
09:55:42	-6.733753	38.95364	109.47	1.266191	7.15764	0.26	3	100	0	6	6.652929	-9.734633	-1.845109	
09:55:42	-6.733752	38.95364	109.639	1.293563	10.51365	0.22	3	100	0	5	1.009138	-11.60455	-2.891504	
09:55:42	-6.733752	38.95364	109.843	1.335454	11.21841	0.37	3	100	0	5	1.048531	-11.94746	-5.872956	
09:55:43	-6.733752	38.95364	109.907	1.397366	9.327933	0.72	3	100	0	4	-2.81057	-10.41518	-6.759235	
09:55:43	-6.733752	38.95364	109.978	1.471517	16.32677	0.59	3	100	0	5	-1.749538	-13.06039	-9.034984	
09:55:43	-6.733753	38.95364	110.175	1.495763	17.39953	0.32	3	100	0	5	-4.977875	-15.42084	-10.21235	
09:55:43	-6.733752	38.95364	110.229	1.463084	12.49356	0.5	3	100	0	4	-4.378771	-17.81344	-7.856297	
09:55:43	-6.733751	38.95364	110.508	1.442139	3.387949	0.51	3	100	0	5	-7.280746	-17.62008	-6.419049	
09:55:44	-6.73375	38.95364	110.462	1.432783	0.568956	0.42	3	100	0	5	-10.61987	-14.67207	-6.426677	
09:55:44	-6.73375	38.95364	110.528	1.434208	11.73155	0.48	3	100	0	4	0.9146321	-12.70983	-5.945127	
09:55:44	-6.73375	38.95364	110.641	1.390842	6.429242	0.13	3	100	0	4	11.86572	-11.25617	-4.227518	
09:55:44	-6.73375	38.95364	110.809	1.343697	6.179061	0.17	3	100	0	5	-12.30553	-12.11466	-5.246796	
09:55:44	-6.73375	38.95364	111.055	1.306356	-12.84831	0.13	3	100	0	4	-41.2598	-6.641729	-2.988425	
09:55:45	-6.733751	38.95364	111.056	1.251791	-12.42171	0.21	3	100	0	5	-45.05909	-2.808776	-2.802995	
09:55:45	-6.733751	38.95364	111.008	1.254269	-1.090158	0.64	3	100	0	5	-33.61071	-3.27601	-1.812742	
09:55:45	-6.733751	38.95364	111.008	1.270036	-1.119251	0.64	3	100	0	4	-14.8924	-1.179307	0.8757574	
09:55:45	-6.733753	38.95364	111.208	1.217261	-10.01539	0.64	3	100	0	5	-0.7848483	-2.150317	0.6371987	
09:55:45	-6.733753	38.95364	111.208	1.149642	-13.42897	0.64	3	100	0	4	-3.979217	-1.828796	0.05468364	
09:55:46	-6.733752	38.95363	111.464	1.12077	-17.2271	0.39	3	100	0	4	-21.25207	-1.680101	1.652704	
09:55:46	-6.733752	38.95363	111.563	1.083138	-17.34144	0.63	3	100	0	4	-21.3533	-0.5706075	2.153731	
09:55:46	-6.733752	38.95363	111.578	1.039615	-14.17593	0.37	3	100	0	5	-10.75657	-2.024897	4.134303	
09:55:46	-6.733753	38.95363	111.486	1.001265	-17.44989	0.38	3	100	0	4	-1.71821	-3.280578	5.249722	
09:55:46	-6.733754	38.95363	111.567	0.9222044	-23.94333	0.28	3	100	0	4	7.191334	-3.071466	4.282237	
09:55:46	-6.733755	38.95363	111.346	0.8470225	-22.55196	0.14	3	100	0	4	-10.9202	-2.579733	2.769481	
09:55:47	-6.733755	38.95363	111.206	0.8004519	-26.36749	0.21	3	100	0	5	-9.859554	-1.466043	4.453664	
09:55:47	-6.733755	38.95363	111.353	0.767105	-24.29382	0.13	3	100	0	4	-0.6173942	-5.691931	4.442628	
09:55:47	-6.733756	38.95363	111.049	0.7621934	-20.80266	0.03	3	100	0	4	-2.087604	-7.986472	4.415086	
09:55:47	-6.733757	38.95363	111.077	0.7645411	-19.38342	0.13	3	100	0	4	-6.950858	-7.276108	3.085799	
09:55:47	-6.733757	38.95363	110.96	0.7888581	-16.40165	0.34	3	100	0	4	-6.477173	-7.470752	2.432899	
09:55:48	-6.733757	38.95363	110.898	0.8122204	-15.97826	0.19	3	100	0	4	-7.033477	-8.133469	4.96525	
09:55:48	-6.733757	38.95363	110.953	0.8176486	-15.0149	0.08	3	100	0	5	-8.576156	-7.682544	4.539114	
09:55:48	-6.733758	38.95363	111.039	0.8268765	-12.69881	0.28	3	100	0	4	-2.602602	-7.476248	1.262607	
09:55:48	-6.733758	38.95362	111.036	0.8599672	-10.60728	0.04	3	100	0	5	-4.346386	-6.971989	-4.97433	
09:55:49	-6.733759	38.95362	110.809	0.8914094	-6.306005	0.25	3	100	0	5	-5.172522	-6.062248	-8.072646	
09:55:49	-6.73376	38.95362	110.766	0.9073846	-7.789033	0.04	3	100	0	4	-4.71223	-5.313352	-9.146833	
09:55:49	-6.73376	38.95362	110.882	0.906678	-7.73152	0.14	3	100	0	5	-3.415858	-4.852431	-10.21018	
09:55:49	-6.733761	38.95362	110.865	0.886563	-6.968661	0.04	3	100	0	5	-1.803559	-6.033928	-9.724145	
09:55:49	-6.733761	38.95362	110.778	0.8516123	-7.306014	0.13	3	100	0	5	-2.167372	-6.905107	-7.268172	
09:55:50	-6.733762	38.95362	110.65	0.8262734	-9.030067	0.03	3	100	0	4	-0.4700163	-7.196287	-3.971292	
09:55:50	-6.733762	38.95362	110.532	0.8009095	-11.29078	0.19	3	100	0	4	0.1378454	-6.910669	-1.927853	
09:55:50	-6.733762	38.95362	110.435	0.7686589	-9.440953	0.03	3	100	0	5	-1.623624	-7.465729	-1.334644	
09:55:50	-6.733762	38.95362	110.429	0.7242764	-9.512012	0.35	3	100	0	4	-2.197566	-8.627424	-1.000219	
09:55:50	-6.733762	38.95362	110.19	0.702077	-10.16763	0.29	3	100	0	5	-2.201224	-10.0445	0.2083076	
09:55:51	-6.733762	38.95363	109.921	0.6853815	-10.76432	0.14	3	100	0	4	-2.695842	-10.29086	2.231778	
09:55:51	-6.733762	38.95363	109.978	0.6712725	-10.4226	0.13	3	100	0	5	-3.293179	-10.0673	3.617811	
09:55:51	-6.733762	38.95363	109.792	0.6587126	-9.970827	0.13	3	100	0	5	-3.166279	-10.30813	4.362174	
09:55:51	-6.733762	38.95363	109.781	0.6627017	-8.869497	0.38	3	100	0	5	-1.846222	-10.46769	4.690933	
09:55:51	-6.733762	38.95363	109.772	0.6863534	-6.180571	0.18	3	100	0	4	-1.209774	-10.88793	4.709496	
09:55:52	-6.733762	38.95363	109.81	0.706843	-3.142349	0.31	3	100	0	4	-1.156117	-10.8017	5.283877	
09:55:52	-6.733762	38.95363	109.776	0.719907	0.7292784	0.16	3	100	0	5	-4.365188	-11.24214	5.763503	
09:55:52	-6.733762	38.95363	109.721	0.7873674	2.033233	0.19	3	100	0	4	-10.66602	-11.79398	5.113452	
09:55:52	-6.733763	38.95363	109.653	0.884284	7.510919	0.14	3	100	0	4	-8.013959	-10.76978	6.292997	
09:55:52	-6.733763	38.95363	109.653	0.9629357	4.305672	0.41	3	100	0	4	-11.54583	-10.77883	6.959229	
09:55:53	-6.733764	38.95363	109.597	1.044606	21.34383	0.14	3	100	0	4	-0.09086376	-11.29352	7.958165	
09:55:53	-6.733765	38.95363	109.452	1.090684	10.43778	0.33	3	100	0	4	-17.12359	-10.40033	10.00643	
09:55:53	-6.733765	38.95363	109.294	1.090357	15.27868	0.29	3	100	0	4	-7.617717	-11.47396	11.83721	
09:55:53	-6.733765	38.95363	109.144	1.092707	5.343755	0.22	3	100	0	4	-21.1454	-13.3588	11.89991	
09:55:53	-6.733765	38.95363	109.082	1.08478	13.78675	0.69	3	100	0	4	-2.803358	-15.54113	11.46444	
09:55:54	-6.733765	38.95363	108.982	1.085927	6.972392	0.33	3	100	0	5	1.67584	-16.34093	11.33672	
09:55:54	-6.733765	38.95363	108.822	1.097883	8.973114	0.14	3	100	0	4	-11.57444	-15.54677	11.48161	
09:55:54	-6.733765	38.95363	108.699	1.106317	7.741819	0.39	3	100	0	5	-13.1918	-13.14004	12.52474	
09:55:54	-6.733764	38.95362	108.617	1.171655	18.07268	0.39	3	100	0	2	-5.484874	-12.37236	13.3237	
09:55:54	-6.733764	38.95362	108.435	1.225633	9.506761	0.03	3	100	0	4	-18.7069	-12.20578	13.10164	
09:55:55	-6.733764	38.95362	108.418	1.251341	12.23596	0.09	3	100	0	4	-12.15345	-13.08504	12.94347	
09:55:55	-6.733764	38.95362	108.396	1.286149	17.99435	0.14	3	100	0	4	-18.18781	-13.57074	12.35839	
09:55:55	-6.733764	38.95362	108.263	1.265373	8.130052	0.26	3	100	0	5	-19.71709	-13.87556	13.47364	
09:55:55	-6.733765	38.95362	108.199	1.252468	16.33544	0.36	3	100	0	5	-16.45225	-13.44792	14.28261	
09:55:55	-6.733765	38.95362	108.166	1.211166	-2.593882	0.5	3	100	0	5	-23.56784	-12.29078	16.66571	
09:55:56	-6.733765	38.95362	108.131	1.165064	0.5700694	0.01	3	100	0	4	-18.00232	-15.78744	17.13796	
09:55:56	-6.733765	38.95362	108.219	1.132724	-4.114195	0.16	3	100	0	5	-18.06807	-17.51381	18.30202	
09:55:56	-6.733766	38.95362	108.173	1.097305	-4.518056	0.14	3	100	0	5	-14.65515	-18.53797	18.15732	
09:55:56	-6.733765	38.95362	108.261	1.068883	-2.24251	0.58	3	100	0	4	-11.28627	-21.56176	16.38273	
09:55:56	-6.733765	38.95362	108.406	1.048137	-2.143258	0.31	3	100	0	5	-7.343898	-26.05081	13.54564	
09:55:57	-6.733765	38.95362	108.432	1.074369	-1.380728	0.55	3	100	0	5	-3.133168	-27.15011	14.34843	
09:55:57	-6.733764	38.95362	108.545	1.106144	6.249892	0.19	3	100	0	4	-4.794329	-26.81072	19.08681	
09:55:57	-6.733764	38.95362	108.55	1.131485	15.77381	0.29	3	100	0	4	-6.009719	-24.98431	16.00445	
09:55:57	-6.733765	38.95362	108.477	1.164018	18.84468	0.19	3	100	0	4	-5.655111	-23.68346	12.95214	
09:55:57	-6.733764	38.95362	108.325	1.198536	14.631	0.71	3	100	0	5	-6.587487	-23.07935	10.64556	
09:55:58	-6.733763	38.95362	108.249	1.224116	18.05534	0.24	3	100	0	4	-7.729018	-23.23062	13.62349	
09:55:58	-6.733762	38.95362	108.215	1.230772	32.26393	0.79	3	100	0	5	-4.493946	-20.5965	16.92763	
09:55:58	-6.733762	38.95362	108.151	1.223988	16.00907	0.82	3	100	0	4	8.895742	-19.94803	20.5823	
09:55:58	-6.733761	38.95362	108.157	1.198884	3.595361	0.19	3	100	0	5	-6.089924	-20.53728	21.03984	
09:55:58	-6.73376	38.95362	108.235	1.169881	-1.694055	0.69	3	100	0	4	-21.67913	-17.89768	20.39706	
09:55:59	-6.733759	38.95362	108.348	1.141516	7.0524	0.56	3	100	0	4	-7.298865	-18.15316	18.22	
09:55:59	-6.733759	38.95362	108.175	1.153678	13.46599	0.58	3	100	0	4	-13.15698	-17.02299	14.40345	
09:55:59	-6.733759	38.95362	108.18	1.153108	-14.67705	0.59	3	100	0	5	-18.51903	-14.73903	11.0932	
09:55:59	-6.733758	38.95362	108.184	1.140067	-7.52095	0.42	3	100	0	5	-4.400717	-14.03387	7.712795	
09:55:59	-6.733757	38.95362	108.247	1.150402	11.86368	0.85	3	100	0	5	-9.319279	-12.84297	3.975194	
09:56:00	-6.733756	38.95362	108.346	1.178918	4.954149	0.58	3	100	0	4	-3.899906	-11.3241	1.508639	
09:56:00	-6.733755	38.95362	108.39	1.17029	-6.849663	0.33	3	100	0	4	-0.6007935	-13.98296	-1.809409	
09:56:00	-6.733755	38.95362	108.576	1.134166	-13.31927	0.19	3	100	0	4	-18.51549	-14.16313	-4.722693	
09:56:00	-6.733755	38.95362	108.879	1.126801	2.35988	0.52	3	100	0	5	-21.54934	-9.562057	-8.762414	
09:56:00	-6.733754	38.95362	108.632	1.141288	6.17675	0.28	3	100	0	5	-8.064208	-6.310305	-8.879186	
09:56:01	-6.733753	38.95362	108.452	1.133856	-6.04935	0.19	3	100	0	5	-22.80337	-5.095276	-12.28298	
09:56:01	-6.733753	38.95362	108.39	1.087093	-11.06397	0.26	3	100	0	5	-19.13579	-2.342005	-9.850957	
09:56:01	-6.733752	38.95362	108.423	1.096189	13.48781	0.35	3	100	0	4	-9.835361	-4.797561	-8.341573	
09:56:01	-6.733751	38.95362	108.516	1.106674	-20.51429	0.53	3	100	0	5	-22.7891	-4.045762	-8.412352	
09:56:01	-6.73375	38.95362	108.445	1.05687	-24.75898	0.28	3	100	0	5	-11.32446	-5.344192	-10.31673	
09:56:02	-6.73375	38.95362	108.574	1.033761	4.309323	0.26	3	100	0	4	-6.028234	-10.12711	-13.57136	
09:56:02	-6.733749	38.95362	108.661	0.9814533	-7.958363	0.55	3	100	0	4	-9.768935	-13.09755	-17.75617	
09:56:02	-6.733749	38.95362	109.155	0.8498376	-34.19707	0.33	3	100	0	4	-11.66185	-13.70021	-21.3986	
09:56:02	-6.733749	38.95362	109.239	0.7478157	-20.8908	0.47	3	100	0	4	-11.80572	-14.4996	-18.05892	
09:56:02	-6.733748	38.95362	109.401	0.7408395	13.48755	0.66	3	100	0	4	-12.98573	-11.05106	-14.69339	
09:56:03	-6.733747	38.95362	109.541	0.7218224	-25.12631	0.24	3	100	0	5	-8.819428	-9.91505	-14.60123	
09:56:03	-6.733747	38.95361	110.006	0.6788787	-23.85489	0.55	3	100	0	5	-10.516	-13.8931	-13.11099	
09:56:03	-6.733746	38.95361	110.27	0.6718715	-0.9631209	0.69	3	100	0	5	-17.53812	-13.71262	-7.755541	
09:56:03	-6.733744	38.95361	110.549	0.6995007	-18.00241	1.18	3	100	0	5	-39.09756	-7.620325	-0.5111606	
09:56:03	-6.733742	38.95361	110.624	0.6605378	-30.10129	0.59	3	100	0	4	-21.1552	-8.255136	4.683469	
09:56:04	-6.733742	38.95361	110.665	0.6728355	-22.18351	0.69	3	100	0	4	-34.91711	-8.593483	6.2315	
09:56:04	-6.733742	38.95361	110.741	0.6953775	-24.64081	1.04	3	100	0	5	-35.17424	-5.187739	7.410468	
09:56:04	-6.733741	38.9536	110.866	0.7023532	-29.45647	0.66	3	100	0	4	-15.36287	-9.383028	6.059409	
09:56:04	-6.733739	38.9536	111.32	0.6825278	-37.14844	0.62	3	100	0	5	-12.40566	-8.644033	1.478648	
09:56:04	-6.733737	38.9536	111.55	0.7157532	-15.87263	0.29	3	100	0	5	-18.73797	-5.20502	0.04629064	
09:56:05	-6.733737	38.9536	111.729	0.7656397	-12.17305	0.76	3	100	0	4	-0.5812515	-7.262226	0.3680996	
09:56:05	-6.733735	38.9536	111.915	0.7477514	-29.85237	1.1	3	100	0	5	-15.51996	-7.052452	2.280849	
09:56:05	-6.733734	38.9536	111.672	0.7344117	-11.77531	0.47	3	100	0	5	-27.38038	-6.977075	6.968628	
09:56:05	-6.733733	38.9536	111.867	0.7618921	-12.87759	0.42	3	100	0	4	-15.23355	-10.40225	7.465454	
09:56:05	-6.733732	38.9536	112.02	0.7433294	-39.69809	0.69	3	100	0	5	-18.08667	-15.59233	3.929994	
09:56:06	-6.733729	38.9536	112.293	0.7277868	-20.93692	1.07	3	100	0	5	-25.99515	-14.10811	1.97834	
09:56:06	-6.733727	38.9536	112.246	0.7654395	-4.863875	1.64	3	100	0	4	-24.61348	-16.69056	-1.811898	
09:56:06	-6.733724	38.95359	112.486	0.8158684	-21.91498	0.98	3	100	0	4	-13.66647	-21.07214	-5.534761	
09:56:06	-6.733722	38.95359	112.684	0.8505077	-6.562628	1.17	3	100	0	4	-11.44218	-21.26906	-8.877665	
09:56:06	-6.733721	38.95359	112.85	0.936681	4.068632	1.09	3	100	0	5	-19.30321	-17.14258	-5.55823	
09:56:07	-6.73372	38.95359	112.797	1.000625	-4.158128	0.51	3	100	0	5	-14.32968	-16.66107	-2.387813	
09:56:07	-6.733718	38.95359	113.103	0.9038933	-9.81639	1.35	3	100	0	4	-16.79443	-16.55012	-3.501204	
09:56:07	-6.733716	38.95359	113.341	0.8485764	5.711233	1.02	3	100	0	4	-27.15622	-14.61363	-1.436985	
09:56:07	-6.733715	38.95359	113.551	0.854199	2.452908	0.29	3	100	0	4	-12.02122	-15.69695	-3.015477	
09:56:07	-6.733715	38.95358	113.881	0.8340863	-12.93916	0.77	3	100	0	5	-18.31683	-11.68787	-7.379247	
09:56:08	-6.733713	38.95358	114.049	0.8777429	5.283664	0.91	3	100	0	5	-19.04894	-10.43772	-4.706619	
09:56:08	-6.73371	38.95358	114.185	0.9353503	3.593739	0.81	3	100	0	4	-10.79586	-11.77391	-6.460159	
09:56:08	-6.733709	38.95358	114.41	0.9741384	-16.74899	0.21	3	100	0	5	-17.23497	-11.15335	-9.626097	
09:56:08	-6.733708	38.95358	114.672	0.9920502	-3.406829	0.52	3	100	0	4	-14.60574	-9.630772	-10.73945	
09:56:08	-6.733706	38.95358	115.042	1.063882	16.61332	1.04	3	100	0	4	-11.56364	-11.45812	-15.36877	
09:56:09	-6.733705	38.95358	115.144	1.108898	-8.288191	0.62	3	100	0	5	-27.26207	-10.45892	-14.44087	
09:56:09	-6.733704	38.95358	115.178	1.056762	-6.891203	0.42	3	100	0	5	-18.58348	-9.345331	-14.69027	
09:56:09	-6.733703	38.95358	115.08	0.9869322	11.4816	0.56	3	100	0	5	-15.84385	-15.48625	-13.3482	
09:56:09	-6.733702	38.95358	115.346	0.9024222	-24.95244	0.39	3	100	0	5	-21.43385	-17.93757	-8.948267	
09:56:09	-6.733701	38.95358	115.443	0.8064104	-20.14507	0.75	3	100	0	4	-21.58749	-15.6598	-8.027252	
09:56:10	-6.733699	38.95357	115.6	0.8008632	-3.61884	0.5	3	100	0	5	-17.26368	-13.81541	-12.67867	
09:56:10	-6.733698	38.95357	115.64	0.8008365	-20.7687	0.44	3	100	0	4	-11.52013	-15.33733	-18.22287	
09:56:10	-6.733697	38.95357	115.644	0.7715908	-40.67758	0.01	3	100	0	4	6.120273	-15.28748	-22.86622	
09:56:10	-6.733698	38.95357	115.755	0.7723709	-4.323618	0.93	3	100	0	5	-3.022634	-14.051	-21.20149	
09:56:10	-6.733697	38.95357	116.068	0.8213804	5.682427	0.42	3	100	0	5	-13.3899	-9.674178	-10.89082	
09:56:11	-6.733697	38.95357	116.296	0.8018472	-21.58316	0.47	3	100	0	5	-0.8135988	-8.749395	-5.208761	
09:56:11	-6.733697	38.95357	116.491	0.7884076	6.637278	0.48	3	100	0	5	-3.337889	-4.028376	-4.485771	
09:56:11	-6.733696	38.95357	116.716	0.8375924	16.96214	0.61	3	100	0	4	-21.39042	2.620407	-1.599958	
09:56:11	-6.733695	38.95356	117.182	0.8405668	-16.67882	0.58	3	100	0	4	-7.389515	4.746944	1.218543	
09:56:11	-6.733693	38.95356	117.244	0.8177586	-10.23871	0.42	3	100	0	4	5.096701	1.901468	-0.09276286	
09:56:12	-6.733691	38.95356	117.737	0.8297379	5.602325	0.65	3	100	0	5	-15.85022	-0.8264458	-1.298799	
09:56:12	-6.73369	38.95356	117.601	0.8051451	-32.60966	0.59	3	100	0	4	-9.275711	0.4276608	0.9210189	
09:56:12	-6.733689	38.95356	117.57	0.7586943	-11.84809	0.32	3	100	0	5	-2.117315	-0.2217552	-0.07616253	
09:56:12	-6.733688	38.95356	117.725	0.7640529	1.611934	0.24	3	100	0	6	-23.21265	-0.8641905	0.785197	
09:56:12	-6.733685	38.95356	117.603	0.7359098	-18.37066	0.57	3	100	0	5	-13.63685	-2.914303	3.254624	
09:56:13	-6.733684	38.95356	117.368	0.6753666	-20.98639	0.44	3	100	0	5	9.204822	-5.33818	3.478964	
09:56:13	-6.733683	38.95356	117.489	0.6432969	-1.152565	0.58	3	100	0	5	-15.00824	-5.804561	2.66877	
09:56:13	-6.73368	38.95356	117.297	0.6049011	-36.69084	1.07	3	100	0	4	-22.41506	-2.118922	3.323471	
09:56:13	-6.733678	38.95356	117.308	0.5116305	-31.27869	0.51	3	100	0	5	-1.430971	-2.289785	3.17279	
09:56:13	-6.733677	38.95356	117.351	0.5022296	-6.969918	0.89	3	100	0	5	-17.91121	-4.717203	0.9968288	
09:56:14	-6.733675	38.95356	117.692	0.4778071	-34.68793	0.55	3	100	0	5	-22.01628	-6.266006	1.87251	
09:56:14	-6.733674	38.95356	118.115	0.45066	-27.77905	0.82	3	100	0	5	-3.270123	-6.862974	3.024554	
09:56:14	-6.733672	38.95356	118.104	0.4656376	-5.87405	1.16	3	100	0	4	-2.623256	-7.983712	2.687824	
09:56:14	-6.733671	38.95356	118.173	0.4895374	-17.28022	0.85	3	100	0	4	-22.01162	-6.602706	2.191576	
09:56:14	-6.73367	38.95355	118.198	0.4735966	-31.44189	0.48	3	100	0	5	-15.15396	-4.468841	3.26203	
09:56:15	-6.73367	38.95355	118.034	0.4973906	10.93486	0.38	3	100	0	6	1.768328	-4.663211	3.349919	
09:56:15	-6.733669	38.95355	117.977	0.5454593	-3.188255	0.79	3	100	0	5	-19.82126	-4.106802	3.239236	
09:56:15	-6.733668	38.95355	117.948	0.6216031	-18.13667	0.25	3	100	0	4	-26.47424	-2.287979	5.854396	
09:56:15	-6.733667	38.95355	118.07	0.7026761	22.42133	0.39	3	100	0	5	-6.792052	-1.112946	7.761905	
09:56:15	-6.733666	38.95355	118.241	0.7986585	5.683597	0.82	3	100	0	4	-14.995	-0.1680113	8.231274	
09:56:16	-6.733665	38.95355	118.272	0.8695594	14.01208	0.09	3	100	0	5	-25.19195	1.028315	11.13131	
09:56:16	-6.733665	38.95355	118.269	0.933373	17.16368	0.45	3	100	0	5	-20.39249	1.578593	12.56452	
09:56:16	-6.733665	38.95355	118.142	0.9853866	7.079686	0.22	3	100	0	4	-17.54232	-0.3975333	10.24331	
09:56:16	-6.733664	38.95355	118.045	1.016875	7.196996	0.26	3	100	0	5	-8.287876	-0.6454331	3.060375	
09:56:16	-6.733663	38.95355	118.036	1.051719	11.64855	0.01	3	100	0	5	-25.57203	0.5258261	-5.795888	
09:56:17	-6.733663	38.95355	117.854	1.068834	13.67093	0.26	3	100	0	8	-18.79411	3.925457	-13.19675	
09:56:17	-6.733663	38.95355	118.071	1.118173	31.20729	0.31	3	100	0	4	-5.519328	2.699869	-20.64181	
09:56:17	-6.733663	38.95355	118.271	1.147441	17.47775	0.22	3	100	0	5	-19.56489	1.29191	-27.03729	
09:56:17	-6.733662	38.95355	118.059	1.150417	17.20837	0.56	3	100	0	4	-11.12701	1.752126	-27.89584	
09:56:17	-6.733661	38.95355	118.251	1.141694	10.09385	0.14	3	100	0	5	-16.60457	5.329607	-23.04943	
09:56:18	-6.733661	38.95356	118.207	1.12761	12.74533	0.44	3	100	0	5	-17.3311	7.484486	-14.26542	
09:56:18	-6.733659	38.95356	118.272	1.159423	14.35159	0.64	3	100	0	5	-12.98826	5.097999	-7.928048	
09:56:18	-6.733658	38.95356	118	1.185232	18.32425	0.85	3	100	0	5	-11.40002	-0.7377241	-4.526932	
09:56:18	-6.733657	38.95355	118.234	1.219567	25.50476	0.52	3	100	0	5	-8.913704	-7.37324	-4.009706	
09:56:18	-6.733655	38.95356	118.265	1.23519	22.64835	0.35	3	100	0	5	-9.219715	-13.70387	-3.151284	
09:56:19	-6.733654	38.95356	118.565	1.185163	-0.3564831	0.29	3	100	0	5	-12.535	-17.20294	1.577665	
09:56:19	-6.733653	38.95355	118.587	1.086181	-0.9070646	0.91	3	100	0	5	-15.33061	-17.89247	9.102798	
09:56:19	-6.733651	38.95355	118.644	1.015737	6.877975	0.64	3	100	0	5	-15.29569	-16.28198	18.60971	
09:56:19	-6.73365	38.95356	118.634	0.9549987	-5.866682	0.19	3	100	0	5	-15.343	-13.69304	30.57633	
09:56:19	-6.733649	38.95356	118.723	0.9163387	-9.074213	0.32	3	100	0	4	-22.44026	-15.75926	43.04149	
09:56:20	-6.733647	38.95356	118.345	0.9110442	3.859254	0.58	3	100	0	4	-22.33455	-17.80638	53.64196	
09:56:20	-6.733645	38.95356	118.267	0.9187502	-1.76351	0.51	3	100	0	5	-15.87634	-17.12393	63.17264	
09:56:20	-6.733645	38.95356	118.437	0.9191423	-9.786538	0.79	3	100	0	5	-29.49909	-13.5134	69.17572	
09:56:20	-6.733645	38.95356	118.559	0.9023679	-5.417156	0.26	3	100	0	5	-17.36064	-9.58831	73.14362	
09:56:20	-6.733643	38.95356	118.322	0.9242149	19.98151	0.52	3	100	0	5	-20.01428	-7.560575	75.82504	
09:56:21	-6.733643	38.95356	118.292	0.9656228	-9.863542	0.45	3	100	0	3	-26.76632	-4.977753	76.90871	
09:56:21	-6.73364	38.95356	117.83	0.9873366	3.908196	0.39	3	100	0	5	-13.10387	-5.672119	80.07181	
09:56:21	-6.733638	38.95356	117.706	1.00576	-6.415602	0.45	3	100	0	5	-35.57774	-5.295449	80.1129	
09:56:21	-6.733636	38.95356	117.277	1.004818	10.03055	0.45	3	100	0	5	-29.45318	-5.446756	77.80624	
09:56:21	-6.733634	38.95356	116.963	1.03416	24.11282	0.48	3	100	0	5	-8.073256	-11.45202	73.3903	
09:56:22	-6.733633	38.95356	116.797	1.009876	-14.25914	0.26	3	100	0	4	-41.14558	-15.52639	64.22745	
09:56:22	-6.733631	38.95356	116.642	0.9546044	-18.8206	0.48	3	100	0	5	-20.13438	-14.69441	58.39542	
09:56:22	-6.73363	38.95356	116.647	0.9946811	17.15132	0.9	3	100	0	4	-30.5753	-15.14099	53.35007	
09:56:22	-6.733627	38.95356	116.691	1.010377	-22.60318	0.9	3	100	0	4	-28.07987	-15.06458	50.93377	
09:56:22	-6.733625	38.95356	116.458	0.989437	-18.20008	0.18	3	100	0	5	-15.55779	-12.81051	47.42229	
09:56:23	-6.733624	38.95356	116.305	0.965983	-28.22487	0.74	3	100	0	8	-28.06313	-11.08741	38.73245	
09:56:23	-6.733622	38.95356	116.211	0.9889413	8.425082	0.81	3	100	0	4	-14.21441	-14.04244	30.41475	
09:56:23	-6.73362	38.95357	116.451	1.044737	-5.050103	0.33	3	100	0	4	0.7790413	-14.49984	23.20139	
09:56:23	-6.733617	38.95357	116.811	0.9940735	-25.36779	0.32	3	100	0	4	-26.30105	-10.49697	16.41419	
09:56:23	-6.733616	38.95357	117.134	0.9496252	4.646545	0.45	3	100	0	4	-2.298038	-10.56227	13.68867	
09:56:24	-6.733614	38.95357	117.492	0.8754544	-15.95721	0.64	3	100	0	5	-8.792996	-8.407919	10.12146	
09:56:24	-6.733612	38.95357	117.621	0.7596507	-38.41532	1.01	3	100	0	5	-13.84555	-9.744124	6.701083	
09:56:24	-6.733611	38.95357	117.66	0.6571273	-34.21373	0.18	3	100	0	5	10.06498	-8.602273	5.754455	
09:56:24	-6.733609	38.95357	117.618	0.5805318	-20.35173	0.88	3	100	0	5	-5.02457	-5.659235	2.379637	
09:56:24	-6.733606	38.95357	117.718	0.5677147	-14.0143	0.71	3	100	0	5	-4.77874	-6.04285	-0.3653145	
09:56:25	-6.733604	38.95357	117.936	0.5401281	-31.84409	1.09	3	100	0	4	5.17171	-2.632504	-0.3113018	
09:56:25	-6.733602	38.95357	118.024	0.5512308	2.52584	0.83	3	100	0	4	-22.83436	-2.170413	-0.2647215	
09:56:25	-6.7336	38.95357	118.128	0.5998648	-4.419192	0.14	3	100	0	5	-8.0748	-1.758623	1.959352	
09:56:25	-6.733598	38.95357	118.107	0.5903679	-29.25545	1.68	3	100	0	5	-9.34905	2.002198	3.198484	
09:56:25	-6.733596	38.95357	118.34	0.5567729	-16.96293	1.81	3	100	0	5	-28.58051	4.748398	3.495951	
09:56:26	-6.733593	38.95356	118.423	0.5745791	13.26878	1.38	3	100	0	5	-8.993758	1.897101	4.463185	
09:56:26	-6.733591	38.95356	118.657	0.5648157	-26.64126	0.56	3	100	0	5	-31.94989	1.622208	3.59542	
09:56:26	-6.733589	38.95356	119.096	0.5057817	-3.414419	1.2	3	100	0	5	-13.0281	0.1229995	5.066697	
09:56:26	-6.733586	38.95356	119.01	0.526255	0.6211035	0.64	3	100	0	5	-11.71022	-0.7626157	4.772957	
09:56:26	-6.733583	38.95356	119.112	0.4544299	-48.56708	1.45	3	100	0	6	-14.31924	1.309135	6.224279	
09:56:27	-6.733579	38.95356	119.146	0.3671525	-31.53351	0.91	3	100	0	5	-3.785965	3.146915	6.2097	
09:56:27	-6.733578	38.95356	119.111	0.4136382	-0.9294091	0.42	3	100	0	5	-27.93779	3.611564	3.781733	
09:56:27	-6.733577	38.95356	119.064	0.4427896	-19.04539	0.19	3	100	0	4	-14.09697	4.224001	3.691144	
09:56:27	-6.733575	38.95356	119.149	0.4288338	-25.9237	1.78	3	100	0	5	-2.265592	4.375362	2.443681	
09:56:27	-6.733573	38.95356	119.503	0.4357247	-13.41559	0.58	3	100	0	4	-18.65873	5.126658	3.024152	
09:56:28	-6.733573	38.95356	119.669	0.4383773	-30.51446	0.29	3	100	0	4	-0.4391933	6.345997	5.875407	
09:56:28	-6.733571	38.95356	119.523	0.4219827	-33.91725	1.25	3	100	0	5	-18.71971	6.761971	5.200739	
09:56:28	-6.733571	38.95356	119.413	0.4358197	3.616181	1.25	3	100	0	4	-8.509589	4.65593	5.175513	
09:56:28	-6.733569	38.95355	119.406	0.4516654	-27.94771	0.17	3	100	0	5	-19.77487	0.05667639	4.04872	
09:56:28	-6.733567	38.95355	119.576	0.4202798	-36.95986	0.53	3	100	0	5	-1.349859	-1.499073	4.681656	
09:56:29	-6.733565	38.95356	119.384	0.4231577	-7.93678	0.95	3	100	0	4	-13.12727	-2.514992	4.735092	
09:56:29	-6.733563	38.95356	119.73	0.4542312	-17.70664	0.48	3	100	0	5	-0.1372231	-3.880813	6.835695	
09:56:29	-6.733561	38.95356	119.861	0.4507294	-25.84704	1.32	3	100	0	4	13.78614	-0.1149075	8.777419	
09:56:29	-6.733558	38.95356	120.026	0.5090775	10.71009	0.85	3	100	0	5	-12.56995	5.533918	7.584414	
09:56:29	-6.733555	38.95356	120.306	0.591738	-8.941341	0.52	3	100	0	4	-0.2122703	7.625696	8.807879	
09:56:30	-6.733553	38.95356	120.719	0.645367	-20.31625	0.48	3	100	0	5	-6.741833	8.835934	6.267112	
09:56:30	-6.733551	38.95356	120.728	0.7040505	-1.653834	0.79	3	100	0	5	-25.50353	6.438085	5.039626	
09:56:30	-6.733546	38.95356	120.842	0.7757412	2.552521	1.24	3	100	0	5	-1.870067	0.9149837	2.144689	
09:56:30	-6.733543	38.95356	120.987	0.7839286	-31.91423	0.56	3	100	0	5	-15.55637	-3.204107	-5.589732	
09:56:30	-6.733541	38.95356	121.404	0.7915742	11.98865	1.25	3	100	0	4	-0.4367206	-3.847821	-10.39137	
09:56:31	-6.733539	38.95356	121.368	0.8130376	-9.451199	0.32	3	100	0	4	-11.71888	-3.684941	-13.55238	
09:56:31	-6.733537	38.95356	121.287	0.7925301	-11.51455	0.59	3	100	0	4	-1.520001	-2.697438	-11.70992	
09:56:31	-6.733535	38.95355	121.382	0.8056825	10.1618	0.5	3	100	0	5	8.853765	-5.526681	-9.866913	
09:56:31	-6.733533	38.95355	121.112	0.7778736	-8.183743	0.38	3	100	0	5	-18.85463	-3.321241	-9.798177	
09:56:31	-6.733529	38.95355	121.275	0.6662785	-32.32141	0.95	3	100	0	4	-13.24772	-0.7542381	-8.96373	
09:56:32	-6.733525	38.95355	121.331	0.6173984	5.768266	0.79	3	100	0	18	-34.33374	-1.111141	-9.881848	
09:56:32	-6.733521	38.95354	121.236	0.6052069	-17.43818	1.02	3	100	0	18	-28.11757	-3.902522	-10.50529	
09:56:32	-6.733517	38.95354	121.201	0.5680867	-23.77504	0.48	3	99	0	4	-5.764102	-8.635557	-10.1189	
09:56:32	-6.733514	38.95354	121.405	0.5478697	-2.097652	0.74	3	99	0	5	-19.41495	-11.09379	-9.894239	
09:56:32	-6.73351	38.95354	121.608	0.5622352	-1.403887	0.89	3	99	0	4	-2.557083	-11.97719	-7.697024	
09:56:33	-6.733507	38.95354	121.767	0.5333471	-37.16095	0.39	3	99	0	4	-3.423664	-6.344005	-8.95288	
09:56:33	-6.733506	38.95354	122.137	0.5194154	8.368759	1.33	3	99	0	5	-11.30903	-4.609691	-11.00956	
09:56:33	-6.733502	38.95354	122.098	0.5495638	10.46603	1.38	3	99	0	4	-1.416991	-5.095943	-9.836735	
09:56:33	-6.7335	38.95354	122.279	0.5341471	-23.15549	0.66	3	99	0	4	-16.18638	-2.345459	-7.77563	
09:56:34	-6.733497	38.95353	122.596	0.5199785	4.420846	0.29	3	99	0	4	-6.871298	-4.167195	-4.656735	
09:56:34	-6.733495	38.95353	122.645	0.5308689	-13.75807	1.02	3	99	0	4	-27.87235	-4.214539	-5.016964	
09:56:34	-6.733493	38.95353	122.589	0.4739231	-23.05293	0.65	3	99	0	4	-6.753487	-4.036296	-4.139105	
09:56:34	-6.73349	38.95353	122.889	0.4373852	-4.85007	0.26	3	99	0	4	-15.44308	-0.4300846	-5.969461	
09:56:34	-6.733489	38.95353	122.955	0.4994051	-2.084053	0.48	3	99	0	4	-13.26597	-1.890572	-7.247638	
09:56:35	-6.733487	38.95353	123.066	0.5406242	-21.99587	0.82	3	99	0	4	5.456673	-0.7268611	-5.454542	
09:56:35	-6.733485	38.95353	123.215	0.6083965	1.252016	0.56	3	99	0	4	-16.36059	-2.316497	-6.591712	
09:56:35	-6.733482	38.95352	123.483	0.7432649	15.0445	0.42	3	99	0	4	-13.93335	-1.638161	-5.065979	
09:56:35	-6.733481	38.95352	123.482	0.6733075	-28.87601	0.33	3	99	0	4	-11.58198	-0.5530138	-4.32811	
09:56:35	-6.733479	38.95352	123.44	0.6006238	-0.9887569	0.87	3	99	0	5	-18.09771	-3.130323	-7.235118	
09:56:35	-6.733477	38.95352	123.114	0.4936822	-1.258565	0.64	3	99	0	4	-0.7271507	-4.210623	-6.686889	
09:56:36	-6.733474	38.95352	123.491	0.3456938	-37.17146	0.94	3	99	0	4	-11.04287	-5.068686	-3.985966	
09:56:36	-6.733471	38.95352	123.39	0.2749614	-15.78937	0.76	3	99	0	5	-21.24578	-9.087358	-2.84944	
09:56:36	-6.733469	38.95352	123.304	0.2683678	-1.287705	0.84	3	99	0	4	-13.43181	-8.336548	-2.620327	
09:56:36	-6.733466	38.95352	123.267	0.2712803	-39.65739	0.83	3	99	0	4	-16.32761	-7.554976	-2.614025	
09:56:36	-6.733462	38.95352	123.201	0.2482109	-27.14775	1.3	3	99	0	4	-19.70041	-10.43197	-8.57031	
09:56:37	-6.733458	38.95352	123.492	0.3606312	11.43978	0.83	3	99	0	4	-14.15136	-10.75548	-12.78598	
09:56:37	-6.733458	38.95352	123.492	0.4281878	-20.64085	0.83	3	99	0	4	-23.32499	-7.40757	-12.58892	
09:56:37	-6.733456	38.95352	123.556	0.4738047	-4.488577	0.25	3	99	0	4	-20.52879	-9.391909	-14.25366	
09:56:37	-6.733454	38.95352	123.809	0.5692729	16.31774	0.96	3	99	0	4	-17.51622	-12.322	-17.58776	
09:56:37	-6.73345	38.95351	124.128	0.6491582	-10.21874	1.07	3	99	0	4	-15.5916	-13.31889	-21.03883	
09:56:38	-6.733444	38.95351	124.554	0.6857654	5.89604	0.24	3	99	0	4	-8.614997	-16.91256	-24.45881	
09:56:38	-6.733442	38.95351	124.798	0.7856449	28.57597	1.04	3	99	0	4	-14.73956	-15.34588	-24.39331	
09:56:38	-6.733438	38.95351	125.135	0.8279575	11.32535	0.22	3	99	0	4	-5.470113	-11.42524	-20.60976	
09:56:38	-6.733437	38.95351	125.451	0.8492156	22.09988	0.64	3	99	0	5	-13.29608	-8.268231	-15.80956	
09:56:39	-6.73343	38.95351	125.821	0.9217448	-1.831955	0.9	3	99	0	4	-5.650565	-4.801653	-11.97424	
09:56:39	-6.733427	38.9535	125.968	0.8786061	2.605962	0.58	3	99	0	4	-18.69314	-3.121475	-10.18729	
09:56:39	-6.733424	38.9535	126.308	0.891749	27.74911	0.35	3	99	0	4	-9.656513	-3.157503	-6.359387	
09:56:39	-6.733422	38.9535	126.727	0.8754237	1.499735	0.33	3	99	0	4	-40.89063	-5.554611	-7.284926	
09:56:39	-6.733421	38.9535	127.023	0.7905885	-18.06129	0.37	3	99	0	4	-30.24175	-7.42123	-9.05827	
09:56:40	-6.733419	38.9535	127.312	0.7714695	18.74302	0.62	3	99	0	4	-10.10308	-8.070605	-6.522544	
09:56:40	-6.733418	38.9535	127.705	0.7626565	-3.824979	0.89	3	99	0	4	5.691552	-5.547801	-2.945377	
09:56:40	-6.733417	38.9535	127.957	0.7102498	-19.00012	0.39	3	99	0	5	-11.39963	-4.135529	-2.346762	
09:56:40	-6.733414	38.9535	128.028	0.6759405	-9.140429	0.91	3	99	0	4	-28.26322	0.4876953	-6.03009	
09:56:40	-6.733412	38.9535	128.222	0.6683146	5.171236	1.59	3	99	0	5	2.23164	-3.001285	-8.919166	
09:56:41	-6.733409	38.9535	128.245	0.6298637	-31.82113	1.44	3	99	0	4	-12.19065	-7.462929	-12.03635	
09:56:41	-6.733408	38.9535	128.737	0.6027046	-8.247484	1.35	3	99	0	4	-28.11205	-5.681438	-13.75146	
09:56:41	-6.733407	38.95349	128.614	0.6572755	10.77152	1.46	3	99	0	4	-3.672575	-6.224178	-12.57608	
09:56:41	-6.733407	38.95349	129.009	0.6745025	-22.90973	1.35	3	99	0	4	-29.13186	-0.9696323	-15.12892	
09:56:42	-6.733405	38.95349	128.879	0.6901253	-1.880129	1.33	3	99	0	4	-33.57678	0.7402745	-16.18407	
09:56:42	-6.733402	38.95349	129.268	0.7919317	15.43048	1.68	3	99	0	4	0.1940865	1.126366	-15.37549	
09:56:42	-6.733398	38.95349	130.073	0.804058	-16.94836	1.53	3	98	0	5	-14.89503	-2.410219	-14.87103	
09:56:42	-6.733396	38.95348	130.657	0.8068625	10.46845	1.5	3	98	0	4	-4.249622	-0.5179914	-13.97981	
09:56:43	-6.733394	38.95348	131.161	0.7882308	-31.05477	1.56	3	98	0	5	-35.28706	2.163719	-16.04244	
09:56:43	-6.733391	38.95348	131.449	0.7419789	-7.115976	1.38	3	98	0	4	-27.00565	1.381621	-18.02854	
09:56:43	-6.733389	38.95348	131.627	0.8235812	9.966985	1.07	3	98	0	4	-12.99861	-0.43516	-20.17926	
09:56:43	-6.733386	38.95348	132.363	0.8310152	-34.58401	1.55	3	98	0	4	-25.22007	-0.3967405	-22.7364	
09:56:43	-6.733384	38.95348	132.389	0.762738	5.354146	1.62	3	98	0	5	-4.335307	-1.817875	-22.89172	
09:56:44	-6.733381	38.95348	132.363	0.7459219	-16.07748	1.81	3	98	0	4	10.73423	2.686832	-21.47051	
09:56:44	-6.733377	38.95348	133.586	0.7032083	-35.14419	1.16	3	98	0	4	-28.12506	3.401263	-23.76281	
09:56:44	-6.733375	38.95348	133.454	0.6529274	-26.08039	1.14	3	98	0	4	-19.6038	5.703112	-24.78632	
09:56:44	-6.733374	38.95348	133.266	0.6645323	-0.8342646	0.96	3	98	0	4	-4.380434	6.052963	-29.16293	
09:56:44	-6.733373	38.95349	132.944	0.6268343	-37.95614	1.32	3	98	0	4	-21.62593	1.657527	-35.42553	
09:56:45	-6.733373	38.9535	132.339	0.6091425	-22.66001	0.89	3	98	0	5	-9.659155	2.008945	-35.30666	
09:56:45	-6.733372	38.9535	132.222	0.6362616	-12.88401	0.94	3	98	0	4	-20.257	1.608461	-33.77036	
09:56:45	-6.733371	38.9535	132.151	0.6269691	-32.14939	0.52	3	98	0	5	-17.44187	2.006937	-32.00825	
09:56:45	-6.733369	38.95351	132.03	0.5930303	-26.9247	0.91	3	97	0	4	-22.16803	-1.100771	-38.13757	
09:56:46	-6.733368	38.95351	132.17	0.6523129	-9.796416	0.78	3	97	0	5	-6.356609	-1.248066	-41.17362	
09:56:46	-6.733366	38.95351	132.109	0.5922633	-44.16932	1.12	3	97	0	5	-18.95944	0.6568134	-44.14989	
09:56:46	-6.733366	38.95351	131.649	0.5648359	3.76751	0.89	3	97	0	4	0.9391369	-1.509094	-43.31105	
09:56:46	-6.733366	38.95351	131.219	0.6519387	-11.77774	1.38	3	97	0	5	-33.90187	0.2726104	-44.11877	
09:56:46	-6.733365	38.95352	131.018	0.660634	-43.63376	0.91	3	97	0	4	-24.2552	1.559897	-42.05183	
09:56:46	-6.733366	38.95352	130.926	0.6757091	-5.534134	0.75	3	97	0	4	2.981652	3.899509	-43.25322	
09:56:47	-6.733365	38.95352	130.935	0.7290282	-9.322884	1.19	3	97	0	4	-11.13591	2.655972	-44.5764	
09:56:47	-6.733364	38.95352	130.994	0.7361559	-41.47731	1	3	97	0	4	-31.64479	-0.8020999	-43.49934	
09:56:47	-6.733364	38.95352	130.987	0.7201778	-11.76765	1.18	3	97	0	4	-21.8682	-1.28743	-47.19777	
09:56:48	-6.733362	38.95352	131.133	0.7198671	-36.08958	0.36	3	97	0	4	-22.71754	1.459445	-50.30212	
09:56:48	-6.733362	38.95352	131.264	0.6852626	-22.80864	1.04	3	97	0	4	-7.023066	4.622132	-51.59441	
09:56:48	-6.733362	38.95352	131.176	0.7103321	0.7504756	1.05	3	97	0	4	-17.28966	5.141024	-54.95089	
09:56:48	-6.733362	38.95352	131.494	0.7009462	-16.14783	0.85	3	97	0	4	-12.85087	2.406965	-57.93073	
09:56:48	-6.733362	38.95352	131.474	0.6635587	-22.90982	1.11	3	97	0	4	3.992596	4.176821	-55.88731	
09:56:49	-6.733362	38.95352	131.328	0.6347388	-5.495498	1.45	3	96	0	4	-13.97494	3.215444	-54.61765	
09:56:49	-6.733362	38.95352	131.111	0.6629449	-19.52656	0.78	3	96	0	4	-14.2432	0.8093081	-58.85754	
09:56:49	-6.733362	38.95352	130.939	0.6450788	-33.54395	0.45	3	96	0	4	0.4122306	4.154856	-60.03879	
09:56:49	-6.733361	38.95352	130.825	0.6145971	-21.61711	1.25	3	97	0	4	-3.786228	5.245156	-62.37339	
09:56:49	-6.73336	38.95352	130.747	0.6630998	14.49054	0.89	3	97	0	4	-8.280806	3.704676	-64.73846	
09:56:50	-6.73336	38.95352	130.677	0.6970928	-14.14053	0.91	3	97	0	4	-10.90771	2.969639	-64.24602	
09:56:50	-6.73336	38.95351	130.7	0.6702978	-22.60035	0.85	3	97	0	4	-26.51518	-0.6906127	-65.96217	
09:56:50	-6.733361	38.95351	130.621	0.6852974	17.4262	0.58	3	97	0	4	-8.383261	-4.372446	-62.97424	
09:56:50	-6.733361	38.95351	130.631	0.6784082	-20.89413	1.23	3	97	0	4	-9.086123	0.3017219	-57.8651	
09:56:50	-6.73336	38.95351	130.63	0.6133345	-39.29335	1.12	3	97	0	4	-32.31409	0.7542568	-56.61391	
09:56:51	-6.73336	38.95351	130.493	0.5796549	12.46881	1.09	3	97	0	4	-11.45626	-1.89037	-54.69179	
09:56:51	-6.733361	38.95351	130.499	0.6148217	-15.56067	0.78	3	97	0	4	7.093859	0.2076467	-56.4319	
09:56:51	-6.73336	38.95351	130.584	0.5764954	-35.28007	0.93	3	97	0	4	-19.57869	-0.1780118	-57.79258	
09:56:51	-6.73336	38.95351	130.504	0.5274817	-45.2794	0.74	3	97	0	4	-23.36039	-0.7278351	-55.74991	
09:56:51	-6.73336	38.95351	130.529	0.555169	-1.901466	0.52	3	97	0	4	7.443818	-4.679089	-55.44632	
09:56:52	-6.73336	38.95351	130.587	0.614444	-25.17949	0.94	3	96	0	4	-15.83102	-4.042293	-54.11146	
09:56:52	-6.73336	38.9535	130.574	0.6341045	-46.27509	0.48	3	96	0	4	-31.61474	-2.321139	-49.18069	
09:56:52	-6.73336	38.9535	130.672	0.6763524	-3.994791	0.7	3	96	0	4	-5.8483	-2.098133	-46.4197	
09:56:52	-6.73336	38.9535	130.682	0.7567991	-5.76251	0.79	3	96	0	4	-0.5636315	-2.596777	-45.62609	
09:56:52	-6.73336	38.9535	130.727	0.7792876	-26.49405	0.91	3	96	0	4	-30.02531	-1.54212	-43.76941	
09:56:53	-6.73336	38.9535	130.685	0.7837505	-7.647616	0.72	3	96	0	5	-4.954076	-3.429763	-42.75689	
09:56:53	-6.733362	38.9535	130.692	0.820505	3.184791	0.29	3	96	0	4	3.552379	-0.1115463	-42.29422	
09:56:53	-6.733361	38.9535	130.672	0.8538494	0.5143141	0.52	3	97	0	4	-30.48146	5.952757	-43.79731	
09:56:53	-6.733361	38.9535	130.589	0.8507252	-9.267657	0.57	3	97	0	5	-15.58922	7.035265	-45.88239	
09:56:53	-6.733362	38.9535	130.586	0.8853707	13.88663	0.31	3	97	0	4	-1.21441	8.283844	-48.15129	
09:56:54	-6.733361	38.9535	130.625	0.9299521	-5.021705	0.66	3	96	0	6	-27.23136	8.740676	-50.22388	
09:56:54	-6.733361	38.9535	130.608	0.9137107	-23.07498	0.76	3	96	0	4	-10.9239	7.752036	-47.82171	
09:56:54	-6.733362	38.9535	130.686	0.9047502	13.25179	0.83	3	96	0	4	1.59643	7.893122	-46.31821	
09:56:54	-6.73336	38.9535	131.022	0.9289835	4.562636	0.74	3	96	0	5	-15.23783	5.47803	-51.12057	
09:56:55	-6.733361	38.9535	131.143	0.875508	8.863336	0.42	3	96	0	4	-0.7019469	4.733313	-55.58688	
09:56:55	-6.73336	38.9535	131.146	0.880217	3.845469	0.69	3	96	0	5	-26.18335	6.696841	-60.25072	
09:56:55	-6.733359	38.9535	131.048	0.8432413	-20.02032	0.39	3	96	0	4	-30.64953	8.702042	-60.29074	
09:56:55	-6.733359	38.9535	131.009	0.8494253	0.6346736	0.17	3	96	0	5	-5.581399	10.61234	-60.5319	
09:56:55	-6.733359	38.9535	131.069	0.8711159	-5.439143	0.59	3	96	0	2	-1.753976	12.81931	-61.11847	
09:56:56	-6.733358	38.9535	131.074	0.9086502	-9.789655	0.19	3	96	0	4	-2.129879	10.10607	-64.86558	
09:56:56	-6.733358	38.9535	131.08	0.9455729	1.821455	0.29	3	96	0	4	-1.647983	5.064121	-70.78102	
09:56:56	-6.733359	38.9535	131.07	0.9252971	8.735592	0.42	3	96	0	4	-7.057931	1.603214	-77.46922	
09:56:56	-6.73336	38.9535	131.082	0.9268655	15.32584	0.36	3	96	0	5	-12.28807	2.751828	-84.31412	
09:56:56	-6.733361	38.9535	131.147	0.8949225	5.757801	0.39	3	96	0	4	-11.36279	5.349759	-89.65753	
09:56:57	-6.733361	38.9535	131.234	0.8712843	8.031955	0.17	3	96	0	4	-11.1034	7.934831	-91.56852	
09:56:57	-6.73336	38.9535	131.343	0.8242502	-4.152792	0.14	3	96	0	4	-25.30492	6.861495	-94.25378	
09:56:57	-6.733361	38.9535	131.376	0.777867	4.023701	0.25	3	96	0	4	-0.7739389	4.83835	-93.75674	
09:56:57	-6.733361	38.9535	131.431	0.7611926	-0.6940593	0.32	3	96	0	4	-15.42222	2.99406	-89.64074	
09:56:57	-6.73336	38.9535	131.537	0.7339794	-6.038229	0.25	3	96	0	4	-25.89644	1.212515	-89.6256	
09:56:58	-6.73336	38.9535	131.575	0.7265527	5.355075	0.36	3	96	0	4	-1.006888	-0.8708119	-85.1142	
09:56:58	-6.73336	38.9535	131.597	0.7078651	-0.9931114	0.09	3	95	0	5	-26.51037	4.3522	-83.93822	
09:56:58	-6.73336	38.9535	131.547	0.744884	16.72586	0.48	3	96	0	4	4.932707	3.654311	-86.3763	
09:56:58	-6.73336	38.9535	131.575	0.7640237	3.341013	0.22	3	96	0	4	-8.457767	4.873292	-86.74525	
09:56:59	-6.73336	38.9535	131.599	0.761699	1.869515	0.09	3	96	0	4	-19.0556	4.804105	-87.30135	
09:56:59	-6.73336	38.9535	131.538	0.7842954	13.93468	0.24	3	96	0	4	-0.7093862	3.78868	-83.73775	
09:56:59	-6.73336	38.9535	131.552	0.8169242	7.064732	0.56	3	96	0	4	-5.479901	3.976973	-78.09396	
09:56:59	-6.733358	38.9535	131.577	0.8458367	2.778095	0.21	3	96	0	4	-26.12754	2.180877	-75.71951	
09:56:59	-6.733358	38.9535	131.563	0.8812999	19.17358	0.42	3	96	0	4	-3.960011	1.803196	-71.89337	
09:57:00	-6.733358	38.9535	131.602	0.9097623	10.16178	0.5	3	96	0	4	-29.21387	2.605643	-68.69435	
09:57:00	-6.733358	38.9535	131.577	0.8986664	9.124604	0.25	3	95	0	4	3.836651	-6.483041	-52.69377	
09:57:00	-6.733357	38.9535	131.595	0.8839114	6.614208	0.76	3	95	0	4	-25.80348	-6.883525	-44.67432	
09:57:01	-6.733357	38.9535	131.536	0.8294281	-4.694644	0.97	3	95	0	4	-14.95135	-8.608136	-36.73072	
09:57:01	-6.733355	38.9535	131.572	0.8187332	3.810871	1.11	3	94	0	4	-25.33684	-5.069538	-32.16438	
09:57:01	-6.733355	38.9535	131.518	0.7298235	-6.832631	1.03	3	94	0	4	-18.58525	-2.107604	-33.88003	
09:57:01	-6.733354	38.95349	131.427	0.7953808	24.15356	0.72	3	94	0	5	-10.95114	2.389229	-32.50145	
09:57:02	-6.733354	38.95349	131.41	0.8215773	10.97004	0.88	3	94	0	4	1.022054	6.338677	-34.68701	
09:57:02	-6.733353	38.95349	131.296	0.737258	20.52781	0.79	3	94	0	4	-0.5537579	14.1293	-39.569	
09:57:02	-6.733354	38.95349	131.382	0.7657211	11.81322	1.29	3	94	0	4	-12.83648	14.65204	-43.27951	
09:57:02	-6.733353	38.95348	131.389	0.7385278	-30.91629	1.07	3	94	0	4	-25.89178	15.37714	-43.66991	
09:57:03	-6.733353	38.95348	131.218	0.7139524	2.849221	1.13	3	94	0	4	-1.413501	15.1562	-46.12125	
09:57:03	-6.733353	38.95348	131.14	0.7743033	25.44509	0.75	3	94	0	4	-37.88138	15.85824	-53.03345	
09:57:03	-6.733351	38.95348	131.24	0.7569784	-15.42587	0.94	3	94	0	4	-19.48412	14.49879	-55.15121	
09:57:03	-6.733351	38.95348	131.181	0.7364914	-13.55546	0.78	3	94	0	4	0.784315	9.655008	-61.45124	
09:57:03	-6.733351	38.95348	131.176	0.760217	9.366022	1.16	3	94	0	4	-30.41024	11.06318	-70.06009	
