Date	Latitude(deg) 	Longitude(deg)	hamsl(m)	hafl(m)	climbrate(cm/s)	GroundSpeed(m/s)	Airspeed(m/s)	Mav_Link(%)	Rssi_Link(%)	Throttle	Roll(deg)	Pitch(deg)	Yaw(deg)
13:17:05	-6.728638	38.94614	133.7	0	0	0.04	0	100	0	0	1.450583	-2.779145	4.756601	
13:17:05	-6.728638	38.94614	133.922	0.7993516	-7.895766	0.04	3	100	0	50	1.537546	-2.8031	5.326359	
13:17:05	-6.728638	38.94614	133.931	0.6824629	-17.42068	0.02	3	100	0	50	1.4847	-2.875179	5.854276	
13:17:05	-6.728638	38.94614	133.932	0.7067479	-18.56166	0.02	3	100	0	50	1.390203	-2.831521	6.38999	
13:17:05	-6.728638	38.94614	133.95	0.8660535	-13.15196	0.09	3	100	0	50	1.278315	-2.892013	6.861957	
13:17:05	-6.728638	38.94614	133.971	0.921964	-13.49909	0.07	3	100	0	50	1.209853	-2.962734	7.387038	
13:17:06	-6.728638	38.94614	133.973	0.8413311	-20.25241	0.04	3	100	0	50	1.050544	-2.949757	7.858273	
13:17:06	-6.728638	38.94614	133.984	0.793401	-24.46085	0.03	3	100	0	50	1.002032	-2.853212	8.40167	
13:17:06	-6.728638	38.94614	134.024	0.7574914	-28.18987	0.01	3	100	0	50	0.8472901	-2.908628	8.934526	
13:17:06	-6.728638	38.94614	134.039	0.7080308	-32.24759	0.04	3	100	0	50	0.7751112	-2.899935	9.43515	
13:17:07	-6.728638	38.94614	134.043	0.6438502	-36.77031	0.02	3	100	0	50	0.7274879	-2.854457	9.768486	
13:17:07	-6.728638	38.94614	134.03	0.5581499	-41.65109	0.04	3	100	0	50	0.6283125	-2.923771	10.13638	
13:17:07	-6.728638	38.94614	134.036	0.4634107	-46.47364	0.04	3	100	0	50	0.6206133	-2.909624	10.53597	
13:17:07	-6.728638	38.94614	134.038	0.4225713	-47.29694	0.08	3	100	0	50	0.484181	-2.90371	11.01619	
13:17:07	-6.728638	38.94614	134.047	0.4158131	-47.18819	0.01	3	100	0	50	0.3940865	-2.810907	11.50673	
13:17:08	-6.728638	38.94614	134.036	0.3652391	-49.35563	0.04	3	100	0	50	0.3857441	-2.842852	11.92432	
13:17:08	-6.728638	38.94614	134.033	0.2570927	-53.53059	0.06	3	100	0	50	0.3295448	-2.793164	12.16665	
13:17:08	-6.728638	38.94614	134.04	0.1813296	-55.56383	0.07	3	100	0	50	0.3150122	-2.912491	12.49546	
13:17:08	-6.728638	38.94614	134.045	0.1405317	-55.49052	0.06	3	100	0	50	0.2517527	-2.882985	12.91005	
13:17:08	-6.728638	38.94614	134.05	0.1111446	-55.1503	0.01	3	100	0	50	0.165301	-2.900759	13.30452	
13:17:09	-6.728638	38.94614	134.038	0.06728727	-55.71621	0.03	3	100	0	50	0.03985737	-2.879046	13.70679	
13:17:09	-6.728638	38.94614	134.039	0.03099699	-56.11713	0.07	3	100	0	50	0.02340306	-2.820318	14.04141	
13:17:09	-6.728638	38.94614	134.045	-0.0007068757	-55.82969	0.04	3	100	0	50	0.03797022	-2.862334	14.28907	
13:17:09	-6.728638	38.94614	134.038	-0.02940008	-55.53051	0.01	3	100	0	50	-0.08785412	-2.772504	14.59637	
13:17:09	-6.728638	38.94614	134.027	-0.05641308	-54.95966	0.06	3	100	0	50	-0.1484853	-2.834025	14.85083	
13:17:09	-6.728638	38.94614	134.013	-0.07738773	-54.43575	0.12	3	100	0	50	-0.2081203	-2.84598	15.15333	
13:17:10	-6.728638	38.94614	134.003	-0.09361774	-53.85757	0.09	3	100	0	50	-0.16949	-2.653085	15.48871	
13:17:10	-6.728638	38.94614	133.989	-0.1057305	-52.6664	0.04	3	100	0	50	-0.2178664	-2.674027	15.70321	
13:17:10	-6.728638	38.94614	133.977	-0.08027785	-49.35313	0.09	3	100	0	50	-0.229813	-2.759467	15.86427	
13:17:10	-6.728638	38.94614	133.945	-0.05643108	-46.52553	0.09	3	100	0	50	-0.2774797	-2.824666	16.0387	
13:17:10	-6.728638	38.94614	133.94	-0.07250158	-46.00967	0.04	3	100	0	50	-0.4525743	-2.702446	16.3675	
13:17:11	-6.728638	38.94614	133.925	-0.08476926	-45.57994	0.07	3	100	0	50	-0.4232554	-2.673503	16.77192	
13:17:11	-6.728638	38.94614	133.931	-0.06521336	-43.03571	0.04	3	100	0	50	-0.2479835	-2.569497	17.09656	
13:17:11	-6.728638	38.94614	133.915	-0.04737151	-41.19188	0.11	3	100	0	50	-0.4497086	-2.602798	17.36592	
13:17:11	-6.728639	38.94614	133.916	-0.07434678	-41.35621	0.25	3	100	0	50	-0.442968	-2.457411	17.64653	
13:17:12	-6.728639	38.94614	133.812	-0.09620579	-40.58634	0.37	3	100	0	50	-0.3159263	-2.179213	17.96755	
13:17:12	-6.728639	38.94614	133.659	-0.141464	-41.8174	0.08	3	100	0	50	-0.7389623	-2.105257	18.38654	
13:17:12	-6.728639	38.94614	133.644	-0.1835081	-42.43467	0.01	3	100	0	50	-0.5230229	-2.227947	18.71201	
13:17:12	-6.728639	38.94614	133.572	-0.2424328	-43.75093	0.34	3	100	0	50	-0.7730067	-2.282935	19.08175	
13:17:12	-6.728639	38.94614	133.462	-0.292786	-45.07167	0.19	3	100	0	50	-0.9185197	-2.030458	19.26379	
13:17:13	-6.728639	38.94614	133.475	-0.423163	-50.0079	0.09	3	100	0	50	-0.856278	-2.247886	19.58557	
13:17:13	-6.728639	38.94614	133.495	-0.5355359	-54.00733	0.04	3	100	0	50	-0.7246605	-2.110301	19.78809	
13:17:13	-6.728639	38.94614	133.485	-0.5871724	-53.64811	0.22	3	100	0	50	-0.6740258	-1.861113	20.0414	
13:17:13	-6.728639	38.94614	133.447	-0.6350702	-54.05177	0.14	3	100	0	50	-0.8399907	-1.81494	20.38814	
13:17:13	-6.728639	38.94614	133.39	-0.6467783	-52.43262	0.19	3	100	0	50	-0.9336659	-2.024858	20.66529	
13:17:14	-6.72864	38.94614	133.332	-0.6146156	-48.72013	0.09	3	100	0	50	-1.288228	-1.793083	20.82174	
13:17:14	-6.72864	38.94614	133.354	-0.5920194	-45.6403	0.04	3	100	0	50	-0.8648607	-1.745837	20.9847	
13:17:14	-6.72864	38.94614	133.39	-0.5821699	-42.88014	0.09	3	100	0	50	-1.016247	-1.942236	21.23828	
13:17:14	-6.72864	38.94614	133.411	-0.5346481	-38.34106	0.07	3	100	0	50	-1.111568	-1.962066	21.47208	
13:17:14	-6.72864	38.94614	133.387	-0.4657184	-33.61629	0.04	3	100	0	50	-1.241395	-1.865197	21.78555	
13:17:15	-6.72864	38.94614	133.4	-0.4210086	-30.86122	0.33	3	100	0	50	-1.408408	-1.819601	22.065	
13:17:15	-6.72864	38.94614	133.405	-0.3979428	-29.31993	0.17	3	100	0	50	-1.447682	-1.76301	22.23136	
13:17:15	-6.72864	38.94614	133.424	-0.3314747	-25.39753	0.14	3	100	0	50	-1.21647	-2.060427	22.41322	
13:17:15	-6.72864	38.94614	133.427	-0.2010871	-18.89742	0.19	3	100	0	50	-1.274851	-1.930171	22.63723	
13:17:15	-6.72864	38.94614	133.412	-0.09821058	-14.51721	0.18	3	100	0	50	-1.214196	-1.684313	22.89434	
13:17:16	-6.72864	38.94614	133.45	-0.02647867	-11.23641	0.37	3	100	0	50	-1.251531	-1.973137	23.1937	
13:17:16	-6.728639	38.94614	133.502	0.0360113	-9.515059	0.31	3	100	0	50	-1.160783	-2.255027	23.37439	
13:17:16	-6.728639	38.94614	133.514	0.09406332	-8.036342	0.04	3	100	0	50	-1.178997	-2.059497	23.48099	
13:17:16	-6.728639	38.94614	133.53	0.1514561	-6.982285	0.09	3	100	0	50	-1.20999	-1.857852	23.66727	
13:17:16	-6.728639	38.94614	133.53	0.2089819	-5.257124	0.04	3	100	0	50	-1.164946	-1.936947	23.91945	
13:17:17	-6.728638	38.94614	133.558	0.2448903	-5.200086	0.19	3	100	0	50	-1.19327	-2.077178	24.05057	
13:17:17	-6.728638	38.94614	133.605	0.2663944	-5.513364	0.04	3	100	0	50	-1.182436	-2.113706	24.27547	
13:17:17	-6.728638	38.94614	133.618	0.3002702	-5.396068	0.16	3	100	0	50	-1.239717	-1.928495	24.38743	
13:17:17	-6.728638	38.94614	133.603	0.3473765	-4.816212	0.04	3	100	0	50	-1.19606	-1.806239	24.54593	
13:17:17	-6.728638	38.94614	133.613	0.3229842	-7.570091	0.04	3	100	0	50	-1.2099	-1.927106	24.7857	
13:17:18	-6.728638	38.94614	133.638	0.2360679	-13.52469	0.02	3	100	0	50	-1.19595	-1.932446	24.96228	
13:17:18	-6.728638	38.94614	133.669	0.174715	-17.25606	0.08	3	100	0	50	-1.103633	-2.007088	25.16162	
13:17:18	-6.728638	38.94614	133.698	0.1347107	-19.37981	0.04	3	100	0	50	-1.089576	-1.993487	25.28487	
13:17:18	-6.728638	38.94614	133.713	0.101302	-21.62555	0.02	3	100	0	50	-1.129517	-1.942265	25.3274	
13:17:18	-6.728638	38.94614	133.713	0.04349199	-24.48948	0.06	3	100	0	50	-1.118044	-1.994338	25.39977	
13:17:19	-6.728638	38.94614	133.723	-0.008801689	-27.13534	0.09	3	100	0	50	-1.111689	-2.068115	25.49244	
13:17:19	-6.728638	38.94614	133.741	-0.01309053	-26.71194	0.03	3	100	0	50	-1.142489	-2.102824	25.58979	
13:17:19	-6.728638	38.94614	133.733	-0.01557739	-26.27135	0.01	3	100	0	50	-1.168532	-2.08397	25.7585	
13:17:19	-6.728638	38.94614	133.706	0.006794442	-24.53739	0.04	3	100	0	50	-1.154772	-2.060871	25.87103	
13:17:19	-6.728638	38.94614	133.672	0.02814458	-22.89242	0.01	3	100	0	50	-1.161752	-2.071747	25.94082	
13:17:20	-6.728638	38.94614	133.635	-0.06007931	-26.69484	0.08	3	100	0	50	-1.196127	-2.087539	26.10667	
13:17:20	-6.728638	38.94614	133.588	-0.1391398	-30.17792	0.03	3	100	0	50	-1.198254	-2.084249	26.22607	
13:17:20	-6.728638	38.94614	133.548	-0.1782265	-31.09048	0.03	3	100	0	50	-1.166488	-2.11606	26.35563	
13:17:20	-6.728638	38.94614	133.496	-0.2077556	-31.25788	0.13	3	100	0	50	-1.179422	-2.097294	26.50223	
13:17:20	-6.728638	38.94614	133.447	-0.2731524	-33.71889	0.11	3	100	0	50	-1.188184	-1.995973	26.56879	
13:17:21	-6.728639	38.94614	133.418	-0.3304577	-35.42177	0.02	3	100	0	50	-1.201428	-2.07798	26.53769	
13:17:21	-6.728639	38.94614	133.357	-0.3463132	-34.19269	0.21	3	100	0	50	-1.214643	-2.033462	26.55929	
13:17:21	-6.728639	38.94614	133.251	-0.3563355	-33.20258	0.35	3	100	0	50	-1.228939	-1.751945	26.63415	
13:17:21	-6.72864	38.94614	133.107	-0.3432384	-30.76742	0.04	3	100	0	50	-1.235218	-1.727625	26.76428	
13:17:21	-6.72864	38.94614	133.048	-0.328339	-28.85276	0.14	3	100	0	50	-1.195133	-1.929097	26.90024	
13:17:22	-6.72864	38.94614	132.986	-0.2883363	-25.33449	0.09	3	100	0	50	-1.270858	-2.050804	26.89888	
13:17:22	-6.72864	38.94614	132.958	-0.2502938	-22.80742	0.14	3	100	0	50	-1.197612	-2.038733	26.86354	
13:17:22	-6.72864	38.94614	132.987	-0.213727	-20.31915	0.09	3	100	0	50	-1.164549	-1.930646	26.98813	
13:17:22	-6.72864	38.94614	132.989	-0.1833127	-18.80379	0.04	3	100	0	50	-1.3407	-1.933453	27.072	
13:17:22	-6.72864	38.94614	132.994	-0.2176587	-20.28868	0.06	3	100	0	50	-1.252312	-1.959068	27.21848	
13:17:23	-6.72864	38.94614	132.978	-0.2484045	-21.18942	0.85	3	100	0	50	-1.486693	-1.454955	27.33915	
13:17:23	-6.728641	38.94614	132.962	-0.1871574	-17.20453	0.14	3	100	0	50	-1.538661	-1.089323	27.36229	
13:17:23	-6.728642	38.94614	132.986	-0.1357662	-14.55141	0.02	3	100	0	50	-2.145372	-1.599714	27.36884	
13:17:23	-6.728642	38.94614	133.03	-0.0992536	-11.48083	0.11	3	100	0	50	-4.510592	-1.922416	26.85859	
13:17:23	-6.72864	38.94614	133.499	-0.08806397	-12.33774	1.71	3	100	0	50	1.224724	-1.842643	27.87972	
13:17:24	-6.728638	38.94613	134.396	-0.0750371	-8.716266	3.1	3	100	0	50	1.278549	-1.823985	28.70152	
13:17:24	-6.72864	38.94613	134.707	-0.05869385	-8.960862	2.87	3.116904	100	0	50	-6.179261	-1.854925	26.32855	
13:17:24	-6.728645	38.94613	134.716	-0.06417993	-10.12049	3.49	3	100	0	50	1.5965	-0.6037199	21.60255	
13:17:24	-6.728651	38.94612	134.709	-0.08652126	-11.75407	3.62	3.446055	100	0	50	4.177147	0.5309583	20.89764	
13:17:24	-6.728657	38.94612	134.693	-0.0646061	-10.69646	3.41	3.578127	100	0	50	-3.19007	-0.3279629	20.2373	
13:17:25	-6.728662	38.94612	134.636	-0.002369887	-7.323155	3.62	3.377345	100	0	50	-0.8222966	-0.4631693	17.66727	
13:17:25	-6.728666	38.94612	134.635	0.06444353	-4.29079	0.12	3.579429	100	0	50	4.365147	-1.369185	19.14925	
13:17:25	-6.728666	38.94612	134.672	0.1603812	-0.2985952	0.12	3	100	0	50	-2.857728	-2.266588	20.44826	
13:17:25	-6.728666	38.94612	134.752	0.2265857	4.884634	0.37	3	100	0	50	-1.500021	-2.451349	19.42639	
13:17:25	-6.728666	38.94612	134.828	0.2611617	3.0582	0.12	3	100	0	50	5.585893	-2.607944	18.0445	
13:17:26	-6.728665	38.94612	134.904	0.2715837	2.216253	0.18	3	100	0	50	-0.6130274	-1.675333	17.82369	
13:17:26	-6.728665	38.94612	134.906	0.2658639	2.40568	0.12	3	100	0	50	-3.33089	-2.622106	16.29771	
13:17:26	-6.728665	38.94612	134.912	0.2596057	-2.22619	0.29	3	100	0	50	3.51819	-3.376819	16.5464	
13:17:26	-6.728666	38.94612	135.003	0.2546461	-0.690707	0.04	3	100	0	50	5.697564	-3.596818	17.06349	
13:17:26	-6.728666	38.94612	135.094	0.2280091	-8.130813	0.29	3	100	0	50	-4.052224	-2.976762	16.82279	
13:17:27	-6.728666	38.94612	135.074	0.1894141	-3.50171	0.22	3	100	0	50	-1.629867	-2.555998	15.5291	
13:17:27	-6.728666	38.94612	135.014	0.1791448	-5.055377	0.31	3	100	0	50	7.323689	-2.660535	14.67648	
13:17:27	-6.728666	38.94612	135.018	0.2034567	-4.190232	0.06	3	100	0	50	1.156358	-1.842564	14.60408	
13:17:27	-6.728665	38.94612	135.006	0.2075725	-4.59478	0.09	3	100	0	50	-4.440679	-2.738448	14.45495	
13:17:27	-6.728665	38.94612	135.017	0.1944117	-7.938438	0.09	3	100	0	50	2.651524	-3.282305	15.13656	
13:17:28	-6.728665	38.94612	135.007	0.1945633	-7.397421	0.09	3	100	0	50	7.518616	-2.277712	15.38514	
13:17:28	-6.728664	38.94612	135.012	0.217615	-6.284493	0.24	3	100	0	50	-3.959922	-2.556373	15.90061	
13:17:28	-6.728663	38.94612	135.019	0.2346494	-5.249055	0.11	3	100	0	50	-4.26523	-2.790958	16.14356	
13:17:28	-6.728663	38.94612	135.019	0.1982361	-7.426282	0.11	3	100	0	50	8.411238	-2.58313	15.90161	
13:17:28	-6.728663	38.94612	135.008	0.1684097	-8.910118	0.32	3	100	0	50	9.219925	-2.417316	16.1595	
13:17:29	-6.728662	38.94612	134.987	0.09106892	-15.59191	0.12	3	100	0	50	-5.341457	-3.064684	17.24185	
13:17:29	-6.728662	38.94612	135	0.02935202	-16.53377	0.14	3	100	0	50	-1.499798	-3.220863	17.35052	
13:17:29	-6.728662	38.94612	134.975	-0.0008455398	-17.73394	0.19	3	100	0	50	8.980582	-2.357333	16.96003	
13:17:29	-6.728662	38.94612	134.975	-0.02571499	-18.53712	0.19	3	100	0	50	5.553068	-2.12515	17.21681	
13:17:29	-6.728661	38.94612	134.939	-0.01371017	-19.32944	0.03	3	100	0	50	-3.198188	-3.157597	18.507	
13:17:30	-6.72866	38.94612	134.913	-0.0006453223	-18.20359	0.12	3	100	0	50	0.6500867	-2.264054	18.61078	
13:17:30	-6.728659	38.94612	134.888	0.04143771	-13.2102	0.04	3	100	0	50	-0.9928321	-2.397572	18.76501	
13:17:30	-6.728658	38.94612	134.906	0.07948501	-10.19082	0.09	3	100	0	50	-1.006273	-2.427661	18.88295	
13:17:30	-6.728658	38.94612	134.906	0.0009513535	-14.25294	0.09	3	100	0	50	-0.7276242	-2.478279	19.0682	
13:17:30	-6.728658	38.94612	134.928	-0.06971262	-17.38713	0.06	3	100	0	50	-0.6432278	-2.510641	19.15648	
13:17:31	-6.728657	38.94612	134.918	-0.1345557	-19.89071	0.02	3	100	0	50	-0.6530051	-2.478739	19.32912	
13:17:31	-6.728656	38.94612	134.895	-0.185361	-21.46905	0.06	3	100	0	50	-0.6065128	-2.505669	19.51444	
13:17:31	-6.728655	38.94612	134.869	-0.2322093	-22.53906	0.09	3	100	0	50	-0.4404451	-2.616608	19.6318	
13:17:31	-6.728655	38.94612	134.869	-0.2714553	-22.99973	0.09	3	100	0	50	0.5375559	-2.614444	19.56393	
13:17:31	-6.728654	38.94612	134.846	-0.3067346	-22.88838	0.02	3	100	0	50	4.277581	-2.360087	19.63282	
13:17:32	-6.728653	38.94612	134.811	-0.3347687	-22.13088	0.09	3	100	0	50	-2.38522	-2.712408	19.34004	
13:17:32	-6.728653	38.94612	134.761	-0.2967857	-17.15659	0.06	3	100	0	50	-6.804444	-2.609306	18.1728	
13:17:32	-6.728653	38.94613	134.702	-0.2636202	-17.73002	0.14	3	100	0	50	6.613135	-2.550544	16.97895	
13:17:32	-6.728653	38.94613	134.702	-0.2831872	-17.30262	0.14	3	100	0	50	-2.900382	-2.949492	16.22476	
13:17:32	-6.728652	38.94613	134.651	-0.2987356	-15.18423	0.13	3	100	0	50	-8.646387	-3.038483	15.38676	
13:17:33	-6.728652	38.94613	134.54	-0.2861581	-19.87562	0.24	3	100	0	50	9.739413	-2.650781	15.50189	
13:17:33	-6.728652	38.94613	134.498	-0.2791667	-17.55426	0.14	3	100	0	50	-0.6585665	-2.495068	15.23645	
13:17:33	-6.728651	38.94613	134.495	-0.2909414	-14.38338	0.33	3	100	0	50	-8.100636	-3.713932	16.89961	
13:17:33	-6.728651	38.94613	134.446	-0.3227128	-23.24947	0.38	3	100	0	50	7.078267	-1.481435	18.52988	
13:17:33	-6.728651	38.94613	134.407	-0.3644224	-21.95408	0.11	3	100	0	50	-8.270716	-1.275625	18.78704	
13:17:34	-6.72865	38.94613	134.399	-0.4060463	-22.6154	0.25	3	100	0	50	-3.756067	-1.177034	19.34521	
13:17:34	-6.72865	38.94613	134.37	-0.4199313	-25.32704	0.29	3	100	0	50	9.465008	-0.3917987	19.1263	
13:17:34	-6.728649	38.94613	134.356	-0.4144583	-26.29837	0.03	3	100	0	50	-9.46604	-1.118103	19.02336	
13:17:34	-6.728648	38.94613	134.357	-0.4376105	-29.15559	0.17	3	100	0	50	1.179336	-0.5891501	20.42469	
13:17:34	-6.728648	38.94613	134.306	-0.4797824	-30.13571	0.58	3	100	0	50	5.402184	-0.07324456	20.81243	
13:17:35	-6.728648	38.94613	134.272	-0.481204	-34.36363	0.14	3	100	0	50	-13.18538	-1.301009	21.58473	
13:17:35	-6.728647	38.94613	134.222	-0.4483621	-24.08486	0.08	3	100	0	50	6.353559	-0.3162199	22.79209	
13:17:35	-6.728647	38.94613	134.136	-0.4194652	-15.43082	0.53	3	100	0	50	-4.132541	-0.6343526	22.54731	
13:17:35	-6.728647	38.94613	134.096	-0.4095958	-15.38578	0.29	3	100	0	50	-6.184964	-0.9965204	24.2289	
13:17:35	-6.728646	38.94613	134.069	-0.3910378	-11.45821	0.52	3	100	0	50	5.570368	1.075565	24.75773	
13:17:36	-6.728646	38.94613	133.989	-0.3544068	-12.78701	0.22	3	100	0	50	-12.24336	-0.5386769	25.10102	
13:17:36	-6.728646	38.94613	134.04	-0.318872	-13.71511	0.25	3	100	0	50	4.319322	0.8396632	24.99832	
13:17:36	-6.728646	38.94613	133.96	-0.2745839	-11.26302	0.63	3	100	0	50	-6.339453	0.2737438	23.61873	
13:17:36	-6.728646	38.94613	133.897	-0.2465619	-6.93882	0.52	3	100	0	50	-7.869563	-0.6107433	20.97533	
13:17:36	-6.728646	38.94613	133.903	-0.2297202	-9.10503	0.26	3	100	0	50	-1.440247	-0.5018454	16.8926	
13:17:37	-6.728646	38.94613	133.904	-0.1762757	-2.961043	0.04	3	100	0	50	-1.289076	-1.432754	17.43999	
13:17:37	-6.728645	38.94613	133.946	-0.09412557	-1.677026	0.29	3	100	0	50	3.844286	-0.03472176	20.98536	
13:17:37	-6.728645	38.94613	133.985	-0.06949364	-3.625011	0.21	3	100	0	50	-10.95713	-0.1352311	22.72468	
13:17:37	-6.728645	38.94613	133.971	-0.1142562	-9.946274	0.22	3	100	0	50	7.470376	1.550772	22.64661	
13:17:38	-6.728645	38.94613	133.942	-0.1213852	-4.651021	0.16	3	100	0	50	-9.598521	-0.2438404	20.79887	
13:17:38	-6.728645	38.94613	133.962	-0.07206009	3.999837	0.24	3	100	0	50	5.765234	0.6385589	19.9156	
13:17:38	-6.728645	38.94613	133.965	-0.03040737	7.424489	0.37	3	100	0	50	-4.914328	-0.2708431	17.74147	
13:17:38	-6.728645	38.94613	133.958	-0.02990942	7.986727	0.21	3	100	0	50	2.119517	0.6191806	18.17918	
13:17:38	-6.728645	38.94613	133.958	-0.03540593	4.996883	0.21	3	100	0	50	-1.007184	-0.2380787	17.57457	
13:17:39	-6.728645	38.94613	133.952	-0.05469016	-0.2154431	0.06	3	100	0	50	-2.759826	-0.4842149	18.31981	
13:17:39	-6.728644	38.94613	133.961	-0.07824702	-6.832997	0.07	3	100	0	50	4.302081	-0.5030872	17.46652	
13:17:39	-6.728644	38.94613	133.96	-0.07401831	-7.443781	0.09	3	100	0	50	-3.324606	-1.802077	16.92301	
13:17:39	-6.728644	38.94613	133.954	-0.07423582	-12.19819	0.22	3	100	0	50	7.895235	-1.119566	16.25081	
13:17:39	-6.728643	38.94613	133.947	-0.09101379	-13.58205	0.22	3	100	0	50	-3.409125	-2.611234	14.62076	
13:17:39	-6.728644	38.94613	133.895	-0.1091507	-18.9764	0.41	3	100	0	50	9.077143	-1.347413	14.47123	
13:17:40	-6.728644	38.94613	133.895	-0.08445354	-14.87106	0.41	3	100	0	50	-3.566674	-2.156487	13.91097	
13:17:40	-6.728643	38.94613	133.855	-0.05992908	-13.61762	0.19	3	100	0	50	5.142935	-1.61293	13.4904	
13:17:40	-6.728643	38.94613	133.855	-0.09183315	-13.92784	0.19	3	100	0	50	-0.6781045	-1.79644	10.94877	
13:17:40	-6.728643	38.94613	133.855	-0.114336	-12.74513	0.19	3	100	0	50	3.52221	-1.176313	10.48758	
13:17:40	-6.728643	38.94613	133.812	-0.0948887	-10.33801	0.09	3	100	0	50	1.823105	-1.427427	10.4889	
13:17:41	-6.728643	38.94613	133.816	-0.07337348	-5.611203	0.02	3	100	0	50	-2.761657	-1.442644	10.31561	
13:17:41	-6.728642	38.94613	133.846	-0.04943825	-5.388	0.09	3	100	0	50	8.964004	-1.373146	9.849113	
13:17:41	-6.728642	38.94613	133.873	-0.02807934	-7.582448	0.25	3	100	0	50	-6.56512	-2.262946	9.507123	
13:17:41	-6.728642	38.94613	133.873	-0.09949242	-22.73078	0.25	3	100	0	50	2.674806	-2.164095	5.425385	
13:17:41	-6.728642	38.94613	133.876	-0.1702881	-21.85202	0.42	3	100	0	50	2.069625	-2.438649	-0.3326162	
13:17:42	-6.728642	38.94613	133.892	-0.151776	-17.69102	0.21	3	100	0	50	2.40496	-2.548287	-3.494693	
13:17:42	-6.728641	38.94613	133.879	-0.1319315	-15.37087	0.03	3	100	0	50	3.003016	-2.638084	-3.750981	
13:17:42	-6.728641	38.94613	133.883	-0.12719	-12.77843	0.06	3	100	0	50	7.926779	-2.473697	-2.290415	
13:17:42	-6.72864	38.94614	133.915	-0.1207058	-14.44149	0.16	3	100	0	50	-7.46339	-2.330629	-0.3159235	
13:17:42	-6.72864	38.94614	133.956	-0.07446443	-10.88298	0.26	3	100	0	50	9.819919	-2.496607	0.3526864	
13:17:43	-6.72864	38.94614	133.972	-0.03772103	-8.442468	0.21	3	100	0	50	-2.630773	-1.93625	-1.599531	
13:17:43	-6.728639	38.94614	134.007	-0.03466114	-11.68689	0.07	3	100	0	50	2.156988	-2.195347	0.7250397	
13:17:43	-6.728638	38.94614	134.025	-0.06220147	-11.02521	0.01	3	100	0	50	12.43482	-2.484286	2.074303	
13:17:43	-6.728638	38.94614	134.017	-0.08873388	-16.86165	0.14	3	100	0	50	-8.187428	-2.16983	-1.633093	
13:17:43	-6.728638	38.94614	133.988	-0.118603	-14.20088	0.52	3	100	0	50	-12.23288	-1.560177	-5.436671	
13:17:44	-6.728638	38.94614	133.989	-0.1267518	-18.85972	0.14	3	100	0	50	2.961759	-2.290755	-6.532379	
13:17:44	-6.728638	38.94614	133.989	-0.1268924	-18.12058	0.14	3	100	0	50	2.502285	-2.266974	-6.35329	
13:17:44	-6.728638	38.94614	133.929	-0.1173567	-14.9526	0.09	3	100	0	50	0.8302761	-2.552201	-2.599678	
13:17:44	-6.728638	38.94614	133.923	-0.09902623	-10.6469	0.02	3	100	0	50	-4.157583	-2.423489	3.005067	
13:17:44	-6.728638	38.94614	133.925	-0.07123157	-13.08992	0.06	3	100	0	50	8.09403	-2.114962	5.62354	
13:17:45	-6.728637	38.94614	133.934	-0.03808274	-6.620603	0.39	3	100	0	50	2.366336	-2.07387	6.071354	
13:17:45	-6.728637	38.94614	133.954	0.01759138	-0.2332364	0.04	3	100	0	50	-0.8835691	-2.649047	6.228059	
13:17:45	-6.728636	38.94614	134.002	0.0840623	1.589611	0.19	3	100	0	50	12.15561	-1.946472	6.557286	
13:17:45	-6.728636	38.94614	133.997	0.144208	2.937821	0.26	3	100	0	50	-3.109547	-2.58189	8.398305	
13:17:45	-6.728636	38.94614	133.984	0.199653	8.413238	0.17	3	100	0	50	0.3553941	-2.998228	7.632035	
13:17:46	-6.728636	38.94614	133.987	0.2594749	8.964799	0.03	3	100	0	50	-1.167402	-2.663571	6.557373	
13:17:46	-6.728635	38.94614	133.992	0.3231883	13.47437	0.04	3	100	0	50	-2.697542	-2.588093	7.138993	
13:17:46	-6.728635	38.94614	133.996	0.3765004	12.59173	0.07	3	100	0	50	6.523247	-2.155266	7.010829	
13:17:46	-6.728635	38.94614	134	0.4216505	14.81403	0.18	3	100	0	50	-4.42744	-2.640204	8.40024	
13:17:46	-6.728635	38.94614	133.996	0.4668092	14.66703	0.04	3	100	0	50	1.75375	-2.93749	8.467972	
13:17:47	-6.728634	38.94614	133.973	0.5090467	15.61322	0.02	3	100	0	50	5.839825	-1.942968	6.611784	
13:17:47	-6.728634	38.94614	133.925	0.5171671	15.81303	0.06	3	100	0	50	-7.475963	-3.236763	10.05937	
13:17:47	-6.728634	38.94614	133.917	0.4943278	9.858819	0.18	3	100	0	50	5.297533	-1.948081	11.15318	
13:17:47	-6.728633	38.94614	133.89	0.4761253	12.5593	0.22	3	100	0	50	-0.7823995	-2.341494	10.35612	
13:17:47	-6.728633	38.94614	133.868	0.4673935	13.02279	0.03	3	100	0	50	-6.236126	-3.053175	11.4171	
13:17:48	-6.728633	38.94614	133.859	0.4560415	6.431849	0.18	3	100	0	50	6.859317	-2.264002	10.96058	
13:17:48	-6.728633	38.94614	133.826	0.4493863	7.440714	0.14	3	100	0	50	0.09847441	-2.442538	10.38569	
13:17:48	-6.728633	38.94614	133.785	0.4398966	7.056802	0.04	3	100	0	50	-4.211862	-3.055474	8.982683	
13:17:48	-6.728633	38.94614	133.769	0.44692	5.720093	0.19	3	100	0	50	9.471992	-2.085788	6.496011	
13:17:49	-6.728633	38.94614	133.742	0.4582515	7.302406	0.34	3	100	0	50	-3.565096	-3.056683	6.665679	
13:17:49	-6.728632	38.94614	133.733	0.4800748	11.88637	0.03	3	100	0	50	1.778356	-3.620012	7.370152	
13:17:49	-6.728632	38.94614	133.727	0.4963985	8.282635	0.04	3	100	0	50	6.000418	-3.107284	7.074898	
13:17:49	-6.728632	38.94614	133.719	0.4410222	7.121143	0.11	3	100	0	50	-10.91681	-3.715099	8.898745	
13:17:49	-6.728632	38.94614	133.692	0.3982357	0.8693748	0.29	3	100	0	50	5.189002	-3.481363	9.10806	
13:17:50	-6.728632	38.94614	133.676	0.4500023	0.685686	0.26	3	100	0	50	1.391413	-2.992705	8.518876	
13:17:50	-6.728632	38.94614	133.656	0.4998076	9.515251	0.07	3	100	0	50	-11.2489	-3.664641	8.987108	
13:17:50	-6.728632	38.94614	133.626	0.4288992	-3.447711	0.39	3	100	0	50	8.964497	-2.706044	8.824636	
13:17:50	-6.728632	38.94614	133.613	0.3526316	-2.542685	0.57	3	100	0	50	1.410505	-2.879107	9.145702	
13:17:50	-6.728631	38.94614	133.593	0.3093724	-0.7297635	0.04	3	100	0	50	-3.808051	-3.982224	9.266219	
13:17:50	-6.728631	38.94614	133.581	0.2760288	-8.335167	0.13	3	100	0	50	8.086969	-2.604606	9.830297	
13:17:51	-6.728631	38.94614	133.555	0.280934	-3.380163	0.37	3	100	0	50	-4.489859	-3.127867	9.368065	
13:17:51	-6.728631	38.94614	133.548	0.2886363	-0.5546679	0.14	3	100	0	50	3.925052	-3.404466	8.239217	
13:17:51	-6.728631	38.94614	133.547	0.3030391	-0.8646123	0.09	3	100	0	50	1.984249	-3.017142	7.35771	
13:17:51	-6.728631	38.94614	133.486	0.3185024	1.854194	0.03	3	100	0	50	-4.379812	-3.41292	5.579988	
13:17:52	-6.728631	38.94614	133.474	0.3373006	-4.915439	0.22	3	100	0	50	9.675143	-3.130274	4.407432	
13:17:52	-6.728631	38.94614	133.437	0.3499256	-0.4467584	0.44	3	100	0	50	-3.39878	-3.391339	5.836965	
13:17:52	-6.728631	38.94614	133.404	0.2711001	-1.206009	0.24	3	100	0	50	0.9453641	-3.84092	8.413534	
13:17:52	-6.728631	38.94614	133.367	0.1971481	-6.862285	0.08	3	100	0	50	2.932187	-2.926123	8.681919	
13:17:52	-6.728631	38.94614	133.318	0.2079053	-2.802185	0.19	3	100	0	50	-10.05967	-3.69112	9.634366	
13:17:52	-6.728631	38.94614	133.322	0.2245622	-2.836175	0.09	3	100	0	50	4.242401	-3.82628	11.67673	
13:17:53	-6.728631	38.94614	133.326	0.2171576	-5.112191	0.29	3	100	0	50	2.285547	-2.863729	12.26355	
13:17:53	-6.728631	38.94614	133.316	0.1939517	-2.418155	0.06	3	100	0	50	2.120427	-5.663589	13.4047	
13:17:53	-6.728631	38.94614	133.318	0.175607	-5.127908	0.16	3	100	0	50	3.248168	-2.433177	11.69046	
13:17:53	-6.728631	38.94614	133.284	0.1531999	-4.482291	0.13	3	100	0	50	-0.2747923	-5.680532	11.91348	
13:17:53	-6.728631	38.94614	133.293	0.1490065	-3.138042	0.19	3	100	0	50	7.889779	-4.833419	8.733341	
13:17:54	-6.728631	38.94614	133.283	0.1417803	-13.80475	0.17	3	100	0	50	-3.766287	-1.193187	4.628437	
13:17:54	-6.728631	38.94614	133.274	0.07680938	-8.491331	0.26	3	100	0	50	2.005932	-6.000821	3.463989	
13:17:54	-6.728632	38.94614	133.256	-0.04651941	-17.99232	0.09	3	100	0	50	-1.02279	0.03471181	3.741406	
13:17:54	-6.728632	38.94614	133.184	-0.1388938	-17.71788	0.12	3	100	0	50	-3.879315	-2.894114	8.127202	
13:17:54	-6.728632	38.94614	133.138	-0.2270419	-22.95683	0.18	3	100	0	50	6.551616	-2.725985	9.443901	
13:17:55	-6.728632	38.94614	133.086	-0.3110169	-29.15472	0.26	3	100	0	50	-5.96112	-1.198255	12.54416	
13:17:55	-6.728632	38.94614	133.013	-0.3772276	-25.62094	0.19	3	100	0	50	1.678192	-3.243721	18.05568	
13:17:55	-6.728632	38.94614	132.962	-0.4187779	-31.04379	0.04	3	100	0	50	7.336479	-0.7017652	16.49084	
13:17:55	-6.728632	38.94614	132.889	-0.4257334	-23.85373	0.11	3	100	0	50	1.221959	-1.168827	16.25638	
13:17:55	-6.728632	38.94614	132.874	-0.4342311	-22.4187	0.39	3	100	0	50	-0.9178084	-2.42524	18.36734	
13:17:56	-6.728633	38.94614	132.698	-0.4444799	-25.16592	0.26	3	100	0	50	11.07974	-0.2055382	17.18141	
13:17:56	-6.728633	38.94614	132.633	-0.4027925	-17.87154	0.12	3	100	0	50	8.799331	0.04561343	15.31727	
13:17:56	-6.728633	38.94614	132.61	-0.3173271	-12.9568	0.02	3	100	0	50	-1.149594	-1.525127	13.94806	
13:17:56	-6.728633	38.94614	132.568	-0.2364534	-7.575741	0.45	3	100	0	50	3.780916	-1.357834	12.24017	
13:17:57	-6.728633	38.94614	132.468	-0.1788798	-3.269502	0.19	3	100	0	50	2.298644	-0.7045041	11.10898	
13:17:57	-6.728633	38.94614	132.328	-0.1512957	0.9272376	0.14	3	100	0	50	-5.719744	-1.251714	10.72396	
13:17:57	-6.728633	38.94614	132.397	-0.1679113	-4.592431	0.24	3	100	0	50	6.308592	-0.5828396	8.252707	
13:17:57	-6.728633	38.94614	132.297	-0.1579262	-1.748012	0.29	3	100	0	50	-0.6865866	-1.665025	6.686995	
13:17:57	-6.728633	38.94614	132.293	-0.1173071	2.456931	0.04	3	100	0	50	-3.185811	-1.811191	7.417777	
13:17:57	-6.728633	38.94614	132.287	-0.08518987	1.601421	0.16	3	100	0	50	1.801667	-1.595289	7.385288	
13:17:58	-6.728633	38.94614	132.242	-0.05591476	3.998938	0.12	3	100	0	50	-0.5013223	-1.532222	8.205153	
13:17:58	-6.728633	38.94614	132.189	-0.02338552	8.924707	0.19	3	100	0	50	-8.345679	-1.607683	9.743435	
13:17:58	-6.728633	38.94614	132.04	0.02386067	5.043435	0.45	3	100	0	50	3.928674	-0.9108522	9.979464	
13:17:58	-6.728633	38.94614	131.889	0.06131863	9.081951	0.31	3	100	0	50	-0.3298277	-1.038706	10.62673	
13:17:58	-6.728633	38.94614	131.849	0.09383439	11.9678	0.09	3	100	0	50	-2.266211	-2.312874	10.95597	
13:17:59	-6.728633	38.94614	131.812	0.1200692	8.637226	0.16	3	100	0	50	4.793416	-0.8653206	9.364556	
13:17:59	-6.728633	38.94614	131.761	0.1166737	9.700089	0.19	3	100	0	50	-2.160275	-1.236778	9.281126	
13:17:59	-6.728633	38.94614	131.7	0.1151472	10.2867	0.16	3	100	0	50	-4.657513	-1.486748	10.65349	
13:17:59	-6.728634	38.94614	131.608	0.1413248	9.155269	0.02	3	100	0	50	3.363682	-0.9677143	11.32843	
13:17:59	-6.728634	38.94614	131.534	0.1568359	6.326067	0.02	3	100	0	50	-0.8618914	-1.450793	13.67113	
13:18:00	-6.728634	38.94614	131.478	0.1138024	4.103465	0.11	3	100	0	50	-6.22345	-1.261569	16.94829	
13:18:00	-6.728635	38.94614	131.441	0.07458657	1.321204	0.35	3	100	0	50	1.395966	-1.43394	17.08198	
13:18:00	-6.728635	38.94614	131.343	0.06598864	-0.5394295	0.11	3	100	0	50	4.245268	-0.06328098	13.67255	
13:18:00	-6.728635	38.94614	131.37	0.05750813	-0.1363142	0.39	3	100	0	50	-8.188903	-1.100924	13.33667	
13:18:00	-6.728634	38.94614	131.432	0.06857634	0.1140195	0.18	3	100	0	50	0.8886307	-1.529532	13.14575	
13:18:01	-6.728634	38.94614	131.425	0.07498426	-0.1263682	0.09	3	100	0	50	2.735668	-0.7718728	11.55756	
13:18:01	-6.728634	38.94614	131.378	0.07099461	0.2515603	0.11	3	100	0	50	-8.276692	-0.8898438	11.99199	
13:18:01	-6.728634	38.94614	131.31	0.0699245	-0.618166	0.07	3	100	0	50	1.869126	-1.315859	11.69801	
13:18:01	-6.728635	38.94614	131.23	0.09515805	2.318746	0.09	3	100	0	50	0.5793462	-0.8259611	10.95252	
13:18:02	-6.728635	38.94614	131.158	0.120458	5.698936	0.04	3	100	0	50	-6.982903	-0.9766178	11.5497	
13:18:02	-6.728635	38.94614	131.092	0.1188916	3.02983	0.42	3	100	0	50	2.605119	-0.9053705	12.65368	
13:18:02	-6.728635	38.94614	131.025	0.1128552	3.57575	0.09	3	100	0	50	1.28912	-0.5782026	12.27062	
13:18:02	-6.728636	38.94614	131.018	0.1451208	6.505506	0.31	3	100	0	50	-7.268787	-1.136439	12.39106	
13:18:02	-6.728637	38.94614	130.961	0.1730605	6.072337	0.22	3	100	0	50	3.958098	-0.366154	11.72854	
13:18:03	-6.728637	38.94614	130.919	0.1752891	6.54745	0.09	3	100	0	50	0.8448504	-0.531463	10.88557	
13:18:03	-6.728637	38.94614	130.865	0.1507791	6.157689	0.06	3	100	0	50	-6.982005	-1.216594	11.19017	
13:18:03	-6.728637	38.94614	130.804	0.1197582	0.582565	0.25	3	100	0	50	4.304502	-1.538818	10.07741	
13:18:03	-6.728638	38.94614	130.755	0.07251067	-1.088532	0.07	3	100	0	50	-6.36839	-1.751319	9.690985	
13:18:03	-6.728638	38.94614	130.723	0.05445078	-0.7704966	0.03	3	100	0	50	-7.220724	-1.504277	10.95662	
13:18:04	-6.728638	38.94614	130.696	0.04025774	-6.018033	0.24	3	100	0	50	5.96779	-1.148451	10.72639	
13:18:04	-6.728637	38.94614	130.657	0.02070039	-3.358535	0.48	3	100	0	50	-2.372462	-1.54681	11.44925	
13:18:04	-6.728637	38.94614	130.625	0.003108164	-3.042719	0.06	3	100	0	50	1.827148	-2.194074	12.57985	
13:18:04	-6.728637	38.94614	130.632	0.00957697	-4.335385	0.07	3	100	0	50	2.277853	-1.572854	12.87043	
13:18:04	-6.728637	38.94614	130.637	0.03814866	-1.00973	0.14	3	100	0	50	-2.710338	-1.432509	12.89903	
13:18:05	-6.728637	38.94614	130.624	0.03150973	-3.188842	0.16	3	100	0	50	4.111695	-1.294774	13.05704	
13:18:05	-6.728637	38.94614	130.605	-0.02822718	-5.267682	0.04	3	100	0	50	-0.8435133	-1.182293	12.80565	
13:18:05	-6.728638	38.94614	130.588	-0.06848618	-4.518229	0.04	3	100	0	50	-1.429536	-1.510541	13.15254	
13:18:05	-6.728638	38.94614	130.556	-0.09098122	-5.27455	0.17	3	100	0	50	4.5088	-1.051714	11.48378	
13:18:05	-6.728638	38.94614	130.517	-0.1022301	-5.538192	0.17	3	100	0	50	-4.585905	-1.458702	11.14662	
13:18:06	-6.728638	38.94614	130.483	-0.1078699	-6.858376	0.04	3	100	0	50	3.703312	-1.528935	11.05405	
13:18:06	-6.728638	38.94614	130.469	-0.1297432	-7.535391	0.02	3	100	0	50	-1.760537	-1.517261	10.75755	
13:18:06	-6.728638	38.94614	130.44	-0.1554849	-6.08534	0.11	3	100	0	50	0.2198525	-1.942563	11.36859	
13:18:06	-6.728638	38.94614	130.414	-0.1865864	-8.660378	0.14	3	100	0	50	1.700638	-1.347745	10.8521	
13:18:06	-6.728638	38.94614	130.36	-0.2234439	-8.079527	0.08	3	100	0	50	-4.301549	-1.482697	11.01607	
13:18:06	-6.728638	38.94614	130.307	-0.2832129	-9.954073	0.09	3	100	0	50	3.042946	-1.543719	11.2297	
13:18:07	-6.728638	38.94614	130.272	-0.3820209	-15.25891	0.09	3	100	0	50	-2.42334	-1.653344	11.44563	
13:18:07	-6.728638	38.94614	130.248	-0.4398772	-14.72345	0.11	3	100	0	50	-0.2323794	-1.73458	11.5874	
13:18:07	-6.728638	38.94614	130.261	-0.454035	-16.43484	0.17	3	100	0	50	2.432874	-1.626461	11.21874	
13:18:07	-6.728638	38.94614	130.262	-0.4620761	-13.95373	0.29	3	100	0	50	-3.500417	-1.691555	11.15996	
13:18:08	-6.728638	38.94614	130.25	-0.4955374	-15.9716	0.14	3	100	0	50	3.156126	-1.753294	11.61465	
13:18:08	-6.728638	38.94614	130.238	-0.5218022	-14.54293	0.03	3	100	0	50	-4.44775	-2.084327	11.22443	
13:18:08	-6.728638	38.94614	130.224	-0.5267323	-13.96263	0.02	3	100	0	50	1.970334	-1.997513	11.38	
13:18:08	-6.728638	38.94614	130.2	-0.5308496	-12.74692	0.09	3	100	0	50	-2.203212	-2.078654	11.77944	
13:18:08	-6.728638	38.94614	130.181	-0.5040736	-7.324439	0.06	3	100	0	50	-4.202651	-1.923398	11.46476	
13:18:09	-6.728638	38.94614	130.168	-0.479489	-9.443874	0.09	3	100	0	50	2.23934	-1.403552	12.05077	
13:18:09	-6.728638	38.94614	130.143	-0.4349872	-5.599304	0.32	3	100	0	50	-9.333855	-2.070466	12.89779	
13:18:09	-6.728638	38.94614	130.137	-0.3860877	-3.361511	0.07	3	100	0	50	1.121376	-2.76903	12.72174	
13:18:09	-6.728638	38.94614	130.14	-0.2766111	1.932977	0.08	3	100	0	50	-4.312846	-2.000485	12.46414	
13:18:09	-6.728638	38.94614	130.141	-0.1745618	12.05183	0.08	3	100	0	50	-11.85255	-2.189723	12.51129	
13:18:10	-6.728638	38.94614	130.135	-0.1095562	8.526386	0.14	3	100	0	50	2.938164	-1.703266	12.96781	
13:18:10	-6.728638	38.94614	130.12	-0.05314983	12.4352	0.09	3	100	0	50	-2.392279	-1.523942	14.70713	
13:18:10	-6.728638	38.94614	130.118	0.03341136	17.45604	0.06	3	100	0	50	-5.972013	-1.610075	15.62779	
13:18:10	-6.728638	38.94614	130.112	0.1011124	16.46225	0.16	3	100	0	50	2.745597	-0.7867482	15.17691	
13:18:10	-6.728638	38.94614	130.082	0.139345	18.49291	0.25	3	100	0	50	-3.268317	-0.8453935	15.41595	
13:18:11	-6.728638	38.94614	130.066	0.1703902	18.25816	0.06	3	100	0	50	-0.7139139	-1.641167	15.83872	
13:18:11	-6.728638	38.94614	130.071	0.1584792	14.81199	0.22	3	100	0	50	2.675014	-1.273084	14.71162	
13:18:11	-6.728638	38.94614	130.063	0.1478832	11.77123	0.04	3	100	0	50	-6.583618	-1.711569	14.30114	
13:18:11	-6.728638	38.94614	130.073	0.1771372	11.37447	0.13	3	100	0	50	4.261608	-1.44471	12.91556	
13:18:11	-6.728638	38.94614	130.08	0.1978118	13.51526	0.04	3	100	0	50	-0.797873	-1.42396	13.16888	
13:18:11	-6.728638	38.94614	130.088	0.2187081	15.32444	0.04	3	100	0	50	-1.265703	-1.812715	13.45217	
13:18:12	-6.728638	38.94614	130.136	0.2343521	11.01598	0.13	3	100	0	50	3.296169	-1.58474	12.77849	
13:18:12	-6.728638	38.94614	130.177	0.2803547	11.61249	0.19	3	100	0	50	-3.544581	-1.862051	13.13974	
13:18:12	-6.728638	38.94614	130.208	0.3167502	12.17597	0.04	3	100	0	50	1.983392	-1.708986	13.1278	
13:18:12	-6.728638	38.94614	130.217	0.3334499	13.45481	0.04	3	100	0	50	-1.414855	-1.563873	13.29776	
13:18:13	-6.728638	38.94614	130.218	0.3245341	13.3542	0.02	3	100	0	50	-0.4509205	-1.813611	13.09618	
13:18:13	-6.728638	38.94614	130.229	0.3122737	10.26193	0.19	3	100	0	50	2.916955	-1.660665	13.11409	
13:18:13	-6.728638	38.94614	130.235	0.2979737	8.752919	0.11	3	100	0	50	-5.760069	-1.941224	13.13908	
13:18:13	-6.728638	38.94614	130.237	0.2721475	6.306376	0.08	3	100	0	50	3.14203	-1.63623	13.11791	
13:18:13	-6.728638	38.94614	130.203	0.2371523	6.779226	0.09	3	100	0	50	-1.043258	-1.570739	13.20706	
13:18:14	-6.728638	38.94614	130.201	0.1601698	2.79684	0.09	3	100	0	50	-1.406787	-1.805196	12.75484	
13:18:14	-6.728638	38.94614	130.214	0.05620795	-4.699339	0.16	3	100	0	50	5.550572	-1.620295	12.64677	
13:18:14	-6.728638	38.94614	130.225	0.002944673	-6.970782	0.16	3	100	0	50	-3.258065	-1.743919	13.04036	
13:18:14	-6.728638	38.94614	130.26	-0.009184444	-6.522311	0.09	3	100	0	50	1.125088	-1.752027	13.36843	
13:18:14	-6.728638	38.94614	130.283	-0.02579578	-7.267347	0.14	3	100	0	50	-0.03621449	-1.666862	13.23438	
13:18:15	-6.728637	38.94614	130.298	-0.04490909	-6.185962	0.03	3	100	0	50	-1.67159	-1.832834	12.90959	
13:18:15	-6.728637	38.94614	130.323	-0.05374372	-7.844053	0.09	3	100	0	50	3.688703	-1.600196	12.50861	
13:18:15	-6.728637	38.94614	130.342	-0.0499862	-5.781728	0.09	3	100	0	50	-3.503897	-1.947035	12.94717	
13:18:15	-6.728637	38.94614	130.359	-0.02075447	-3.186634	0.09	3	100	0	50	2.886314	-1.711277	12.95999	
13:18:15	-6.728637	38.94614	130.359	0.02616867	-0.3168653	0.11	3	100	0	50	-1.741039	-1.941072	12.85991	
13:18:16	-6.728637	38.94614	130.354	0.08388977	3.573232	0.13	3	100	0	50	-0.0163349	-2.033777	12.74331	
13:18:16	-6.728637	38.94614	130.373	0.147348	6.325084	0.09	3	100	0	50	2.935354	-2.006865	12.71606	
13:18:16	-6.728637	38.94614	130.378	0.2071041	8.439727	0.09	3	100	0	50	-7.577759	-2.166477	12.55362	
13:18:16	-6.728637	38.94614	130.381	0.2775556	11.10119	0.07	3	100	0	50	2.582941	-2.69632	12.39545	
13:18:16	-6.728637	38.94614	130.368	0.3154302	13.66036	0.04	3	100	0	50	-0.5400221	-2.160515	11.71789	
13:18:17	-6.728637	38.94614	130.326	0.3196545	18.32531	0.19	3	100	0	50	-8.38828	-1.880815	12.18838	
13:18:17	-6.728637	38.94614	130.295	0.3235712	13.75655	0.21	3	100	0	50	1.720472	-1.756945	11.47912	
13:18:17	-6.728637	38.94614	130.274	0.3229943	16.3359	0.17	3	100	0	50	-0.7600727	-1.600992	11.61615	
13:18:17	-6.728637	38.94614	130.272	0.3242265	16.34315	0.04	3	100	0	50	-1.662209	-2.048612	12.36146	
13:18:17	-6.728637	38.94614	130.271	0.278666	10.45376	0.11	3	100	0	50	1.627544	-1.711765	12.13658	
13:18:18	-6.728637	38.94614	130.257	0.2341692	7.923902	0.07	3	100	0	50	-6.237552	-1.716954	12.38709	
13:18:18	-6.728637	38.94614	130.236	0.1950845	3.502913	0.02	3	100	0	50	1.245616	-1.748726	12.12747	
13:18:18	-6.728637	38.94613	130.21	0.1621468	3.280145	0.03	3	100	0	50	-3.309769	-1.820432	12.14946	
13:18:18	-6.728637	38.94613	130.176	0.1667447	4.222596	0.04	3	100	0	50	-0.5318782	-1.955593	12.55299	
13:18:18	-6.728636	38.94613	130.172	0.1691693	3.366964	0.08	3	100	0	50	2.694767	-1.815153	12.04562	
13:18:19	-6.728636	38.94613	130.141	0.08569797	-1.58909	0.16	3	100	0	50	-6.221397	-1.559161	12.93998	
13:18:19	-6.728636	38.94613	130.094	0.01202657	-5.203587	0.04	3	100	0	50	4.232999	-1.654377	13.09882	
13:18:19	-6.728636	38.94613	130.073	-0.009322932	-4.67072	0.02	3	100	0	50	-1.006762	-1.668062	12.99707	
13:18:19	-6.728636	38.94613	130.034	-0.02435479	-3.449034	0.11	3	100	0	50	-2.024021	-1.70114	13.40543	
13:18:19	-6.728636	38.94613	130	-0.07866682	-6.85915	0.19	3	100	0	50	4.344707	-1.407633	12.69692	
13:18:20	-6.728635	38.94613	129.952	-0.1279447	-9.666563	0.14	3	100	0	50	-4.891938	-1.594435	12.68405	
13:18:20	-6.728635	38.94613	129.915	-0.1530791	-10.32435	0.09	3	100	0	50	3.807528	-1.811453	12.37137	
13:18:20	-6.728635	38.94613	129.904	-0.1697742	-8.079899	0.12	3	100	0	50	-1.491777	-1.674732	12.37768	
13:18:20	-6.728635	38.94613	129.895	-0.1864531	-5.457826	0.07	3	100	0	50	-1.847516	-1.773187	12.58518	
13:18:20	-6.728635	38.94613	129.907	-0.1982807	-8.592359	0.19	3	100	0	50	5.241077	-1.437387	11.56577	
13:18:21	-6.728635	38.94613	129.91	-0.2402093	-10.74083	0.22	3	100	0	50	-3.466578	-1.699694	11.58795	
13:18:21	-6.728635	38.94613	129.904	-0.2843269	-12.60242	0.03	3	100	0	50	3.391613	-1.851875	11.326	
13:18:21	-6.728635	38.94613	129.916	-0.2775929	-8.67521	0.16	3	100	0	50	-0.6655332	-1.661623	11.68347	
13:18:21	-6.728635	38.94613	129.92	-0.269465	-6.759665	0.11	3	100	0	50	-0.08719157	-1.79881	12.21	
13:18:21	-6.728635	38.94613	129.927	-0.2994424	-8.317949	0.17	3	100	0	50	2.793329	-1.671261	12.04965	
13:18:22	-6.728634	38.94613	129.921	-0.3267726	-10.58894	0.03	3	100	0	50	-3.028561	-1.837042	12.19033	
13:18:22	-6.728634	38.94613	129.912	-0.3033149	-9.411582	0.09	3	100	0	50	4.83894	-1.699343	12.56273	
13:18:22	-6.728634	38.94613	129.907	-0.2771969	-5.997634	0.03	3	100	0	50	-3.362857	-1.698947	12.41422	
13:18:22	-6.728634	38.94613	129.898	-0.2773651	-3.279263	0.17	3	100	0	50	-1.638819	-1.81233	13.57051	
13:18:22	-6.728633	38.94613	129.904	-0.3023462	-6.994747	0.19	3	100	0	50	5.726981	-1.278379	12.82053	
13:18:23	-6.728633	38.94613	129.903	-0.3101143	-8.286669	0.14	3	100	0	50	-5.593785	-1.521516	13.65056	
13:18:23	-6.728633	38.94613	129.92	-0.2959289	-6.343997	0.04	3	100	0	50	4.40788	-1.741151	13.36757	
13:18:23	-6.728633	38.94613	129.92	-0.272449	-6.313883	0.21	3	100	0	50	-0.2887074	-1.497535	13.7218	
13:18:23	-6.728633	38.94613	129.915	-0.2414773	-0.6877159	0.11	3	100	0	50	-2.35374	-1.52841	14.68153	
13:18:23	-6.728633	38.94613	129.909	-0.1773054	0.9293162	0.19	3	100	0	50	3.238764	-1.247266	14.08241	
13:18:24	-6.728633	38.94613	129.905	-0.09903813	4.594601	0.07	3	100	0	50	-2.593932	-1.514572	14.35695	
13:18:24	-6.728633	38.94613	129.892	-0.06077237	6.373808	0.02	3	100	0	50	4.598989	-1.420285	14.4409	
13:18:24	-6.728633	38.94613	129.896	-0.04733347	7.358269	0.09	3	100	0	50	-3.340227	-1.646116	14.42606	
13:18:24	-6.728633	38.94613	129.903	-0.06911856	6.558185	0.07	3	100	0	50	-0.009556752	-1.653416	14.36798	
13:18:24	-6.728633	38.94613	129.911	-0.1236305	2.30433	0.12	3	100	0	50	1.474821	-1.549159	14.19712	
13:18:25	-6.728633	38.94613	129.923	-0.1706362	-1.165539	0.14	3	100	0	50	-3.773566	-1.893944	14.15297	
13:18:25	-6.728633	38.94614	129.924	-0.2103345	-3.97298	0.02	3	100	0	50	2.742475	-1.668993	14.38177	
13:18:25	-6.728633	38.94614	129.941	-0.2469748	-4.817104	0.03	3	100	0	50	-3.605134	-1.781739	14.31565	
13:18:25	-6.728633	38.94614	129.972	-0.2818767	-4.745468	0.06	3	100	0	50	-0.6473501	-2.06127	14.01929	
13:18:25	-6.728633	38.94614	130.011	-0.3121348	-7.751622	0.12	3	100	0	50	3.794628	-1.611468	13.84674	
13:18:26	-6.728633	38.94614	130.026	-0.3354602	-8.937456	0.14	3	100	0	50	-6.655821	-2.644573	13.95246	
13:18:26	-6.728633	38.94614	130.048	-0.3469103	-4.884636	0.09	3	100	0	50	2.718301	-3.017162	14.18706	
13:18:26	-6.728632	38.94614	130.078	-0.3565103	-7.425094	0.11	3	100	0	50	-1.500891	-2.682418	14.66809	
13:18:26	-6.728632	38.94614	130.093	-0.3793898	-0.6702486	0.19	3	100	0	50	-2.990397	-4.724413	14.89083	
13:18:26	-6.728632	38.94614	130.116	-0.4171175	-8.259962	0.14	3	100	0	50	3.753041	-1.416804	14.84581	
13:18:27	-6.728632	38.94614	130.131	-0.4471765	-9.072306	0.07	3	100	0	50	-4.837658	-3.548693	16.92581	
13:18:27	-6.728632	38.94614	130.16	-0.4460903	-5.721866	0.09	3	100	0	50	1.663997	-3.919302	17.0256	
13:18:27	-6.728632	38.94614	130.164	-0.4533294	-13.12743	0.14	3	100	0	50	3.506506	-0.7106337	16.0158	
13:18:27	-6.728632	38.94614	130.155	-0.4561293	-11.81192	0.19	3	100	0	50	-2.766708	-2.096364	13.53114	
13:18:27	-6.728632	38.94614	130.179	-0.4665933	-12.66947	0.04	3	100	0	50	4.114319	-1.90442	8.761012	
13:18:28	-6.728632	38.94614	130.224	-0.4358539	-9.929321	0.17	3	100	0	50	-2.075015	-1.803896	9.26135	
13:18:28	-6.728632	38.94614	130.222	-0.4087259	-6.704904	0.04	3	100	0	50	0.1650233	-1.915118	9.513721	
13:18:28	-6.728632	38.94614	130.24	-0.3866171	-5.93911	0.06	3	100	0	50	3.202677	-1.779228	9.363514	
13:18:28	-6.728631	38.94614	130.239	-0.3648891	-4.44252	0.08	3	100	0	50	-1.890652	-1.878044	9.72644	
13:18:28	-6.728631	38.94614	130.202	-0.3768618	-5.437513	0.11	3	100	0	50	3.103975	-1.720292	9.949907	
13:18:29	-6.728631	38.94614	129.901	-0.3877089	-4.333745	0.37	3	100	0	50	-0.7878844	-1.256477	10.19781	
13:18:29	-6.728632	38.94614	129.585	-0.4283743	-5.55414	0.04	3	100	0	50	0.6075343	-1.086467	11.11561	
13:18:29	-6.728632	38.94614	129.503	-0.4623657	-8.243344	0.12	3	100	0	50	0.2288546	-1.034688	11.36395	
13:18:29	-6.728632	38.94614	129.327	-0.4590052	-5.992337	0.26	3	100	0	50	-1.259176	-1.139871	13.27607	
13:18:29	-6.728632	38.94614	129.138	-0.4548312	-7.081052	0.06	3	100	0	50	3.17634	-0.8924047	13.63542	
13:18:30	-6.728632	38.94614	129.226	-0.4060926	-3.762072	0.13	3	100	0	50	-2.99449	-1.266938	13.8753	
13:18:30	-6.728632	38.94614	129.306	-0.3650503	-1.136731	0.14	3	100	0	50	1.394659	-1.110861	13.46424	
13:18:30	-6.728632	38.94614	129.387	-0.3791221	-2.018925	0.06	3	100	0	50	2.392023	-0.8250488	14.0136	
13:18:30	-6.728632	38.94614	129.43	-0.3907787	-4.117767	0.09	3	100	0	50	-6.301502	-1.134006	15.24441	
13:18:30	-6.728632	38.94614	129.445	-0.4408548	-8.295289	0.11	3	100	0	50	3.533277	-0.9796961	14.83464	
13:18:31	-6.728632	38.94614	129.464	-0.4802914	-2.807358	0.04	3	100	0	50	-4.453524	-1.601172	14.44982	
13:18:31	-6.728632	38.94614	129.502	-0.5037829	-3.470667	0.19	3	100	0	50	0.5516599	-1.463878	12.92406	
13:18:31	-6.728632	38.94614	129.536	-0.5267037	-4.579886	0.18	3	100	0	50	4.869942	-1.212743	12.82535	
13:18:31	-6.728632	38.94614	129.551	-0.6103489	-8.543285	0.14	3	100	0	50	-5.275569	-1.841339	12.33089	
13:18:31	-6.728632	38.94614	129.529	-0.6813876	-11.45985	0.16	3	100	0	50	4.698699	-1.792575	11.02532	
13:18:32	-6.728632	38.94614	129.534	-0.727406	-8.266951	0.21	3	100	0	50	-0.438493	-1.572002	11.35581	
13:18:32	-6.728632	38.94614	129.575	-0.7584338	-5.827571	0.26	3	100	0	50	0.3469409	-1.83113	12.64718	
13:18:32	-6.728632	38.94614	129.616	-0.8249212	-10.50959	0.04	3	100	0	50	4.556098	-1.883393	12.44799	
13:18:32	-6.728632	38.94614	129.657	-0.9384944	-15.22098	0.02	3	100	0	50	-1.854608	-2.133379	13.23502	
13:18:32	-6.728632	38.94614	129.7	-1.020504	-18.35455	0.08	3	100	0	50	5.040081	-1.694747	14.00791	
13:18:33	-6.728632	38.94614	129.763	-1.081074	-18.78983	0.09	3	100	0	50	-2.8246	-1.943183	13.79144	
13:18:33	-6.728632	38.94614	129.789	-1.076154	-16.56627	0.17	3	100	0	50	3.372452	-2.030607	15.22256	
13:18:33	-6.728632	38.94614	129.803	-1.0366	-10.58934	0.14	3	100	0	50	2.77214	-1.684744	15.2263	
13:18:33	-6.728632	38.94614	129.802	-0.9795275	-4.759717	0.21	3	100	0	50	-3.337609	-2.196958	16.27288	
13:18:33	-6.728632	38.94614	129.809	-0.9142923	-2.68695	0.04	3	100	0	50	4.849363	-1.54401	15.82681	
13:18:34	-6.728632	38.94614	129.817	-0.843529	1.475831	0.09	3	100	0	50	-5.098537	-1.997084	15.55671	
13:18:34	-6.728632	38.94614	129.813	-0.7554585	5.722355	0.08	3	100	0	50	3.40168	-1.789209	13.94512	
13:18:34	-6.728633	38.94614	129.822	-0.6846262	11.07254	0.19	3	100	0	50	-1.257584	-1.823935	12.44811	
13:18:34	-6.728633	38.94614	129.83	-0.6318595	14.94706	0.19	3	100	0	50	-3.64519	-1.923614	12.91713	
13:18:34	-6.728633	38.94614	129.861	-0.5769871	14.76717	0.11	3	100	0	50	4.475736	-1.678119	12.48561	
13:18:35	-6.728633	38.94614	129.894	-0.5283687	16.24875	0.02	3	100	0	50	-1.798595	-1.815668	12.87245	
13:18:35	-6.728633	38.94614	129.927	-0.5281772	14.43868	0.04	3	100	0	50	2.751195	-1.80124	12.7406	
13:18:35	-6.728633	38.94614	129.942	-0.5570592	12.91003	0.17	3	100	0	50	1.840694	-1.536683	12.92651	
13:18:35	-6.728633	38.94614	129.935	-0.6300518	8.782017	0.04	3	100	0	50	-2.283073	-1.891513	13.44055	
13:18:35	-6.728633	38.94614	129.954	-0.7256528	0.8552553	0.04	3	100	0	50	4.023289	-1.698587	13.23458	
13:18:36	-6.728633	38.94614	130.007	-0.7701319	-3.119024	0.09	3	100	0	50	-3.127286	-2.2641	14.13906	
13:18:36	-6.728633	38.94614	130.062	-0.7811791	-3.135002	0.09	3	100	0	50	2.459736	-2.423772	14.45637	
13:18:36	-6.728633	38.94614	130.09	-0.766175	-2.920749	0.12	3	100	0	50	-3.495067	-2.846777	14.57066	
13:18:36	-6.728633	38.94614	130.103	-0.7155706	3.111413	0.16	3	100	0	50	0.9252439	-2.961322	14.92416	
13:18:36	-6.728633	38.94614	130.128	-0.688501	0.1712203	0.14	3	100	0	50	-0.9466938	-2.051024	14.77786	
13:18:37	-6.728633	38.94614	130.107	-0.6805956	5.226152	0.12	3	100	0	50	-2.646598	-1.767562	14.0245	
13:18:37	-6.728633	38.94614	130.138	-0.6769985	1.587161	0.04	3	100	0	50	3.668064	-1.578367	13.00646	
13:18:37	-6.728633	38.94614	130.175	-0.7030512	-1.68165	0.29	3	100	0	50	-6.828901	-1.736838	14.37396	
13:18:37	-6.728633	38.94614	130.165	-0.7259678	-4.167692	0.33	3	100	0	50	3.255912	-2.125497	15.34163	
13:18:37	-6.728633	38.94614	130.126	-0.7017754	-4.368031	0.26	3	100	0	50	0.1547108	-1.914684	15.09541	
13:18:38	-6.728633	38.94614	130.163	-0.6814876	-0.7151055	0.29	3	100	0	50	2.554249	-2.395709	15.42278	
13:18:38	-6.728633	38.94614	130.197	-0.640527	1.632766	0.09	3	100	0	50	0.7626698	-1.62902	13.89254	
13:18:38	-6.728633	38.94614	130.246	-0.6036388	5.686958	0.12	3	100	0	50	0.02638047	-2.334438	13.86648	
13:18:38	-6.728633	38.94614	130.29	-0.6037898	2.377188	0.03	3	100	0	50	2.683948	-1.373848	13.14269	
13:18:38	-6.728633	38.94614	130.324	-0.6062961	3.602543	0.04	3	100	0	50	-3.724792	-1.765018	13.32368	
13:18:39	-6.728633	38.94614	130.344	-0.6247155	-0.04416578	0.08	3	100	0	50	4.10335	-1.861463	14.01657	
13:18:39	-6.728633	38.94614	130.355	-0.6423458	-0.610787	0.09	3	100	0	50	-2.799434	-2.044443	14.21689	
13:18:39	-6.728633	38.94614	130.376	-0.5792109	3.028604	0.26	3	100	0	50	2.752653	-1.981825	14.54616	
13:18:39	-6.728633	38.94614	130.406	-0.5259413	5.618173	0.09	3	100	0	50	0.9279978	-1.644566	13.91997	
13:18:39	-6.728633	38.94614	130.413	-0.4585435	9.233086	0.13	3	100	0	50	-0.1834798	-1.753694	13.51121	
13:18:40	-6.728633	38.94614	130.426	-0.4031479	10.3911	0.08	3	100	0	50	3.983091	-1.581654	13.421	
13:18:40	-6.728632	38.94614	130.458	-0.3972369	9.054433	0.02	3	100	0	50	-5.576296	-1.93937	14.88633	
13:18:40	-6.728632	38.94614	130.467	-0.3935584	6.45586	0.08	3	100	0	50	6.736932	-1.757773	16.63084	
13:18:40	-6.728632	38.94614	130.388	-0.4226607	3.563759	0.29	3	100	0	50	2.428206	-1.235451	16.36755	
13:18:40	-6.728632	38.94614	130.358	-0.4451916	8.075148	0.04	3	100	0	50	2.498375	-2.787091	17.39176	
13:18:41	-6.728632	38.94614	130.322	-0.4148751	7.396917	0.13	3	100	0	50	7.435691	-0.8006344	16.80567	
13:18:41	-6.728632	38.94614	130.322	-0.3911159	8.151635	0.13	3	100	0	50	-3.966348	-1.386008	15.72857	
13:18:41	-6.728632	38.94614	130.382	-0.367999	6.847594	0.01	3	100	0	50	7.932604	-1.200045	15.77832	
13:18:41	-6.728632	38.94614	130.428	-0.3554099	5.154002	0.17	3	100	0	50	0.2763737	-0.9931124	15.08852	
13:18:41	-6.728631	38.94614	130.43	-0.2880226	11.26134	0.03	3	100	0	50	2.684151	-1.700671	15.9886	
13:18:42	-6.728631	38.94614	130.429	-0.2304056	8.023135	0.06	3	100	0	50	6.062001	-1.140881	13.73659	
13:18:42	-6.728631	38.94614	130.421	-0.2046036	9.744477	0.04	3	100	0	50	-0.928473	-1.361182	15.04182	
13:18:42	-6.728631	38.94614	130.409	-0.1995281	10.85608	0.13	3	100	0	50	-2.656359	-1.362872	14.81653	
13:18:42	-6.728631	38.94614	130.437	-0.1472244	10.66512	0.14	3	100	0	50	5.257119	-1.681967	15.30004	
13:18:43	-6.728631	38.94614	130.436	-0.1368425	8.73618	0.25	3	100	0	50	-0.1060769	-1.304832	14.33413	
13:18:43	-6.728631	38.94614	130.422	-0.1358791	8.948385	0.04	3	100	0	50	4.248362	-2.275338	15.33301	
13:18:43	-6.728631	38.94614	130.398	-0.1714664	7.818369	0.03	3	100	0	50	5.657298	-0.8905525	13.26933	
13:18:43	-6.728631	38.94614	130.358	-0.2286916	4.832477	0.01	3	100	0	50	-1.066405	-3.179995	13.4151	
13:18:43	-6.728631	38.94614	130.317	-0.2643581	-0.7638771	0.09	3	100	0	50	6.537428	-0.7078059	12.0387	
13:18:44	-6.728631	38.94614	130.276	-0.2965287	-0.9780644	0.09	3	100	0	50	-0.6975194	-1.710644	11.10304	
13:18:44	-6.728631	38.94614	130.276	-0.3369199	-3.811431	0.09	3	100	0	50	7.255701	-1.291112	11.16311	
13:18:44	-6.728631	38.94614	130.184	-0.3835076	-4.084538	0.19	3	100	0	50	-0.9950916	-1.306623	11.16814	
13:18:44	-6.728631	38.94614	130.149	-0.427765	-4.492763	0.09	3	100	0	50	2.528857	-1.67875	12.19718	
13:18:44	-6.728631	38.94614	130.1	-0.4574255	-7.704926	0.08	3	100	0	50	3.245311	-1.192057	12.19269	
13:18:45	-6.728631	38.94614	130.069	-0.4693577	-5.349022	0.01	3	100	0	50	-0.5111941	-1.510896	13.08885	
13:18:45	-6.728631	38.94614	130.062	-0.4691192	-5.694269	0.19	3	100	0	50	4.288773	-1.34544	12.58567	
13:18:45	-6.728631	38.94614	130.045	-0.4680647	-5.064221	0.07	3	100	0	50	-0.7455847	-1.291017	12.78449	
13:18:45	-6.728631	38.94614	130.037	-0.4662001	-4.104298	0.08	3	100	0	50	1.383433	-1.380501	13.14514	
13:18:45	-6.728631	38.94614	130.025	-0.4662001	-4.104298	0.03	3	99	0	50	3.285249	-1.078106	13.1262	
13:18:46	-6.728631	38.94614	130.012	-0.4621883	-0.9745773	0.14	3	99	0	50	-6.112842	-1.234297	13.5226	
13:18:46	-6.728631	38.94614	130.002	-0.5011299	-8.053084	0.22	3	99	0	50	9.066025	-1.524699	14.27295	
13:18:46	-6.728631	38.94614	129.972	-0.57824	-10.89194	0.32	3	99	0	50	-0.1543173	-1.205296	15.42869	
13:18:46	-6.72863	38.94614	129.961	-0.6272728	-10.79667	0.04	3	99	0	50	6.061905	-1.053393	16.53533	
13:18:47	-6.72863	38.94614	129.927	-0.6712514	-14.67663	0.16	3	99	0	50	-4.878177	-1.511315	17.31813	
13:18:47	-6.72863	38.94614	129.927	-0.6712514	-14.67663	0.35	3	99	0	50	10.4649	-1.430843	15.3036	
13:18:47	-6.72863	38.94614	129.903	-0.684242	-13.8576	0.36	3	99	0	50	-1.281026	-1.054548	14.53605	
13:18:47	-6.728629	38.94614	129.914	-0.6187618	-7.376836	0.06	3	99	0	50	4.2984	-1.770045	14.5348	
13:18:47	-6.728629	38.94614	129.903	-0.5584316	-6.190008	0.09	3	99	0	50	9.277138	-1.178921	11.81392	
13:18:48	-6.728629	38.94614	129.901	-0.5294287	-4.590361	0.11	3	99	0	50	-3.735815	-1.677647	11.99355	
13:18:48	-6.728629	38.94614	129.917	-0.4968766	-4.924679	0.22	3	99	0	50	5.917971	-1.58471	11.65431	
13:18:48	-6.728629	38.94614	129.903	-0.5075541	-3.901028	0.32	3	99	0	50	-0.1202401	-1.263901	12.42712	
13:18:48	-6.728629	38.94614	129.893	-0.5163402	-2.223315	0.04	3	99	0	50	3.411609	-1.585184	13.74294	
13:18:49	-6.728629	38.94614	129.882	-0.4782403	-1.854826	0.07	3	98	0	50	-0.9424713	-1.463878	14.93819	
13:18:49	-6.728629	38.94614	129.885	-0.4254143	-0.07661925	0.25	3	98	0	50	-0.9424713	-1.463878	14.93819	
13:18:49	-6.728629	38.94614	129.899	-0.4118037	1.059345	0.19	3	97	0	50	-3.780894	-1.238723	15.04887	
13:18:49	-6.728629	38.94614	129.909	-0.3894807	1.799222	0.16	3	97	0	50	4.370358	-1.493229	15.75139	
13:18:49	-6.728629	38.94614	129.937	-0.3733825	0.6628845	0.09	3	97	0	50	1.640587	-1.061392	15.0058	
13:18:50	-6.728629	38.94614	129.987	-0.3733825	0.6628845	0.09	3	97	0	50	-4.372962	-0.98527	14.88192	
13:18:50	-6.728629	38.94614	130.051	-0.2998331	6.177261	0.22	3	97	0	50	10.0379	-1.08807	11.95792	
13:18:50	-6.728629	38.94614	130.055	-0.2677957	9.922907	0.51	3	97	0	50	-4.840576	-1.526028	11.76849	
13:18:50	-6.728629	38.94614	130.089	-0.2397846	12.41886	0.19	3	97	0	50	6.923634	-1.645972	11.06327	
13:18:50	-6.72863	38.94614	130.075	-0.1518574	16.03905	0.18	3	97	0	50	2.008061	-0.9188845	7.346951	
13:18:51	-6.72863	38.94614	130.102	-0.07131611	21.93014	0.04	3	97	0	50	0.1267849	-1.382738	7.811566	
13:18:51	-6.72863	38.94614	130.125	-0.0511401	18.68216	0.18	3	97	0	50	10.85689	-0.7391772	5.412579	
13:18:51	-6.72863	38.94614	130.081	-0.0335086	21.88957	0.17	3	97	0	50	-0.5819216	-0.5599984	6.141328	
13:18:51	-6.72863	38.94614	130.087	-0.003497319	23.2857	0.14	3	97	0	50	5.285941	-1.590213	6.482621	
13:18:51	-6.72863	38.94614	130.048	0.01844043	17.62135	0.07	3	97	0	50	2.702804	-1.073594	6.847152	
13:18:52	-6.72863	38.94614	130.032	0.01842218	19.04679	0.09	3	97	0	50	2.69784	-1.61211	10.00705	
13:18:52	-6.72863	38.94614	130.037	-0.005966427	14.81733	0.26	3	97	0	50	8.330231	-1.13394	8.630904	
13:18:52	-6.72863	38.94614	130.05	-0.05270243	9.159787	0.16	3	97	0	50	-5.469863	-0.8815473	8.972273	
13:18:52	-6.72863	38.94614	130.078	-0.1279563	1.085169	0.22	3	97	0	50	8.301348	-1.028078	6.750386	
13:18:52	-6.728631	38.94614	130.073	-0.1990761	-2.053553	0.17	3	97	0	50	1.776604	-0.6817267	5.560154	
13:18:53	-6.728631	38.94614	130.063	-0.2587405	-3.102748	0.04	3	97	0	50	0.8867839	-1.360045	6.288402	
13:18:53	-6.728631	38.94614	130.087	-0.2524134	-6.190483	0.31	3	97	0	50	7.039385	-0.8605653	5.183545	
13:18:53	-6.728631	38.94614	130.091	-0.1842873	-1.003651	0.12	3	97	0	50	-2.948714	-0.6075812	6.960822	
13:18:53	-6.728631	38.94614	130.051	-0.119499	0.7206256	0.17	3	97	0	50	7.302763	-1.344356	7.078381	
13:18:53	-6.728631	38.94614	130.011	-0.04639211	4.127338	0.09	3	97	0	50	2.481459	-1.053035	7.916602	
13:18:54	-6.728631	38.94614	129.988	-0.003889471	8.417425	0.08	3	97	0	50	4.07116	-1.476886	8.513426	
13:18:54	-6.728631	38.94614	129.991	-0.001255477	7.312456	0.09	3	97	0	50	5.794191	-1.066046	8.335099	
13:18:54	-6.728631	38.94614	130.013	0.01636908	8.034362	0.07	3	97	0	50	-4.425748	-0.7669644	8.713005	
13:18:54	-6.728631	38.94614	130.042	0.0548141	8.32443	0.14	3	97	0	50	7.104729	-1.161646	7.954268	
13:18:54	-6.728631	38.94614	130.039	0.03588402	5.305003	0.22	3	97	0	50	-1.181205	-1.111674	8.105643	
13:18:55	-6.728631	38.94614	130.062	-0.02354284	4.96607	0.12	3	97	0	50	-2.077297	-1.378618	8.781028	
13:18:55	-6.728631	38.94614	130.104	-0.07130402	0.4856294	0.14	3	97	0	50	7.213592	-0.2231467	7.035898	
13:18:55	-6.728631	38.94614	130.095	-0.09628653	0.2504193	0.55	3	97	0	50	-8.877825	-0.08190583	7.615608	
13:18:55	-6.728631	38.94614	130.121	-0.08901878	-0.1217728	0.21	3	97	0	50	6.847396	-1.469669	7.349251	
13:18:55	-6.728631	38.94614	130.143	-0.0614253	-2.115691	0.09	3	97	0	50	-0.1973843	-0.3518232	7.49688	
13:18:56	-6.728631	38.94614	130.177	-0.0658288	2.083756	0.11	3	98	0	50	-0.5126743	-0.4788373	8.767774	
13:18:56	-6.728631	38.94614	130.183	-0.0948996	0.9292741	0.04	3	98	0	50	4.806893	0.2907561	8.087375	
13:18:56	-6.728631	38.94614	130.184	-0.1383944	-2.406759	0.41	3	98	0	50	-5.715821	0.2704268	8.619276	
13:18:56	-6.728631	38.94614	130.186	-0.2001141	-5.718784	0.14	3	98	0	50	5.518092	-0.5748625	8.29937	
13:18:56	-6.728631	38.94614	130.165	-0.2544262	-7.771032	0.07	3	98	0	50	-1.741684	-0.2085857	8.100106	
13:18:57	-6.728631	38.94614	130.179	-0.3200279	-9.478394	0.12	3	98	0	50	-2.967344	-0.444434	8.944598	
13:18:57	-6.728631	38.94614	130.212	-0.3875358	-20.70963	0.26	3	98	0	50	6.844634	0.2212628	8.030904	
13:18:57	-6.728631	38.94614	130.231	-0.3962279	-18.45174	0.41	3	98	0	50	-10.18474	0.5187765	8.714014	
13:18:57	-6.728631	38.94614	130.237	-0.3996309	-19.05442	0.14	3	98	0	50	7.857727	-0.6444685	8.58814	
13:18:57	-6.728631	38.94614	130.222	-0.3840628	-17.62346	0.03	3	98	0	50	0.8620287	0.02629879	8.836726	
13:18:58	-6.728631	38.94614	130.251	-0.3654245	-12.49191	0.14	3	98	0	50	0.8782707	-0.418043	10.30685	
13:18:58	-6.728631	38.94614	130.217	-0.3582265	-12.02628	0.26	3	98	0	50	3.647691	-0.4331851	9.839601	
13:18:58	-6.728631	38.94614	130.253	-0.3490173	-10.09692	0.22	3	98	0	50	-7.962006	-0.03680379	9.767171	
13:18:58	-6.728631	38.94614	130.266	-0.3516528	-11.67466	0.09	3	98	0	50	6.900146	-0.9199534	9.001897	
13:18:58	-6.728631	38.94614	130.263	-0.3535815	-8.92386	0.04	3	98	0	50	-2.798331	-0.5428708	8.891599	
13:18:59	-6.728631	38.94614	130.287	-0.3380707	-5.511708	0.04	3	98	0	50	0.5966216	-0.6125345	9.229819	
13:18:59	-6.728631	38.94614	130.312	-0.3258759	-4.947427	0.22	3	98	0	50	3.527006	-0.007303793	7.855444	
13:18:59	-6.728631	38.94614	130.326	-0.3111791	-4.548035	0.35	3	98	0	50	-2.659204	-0.3548988	8.961294	
13:18:59	-6.728631	38.94614	130.351	-0.299297	-8.000084	0.33	3	98	0	50	6.042665	-0.6361786	9.05918	
13:18:59	-6.728632	38.94614	130.373	-0.3022602	-7.842889	0.14	3	98	0	50	-3.736681	-0.2530934	8.842001	
13:19:00	-6.728632	38.94614	130.412	-0.3037953	-7.357007	0.18	3	98	0	50	5.217489	-1.094294	9.229357	
13:19:00	-6.728632	38.94614	130.408	-0.3050951	-8.544237	0.14	3	98	0	50	-1.393268	-0.5584021	9.548596	
13:19:00	-6.728632	38.94614	130.424	-0.3052008	-6.08728	0.01	3	98	0	50	0.2045784	-0.4276479	10.05591	
13:19:00	-6.728632	38.94614	130.424	-0.2460736	-2.010106	0.22	3	98	0	50	3.710575	-0.299408	9.460386	
13:19:00	-6.728632	38.94614	130.424	-0.1969975	0.7669134	0.39	3	98	0	50	-5.162051	-0.6176077	9.469398	
13:19:01	-6.728632	38.94614	130.424	-0.2215381	-5.226144	0.29	3	98	0	50	7.52967	-0.9544824	9.320057	
13:19:01	-6.728632	38.94614	130.446	-0.2439326	-3.996532	0.07	3	98	0	50	-4.575596	-0.8440996	9.227522	
13:19:01	-6.728633	38.94614	130.46	-0.2435104	-1.104092	0.08	3	98	0	50	4.375014	-1.278878	10.08797	
13:19:01	-6.728633	38.94614	130.468	-0.2455563	-1.433155	0.12	3	98	0	50	-1.308047	-0.9679458	9.484525	
13:19:02	-6.728633	38.94614	130.485	-0.2600075	-0.4314646	0.13	3	98	0	50	-4.237136	-0.9540229	11.61609	
13:19:02	-6.728633	38.94614	130.509	-0.2937722	-8.781967	0.21	3	98	0	50	4.138118	-0.6813849	11.62541	
13:19:02	-6.728632	38.94614	130.532	-0.3255455	-6.988223	0.41	3	98	0	50	-11.38768	-1.020087	10.89254	
13:19:02	-6.728632	38.94614	130.559	-0.3524409	-10.21035	0.17	3	98	0	50	9.500735	-1.409241	8.855394	
13:19:02	-6.728633	38.94614	130.561	-0.3653942	-9.624375	0.09	3	98	0	50	4.935631	0.1599365	5.707843	
13:19:02	-6.728633	38.94614	130.553	-0.3651685	-6.542648	0.14	3	98	0	50	-4.82245	0.05785007	8.037771	
13:19:03	-6.728633	38.94614	130.569	-0.3941329	-6.124832	0.39	3	98	0	50	5.531071	-0.06127938	6.64499	
