Date	Latitude(deg) 	Longitude(deg)	hamsl(m)	hafl(m)	climbrate(cm/s)	GroundSpeed(m/s)	Airspeed(m/s)	Mav_Link(%)	Rssi_Link(%)	Throttle	Roll(deg)	Pitch(deg)	Yaw(deg)
18:29:10	0	0	0	-1.353895	-0.9646891	0	3	34	0	44	1.505358	-5.482274	-116.0874	
18:29:12	0	0	0	-1.602512	-29.12204	0	3	44	0	40	1.558063	-5.460332	-116.0703	
18:29:13	0	0	0	-1.804683	-35.65746	0	3	52	0	37	1.574396	-5.549595	-116.0952	
18:29:15	0	0	0	-1.625474	-20.24109	0	3	57	0	33	1.554595	-5.468828	-116.0967	
18:29:17	0	0	0	-1.607768	-18.23417	0	3	63	0	30	1.570847	-5.504682	-116.0788	
18:29:19	0	0	0	-1.553912	-15.75667	0	3	67	0	27	1.588488	-5.522089	-116.0814	
18:29:20	0	0	0	-1.455781	-10.67612	0	3	71	0	23	1.623212	-5.431698	-116.0931	
18:29:22	0	0	0	-1.587945	-16.1616	0	3	74	0	20	1.610218	-5.451791	-116.0644	
18:29:24	0	0	0	-1.62379	-13.47754	0	3	77	0	16	1.586787	-5.57772	-116.0696	
18:29:25	0	0	0	-1.507061	-7.508829	0	3	79	0	13	1.544112	-5.586143	-116.0574	
18:29:27	0	0	0	-1.345584	-0.3102763	0	3	81	0	13	1.553089	-5.485467	-116.0598	
18:29:29	0	0	0	-1.605174	-12.22663	0	3	83	0	13	1.51537	-5.482174	-116.0836	
18:29:31	0	0	0	-1.63904	-7.633451	0	3	84	0	13	1.492106	-5.522768	-116.0733	
18:29:32	0	0	0	-1.447326	1.506287	0	3	86	0	13	1.498143	-5.498774	-116.0421	
18:29:34	0	0	0	-1.581059	-6.376363	0	3	87	0	13	1.445885	-5.576206	-116.0723	
18:29:36	0	0	0	-1.724552	-10.78735	0	3	88	0	13	1.477365	-5.418823	-116.1095	
18:29:38	0	0	0	-1.866035	-10.39621	0	3	89	0	13	1.488363	-5.410865	-116.1164	
18:29:39	0	0	0	-1.543231	7.55664	0	3	90	0	13	1.515237	-5.425398	-116.0934	
18:29:41	0	0	0	-1.407869	6.968223	0	3	91	0	13	1.539626	-5.53001	-116.0611	
18:29:43	0	0	0	-1.380168	2.441219	0	3	91	0	13	1.526802	-5.501241	-116.0751	
18:29:45	0	0	0	-1.361209	-0.3682183	0	3	92	0	13	1.575447	-5.479063	-116.0771	
18:29:46	0	0	0	-1.599044	-9.238426	0	3	93	0	13	1.520504	-5.501949	-116.1035	
18:29:48	0	0	0	-1.749225	-10.1444	0	3	93	0	13	1.52152	-5.498729	-116.0844	
18:29:50	0	0	0	-1.719033	-4.093764	0	3	94	0	13	1.512101	-5.662969	-116.0922	
18:29:51	0	0	0	-1.509921	6.880159	0	3	94	0	13	1.509078	-5.616827	-116.0864	
18:29:53	0	0	0	-1.50201	1.606185	0	3	95	0	13	1.52936	-5.463716	-116.0575	
18:29:55	0	0	0	-1.303797	9.017354	0	3	95	0	13	1.549448	-5.458174	-116.0597	
18:29:57	0	0	0	-1.444298	-3.086288	0	3	95	0	13	1.523657	-5.510521	-116.0411	
18:29:58	0	0	0	-1.551469	-4.800314	0	3	96	0	13	1.549648	-5.477489	-116.0723	
18:30:00	0	0	0	-1.465318	3.742923	0	3	96	0	13	1.583978	-5.477591	-116.0461	
18:30:02	0	0	0	-1.53686	-1.483985	0	3	96	0	13	1.537797	-5.575734	-116.0859	
18:30:04	0	0	0	-1.6797	-6.139126	0	3	97	0	13	1.523701	-5.594406	-116.1075	
18:30:05	0	0	0	-1.669196	-3.625943	0	3	97	0	13	1.53097	-5.632386	-116.0922	
18:30:07	0	0	0	-1.663313	-1.262602	0	3	97	0	13	1.558015	-5.521955	-116.1071	
18:30:09	0	0	0	-1.641787	0.2377083	0	3	97	0	13	1.527957	-5.472774	-116.1165	
18:30:11	0	0	0	-1.484865	6.461121	0	3	97	0	13	1.525623	-5.39754	-116.1577	
18:30:12	0	0	0	-1.507723	1.024836	0	3	98	0	13	1.474853	-5.440375	-116.1376	
18:30:14	0	0	0	-1.41904	5.991497	0	3	98	0	13	1.475579	-5.482639	-116.1343	
18:30:16	0	0	0	-1.330026	5.496915	0	3	98	0	13	1.526582	-5.380028	-116.1368	
18:30:17	0	0	0	-1.401968	-1.736232	0	3	98	0	13	1.471	-5.343601	-116.1209	
18:30:19	0	0	0	-1.566273	-5.589499	0	3	98	0	13	1.465261	-5.436897	-116.1741	
18:30:21	0	0	0	-1.392092	5.710127	0	3	98	0	13	1.493476	-5.440504	-116.1816	
18:30:23	0	0	0	-1.517225	-2.322517	0	3	98	0	13	1.522097	-5.414768	-116.1788	
18:30:24	0	0	0	-1.474471	0.9636028	0	3	98	0	13	1.542196	-5.445641	-116.1772	
18:30:26	0	0	0	-1.606575	-4.452927	0	3	98	0	13	1.570174	-5.440107	-116.158	
18:30:28	0	0	0	-1.376874	6.653004	0	3	99	0	13	1.536579	-5.446994	-116.0977	
18:30:30	0	0	0	-1.444808	0.2553551	0	3	99	0	13	1.496302	-5.544994	-116.0977	
18:30:31	0	0	0	-1.626245	-6.879428	0	3	99	0	13	1.499199	-5.525116	-116.0631	
18:30:33	0	0	0	-1.491764	2.881777	0	3	99	0	13	1.516653	-5.571435	-116.0735	
18:30:35	0	0	0	-1.248635	11.67176	0	3	99	0	13	1.511792	-5.558201	-116.0782	
18:30:37	0	0	0	-1.333995	0.7195984	0	3	99	0	13	1.47252	-5.607505	-116.0373	
18:30:38	0	0	0	-1.688099	-12.05441	0	3	99	0	13	1.507367	-5.613876	-116.0629	
18:30:40	0	0	0	-1.528251	4.016405	0	3	99	0	13	1.569185	-5.543054	-116.035	
18:30:42	0	0	0	-1.298533	10.12736	0	3	99	0	13	1.537632	-5.622377	-116.0677	
18:30:43	0	0	0	-1.499011	-5.582785	0	3	99	0	13	1.562981	-5.560125	-116.0245	
18:30:45	0	0	0	-1.531802	-0.5408533	0	3	99	0	13	1.543772	-5.520041	-116.0462	
18:30:47	0	0	0	-1.518845	-0.1034896	0	3	99	0	13	1.565555	-5.452629	-116.0296	
18:30:49	0	0	0	-1.55308	-0.7872565	0	3	99	0	13	1.54744	-5.456032	-116.0543	
18:30:50	47.46362	-122.3078	0.035	-1.584027	-524.3304	0.08	3	99	0	5	-154.3135	-57.80269	132.5786	
18:30:52	47.46362	-122.3078	0.035	-14.7745	-1987.722	0.08	3	99	0	5	-21.98178	0.2466534	-128.45	
18:30:54	47.46362	-122.3078	0.035	-14.16076	-1448.374	0.08	3	99	0	5	-124.8286	-36.61781	127.1318	
18:30:56	47.46362	-122.3078	0.035	-15.84284	-1265.471	0.08	3	99	0	5	-6.17188	-31.35339	-102.6889	
18:30:57	47.46362	-122.3078	0.035	-9.907146	-1051.391	0.08	3	99	0	5	-103.4325	-19.80141	140.5967	
18:30:59	47.46362	-122.3078	0.035	-9.302231	-515.3372	0.08	3	99	0	5	-2.184496	-61.08974	-77.79565	
18:31:01	47.46362	-122.3078	0.035	-6.577704	-876.6025	0.08	3	99	0	5	-82.15704	-10.7138	162.9917	
18:31:02	47.46362	-122.3078	0.035	-5.230277	-176.074	0.08	3	99	0	5	-60.3974	-79.65701	7.181417	
18:31:04	47.46362	-122.3078	0.035	-5.368886	-741.1912	0.08	3	99	0	5	-59.52753	-8.123693	-167.6768	
18:31:06	47.46362	-122.3078	0.035	-2.784764	-59.85917	0.08	3	99	0	5	-107.79	-65.14915	80.88843	
18:31:08	47.46362	-122.3078	0.035	-4.216613	-497.9642	0.08	3	99	0	5	-41.74715	-17.0287	-134.9206	
18:31:09	47.46362	-122.3078	0.035	-1.264102	-79.48792	0.08	3	99	0	5	-106.195	-48.12337	107.2549	
18:31:11	47.46362	-122.3078	0.035	-3.246737	-254.7164	0.08	3	99	0	5	-29.27299	-31.95053	-103.8767	
18:31:13	47.46362	-122.3078	0.035	-0.6191512	-158.2314	0.08	3	99	0	5	-97.56161	-34.61826	129.5894	
18:31:15	47.46362	-122.3078	-0.062	-7.615221	-1555.908	0.92	3	99	0	95	-24.01367	21.85004	104.9801	
18:31:16	47.46362	-122.3078	-0.062	-16.94612	-1567.885	0.92	3	99	0	94	-58.95614	-15.90485	24.7417	
18:31:18	47.46362	-122.3078	-0.062	-6.300406	601.7991	0.92	3	99	0	89	-8.607212	-59.50564	-98.1837	
18:31:20	47.46363	-122.3078	0	9.103489	1135.287	0	3	99	0	20	27.92967	-64.00119	-154.6986	
18:31:21	47.46364	-122.3078	0.041	11.64642	1857.174	3.25	3.080248	99	0	95	22.81399	7.030993	-179.4124	
18:31:23	47.46362	-122.3077	3.911	-15.15831	-4133.153	4.1	3.582346	99	0	7	176.4848	-10.54003	-130.5453	
18:31:25	47.46362	-122.3077	3.911	-31.13617	-2530.005	4.1	3	99	0	5	39.38362	28.32705	-51.21548	
18:31:27	47.46362	-122.3077	3.911	5.965613	3088.3	4.1	3	99	0	5	-39.21262	47.56015	134.4679	
18:31:28	47.46362	-122.3077	3.911	50.66904	6079.902	4.1	3	99	0	5	-93.08954	1.692112	-86.9566	
18:31:30	47.46362	-122.3077	3.911	64.54017	6460.907	4.1	3	99	0	5	-34.06087	-30.37978	94.25542	
18:31:32	47.46362	-122.3077	3.911	67.18716	6338.402	4.1	3	99	0	5	-30.89303	10.32038	-45.57979	
18:31:33	47.46362	-122.3077	3.911	63.72859	5673.611	4.1	3	99	0	5	-41.7735	-0.9570138	133.7621	
18:31:35	47.46362	-122.3077	3.911	55.32593	4518.188	4.1	3	99	0	5	-48.78262	15.06305	-59.56639	
18:31:37	47.46362	-122.3077	3.911	47.35181	3969.044	4.1	3	99	0	5	-41.11777	-2.943774	126.3552	
18:31:39	47.46362	-122.3077	3.911	38.83871	2841.396	4.1	3	99	0	5	-51.33113	16.97275	-64.11373	
18:31:40	47.46362	-122.3077	3.911	31.46356	2517.145	4.1	3	99	0	5	-42.27629	-6.045034	116.5292	
18:31:42	47.46362	-122.3077	3.911	26.91581	1968.562	4.1	3	99	0	5	-53.21209	10.17566	-70.14168	
18:31:44	47.46362	-122.3077	3.911	23.62458	1886.449	4.1	3	99	0	5	-44.67612	-13.54744	118.0169	
18:31:45	47.46362	-122.3077	3.911	21.4328	1436.968	4.1	3	99	0	5	-44.5673	16.42929	-62.10955	
18:31:47	47.46362	-122.3077	3.911	18.407	1383.214	4.1	3	99	0	5	-41.76339	-9.933924	116.3086	
18:31:49	47.46362	-122.3077	3.911	15.29294	842.8893	4.1	3	99	0	5	-51.35426	15.70655	-76.95197	
18:31:51	47.46362	-122.3077	3.911	14.19717	964.5583	4.1	3	99	0	5	-54.47622	-1.169903	118.5599	
18:31:52	47.46362	-122.3077	3.911	12.75082	664.377	4.1	3	99	0	5	-59.95764	10.15412	-74.91545	
18:31:54	47.46362	-122.3077	3.911	10.17125	579.6298	4.1	3	99	0	5	-36.30677	-7.545337	96.63741	
18:31:56	47.46362	-122.3077	3.911	9.315186	439.628	4.1	3	99	0	5	-53.66626	4.357993	-93.52921	
18:31:57	47.46362	-122.3077	3.911	9.550286	631.5539	4.1	3	99	0	5	-36.99387	0.3087607	87.52039	
18:31:59	47.46362	-122.3077	3.911	7.501096	59.60153	4.1	3	99	0	5	-59.27444	11.73899	-101.9824	
18:32:01	47.46362	-122.3077	3.911	5.587424	245.9482	4.1	3	99	0	5	-35.78982	-5.66024	89.14762	
18:32:03	47.46362	-122.3077	3.911	5.234913	45.35451	4.1	3	99	0	5	-54.94992	9.023531	-96.30756	
18:32:04	47.46362	-122.3077	3.911	5.712932	341.0003	4.1	3	99	0	5	-37.837	-6.8463	91.54546	
18:32:06	47.46362	-122.3077	3.911	5.839429	94.60542	4.1	3	99	0	5	-54.04354	9.281966	-96.90394	
18:32:08	47.46362	-122.3077	3.911	5.647616	263.5199	4.1	3	99	0	5	-33.45341	-4.6482	87.01283	
18:32:10	47.46362	-122.3077	3.911	4.474593	-105.6971	4.1	3	99	0	5	-54.08867	14.15785	-92.50655	
18:32:11	47.46362	-122.3077	3.911	4.229199	140.2727	4.1	3	99	0	5	-39.37899	-8.962898	101.7435	
18:32:13	47.46362	-122.3077	3.911	4.222406	-93.09747	4.1	3	99	0	5	-49.80138	13.82049	-77.27326	
18:32:15	47.46362	-122.3077	3.911	4.713383	253.9778	4.1	3	99	0	5	-41.29794	-8.620283	116.7288	
18:32:16	47.46362	-122.3077	3.911	4.744899	-15.6285	4.1	3	99	0	5	-48.39	13.74506	-67.40993	
18:32:18	47.46362	-122.3077	3.911	4.243977	92.82794	4.1	3	99	0	5	-40.68688	-9.170194	117.8234	
18:32:20	47.46362	-122.3077	3.911	3.817988	-82.75754	4.1	3	99	0	5	-51.22781	10.47761	-68.95759	
18:32:22	47.46362	-122.3077	3.911	4.918341	204.2886	4.1	3	99	0	5	-40.69831	-8.058966	116.0243	
18:32:23	47.46362	-122.3077	3.911	4.325129	-169.3472	4.1	3	99	0	5	-51.38097	15.37394	-72.10456	
18:32:25	47.46362	-122.3077	3.911	3.868166	64.65205	4.1	3	99	0	5	-48.29767	-5.409822	114.3569	
18:32:27	47.46362	-122.3077	3.911	4.21554	80.54082	4.1	3	99	0	5	-47.7885	12.24447	-75.59499	
18:32:28	47.46362	-122.3077	3.911	4.426573	94.8735	4.1	3	99	0	5	-42.27699	-9.515765	114.0769	
18:32:30	47.46362	-122.3077	3.911	4.192939	-63.58813	4.1	3	99	0	5	-48.00857	14.3827	-70.55509	
18:32:32	47.46362	-122.3077	3.911	4.381835	135.9895	4.1	3	99	0	5	-39.34501	-7.206711	118.5499	
18:32:34	47.46362	-122.3077	3.911	3.291434	-160.6	4.1	3	99	0	5	-46.114	18.86012	-66.8909	
18:32:35	47.46362	-122.3077	3.911	4.220244	185.7793	4.1	3	99	0	5	-44.85907	-4.532463	125.5908	
18:32:37	47.46362	-122.3077	3.911	4.410466	38.13532	4.1	3	99	0	5	-45.49649	11.80448	-63.27931	
18:32:39	47.46362	-122.3077	3.911	4.700684	124.1941	4.1	3	99	0	5	-46.3608	-12.149	122.5545	
18:32:41	47.46362	-122.3077	3.911	4.084596	-91.98761	4.1	3	99	0	5	-44.66239	14.53001	-52.36715	
18:32:42	47.46362	-122.3077	3.911	3.908781	19.78802	4.1	3	99	0	5	-49.16689	-11.62659	133.75	
18:32:44	47.46362	-122.3077	3.911	3.811142	-55.19971	4.1	3	99	0	5	-47.5646	11.11459	-49.11903	
18:32:46	47.46362	-122.3077	20.239	-12.54462	-3894.876	11.02	11.3379	99	0	83	-14.31292	-26.73442	79.60795	
18:32:47	47.46365	-122.3077	8.324	-39.25765	-7611.33	16.71	14.47025	99	0	5	-117.5916	44.36142	-92.0197	
18:32:49	47.46379	-122.3076	0.799	-56.86415	-6240.419	2.35	3.970265	99	0	34	139.3781	-16.4245	-140.2093	
18:32:51	47.46379	-122.3076	-0.015	-57.7432	-5504.511	2.25	3	99	0	43	-128.3208	9.940581	59.40327	
18:32:53	47.46379	-122.3076	-0.015	-49.64295	-4382.453	2.25	3	99	0	54	137.5148	4.795215	-129.1148	
18:32:54	47.4636	-122.3077	1.831	-43.3021	-3525.267	19.78	20.7263	99	0	7	-7.510153	-5.352498	-41.71565	
18:32:56	47.46351	-122.3077	0.178	-27.46605	-2238.943	0.94	3	99	0	25	-9.946495	55.38141	-70.28324	
18:32:58	47.46351	-122.3077	-0.08	-30.78379	-3262.682	0.19	3	99	0	5	84.86996	-48.29224	-55.36629	
18:33:00	47.46352	-122.3077	-0.082	-26.29622	-2557.374	0.07	3	99	0	46	-22.44299	-15.26537	29.75558	
18:33:01	47.46352	-122.3077	-0.082	-24.55332	-2139.532	0.04	3	99	0	29	-68.31876	-15.94735	-154.0792	
18:33:03	47.46352	-122.3077	-0.083	-16.79167	-845.8057	0.04	3	99	0	23	-160.0931	-7.055974	96.2737	
18:33:05	47.46352	-122.3077	-0.083	-5.780391	-376.3319	0.06	3	99	0	5	-95.04836	-50.66891	-106.1939	
18:33:06	47.46352	-122.3077	-0.083	-2.366913	47.43506	0.07	3	99	0	5	-125.6247	-9.39821	132.3456	
18:33:08	47.46352	-122.3077	-0.082	-2.082938	-370.4393	0.07	3	99	0	5	-125.299	-49.64668	-37.6139	
18:33:10	47.46352	-122.3077	-0.082	-1.971086	-112.1665	0.07	3	99	0	5	-112.9703	-13.63463	169.7107	
18:33:12	47.46352	-122.3077	-0.082	-3.538055	-441.6854	0.07	3	99	0	5	-138.453	-43.94638	19.415	
18:33:13	47.46352	-122.3077	-0.081	-2.095771	-153.4714	0.08	3	99	0	5	-103.4873	-21.4532	-151.4353	
18:33:15	47.46352	-122.3077	-0.08	-3.292931	-302.952	0.08	3	99	0	5	-142.4397	-32.65159	70.98537	
18:33:17	47.46352	-122.3077	-0.083	-1.712584	-193.0786	0.08	3	99	0	5	-99.24552	-34.7749	-115.7915	
18:33:18	47.46352	-122.3077	-0.082	-1.754853	14.74899	0.07	3	99	0	5	-137.9221	-18.58015	114.7775	
18:33:20	47.46352	-122.3077	-0.082	-0.455187	-163.6532	0.08	3	99	0	5	-107.9441	-44.01891	-69.6067	
18:33:22	47.46352	-122.3077	-0.082	-0.6717309	71.86726	0.08	3	99	0	5	-122.6721	-14.95405	152.5306	
18:33:24	47.46352	-122.3077	-0.082	-0.9870111	-211.2153	0.08	3	99	0	5	-125.3653	-47.70569	-14.35901	
18:33:25	47.46352	-122.3077	-0.082	-0.1994864	75.41817	0.08	3	99	0	5	-109.3623	-15.66125	-172.0498	
18:33:27	47.46352	-122.3077	-0.081	-1.583781	-219.8279	0.08	3	99	0	5	-139.5237	-40.0698	41.46648	
18:33:29	47.46352	-122.3077	-0.08	-0.4326256	-30.67493	0.09	3	99	0	5	-102.1166	-24.06953	-135.7342	
18:33:31	47.46352	-122.3077	-0.082	-1.791284	-112.7948	0.09	3	99	0	5	-144.4457	-29.59105	90.40595	
18:33:32	47.46352	-122.3077	-0.081	-0.1223211	-75.32827	0.09	3	99	0	5	-99.52684	-36.00226	-98.22513	
18:33:34	47.46352	-122.3077	-0.08	-0.9532631	38.83551	0.09	3	99	0	5	-133.5934	-17.8749	130.8222	
18:33:36	47.46352	-122.3077	-0.081	-0.6049066	-207.0649	0.1	3	99	0	5	-109.325	-48.38216	-51.77284	
18:33:37	47.46352	-122.3077	-0.081	-0.3811363	134.4591	0.1	3	99	0	5	-119.0142	-11.72802	168.6581	
18:33:39	47.46352	-122.3077	-0.082	-0.8538407	-197.1935	0.1	3	99	0	5	-132.5734	-49.8447	8.507574	
18:33:41	47.46352	-122.3077	-0.082	0.502393	156.5963	0.09	3	99	0	5	-106.0401	-15.34236	-157.9246	
18:33:43	47.46352	-122.3077	-0.082	-0.6421158	-74.3882	0.09	3	99	0	5	-144.4078	-36.72628	61.21856	
18:33:44	47.46352	-122.3077	-0.081	0.7519503	38.25184	0.09	3	99	0	5	-99.12299	-27.92562	-123.0452	
18:33:46	47.46352	-122.3077	-0.082	-0.9577611	-13.74527	0.09	3	99	0	5	-142.5408	-28.11657	107.8293	
18:33:48	47.46352	-122.3077	-0.083	0.7620834	42.71105	0.09	3	99	0	5	-104.5651	-40.09273	-78.5133	
18:33:49	47.46352	-122.3077	-0.083	-2.035205	-508.6368	0.05	3	99	0	5	50.01976	-61.73066	-163.2365	
18:33:51	47.46352	-122.3077	-0.083	-6.01982	-543.3447	0.05	3	99	0	19	112.9996	-4.24029	-124.7112	
18:33:53	47.46352	-122.3077	-0.083	1.584694	811.7939	0.05	3	99	0	7	-179.8471	-22.29094	-35.54697	
18:33:55	47.46352	-122.3077	-0.083	8.154047	837.2467	0.05	3	99	0	5	150.6406	-69.54258	78.13925	
18:33:56	47.46352	-122.3077	-0.083	4.295842	137.2271	0.05	3	99	0	5	114.6821	-39.73347	-157.8241	
18:33:58	47.46353	-122.3077	-0.083	2.240291	328.9982	0.05	3	99	0	5	148.7102	-27.88144	-67.79692	
18:34:00	47.46353	-122.3077	-0.083	4.754698	553.47	0.06	3	99	0	5	158.1038	-55.29227	17.05198	
18:34:01	47.46353	-122.3077	-0.083	3.371986	174.8584	0.05	3	99	0	5	125.2051	-48.13391	137.7224	
18:34:03	47.46353	-122.3077	-0.083	1.479258	157.5814	0.06	3	99	0	5	138.3492	-32.68201	-123.8273	
18:34:05	47.46353	-122.3077	-0.083	2.80477	371.4039	0.06	3	99	0	5	155.7216	-49.92022	-33.67818	
18:34:07	47.46353	-122.3077	-0.083	2.336015	109.2321	0.07	3	99	0	5	129.866	-53.05089	91.51454	
18:34:08	47.46353	-122.3077	-0.083	0.3095608	-7.24713	0.04	3	99	0	5	133.2042	-38.75136	173.4358	
18:34:10	47.46353	-122.3077	-0.083	1.175918	250.1792	0.05	3	99	0	5	148.1016	-32.78667	-125.2319	
18:34:12	47.46354	-122.3077	-0.083	2.913949	307.7251	0.06	3	99	0	5	159.4575	-58.19685	-48.12041	
18:34:14	47.46354	-122.3077	-0.083	0.5796965	-158.5642	0.06	3	99	0	5	118.6613	-51.47375	83.26553	
18:34:15	47.46354	-122.3077	-0.083	-1.814184	-156.6526	0.06	3	99	0	5	137.38	-29.57246	176.8529	
18:34:17	47.46354	-122.3077	-0.083	0.7697802	283.5378	0.06	3	99	0	5	160.4534	-41.8179	-87.33699	
18:34:19	47.46354	-122.3077	-0.083	2.053572	130.191	0.06	3	99	0	5	138.0399	-59.06618	24.73891	
18:34:20	47.46354	-122.3077	-0.083	-0.6105579	-189.0345	0.06	3	99	0	5	127.0605	-39.71998	134.3245	
18:34:22	47.46354	-122.3077	-0.083	-0.6661888	69.2074	0.06	3	99	0	5	149.2849	-32.38484	-127.4862	
18:34:24	47.46354	-122.3077	-0.083	1.698331	241.303	0.06	3	99	0	5	156.2776	-54.46849	-32.4781	
18:34:26	47.46354	-122.3077	-0.083	0.4769846	-107.2999	0.06	3	99	0	5	125.2114	-50.45504	88.92677	
18:34:27	47.46354	-122.3077	-0.083	-1.381505	-121.3823	0.06	3	99	0	5	138.2041	-31.82139	-172.5131	
18:34:29	47.46354	-122.3077	-0.083	0.6258536	227.0363	0.06	3	99	0	5	158.5631	-42.80798	-76.70271	
18:34:31	47.46354	-122.3077	-0.083	1.528336	86.18868	0.06	3	99	0	5	137.3163	-57.87492	34.72087	
18:34:32	47.46354	-122.3077	-0.083	-0.8825867	-200.7992	0.06	3	99	0	5	128.1227	-38.91144	143.1683	
18:34:34	47.46354	-122.3077	-0.083	-0.7438891	64.09815	0.06	3	99	0	5	150.3502	-33.48001	-118.7157	
18:34:36	47.46354	-122.3077	-0.083	1.331863	193.5976	0.06	3	99	0	5	154.2782	-55.74343	-22.70523	
18:34:38	47.46364	-122.3077	0.026	-1.447293	-544.042	0.21	3	99	0	28	46.48756	-34.52392	114.7904	
18:34:39	47.4637	-122.3078	7.913	13.00571	1509.927	10.56	10.40429	99	0	5	-100.3556	-70.58437	128.1928	
18:34:41	47.46379	-122.3078	1.107	3.36559	-1268.59	8.72	7.086089	99	0	81	128.0791	-16.73128	20.23486	
18:34:43	47.46381	-122.3078	-0.097	-16.72919	-2222.812	0.2	3	99	0	81	-26.93396	72.069	74.45712	
18:34:44	47.46381	-122.3078	-0.082	-18.25549	-1224.64	0.06	3	99	0	60	162.353	5.799592	53.32828	
18:34:46	47.46381	-122.3078	-0.084	-5.605287	-208.7211	0.09	3	99	0	84	59.70226	38.10191	160.0086	
18:34:48	47.46381	-122.3078	-0.082	-9.5621	-1410.383	0.09	3	99	0	59	-55.72382	-20.51516	-106.661	
18:34:50	47.46381	-122.3078	-0.083	-8.992474	-503.1316	0.12	3	99	0	95	-127.7068	58.37579	105.2543	
18:34:51	47.46381	-122.3078	-0.083	1.030435	520.0707	0.13	3	99	0	95	-92.78223	28.59867	-74.0351	
18:34:53	47.46381	-122.3078	-0.082	1.177859	-94.71247	0.07	3	99	0	95	97.31602	41.19735	84.89271	
18:34:55	47.46381	-122.3078	-0.082	2.986166	583.6431	0.12	3	99	0	55	-144.9481	-49.10524	-13.68677	
18:34:56	47.46381	-122.3078	-0.083	6.128696	713.4443	0.12	3	99	0	37	-143.3264	-44.41882	142.2132	
18:34:58	47.46381	-122.3078	-0.083	5.114329	333.5221	0.13	3	99	0	24	-110.9087	-37.11017	-73.12301	
18:35:00	47.46381	-122.3078	-0.083	4.883369	597.3354	0.11	3	99	0	5	-153.0428	-55.53525	105.2842	
18:35:02	47.46381	-122.3078	-0.083	4.376091	384.8232	0.11	3	99	0	7	-129.5347	-32.76627	-110.5226	
18:35:03	47.46381	-122.3078	-0.083	4.642193	443.0879	0.11	3	100	0	5	-130.3764	-58.91066	44.34445	
18:35:05	47.46381	-122.3079	-0.083	2.672858	181.5482	0.05	3	100	0	5	-128.6903	-32.05468	-61.28833	
18:35:07	47.46382	-122.3079	-0.083	3.261208	462.0442	0.05	3	100	0	5	-150.5709	-32.48602	-150.4117	
18:35:08	47.46382	-122.3079	-0.083	4.883057	509.0608	0.05	3	100	0	5	-150.1412	-46.93911	123.2917	
18:35:10	47.46382	-122.3079	-0.083	3.370973	186.2162	0.05	3	100	0	5	-132.0388	-48.39723	27.74208	
18:35:12	47.46382	-122.3079	-0.083	0.9238263	19.69671	0.05	3	100	0	5	-131.3093	-34.95044	-59.96811	
18:35:14	47.46382	-122.3079	-0.083	1.100905	213.3069	0.05	3	100	0	5	-145.5234	-29.91333	-146.6922	
18:35:15	47.46382	-122.3079	-0.083	2.938635	367.7171	0.05	3	100	0	5	-152.7747	-43.15913	130.1165	
18:35:17	47.46382	-122.3079	-0.083	2.375007	121.7146	0.05	3	100	0	5	-136.2583	-50.60686	36.78911	
18:35:19	47.46382	-122.3079	-0.083	-0.07462341	-106.6806	0.05	3	100	0	5	-129.0471	-37.14317	-54.55657	
18:35:21	47.46382	-122.3079	-0.083	-0.1839303	85.73001	0.05	3	100	0	5	-143.7524	-27.64316	-141.4169	
18:35:22	47.46382	-122.3079	-0.083	2.006153	307.8359	0.05	3	100	0	5	-154.8824	-41.6147	136.7068	
18:35:24	47.46382	-122.3079	-0.083	1.899588	85.50082	0.05	3	100	0	5	-138.2596	-52.10592	44.05072	
18:35:26	47.46382	-122.3079	-0.083	-0.6185374	-185.1041	0.05	3	100	0	5	-127.0138	-38.73529	-49.1283	
18:35:27	47.46382	-122.3079	-0.083	-1.077674	-10.16684	0.05	3	100	0	5	-141.8009	-26.45097	-135.3424	
18:35:29	47.46382	-122.3079	-0.083	1.373209	278.2037	0.05	3	100	0	5	-156.1068	-39.4161	142.7482	
18:35:31	47.46363	-122.3078	0.041	-2.479825	-602.6298	0.62	3	100	0	88	81.03818	40.65297	133.4886	
18:35:33	47.46358	-122.3077	6.515	-2.628447	-806.4491	14.55	13.97645	100	0	83	-126.2127	-19.47619	127.4388	
18:35:34	47.46358	-122.3075	1.044	10.22001	742.4077	11.5	11.30734	100	0	5	40.25589	-40.97398	-120.9058	
18:35:36	47.46366	-122.3075	-0.062	-49.92471	-5694.292	8.13	4.774049	100	0	95	-17.67625	-36.60516	-21.09073	
18:35:38	47.46366	-122.3074	-0.07	-26.91302	-382.0941	0.12	3	100	0	62	-165.4292	3.871916	-110.3524	
18:35:39	47.46366	-122.3074	-0.083	1.573597	1019.942	0.12	3	100	0	86	62.05865	28.33495	6.037766	
18:35:41	47.46367	-122.3074	-0.083	7.546789	1112.625	0.12	3	100	0	79	157.4024	3.220737	-96.98089	
18:35:43	47.46367	-122.3074	-0.083	7.730756	193.828	0.12	3	100	0	81	-4.217814	32.0008	-157.3667	
18:35:45	47.46367	-122.3074	-0.083	-2.403488	-226.9633	0.12	3	100	0	48	157.4285	-6.147993	-80.36783	
18:35:46	47.46367	-122.3075	-0.083	-0.156468	-80.41613	0.12	3	100	0	73	-76.98599	28.06271	160.8809	
18:35:48	47.46367	-122.3075	-0.083	2.859084	692.0075	0.13	3	100	0	95	-168.3087	60.19626	-56.20781	
18:35:50	47.46367	-122.3075	-0.083	5.637955	601.74	0.13	3	100	0	92	-129.3297	32.98777	171.565	
18:35:51	47.46367	-122.3075	-0.083	6.298603	584.2039	0.13	3	100	0	95	-120.7599	48.86904	18.2307	
18:35:53	47.46367	-122.3075	-0.083	5.123079	488.2876	0.13	3	100	0	95	-141.5826	51.89707	-154.0491	
18:35:55	47.46367	-122.3075	-0.083	3.41449	233.7232	0.13	3	100	0	94	-128.3347	36.11973	55.52799	
18:35:57	47.46367	-122.3075	-0.083	2.866633	253.8169	0.13	3	100	0	95	-126.4196	55.90321	-102.9725	
18:35:58	47.46367	-122.3075	-0.083	1.548807	162.2458	0.14	3	100	0	95	-141.7713	36.71104	91.59215	
18:36:00	47.46367	-122.3075	-0.083	1.393809	27.89788	0.14	3	100	0	95	-112.934	47.63331	-51.99646	
18:36:02	47.46367	-122.3075	-0.083	0.5289529	141.0443	0.14	3	100	0	95	-147.9982	48.3581	134.3137	
18:36:03	47.46367	-122.3075	-0.083	0.4706013	-38.18461	0.14	3	100	0	95	-118.0434	39.25541	-9.059287	
18:36:05	47.46367	-122.3075	-0.083	0.5587293	137.6255	0.14	3	100	0	95	-141.6041	57.41473	-174.2066	
18:36:07	47.46368	-122.3075	-0.083	1.476613	389.0796	0.04	3	100	0	81	-160.9629	-7.471903	-95.3769	
18:36:09	47.46368	-122.3075	-0.083	5.32829	537.6565	0.04	3	100	0	58	113.3024	-30.67602	-33.05155	
18:36:10	47.46368	-122.3075	-0.083	-0.9947635	-704.4321	0.04	3	100	0	94	69.20679	27.87463	19.16828	
18:36:12	47.46368	-122.3075	-0.083	-8.350427	-831.287	0.04	3	100	0	95	177.2147	60.0429	-167.2024	
18:36:14	47.46368	-122.3075	-0.083	-0.8656096	549.9729	0.04	3	100	0	83	149.4379	-2.53552	-85.72578	
18:36:16	47.46368	-122.3075	-0.083	4.993927	459.7484	0.04	3	100	0	92	100.8563	7.185849	-10.70593	
18:36:17	47.46368	-122.3075	-0.083	0.3057498	-285.3726	0.04	3	100	0	95	109.3351	50.83951	82.39078	
18:36:19	47.46368	-122.3075	-0.083	-0.9191152	126.2136	0.04	3	100	0	95	155.4089	28.75443	-141.0061	
18:36:21	47.46368	-122.3075	-0.083	3.908106	594.7648	0.04	3	100	0	91	127.3842	6.301881	-51.04939	
18:36:22	47.46368	-122.3075	-0.083	3.188429	81.798	0.04	3	100	0	95	104.5759	25.58998	30.30243	
18:36:24	47.46368	-122.3075	-0.083	-0.9687002	-207.832	0.04	3	100	0	95	131.9879	43.66106	144.9074	
18:36:26	47.46368	-122.3075	-0.083	0.4734814	283.4753	0.04	3	100	0	95	144.3082	20.71594	-99.00922	
18:36:28	47.46368	-122.3075	-0.083	3.156009	350.9815	0.04	3	100	0	94	117.4135	12.44455	-12.83317	
18:36:29	47.46368	-122.3075	-0.083	1.232913	-91.67411	0.04	3	100	0	95	110.5505	34.68999	76.05273	
18:36:31	47.46368	-122.3075	-0.083	-1.034512	-83.14201	0.04	3	100	0	95	141.385	36.76605	-161.6913	
18:36:33	47.46368	-122.3075	-0.083	1.404156	329.6548	0.04	3	100	0	95	135.2078	15.20585	-58.97118	
18:36:34	47.46362	-122.3077	0.032	1.143402	-183.0905	0.02	3	100	0	73	84.39689	17.57157	-18.32173	
18:36:36	47.46356	-122.3077	3.278	5.994158	472.3179	9.73	8.397078	100	0	95	-8.608011	-33.63568	-33.76071	
18:36:38	47.46356	-122.3077	3.278	-4.048903	-1685.256	9.73	6.385003	100	0	95	-131.2483	-79.80206	29.81553	
18:36:40	47.46356	-122.3077	3.278	-16.92263	-2610.948	9.73	5.189742	100	0	95	-128.2639	-34.42578	70.6087	
18:36:41	47.46356	-122.3077	3.278	-21.11748	-2436.095	9.73	4.259564	100	0	95	-107.7841	-35.14265	120.7406	
18:36:43	47.46356	-122.3077	3.278	-18.72461	-1931.656	9.73	3.643426	100	0	95	-101.9755	-37.78881	175.1781	
18:36:45	47.46356	-122.3077	3.278	-14.51041	-1508.226	9.73	3.235345	100	0	95	-101.5402	-42.62046	-121.6161	
18:36:46	47.46356	-122.3077	3.278	-10.93043	-1246.734	9.73	3	100	0	95	-110.0804	-48.51152	-59.77942	
18:36:48	47.46356	-122.3077	3.278	-8.178987	-1055.808	9.73	3	100	0	95	-114.8755	-44.97781	9.733262	
18:36:50	47.46356	-122.3077	3.278	-6.274214	-875.4689	9.73	3	100	0	95	-114.0991	-36.66634	69.32891	
18:36:52	47.46356	-122.3077	3.278	-4.518505	-672.8405	9.73	3	100	0	95	-106.5326	-33.74018	124.2144	
18:36:53	47.46356	-122.3077	3.278	-3.12763	-523.0938	9.73	3	100	0	95	-98.51431	-40.32987	179.6192	
18:36:55	47.46356	-122.3077	3.278	-2.31196	-487.0167	9.73	3	100	0	95	-96.96348	-48.12574	-125.0584	
18:36:57	47.46356	-122.3077	3.278	-1.552638	-412.211	9.73	3	100	0	95	-105.519	-49.97809	-52.49535	
18:36:58	47.46356	-122.3077	3.278	-0.5154635	-372.7328	9.73	3	100	0	95	-119.5835	-45.49499	14.60431	
18:37:00	47.46356	-122.3077	3.278	-0.02852093	-306.8641	9.73	3	100	0	95	-110.6368	-36.97905	70.12907	
18:37:02	47.46356	-122.3077	3.278	0.3555828	-271.4906	9.73	3	100	0	95	-110.6789	-35.374	126.7919	
18:37:04	47.46356	-122.3077	3.278	0.6695793	-186.7606	9.73	3	100	0	95	-98.52493	-38.67178	178.2639	
18:37:05	47.46356	-122.3077	3.278	1.292596	-141.7686	9.73	3	100	0	95	-103.5716	-52.90609	-113.9786	
18:37:07	47.46356	-122.3077	3.278	1.968617	-141.1545	9.73	3	100	0	95	-121.5099	-51.15149	-40.01448	
18:37:09	47.46356	-122.3077	3.278	2.580773	-83.75294	9.73	3	100	0	95	-116.2203	-41.16421	17.76703	
18:37:11	47.46356	-122.3077	3.278	2.7555	-80.90529	9.73	3	100	0	95	-115.7915	-35.33712	68.88029	
18:37:12	47.46356	-122.3077	3.278	2.64482	-56.6018	9.73	3	100	0	95	-107.3722	-33.81854	126.3089	
18:37:14	47.46353	-122.3077	0.676	6.482429	2253.685	8.4	3	100	0	24	112.6658	-56.77815	-123.0151	
18:37:16	47.46347	-122.3077	-0.196	25.26718	3174.397	1.9	8.802422	100	0	59	110.1926	-47.007	-90.03327	
18:37:17	47.4635	-122.3077	-0.004	31.06697	2998.436	1.54	4.240334	100	0	5	85.3211	-64.77474	-28.47712	
18:37:19	47.46351	-122.3077	-0.044	39.43116	4833.789	1.54	3	100	0	5	-89.61885	-12.62808	111.8205	
18:37:21	47.46363	-122.3077	0	50.30162	4700.928	0	3	100	0	67	-81.78255	-11.44041	-100.0053	
18:37:23	47.46363	-122.3077	-0.086	23.56241	264.2586	0.03	3	100	0	12	-42.34957	-53.12192	54.7655	
18:37:24	47.46363	-122.3077	-0.083	-10.14398	-2574.695	0.03	3	100	0	37	-6.049483	7.963729	77.6221	
18:37:26	47.46363	-122.3077	-0.083	-24.70313	-2423.021	0.03	3	100	0	59	91.09521	19.54072	155.6455	
18:37:28	47.46363	-122.3077	-0.083	-11.02976	157.92	0.05	3	100	0	40	177.6294	-2.055595	138.688	
18:37:29	47.46363	-122.3078	-0.083	6.870027	1246.959	0.05	3	100	0	85	-159.2415	62.04717	76.31027	
18:37:31	47.46363	-122.3078	-0.083	7.042334	338.6133	0.05	3	100	0	94	93.21715	56.30241	-98.4581	
18:37:33	47.46363	-122.3078	-0.083	1.232049	17.35464	0.05	3	100	0	92	126.6649	24.22513	-173.3946	
18:37:35	47.46363	-122.3078	-0.083	3.65109	644.4902	0.05	3	100	0	95	158.0942	33.74767	101.4357	
18:37:36	47.46363	-122.3078	-0.083	6.598506	673.729	0.05	3	100	0	95	152.7139	55.65725	-0.9054905	
18:37:38	47.46364	-122.3078	-0.083	4.065769	180.4526	0.05	3	100	0	95	124.3166	51.43938	-118.582	
18:37:40	47.46364	-122.3078	-0.083	1.090133	55.99732	0.05	3	100	0	95	133.0292	39.02932	149.647	
18:37:42	47.46364	-122.3078	-0.083	1.886256	312.2689	0.05	3	100	0	95	145.2805	37.39357	55.59996	
18:37:43	47.46364	-122.3078	-0.083	3.482991	387.4297	0.05	3	100	0	95	151.0526	50.71165	-41.84532	
18:37:45	47.46364	-122.3078	-0.083	2.35907	108.8573	0.05	3	100	0	95	131.3055	53.13832	-148.8528	
18:37:47	47.46364	-122.3078	-0.083	0.2780484	-22.85211	0.05	3	100	0	95	130.9801	39.86906	113.8513	
18:37:48	47.46364	-122.3078	-0.083	0.8921118	210.1197	0.06	3	100	0	95	147.8129	35.87442	20.51622	
18:37:50	47.46364	-122.3078	-0.083	2.645482	299.2253	0.05	3	100	0	95	152.909	54.30863	-70.9815	
18:37:52	47.46364	-122.3078	-0.083	0.8746569	-83.57645	0.05	3	100	0	95	124.8181	51.58772	171.5682	
18:37:54	47.46364	-122.3078	-0.083	-1.225941	-131.4207	0.06	3	100	0	95	132.7391	33.8581	77.37927	
18:37:55	47.46364	-122.3078	-0.083	0.4796394	214.2526	0.05	3	100	0	95	154.0502	41.0591	-14.17847	
18:37:57	47.46365	-122.3078	-0.083	1.768835	132.1345	0.07	3	100	0	95	140.9852	58.04904	-114.7885	
18:37:59	47.46365	-122.3078	-0.083	-0.7076912	-213.0414	0.05	3	100	0	95	123.1834	42.09776	131.2103	
18:38:00	47.46365	-122.3078	-0.083	-0.8869372	43.36271	0.05	3	100	0	95	145.9951	33.72995	36.93711	
18:38:02	47.46365	-122.3078	-0.083	1.63686	259.6291	0.05	3	100	0	95	153.6192	51.5063	-53.83893	
18:38:04	47.46365	-122.3078	-0.083	0.9342232	-41.81644	0.05	3	100	0	95	130.4106	54.52557	-165.2014	
18:38:06	47.46365	-122.3078	-0.083	-1.440763	-201.8384	0.05	3	100	0	95	128.3938	36.79306	97.0483	
18:38:07	47.46365	-122.3078	-0.083	-0.390641	130.2143	0.05	3	100	0	95	151.0412	35.38184	7.3631	
18:38:09	47.46365	-122.3078	-0.083	1.810957	206.6118	0.05	3	100	0	95	151.2071	55.83582	-81.67254	
18:38:11	47.46365	-122.3078	-0.083	-0.1606762	-184.1965	0.05	3	100	0	95	121.7639	48.25153	161.8142	
18:38:12	47.46365	-122.3078	-0.083	-1.79943	-130.0019	0.05	3	100	0	95	138.4382	32.2561	71.78088	
18:38:14	47.46365	-122.3078	-0.083	0.6251881	226.4428	0.05	3	100	0	95	154.3398	42.0249	-16.6447	
18:38:16	47.46365	-122.3078	-0.083	1.523589	84.23573	0.05	3	100	0	95	138.1389	58.46526	-120.6871	
18:38:18	47.46365	-122.3078	-0.083	-0.8777868	-209.6946	0.05	3	100	0	95	124.9112	42.90301	136.7578	
18:38:19	47.46365	-122.3078	-0.083	-1.179871	-4.613487	0.05	3	100	0	95	146.8385	34.19878	42.86342	
18:38:21	47.46365	-122.3078	-0.083	1.135796	209.5161	0.06	3	100	0	95	155.3824	53.08214	-49.20356	
18:38:23	47.46365	-122.3078	-0.083	0.4207403	-96.31316	0.05	3	100	0	95	127.1618	52.88521	-161.9165	
18:38:25	47.46366	-122.3078	-0.083	-1.806136	-216.6124	0.05	3	100	0	95	130.7855	36.4829	102.883	
18:38:26	47.46366	-122.3078	-0.083	-0.353171	143.8979	0.05	3	100	0	95	152.4089	37.23493	10.35614	
18:38:28	47.46366	-122.3078	-0.083	1.467379	137.0982	0.05	3	100	0	95	144.3407	59.77726	-94.63322	
18:38:30	47.46366	-122.3078	-0.083	-0.5968667	-203.8902	0.05	3	100	0	95	121.33	43.8317	154.19	
18:38:31	47.46366	-122.3078	-0.083	-2.518927	-384.7795	0.02	3	100	0	75	94.71104	-16.93405	156.3851	
18:38:33	47.46366	-122.3078	-0.083	-8.856791	-1471.18	0.02	3	100	0	49	0.5172217	-38.67685	-119.7053	
18:38:35	47.46366	-122.3078	-0.083	-18.1959	-2019.001	0.03	3	100	0	89	-80.30679	29.86774	-106.8547	
18:38:37	47.46366	-122.3078	-0.083	-10.04852	6.667651	0.03	3	100	0	80	156.8902	1.732038	159.0426	
18:38:38	47.46366	-122.3078	-0.083	3.884801	730.3497	0.03	3	100	0	34	100.5472	-68.85666	164.7518	
18:38:40	47.46366	-122.3078	-0.083	0.7311768	-430.5079	0.03	3	100	0	17	-68.98406	-39.8709	-81.35563	
18:38:42	47.46366	-122.3078	-0.083	-4.534088	-332.4639	0.02	3	100	0	32	-135.4113	-0.6008379	-141.4086	
18:38:43	47.46366	-122.3078	-0.083	3.303152	875.3221	0.02	3	100	0	5	172.9425	-40.22227	137.6623	
18:38:45	47.46366	-122.3078	-0.084	6.95194	537.2139	0.02	3	100	0	5	-115.7238	-73.03823	-2.234674	
18:38:47	47.46366	-122.3078	-0.083	1.248771	-180.8536	0.03	3	100	0	5	-110.174	-34.10747	-98.51452	
18:38:49	47.46367	-122.3078	-0.083	0.3097634	256.2651	0.03	3	100	0	6	-152.2947	-23.7656	176.995	
18:38:50	47.46367	-122.3078	-0.083	4.98976	685.4222	0.02	3	100	0	5	-167.0996	-55.34433	91.7541	
18:38:52	47.46367	-122.3078	-0.084	3.968555	139.994	0.03	3	100	0	5	-113.5532	-57.98889	-41.37954	
18:38:54	47.46367	-122.3078	-0.084	-0.3318756	-141.1708	0.03	3	100	0	5	-127.7971	-30.9948	-127.8677	
18:38:56	47.46367	-122.3078	-0.083	1.1099	343.4512	0.03	3	100	0	5	-156.3098	-34.86862	141.155	
18:38:57	47.46367	-122.3078	-0.083	3.803301	383.8411	0.03	3	100	0	5	-148.7104	-63.08464	41.53216	
18:38:59	47.46367	-122.3078	-0.083	1.107408	-102.9697	0.03	3	100	0	5	-118.3508	-47.3078	-76.94176	
18:39:01	47.46367	-122.3078	-0.084	-0.8980193	-45.56258	0.02	3	100	0	5	-138.8444	-31.68701	-166.5018	
18:39:02	47.46367	-122.3078	-0.083	1.577807	330.7349	0.03	3	100	0	5	-157.5575	-45.58669	101.4854	
18:39:04	47.46367	-122.3078	-0.084	2.221228	110.8693	0.03	3	100	0	5	-133.795	-59.87409	-10.45347	
18:39:06	47.46367	-122.3078	-0.083	-0.9243063	-241.7548	0.03	3	100	0	5	-123.916	-41.56457	-115.9247	
18:39:08	47.46367	-122.3078	-0.084	-1.111881	41.4645	0.03	3	100	0	5	-147.1306	-33.26634	148.2412	
18:39:09	47.46367	-122.3078	-0.084	1.890299	303.564	0.02	3	100	0	5	-158.5904	-54.56976	58.5887	
18:39:11	47.46367	-122.3078	-0.083	0.8667244	-100.7043	0.03	3	100	0	5	-119.9699	-55.73153	-63.55383	
18:39:13	47.46367	-122.3078	-0.084	-2.196912	-283.1976	0.02	3	100	0	5	-125.3927	-35.46044	-163.5423	
18:39:14	47.46367	-122.3078	-0.084	-0.5081852	179.864	0.03	3	100	0	5	-154.2289	-33.96584	110.3789	
18:39:16	47.46367	-122.3078	-0.084	2.386411	268.968	0.03	3	100	0	5	-152.9681	-61.12932	17.83978	
18:39:18	47.46367	-122.3078	-0.084	-0.002882306	-217.6426	0.02	3	100	0	5	-116.2852	-49.13291	-106.2009	
18:39:20	47.46367	-122.3078	-0.084	-2.048616	-139.554	0.03	3	100	0	5	-139.5935	-28.987	164.3538	
18:39:21	47.46367	-122.3078	-0.084	0.9798726	296.584	0.03	3	100	0	5	-159.8317	-48.87459	76.52023	
18:39:23	47.46367	-122.3078	-0.084	1.671438	47.69942	0.02	3	100	0	5	-127.0425	-59.22628	-41.73458	
18:39:25	47.46367	-122.3078	-0.084	-1.444497	-266.2743	0.02	3	100	0	5	-126.1387	-37.47738	-151.3229	
18:39:27	47.46367	-122.3078	-0.084	0.02281529	286.4602	0.02	3	100	0	5	-167.9457	-29.78546	114.0876	
18:39:28	47.46367	-122.3078	-0.084	0.4584842	-437.7538	0.02	3	100	0	5	-36.5759	-46.04515	-161.1024	
18:39:30	47.46367	-122.3078	-0.084	-12.50938	-2034.804	0.03	3	100	0	44	-16.13052	28.23748	-149.1023	
18:39:32	47.46368	-122.3078	-0.084	-17.57957	-1323.984	0.03	3	100	0	67	127.7123	22.84104	-47.98469	
18:39:33	47.46368	-122.3078	-0.083	-2.425988	693.0247	0.03	3	100	0	35	-146.2914	-35.56165	-90.09719	
18:39:35	47.46368	-122.3078	-0.084	4.227894	249.9636	0.03	3	100	0	52	-77.14535	6.695962	-156.0807	
18:39:37	47.46368	-122.3078	-0.083	-2.852052	-634.1188	0.03	3	100	0	95	-102.2623	71.6188	114.2828	
18:39:39	47.46368	-122.3078	-0.084	-1.461248	346.3105	0.03	3	100	0	88	-163.4025	18.27194	-26.20183	
18:39:40	47.46368	-122.3078	-0.084	6.429733	871.1141	0.03	3	100	0	87	-116.6929	0.6324924	-99.56628	
18:39:42	47.46368	-122.3078	-0.084	4.773542	182.8704	0.03	3	100	0	95	-103.1371	36.20147	179.9959	
18:39:44	47.46368	-122.3078	-0.084	0.9260697	76.04556	0.03	3	100	0	95	-144.4503	40.54397	57.40613	
18:39:45	47.46368	-122.3078	-0.084	3.273398	507.6667	0.03	3	100	0	92	-129.7859	10.3195	-28.98133	
18:39:47	47.46368	-122.3078	-0.083	3.469911	206.98	0.03	3	100	0	95	-110.3795	24.939	-111.5751	
18:39:49	47.46368	-122.3078	-0.084	0.06709906	-119.4346	0.03	3	100	0	95	-131.7556	45.02477	131.1996	
18:39:51	47.46368	-122.3078	-0.084	1.099397	331.1061	0.03	3	100	0	95	-143.1723	19.09703	30.11457	
18:39:52	47.46368	-122.3078	-0.084	3.723208	383.3902	0.03	3	100	0	93	-116.2117	10.3101	-42.5491	
18:39:54	47.46368	-122.3078	-0.084	1.0456	-127.8939	0.03	3	100	0	95	-109.1036	34.19299	-122.328	
18:39:56	47.46368	-122.3078	-0.084	0.7789699	367.4916	0.02	3	100	0	83	159.5202	-1.767532	142.5002	
18:39:58	47.46368	-122.3078	-0.084	3.807402	260.8669	0.02	3	100	0	39	106.403	-67.97794	142.3872	
18:39:59	47.46368	-122.3078	-0.084	-3.884474	-983.2278	0.02	3	100	0	18	-64.61497	-44.43804	-99.10652	
18:40:01	47.46368	-122.3078	-0.084	-9.799561	-863.161	0.03	3	100	0	35	-126.9043	-0.03826668	-150.7868	
18:40:03	47.46368	-122.3078	-0.084	-0.9276087	595.3462	0.02	3	100	0	15	177.2765	-29.03879	131.9949	
18:40:04	47.46368	-122.3078	-0.084	5.830511	586.355	0.02	3	100	0	5	-172.1125	-76.66563	53.0004	
18:40:06	47.46368	-122.3078	-0.084	0.5171418	-377.4151	0.02	3	100	0	5	-97.89438	-43.4468	-96.40611	
18:40:08	47.46368	-122.3078	-0.084	-3.002776	-171.6897	0.02	3	100	0	9	-140.4776	-18.97231	-175.8432	
18:40:10	47.46368	-122.3078	-0.084	2.303861	559.7714	0.02	3	100	0	5	-172.9713	-47.08978	102.2463	
18:40:11	47.46368	-122.3078	-0.084	3.528626	132.7839	0.02	3	100	0	5	-107.3967	-66.67229	-44.58136	
18:40:13	47.46368	-122.3078	-0.084	-1.750062	-362.5531	0.02	3	100	0	6	-118.2955	-26.80515	-136.516	
18:40:15	47.46368	-122.3078	-0.084	-0.24926	290.0108	0.02	3	100	0	5	-161.4932	-30.14369	135.1439	
18:40:16	47.46368	-122.3078	-0.084	3.710124	403.8268	0.02	3	100	0	5	-156.4765	-66.09822	40.27185	
18:40:18	47.46368	-122.3078	-0.084	0.7112154	-188.9813	0.02	3	100	0	5	-111.8074	-48.02299	-88.17673	
18:40:20	47.46368	-122.3078	-0.084	-1.802132	-114.5608	0.02	3	100	0	6	-137.6649	-26.1496	-174.2154	
18:40:22	47.46368	-122.3078	-0.084	1.679966	402.4984	0.02	3	100	0	5	-167.2391	-46.41079	99.29285	
18:40:23	47.46368	-122.3078	-0.084	2.473056	104.3409	0.02	3	100	0	5	-127.5041	-63.06501	-22.02358	
18:40:25	47.46368	-122.3078	-0.084	-1.328409	-296.0869	0.02	3	100	0	5	-121.5337	-37.45092	-122.7418	
18:40:27	47.46368	-122.3078	-0.084	-1.092189	81.42326	0.02	3	100	0	5	-150.8649	-32.77868	144.6001	
18:40:29	47.46369	-122.3078	-0.084	1.992315	287.5485	0.02	3	100	0	5	-151.5836	-56.80328	50.11945	
18:40:30	47.46369	-122.3078	-0.084	0.7689451	-87.23215	0.02	3	100	0	5	-125.0906	-52.37207	-63.47256	
18:40:32	47.46369	-122.3078	-0.084	-1.617281	-189.4383	0.02	3	100	0	5	-131.3436	-34.02196	-164.1125	
18:40:34	47.46369	-122.3078	-0.084	0.134386	194.7192	0.02	3	100	0	5	-151.9724	-43.52683	98.82529	
18:40:35	47.46369	-122.3078	-0.084	1.775117	163.2393	0.02	3	100	0	5	-141.2703	-57.10441	-2.722243	
18:40:37	47.46369	-122.3078	-0.083	-0.3410954	-260.2895	0.03	3	100	0	5	-94.7622	-40.70248	-110.1966	
18:40:39	47.46369	-122.3078	-0.084	-8.477288	-1458.982	0.03	3	100	0	42	-47.22184	26.68524	-142.071	
18:40:41	47.46369	-122.3078	-0.084	-14.79858	-1331.387	0.03	3	100	0	91	142.4421	60.68839	-4.941213	
18:40:42	47.46369	-122.3078	-0.084	-3.135014	600.6536	0.03	3	100	0	67	-154.2374	-15.36938	-40.13279	
18:40:44	47.46369	-122.3078	-0.084	5.734919	575.116	0.03	3	100	0	75	-94.31729	2.21518	-113.6612	
18:40:46	47.46369	-122.3078	-0.084	0.1005718	-396.8016	0.03	3	100	0	95	-98.82256	56.18488	165.1523	
18:40:47	47.46369	-122.3078	-0.084	-1.642751	110.584	0.03	3	100	0	93	-155.2654	25.33233	21.80092	
18:40:49	47.46369	-122.3078	-0.084	4.288071	648.7603	0.03	3	100	0	89	-118.9653	2.106295	-52.29988	
18:40:51	47.46369	-122.3078	-0.084	3.278735	75.24734	0.03	3	100	0	95	-105.7115	33.06493	-133.5465	
18:40:53	47.46369	-122.3078	-0.084	-0.2030133	-37.12927	0.04	3	100	0	95	-141.3145	40.28138	101.1492	
18:40:54	47.46369	-122.3078	-0.084	2.366341	460.9633	0.03	3	100	0	94	-133.0747	12.92368	7.445553	
18:40:56	47.46369	-122.3078	-0.084	3.530407	248.1116	0.03	3	100	0	95	-109.2767	20.58277	-71.53227	
18:40:58	47.46369	-122.3078	-0.084	0.2945392	-113.5764	0.04	3	100	0	95	-127.4188	41.34059	-178.6101	
18:41:00	47.46369	-122.3078	-0.084	0.6273788	240.1903	0.03	3	100	0	95	-142.9331	22.80654	67.50956	
18:41:01	47.46369	-122.3078	-0.084	3.075172	333.7831	0.03	3	100	0	94	-117.6391	11.18483	-14.11659	
18:41:03	47.46369	-122.3078	-0.084	0.6739869	-158.9794	0.03	3	100	0	95	-108.7113	34.14685	-98.63062	
18:41:05	47.46369	-122.3078	-0.084	-1.696466	-121.3453	0.03	3	100	0	95	-142.4893	36.37531	137.3324	
18:41:06	47.46369	-122.3078	-0.084	1.287254	346.7513	0.03	3	100	0	94	-134.5442	14.44465	43.07096	
18:41:08	47.4637	-122.3078	-0.084	2.387371	132.2897	0.04	3	100	0	95	-110.8734	17.50353	-36.23006	
18:41:10	47.4637	-122.3078	-0.085	-1.189986	-297.1929	0.03	3	100	0	95	-120.3296	40.54085	-136.3611	
18:41:12	47.4637	-122.3078	-0.084	-1.403752	36.61297	0.02	3	100	0	95	-145.1761	27.76475	105.1052	
18:41:13	47.4637	-122.3078	-0.082	2.031996	329.5598	0.04	3	100	0	93	-124.6661	10.20313	20.87123	
18:41:15	47.4637	-122.3078	-0.085	0.8842319	-117.2993	0.03	3	100	0	95	-107.3241	26.0964	-60.3941	
18:41:17	47.4637	-122.3078	-0.083	-2.433164	-308.2937	0.03	3	100	0	95	-133.3217	42.79388	-173.5317	
18:41:18	47.4637	-122.3078	-0.083	-0.4757771	198.0839	0.04	3	100	0	95	-140.7412	18.80655	78.29539	
18:41:20	47.4637	-122.3078	-0.087	2.091466	198.9451	0.03	3	100	0	95	-113.3203	13.18001	0.3083214	
18:41:22	47.4637	-122.3078	-0.084	-0.7140836	-283.3312	0.03	3	100	0	95	-110.6158	35.99683	-88.29362	
18:41:24	47.4637	-122.3078	-0.084	-2.375597	-145.0727	0.03	3	100	0	95	-143.537	38.76094	154.789	
18:41:25	47.4637	-122.3078	-0.083	1.293472	373.1327	0.04	3	100	0	93	-135.3755	11.64066	59.72272	
18:41:27	47.4637	-122.3078	-0.085	2.483141	129.2451	0.04	3	100	0	95	-109.8707	16.59958	-14.62155	
18:41:29	47.4637	-122.3078	-0.084	-1.310591	-320.1263	0.03	3	100	0	95	-116.1895	40.76669	-110.6876	
18:41:31	47.4637	-122.3078	-0.084	-1.884737	-27.44099	0.03	3	100	0	95	-148.218	32.74244	131.2326	
18:41:32	47.4637	-122.3078	-0.084	1.986229	384.2265	0.03	3	100	0	93	-128.6879	11.17942	43.72107	
18:41:34	47.4637	-122.3078	-0.084	1.952027	27.82292	0.03	3	100	0	95	-106.7072	21.19899	-32.59348	
18:41:36	47.4637	-122.3078	-0.083	-1.908074	-338.6326	0.03	3	100	0	95	-124.727	42.70768	-135.1798	
18:41:37	47.4637	-122.3078	-0.083	-1.392877	61.09281	0.04	3	100	0	95	-143.7763	25.78725	114.2305	
18:41:39	47.4637	-122.3078	-0.084	1.938219	296.6273	0.03	3	100	0	93	-122.1071	11.06264	29.23254	
18:41:41	47.4637	-122.3078	-0.083	0.3292275	-194.1145	0.04	3	100	0	95	-106.387	31.14619	-54.73043	
18:41:43	47.4637	-122.3078	-0.084	-2.635211	-278.9955	0.03	3	100	0	95	-135.4966	44.04705	-165.0156	
18:41:44	47.4637	-122.3078	-0.084	0.1155675	283.4366	0.03	3	100	0	95	-142.6552	19.01423	89.53081	
18:41:46	47.4637	-122.3078	-0.084	2.896343	281.7322	0.03	3	100	0	93	-114.6523	11.27956	10.24767	
18:41:48	47.4637	-122.3078	-0.084	-0.02628124	-233.9527	0.05	3	100	0	95	-111.474	36.35831	-72.18244	
18:41:49	47.4637	-122.3078	-0.083	-2.156999	-153.5035	0.04	3	100	0	95	-141.3279	36.27652	171.11	
18:41:51	47.4637	-122.3078	-0.084	0.8511035	292.0255	0.04	3	100	0	95	-134.163	16.93859	73.49183	
18:41:53	47.4637	-122.3078	-0.084	2.110587	134.5394	0.05	3	100	0	95	-112.9539	18.35952	-4.725959	
18:41:55	47.4637	-122.3078	-0.084	-0.8342	-238.6018	0.04	3	100	0	95	-116.7187	37.93559	-98.34489	
18:41:56	47.4637	-122.3078	-0.084	-1.430909	-21.79779	0.05	3	100	0	95	-143.9561	33.09661	146.6406	
18:41:58	47.4637	-122.3078	-0.084	1.649663	325.314	0.05	3	100	0	94	-129.1385	13.18482	56.0764	
18:42:00	47.46371	-122.3078	-0.084	1.708351	28.44745	0.05	3	100	0	95	-110.7804	22.41827	-20.2813	
18:42:02	47.46371	-122.3078	-0.084	-1.529093	-266.4366	0.05	3	100	0	95	-123.8044	37.76006	-123.9659	
18:42:03	47.46371	-122.3078	-0.084	-1.167838	41.52542	0.05	3	100	0	95	-141.2771	26.78779	126.4529	
18:42:05	47.46371	-122.3079	-0.084	1.608097	268.265	0.05	3	100	0	95	-124.9738	14.96334	41.46387	
18:42:07	47.46371	-122.3079	-0.084	0.8640293	-76.11148	0.05	3	100	0	95	-110.8485	25.85974	-40.74015	
18:42:08	47.46371	-122.3079	-0.084	-1.897171	-247.9457	0.05	3	100	0	95	-130.5139	40.14547	-147.6996	
18:42:10	47.46371	-122.3079	-0.084	-0.4661636	168.1696	0.04	3	100	0	95	-142.2729	21.82073	103.9649	
18:42:12	47.46371	-122.3079	-0.084	2.238989	255.4276	0.05	3	100	0	92	-117.4814	9.706518	22.81504	
18:42:14	47.46371	-122.3079	-0.084	-0.1621002	-238.684	0.05	3	100	0	95	-106.0192	34.1996	-57.73095	
18:42:15	47.46371	-122.3079	-0.084	-2.463123	-198.0718	0.05	3	100	0	95	-141.5612	39.90713	-176.913	
18:42:17	47.46371	-122.3079	-0.084	0.7576558	319.3877	0.05	3	100	0	94	-138.2672	14.61498	83.25357	
18:42:19	47.46371	-122.3079	-0.084	2.414323	159.5765	0.05	3	100	0	95	-111.1913	14.77104	4.879201	
18:42:21	47.46371	-122.3079	-0.084	-1.125215	-319.0899	0.05	3	100	0	95	-113.8275	38.97704	-86.3734	
18:42:22	47.46371	-122.3079	-0.084	-2.293659	-125.6784	0.05	3	100	0	95	-138.1523	43.50515	162.4132	
18:42:24	47.46371	-122.3079	-0.084	-1.988309	-408.5938	0.03	3	100	0	95	72.70552	36.54808	54.97589	
18:42:26	47.46371	-122.3079	-0.084	-10.79365	-1731.117	0.03	3	100	0	50	25.83386	-34.1501	45.76083	
18:42:27	47.46371	-122.3079	-0.084	-16.31157	-1336.344	0.03	3	100	0	17	-137.9998	-38.50187	159.9995	
18:42:29	47.46371	-122.3079	-0.084	-2.356525	699.521	0.03	3	100	0	49	141.6759	27.3911	101.9048	
18:42:31	47.46371	-122.3079	-0.084	5.201308	412.4075	0.03	3	100	0	28	82.67136	-11.8552	34.2314	
18:42:33	47.46371	-122.3079	-0.084	-1.236126	-457.3208	0.03	3	100	0	5	119.2032	-65.99046	-73.07542	
18:42:34	47.46371	-122.3079	-0.084	-0.4256806	364.8013	0.03	3	100	0	8	156.3113	-17.06067	160.8369	
18:42:36	47.46372	-122.3079	-0.084	6.063071	774.6765	0.03	3	100	0	10	113.4288	-2.080321	87.87469	
18:42:38	47.46372	-122.3079	-0.084	3.726087	48.82194	0.03	3	100	0	5	101.6572	-38.95987	5.823939	
18:42:39	47.46372	-122.3079	-0.084	-0.06320045	13.39055	0.03	3	100	0	5	148.7448	-37.32179	-126.3387	
18:42:41	47.46372	-122.3079	-0.084	3.045656	524.7697	0.03	3	100	0	7	128.8953	-8.830329	147.5329	
18:42:43	47.46372	-122.3079	-0.084	3.539222	183.9377	0.03	3	100	0	5	105.7272	-23.64839	67.29662	
18:42:45	47.46372	-122.3079	-0.084	-0.2230565	-153.3396	0.03	3	100	0	5	130.86	-44.46865	-48.68676	
18:42:46	47.46372	-122.3079	-0.084	0.6717411	275.4794	0.03	3	100	0	5	140.0382	-18.60591	-161.098	
18:42:48	47.46372	-122.3079	-0.084	3.000252	275.778	0.03	3	100	0	5	108.4344	-14.37039	119.2158	
18:42:50	47.46372	-122.3079	-0.084	0.05293261	-181.823	0.03	3	100	0	5	116.176	-40.72126	18.40923	
18:42:52	47.46372	-122.3079	-0.084	-0.8735182	44.87717	0.03	3	100	0	5	146.5809	-31.7157	-101.6279	
18:42:53	47.46372	-122.3079	-0.084	2.512972	413.2505	0.03	3	100	0	8	125.4227	-8.054736	169.9654	
18:42:55	47.46372	-122.3079	-0.084	1.683684	-46.10601	0.03	3	100	0	5	105.4718	-27.32938	89.68498	
18:42:57	47.46372	-122.3079	-0.084	-1.898545	-260.6241	0.03	3	100	0	5	133.5369	-42.20333	-27.74691	
18:42:58	47.46372	-122.3079	-0.084	-0.0598095	234.689	0.03	3	100	0	5	140.3158	-19.10313	-138.3411	
18:43:00	47.46373	-122.3079	-0.084	2.602689	268.1187	0.03	3	100	0	5	113.2497	-12.80899	138.8366	
18:43:02	47.46373	-122.3079	-0.084	-0.1016746	-236.5855	0.03	3	100	0	5	110.1759	-37.64888	49.77596	
18:43:04	47.46373	-122.3079	-0.084	-2.14941	-149.5221	0.03	3	100	0	5	142.381	-36.04143	-70.54143	
18:43:05	47.46373	-122.3079	-0.084	0.8712464	305.858	0.03	3	100	0	5	132.0128	-13.81845	-167.997	
18:43:07	47.46373	-122.3079	-0.084	2.038183	99.79087	0.02	3	100	0	5	107.4543	-18.00279	113.1975	
18:43:09	47.46373	-122.3079	-0.084	-1.44012	-323.684	0.03	3	100	0	5	119.1386	-43.3947	15.05984	
18:43:10	47.46373	-122.3079	-0.083	-1.685342	18.21623	0.03	3	100	0	5	145.5263	-27.07127	-109.9274	
18:43:12	47.46373	-122.3079	-0.084	2.093364	367.2454	0.03	3	100	0	6	127.0612	-12.01377	166.612	
18:43:14	47.46373	-122.3079	-0.084	1.559191	-30.62631	0.03	3	100	0	5	106.7059	-24.56067	83.92882	
18:43:16	47.46373	-122.3079	-0.084	-2.053048	-310.8142	0.03	3	100	0	5	129.7521	-42.38827	-28.59934	
18:43:17	47.46373	-122.3079	-0.084	-0.8189311	141.9182	0.03	3	100	0	5	140.9504	-21.15272	-140.9734	
18:43:19	47.46373	-122.3079	-0.084	2.116523	254.2867	0.03	3	100	0	5	115.0486	-12.45114	137.1785	
18:43:21	47.46373	-122.3079	-0.084	-0.2659499	-248.1511	0.03	3	100	0	5	110.2166	-36.65655	46.55604	
18:43:23	47.46373	-122.3079	-0.084	-2.413359	-188.4052	0.02	3	100	0	5	142.7818	-37.29895	-74.68487	
18:43:24	47.46373	-122.3079	-0.084	0.6622429	302.802	0.03	3	100	0	5	135.9494	-15.14805	-170.7179	
18:43:26	47.46373	-122.3079	-0.084	3.54411	559.9895	0.05	3	100	0	19	166.312	10.20194	113.968	
18:43:28	47.46373	-122.3079	-0.084	5.466357	435.7579	0.06	3	100	0	60	179.0745	71.09426	33.07602	
18:43:29	47.46373	-122.3079	-0.084	-0.679482	-498.6325	0.06	3	100	0	78	101.9539	41.42851	-130.9824	
18:43:31	47.46373	-122.3079	-0.084	-4.042675	-276.6624	0.05	3	100	0	89	145.8662	32.25275	149.6985	
18:43:33	47.46374	-122.3079	-0.084	-0.003743369	220.3208	0.05	3	100	0	95	149.5653	47.21859	50.23723	
18:43:35	47.46374	-122.3079	-0.084	1.509708	124.8862	0.05	3	100	0	95	133.5471	52.04361	-62.48359	
18:43:36	47.46374	-122.3079	-0.084	0.1390681	-60.73797	0.05	3	100	0	95	130.3234	47.12943	-166.288	
18:43:38	47.46374	-122.3079	-0.084	-0.5593101	-37.05423	0.05	3	100	0	95	135.6441	43.03643	100.4324	
18:43:40	47.46374	-122.3079	-0.084	0.3532153	123.4172	0.05	3	100	0	95	143.1253	38.47385	2.921389	
18:43:41	47.46374	-122.3079	-0.084	1.419387	161.5496	0.05	3	100	0	95	146.3771	53.44296	-93.34244	
18:43:43	47.46374	-122.3079	-0.084	0.3063543	-85.38512	0.05	3	100	0	95	126.706	52.09535	159.9754	
18:43:45	47.46374	-122.3079	-0.084	-1.44944	-167.5568	0.05	3	100	0	95	132.0129	38.33663	65.69789	
18:43:47	47.46374	-122.3079	-0.084	-0.3328402	109.0739	0.05	3	100	0	95	150.1111	39.99175	-29.74516	
18:43:48	47.46375	-122.3079	-0.084	1.360627	157.374	0.05	3	100	0	95	142.9028	54.62223	-127.8951	
18:43:50	47.46375	-122.3079	-0.084	-0.01479112	-124.0218	0.05	3	100	0	95	127.1972	47.77124	126.6263	
18:43:52	47.46375	-122.3079	-0.084	-1.234755	-86.15878	0.05	3	100	0	95	136.8469	36.58915	23.74991	
18:43:53	47.46375	-122.3079	-0.084	0.610606	193.1815	0.05	3	100	0	95	150.3325	46.52552	-72.587	
18:43:55	47.46375	-122.3079	-0.084	1.238365	62.46644	0.05	3	100	0	95	134.5922	56.92438	-176.2865	
18:43:57	47.46375	-122.3079	-0.084	-0.9896844	-222.5815	0.04	3	100	0	95	124.2778	43.2504	81.58851	
18:43:59	47.46375	-122.3079	-0.084	-1.394622	-25.97602	0.06	3	100	0	95	148.2136	35.06688	-16.35143	
18:44:00	47.46375	-122.3079	-0.084	0.9539829	188.424	0.04	3	100	0	95	149.36	54.23046	-108.9974	
18:44:02	47.46375	-122.3079	-0.084	0.2940772	-101.7606	0.04	3	100	0	95	124.7782	54.26179	141.8258	
18:44:04	47.46375	-122.3079	-0.084	-1.817809	-220.4037	0.04	3	100	0	95	131.0504	37.20183	50.94615	
18:44:06	47.46375	-122.3079	-0.084	-0.6185349	102.0119	0.05	3	100	0	95	149.7175	37.86028	-39.53314	
18:44:07	47.46375	-122.3079	-0.084	1.433205	167.059	0.04	3	100	0	95	146.1058	59.57391	-133.4807	
18:44:09	47.46375	-122.3079	-0.084	-0.4104254	-202.9095	0.04	3	100	0	95	117.6977	49.99636	115.2882	
18:44:11	47.46376	-122.3079	-0.084	-2.168339	-180.3635	0.05	3	100	0	95	135.2442	32.64462	31.25323	
18:44:12	47.46376	-122.3079	-0.084	0.3073252	226.0944	0.04	3	100	0	95	153.3199	39.9133	-54.23744	
18:44:14	47.46376	-122.3079	-0.084	2.028867	169.8157	0.04	3	100	0	95	138.7807	60.08805	-153.326	
18:44:16	47.46376	-122.3079	-0.084	-0.4479402	-208.5513	0.04	3	100	0	95	122.5874	47.68018	105.8107	
18:44:18	47.46376	-122.3079	-0.084	-2.013909	-164.2875	0.04	3	100	0	95	135.4223	34.30396	19.9917	
18:44:19	47.46376	-122.3079	-0.084	0.2020894	191.8899	0.04	3	100	0	95	153.1586	42.03086	-65.73735	
18:44:21	47.46376	-122.3079	-0.084	1.567666	115.5785	0.04	3	100	0	95	139.7178	58.19429	-160.0712	
18:44:23	47.46376	-122.3079	-0.084	-0.7510688	-227.2518	0.04	3	100	0	95	123.4033	47.97604	100.0407	
18:44:24	47.46376	-122.3079	-0.084	-2.010505	-213.7511	0.09	3	100	0	76	142.0187	28.69865	20.91548	
18:44:26	47.46376	-122.3079	-0.084	-1.618377	-276.6904	0.05	3	100	0	95	93.23111	36.07523	-34.71346	
18:44:28	47.46376	-122.3079	-0.084	-8.20956	-1392.373	0.05	3	100	0	95	-6.43293	45.0581	-114.7044	
18:44:30	47.46376	-122.3079	-0.084	-16.42963	-1740.663	0.06	3	100	0	58	-91.67922	-25.78777	-114.7711	
18:44:31	47.46376	-122.3079	-0.084	-7.510166	211.7982	0.05	3	100	0	55	171.3602	-3.80815	-41.05869	
18:44:33	47.46376	-122.3079	-0.084	6.151464	1012.991	0.05	3	100	0	95	136.8104	59.4584	-22.1932	
18:44:35	47.46376	-122.3079	-0.084	4.437157	-11.83636	0.05	3	100	0	95	-70.29291	60.39137	-176.3352	
18:44:37	47.46376	-122.3079	-0.084	-2.769923	-440.7758	0.05	3	100	0	87	-112.2861	15.05731	-129.3218	
18:44:38	47.46377	-122.3079	-0.084	-1.018678	285.8672	0.05	3	100	0	95	-164.574	26.77709	-64.15887	
18:44:40	47.46377	-122.3079	-0.084	5.182353	734.3302	0.05	3	100	0	95	-155.7299	55.82804	31.1406	
18:44:42	47.46377	-122.3079	-0.083	5.157999	380.0917	0.05	3	100	0	95	-126.387	51.26757	138.3533	
18:44:43	47.46377	-122.3079	-0.084	2.683741	184.4903	0.05	3	100	0	95	-132.0494	40.87915	-144.1283	
18:44:45	47.46377	-122.3079	-0.084	2.351069	277.4321	0.05	3	100	0	95	-141.5608	41.22693	-62.66343	
18:44:47	47.46377	-122.3079	-0.084	3.11119	361.1972	0.05	3	100	0	95	-144.9336	41.43837	27.58678	
18:44:49	47.46377	-122.3079	-0.083	3.451113	342.2807	0.05	3	100	0	95	-144.9438	45.7491	114.6171	
18:44:50	47.46377	-122.3079	-0.084	2.870793	218.5488	0.05	3	100	0	95	-138.9777	50.21499	-158.0938	
18:44:52	47.46377	-122.3079	-0.084	1.553284	67.55582	0.05	3	100	0	95	-133.9992	44.65752	-71.69985	
18:44:54	47.46377	-122.3079	-0.084	0.6950994	91.4763	0.05	3	100	0	95	-140.4626	37.26639	15.16937	
18:44:55	47.46378	-122.3079	-0.084	1.745965	259.4009	0.05	3	100	0	95	-150.6553	41.91364	102.2921	
18:44:57	47.46378	-122.3079	-0.084	2.218967	209.2072	0.05	3	100	0	95	-144.8672	53.27277	-170.6554	
18:44:59	47.46378	-122.3079	-0.084	0.5383366	-74.4661	0.05	3	100	0	95	-128.6902	47.87652	-72.92586	
18:45:01	47.46378	-122.3079	-0.084	-0.8186942	-65.74091	0.05	3	100	0	95	-135.4321	35.68039	16.08861	
18:45:02	47.46378	-122.3079	-0.084	0.7245691	217.4749	0.05	3	100	0	95	-150.7265	37.73534	99.99059	
18:45:04	47.46378	-122.3079	-0.084	2.192029	223.9438	0.05	3	100	0	95	-152.2224	54.05856	179.3877	
18:45:06	47.46378	-122.3079	-0.084	0.361599	-125.2723	0.05	3	100	0	95	-125.1333	51.19973	-76.04671	
18:45:07	47.46378	-122.3079	-0.084	-1.609683	-162.5497	0.05	3	100	0	95	-133.9568	33.2073	6.125303	
18:45:09	47.46378	-122.3079	-0.084	0.09109853	182.1378	0.05	3	100	0	95	-153.638	36.02331	88.9684	
18:45:11	47.46378	-122.3079	-0.084	1.926536	199.6179	0.05	3	100	0	95	-154.2175	55.36904	171.9591	
18:45:13	47.46378	-122.3079	-0.084	0.2453245	-152.0919	0.05	3	100	0	95	-124.3545	51.89462	-82.15793	
18:45:14	47.46378	-122.3079	-0.084	-1.655333	-237.6724	0.05	3	100	0	95	-131.2264	34.68203	1.604833	
18:45:16	47.46378	-122.3079	-0.084	-1.867579	-298.7615	0.04	3	100	0	87	-87.85972	20.12001	95.66766	
18:45:18	47.46378	-122.3079	-0.084	-8.241831	-1280.552	0.03	3	100	0	34	-62.22567	-53.31852	137.4968	
18:45:20	47.46378	-122.3079	-0.084	-10.26509	-656.1945	0.03	3	100	0	10	-178.1176	-36.23965	-39.40484	
18:45:21	47.46378	-122.3079	-0.084	0.2138914	602.3357	0.03	3	100	0	17	-131.6844	1.327696	38.58627	
18:45:23	47.46378	-122.3079	-0.084	4.114873	309.008	0.03	3	100	0	5	-106.0815	-26.55625	121.4238	
18:45:25	47.46378	-122.3079	-0.084	0.5433042	-98.50197	0.03	3	100	0	5	-128.4697	-41.04805	-133.4743	
18:45:26	47.46379	-122.3079	-0.084	0.3117472	140.0103	0.03	3	100	0	5	-132.8441	-22.50384	-34.31616	
18:45:28	47.46379	-122.3079	-0.084	1.915663	238.8196	0.03	3	100	0	5	-124.8915	-27.91903	60.20346	
18:45:30	47.46379	-122.3079	-0.083	1.926239	196.1501	0.03	3	100	0	5	-132.0235	-25.27098	163.503	
18:45:32	47.46379	-122.3079	-0.084	1.582753	113.0382	0.04	3	100	0	5	-118.3047	-20.56394	-109.8681	
18:45:33	47.46379	-122.3079	-0.084	-0.05510421	-108.9342	0.03	3	100	0	5	-119.2857	-33.67472	-19.6498	
18:45:35	47.46379	-122.3079	-0.084	-0.7460931	-9.985225	0.03	3	100	0	5	-138.3209	-31.27895	92.63506	
18:45:37	47.46379	-122.3079	-0.084	1.201625	237.4095	0.03	3	100	0	5	-129.9295	-16.99817	-172.3575	
18:45:38	47.46379	-122.3079	-0.084	1.24808	17.98393	0.03	3	100	0	5	-110.2606	-22.58555	-89.8282	
18:45:40	47.46379	-122.3079	-0.084	-1.530805	-277.1209	0.03	3	100	0	5	-124.3491	-41.44013	6.451438	
18:45:42	47.46379	-122.3079	-0.083	-1.151706	62.77193	0.03	3	100	0	5	-139.5926	-24.57865	129.4555	
18:45:44	47.46379	-122.3079	-0.084	1.718896	257.6402	0.03	3	100	0	5	-122.4535	-15.20565	-141.1173	
18:45:45	47.46379	-122.3079	-0.084	0.564196	-101.0817	0.03	3	100	0	5	-111.3417	-31.59679	-51.73817	
18:45:47	47.46379	-122.3079	-0.084	-1.523003	-156.4441	0.04	3	100	0	5	-136.6894	-36.05468	63.99621	
18:45:49	47.46379	-122.3079	-0.084	0.4756575	238.0096	0.03	3	100	0	5	-136.4532	-18.7541	167.8976	
18:45:50	47.46379	-122.3079	-0.084	2.122967	179.249	0.03	3	100	0	5	-114.6856	-16.41275	-110.782	
18:45:52	47.46379	-122.3079	-0.084	-0.5977858	-259.798	0.03	3	100	0	5	-114.9722	-36.6066	-18.79746	
18:45:54	47.46379	-122.3079	-0.084	-2.180189	-130.3781	0.03	3	100	0	5	-143.1421	-33.69516	103.6373	
18:45:56	47.46379	-122.3079	-0.084	0.8904368	286.0714	0.03	3	100	0	5	-133.2892	-13.59326	-163.3826	
18:45:57	47.46379	-122.3079	-0.084	1.678138	43.51777	0.03	3	100	0	5	-108.2766	-19.65987	-82.77054	
18:45:59	47.46379	-122.3079	-0.084	-1.893066	-358.6979	0.03	3	100	0	5	-123.0121	-44.35747	21.61689	
18:46:01	47.46379	-122.3079	-0.084	-1.793714	13.39188	0.03	3	100	0	5	-145.4506	-24.96891	138.8589	
18:46:03	47.46379	-122.3079	-0.083	1.460187	242.0837	0.03	3	100	0	5	-117.6096	-11.70754	-132.3671	
18:46:04	47.46379	-122.3079	-0.084	-0.1794478	-221.8614	0.03	3	100	0	5	-109.6333	-34.45507	-40.35083	
18:46:06	47.46379	-122.3079	-0.084	-2.580576	-235.1476	0.03	3	100	0	5	-140.5793	-38.11246	83.54464	
18:46:08	47.46379	-122.3079	-0.084	0.1986498	251.9093	0.04	3	100	0	5	-136.178	-16.11469	-175.2989	
18:46:09	47.46379	-122.3079	-0.084	1.876304	113.5855	0.03	3	100	0	5	-109.1509	-16.54479	-91.04427	
18:46:11	47.46379	-122.3079	-0.084	-1.409104	-329.6647	0.03	3	100	0	5	-118.7113	-42.08773	8.203821	
18:46:13	47.46379	-122.3079	-0.084	-1.859764	-17.70031	0.03	3	100	0	5	-145.894	-28.03354	130.5903	
18:46:15	47.46379	-122.3079	-0.084	1.53684	289.6963	0.03	3	100	0	5	-121.0071	-11.47201	-139.6689	
18:46:16	47.46379	-122.3079	-0.084	0.8336599	-84.28706	0.03	3	100	0	5	-111.6226	-30.23947	-53.81948	
18:46:18	47.46379	-122.3079	-0.082	-1.74255	-202.2325	0.03	3	100	0	5	-133.8913	-41.07146	60.45365	
18:46:20	47.46379	-122.3079	-0.078	0.1888589	240.6783	0.03	3	100	0	5	-141.0092	-18.84019	168.5837	
18:46:21	47.46379	-122.3079	-0.075	2.576596	254.5449	0.03	3	100	0	5	-114.8538	-14.83263	-112.1905	
18:46:23	47.4638	-122.3079	-0.076	0.02619835	-192.3176	0.03	3	100	0	5	-115.7711	-37.70448	-19.87228	
18:46:25	47.4638	-122.3079	-0.075	-1.2786	-33.6269	0.03	3	100	0	5	-142.5517	-30.45406	104.0609	
18:46:27	47.4638	-122.3079	-0.074	1.388191	275.6136	0.03	3	100	0	5	-127.7154	-15.21185	-160.911	
18:46:28	47.4638	-122.3079	-0.074	1.343718	13.95346	0.03	3	100	0	5	-111.8106	-25.08001	-75.74068	
18:46:30	47.4638	-122.3079	-0.094	-1.113913	-178.4766	0.03	3	100	0	5	-130.7552	-37.38287	39.63157	
18:46:32	47.4638	-122.3079	-0.094	-0.2741925	127.7695	0.03	3	100	0	5	-138.2041	-25.42738	151.101	
18:46:34	47.4638	-122.3079	-0.092	1.871488	233.7607	0.03	3	100	0	5	-120.3476	-15.50261	-121.4346	
18:46:35	47.4638	-122.3079	-0.092	0.1277916	-161.7199	0.03	3	100	0	5	-115.4907	-33.34354	-27.90686	
18:46:37	47.4638	-122.3079	-0.091	-1.756594	-145.1971	0.03	3	100	0	5	-139.2784	-36.54692	87.2717	
18:46:39	47.4638	-122.3079	-0.087	0.682629	254.9174	0.03	3	100	0	5	-134.349	-14.72038	-173.3544	
18:46:40	47.4638	-122.3079	-0.085	1.466027	39.46132	0.03	3	100	0	5	-109.2896	-19.80054	-89.11655	
18:46:42	47.4638	-122.3079	-0.084	-1.91961	-353.4753	0.03	3	100	0	5	-123.5929	-41.94027	12.00136	
18:46:44	47.4638	-122.3079	-0.084	-1.893861	-12.37494	0.03	3	100	0	5	-144.7271	-25.69124	129.4598	
18:46:46	47.4638	-122.3079	-0.084	1.199428	220.9769	0.03	3	100	0	5	-118.5558	-12.72568	-142.9501	
18:46:47	47.4638	-122.3079	-0.084	0.05781438	-164.0392	0.04	3	100	0	5	-110.7627	-31.96358	-56.92582	
18:46:49	47.4638	-122.3079	-0.084	-2.205855	-219.3152	0.03	3	100	0	5	-137.5465	-35.21579	63.07714	
18:46:51	47.4638	-122.3079	-0.083	-0.1712317	171.095	0.03	3	100	0	5	-131.339	-18.06708	172.1081	
18:46:53	47.4638	-122.3079	-0.084	1.366413	101.5126	0.03	3	100	0	5	-113.4536	-20.63399	-104.0054	
18:46:54	47.4638	-122.3079	-0.084	-0.8266003	-212.9149	0.03	3	100	0	5	-120.7143	-36.29497	-4.566354	
18:46:56	47.4638	-122.3079	-0.083	-1.477471	-51.16824	0.03	3	100	0	5	-139.6808	-31.31752	112.9718	
