Date	Latitude(deg) 	Longitude(deg)	hamsl(m)	hafl(m)	climbrate(cm/s)	GroundSpeed(m/s)	Airspeed(m/s)	Mav_Link(%)	Rssi_Link(%)	Throttle	Roll(deg)	Pitch(deg)	Yaw(deg)
14:27:57	0	0	0	0	0	0	0	100	0	0	-2.038014	-1.674723	84.89538	
14:27:57	0	0	0	0	0	0	0	100	0	0	-2.033988	-1.68681	84.87827	
14:27:57	0	0	0	-0.3635586	-17.18963	0	3	100	0	50	-2.030391	-1.690704	84.88211	
14:27:57	0	0	0	-0.3635586	-17.18963	0	3	100	0	50	-2.024103	-1.68372	84.87569	
14:27:58	0	0	0	-0.3635586	-17.18963	0	3	100	0	50	-2.011559	-1.694021	84.87322	
14:27:58	0	0	0	-0.3635586	-17.18963	0	3	100	0	50	-2.01692	-1.701823	84.86488	
14:27:58	0	0	0	-0.3635586	-17.18963	0	3	100	0	50	-2.021856	-1.705606	84.86818	
14:27:58	0	0	0	-0.4174177	-5.610983	0	3	100	0	50	-2.030398	-1.72458	84.86279	
14:27:58	0	0	0	-0.4174177	-5.610983	0	3	100	0	50	-2.029683	-1.734397	84.86035	
14:27:59	0	0	0	-0.4174177	-5.610983	0	3	100	0	50	-2.024208	-1.738205	84.86002	
14:27:59	0	0	0	-0.4174177	-5.610983	0	3	100	0	50	-2.022554	-1.748826	84.86597	
14:27:59	0	0	0	-0.4174177	-5.610983	0	3	100	0	50	-2.023522	-1.757425	84.87409	
14:27:59	0	0	0	0.3692069	31.82818	0	3	100	0	50	-2.020675	-1.754135	84.87095	
14:27:59	0	0	0	0.3692069	31.82818	0	3	100	0	50	-2.027463	-1.753574	84.87607	
14:28:00	0	0	0	0.3692069	31.82818	0	3	100	0	50	-2.035743	-1.756788	84.86393	
14:28:00	0	0	0	0.3692069	31.82818	0	3	100	0	50	-2.037552	-1.75768	84.86742	
14:28:00	0	0	0	0.3692069	31.82818	0	3	100	0	50	-2.030471	-1.733485	84.8558	
14:28:00	0	0	0	0.8169577	38.76384	0	3	100	0	50	-2.02825	-1.731111	84.8695	
14:28:00	0	0	0	0.8169577	38.76384	0	3	100	0	50	-2.030333	-1.734367	84.86707	
14:28:01	0	0	0	0.8169577	38.76384	0	3	100	0	50	-2.034092	-1.740116	84.86274	
14:28:01	0	0	0	0.8169577	38.76384	0	3	100	0	50	-2.034488	-1.740628	84.85426	
14:28:01	0	0	0	0.8169577	38.76384	0	3	100	0	50	-2.032708	-1.742833	84.85455	
14:28:01	0	0	0	0.5840386	13.36355	0	3	100	0	50	-2.02983	-1.744863	84.85713	
14:28:01	0	0	0	0.5840386	13.36355	0	3	100	0	50	-2.031909	-1.724541	84.86333	
14:28:02	0	0	0	0.5840386	13.36355	0	3	100	0	50	-2.023727	-1.737979	84.86665	
14:28:02	0	0	0	0.5840386	13.36355	0	3	100	0	50	-2.013019	-1.736228	84.86924	
14:28:02	0	0	0	0.5840386	13.36355	0	3	100	0	50	-2.01501	-1.723472	84.87772	
14:28:02	0	0	0	0.3169456	-1.358999	0	3	100	0	50	-2.01386	-1.714318	84.86908	
14:28:02	0	0	0	0.3169456	-1.358999	0	3	100	0	50	-2.020799	-1.729242	84.8782	
14:28:03	0	0	0	0.3169456	-1.358999	0	3	100	0	50	-2.01372	-1.737777	84.87454	
14:28:03	0	0	0	0.3169456	-1.358999	0	3	100	0	50	-2.025134	-1.737392	84.88532	
14:28:03	0	0	0	0.3169456	-1.358999	0	3	100	0	50	-2.019505	-1.746083	84.89477	
14:28:03	0	0	0	0.2128213	-5.482227	0	3	100	0	50	-2.016901	-1.744897	84.90377	
14:28:03	0	0	0	0.2128213	-5.482227	0	3	100	0	50	-2.023654	-1.751585	84.89094	
14:28:04	0	0	0	0.2128213	-5.482227	0	3	100	0	50	-2.028384	-1.762159	84.90015	
14:28:04	0	0	0	0.2128213	-5.482227	0	3	100	0	50	-2.015008	-1.75536	84.91225	
14:28:04	0	0	0	0.2128213	-5.482227	0	3	100	0	50	-2.008998	-1.755572	84.91077	
14:28:04	0	0	0	0.04668684	-10.17967	0	3	100	0	50	-2.006267	-1.762901	84.91367	
14:28:04	0	0	0	0.04668684	-10.17967	0	3	100	0	50	-2.010709	-1.767633	84.92094	
14:28:05	0	0	0	0.04668684	-10.17967	0	3	100	0	50	-1.998766	-1.756159	84.9162	
14:28:05	0	0	0	0.04668684	-10.17967	0	3	100	0	50	-1.992398	-1.748024	84.90398	
14:28:05	0	0	0	0.04668684	-10.17967	0	3	100	0	50	-1.98928	-1.739873	84.89489	
14:28:05	0	0	0	0.009282644	-5.914873	0	3	100	0	50	-1.984568	-1.745649	84.89905	
14:28:05	0	0	0	0.009282644	-5.914873	0	3	100	0	50	-1.983066	-1.726214	84.89478	
14:28:06	0	0	0	0.009282644	-5.914873	0	3	100	0	50	-1.980199	-1.718679	84.90133	
14:28:06	0	0	0	0.009282644	-5.914873	0	3	100	0	50	-1.977702	-1.727204	84.90867	
14:28:06	0	0	0	0.009282644	-5.914873	0	3	100	0	50	-1.974557	-1.735224	84.90697	
14:28:06	0	0	0	0.1002866	0.8775809	0	3	100	0	50	-1.975754	-1.729739	84.9025	
14:28:06	0	0	0	0.1002866	0.8775809	0	3	100	0	50	-1.978408	-1.738236	84.90899	
14:28:07	0	0	0	0.1002866	0.8775809	0	3	100	0	50	-1.974536	-1.742793	84.92347	
14:28:07	0	0	0	0.1002866	0.8775809	0	3	100	0	50	-1.982383	-1.723134	84.92449	
14:28:07	0	0	0	0.1002866	0.8775809	0	3	100	0	50	-1.989079	-1.736582	84.90403	
14:28:07	0	0	0	0.2912773	9.758049	0	3	100	0	50	-1.994501	-1.725486	84.89851	
14:28:07	0	0	0	0.2912773	9.758049	0	3	100	0	50	-1.992501	-1.719656	84.89581	
14:28:08	0	0	0	0.2912773	9.758049	0	3	100	0	50	-1.990709	-1.704298	84.90186	
14:28:08	0	0	0	0.2912773	9.758049	0	3	100	0	50	-1.995911	-1.684808	84.89191	
14:28:08	0	0	0	0.2912773	9.758049	0	3	100	0	50	-1.997798	-1.682647	84.89638	
14:28:08	0	0	0	0.3699737	9.698591	0	3	100	0	50	-1.996077	-1.680658	84.90078	
14:28:08	0	0	0	0.3699737	9.698591	0	3	100	0	50	-2.000571	-1.668079	84.90493	
14:28:09	0	0	0	0.3699737	9.698591	0	3	100	0	50	-2.002929	-1.703391	84.89958	
14:28:09	0	0	0	0.3699737	9.698591	0	3	100	0	50	-1.995376	-1.706915	84.90598	
14:28:09	0	0	0	0.3699737	9.698591	0	3	100	0	50	-1.996736	-1.698195	84.91643	
14:28:09	0	0	0	-0.2252534	-19.17131	0	3	100	0	50	-1.997689	-1.690453	84.92448	
14:28:09	0	0	0	-0.2252534	-19.17131	0	3	100	0	50	-2.000632	-1.695867	84.91533	
14:28:10	0	0	0	-0.2252534	-19.17131	0	3	100	0	50	-1.994941	-1.659486	84.93826	
14:28:10	0	0	0	-0.2252534	-19.17131	0	3	100	0	50	-1.99788	-1.646412	84.94923	
14:28:10	0	0	0	-0.2252534	-19.17131	0	3	100	0	50	-2.004018	-1.65155	84.96204	
14:28:10	0	0	0	-0.2651932	-13.70346	0	3	100	0	50	-1.998849	-1.63634	84.9701	
14:28:10	0	0	0	-0.2651932	-13.70346	0	3	100	0	50	-2.013983	-1.627513	84.98035	
14:28:11	0	0	0	-0.2651932	-13.70346	0	3	100	0	50	-2.002909	-1.632922	84.99287	
14:28:11	0	0	0	-0.2651932	-13.70346	0	3	100	0	50	-2.004512	-1.625185	85.00143	
14:28:11	0	0	0	-0.2651932	-13.70346	0	3	100	0	50	-2.007947	-1.646469	84.99347	
14:28:11	0	0	0	0.01815692	4.534055	0	3	100	0	50	-2.012762	-1.648851	84.96669	
14:28:11	0	0	0	0.01815692	4.534055	0	3	100	0	50	-2.02426	-1.651131	84.95954	
14:28:12	0	0	0	0.01815692	4.534055	0	3	100	0	50	-2.016216	-1.653099	84.94274	
14:28:12	0	0	0	0.01815692	4.534055	0	3	100	0	50	-2.021518	-1.664199	84.94452	
14:28:12	0	0	0	0.01815692	4.534055	0	3	100	0	50	-2.018809	-1.684484	84.95056	
14:28:12	0	0	0	0.2972458	13.15985	0	3	100	0	50	-2.019595	-1.713553	84.94395	
14:28:12	0	0	0	0.2972458	13.15985	0	3	100	0	50	-2.030961	-1.730885	84.94131	
14:28:13	0	0	0	0.2972458	13.15985	0	3	100	0	50	-2.032185	-1.744008	84.94695	
14:28:13	0	0	0	0.2972458	13.15985	0	3	100	0	50	-2.027822	-1.747853	84.94798	
14:28:13	0	0	0	0.2972458	13.15985	0	3	100	0	50	-2.04269	-1.767128	84.95445	
14:28:13	0	0	0	0.05556032	-1.991568	0	3	100	0	50	-2.047033	-1.759024	84.93812	
14:28:13	0	0	0	0.05556032	-1.991568	0	3	100	0	50	-2.047158	-1.753618	84.94881	
14:28:14	0	0	0	0.05556032	-1.991568	0	3	100	0	50	-2.044041	-1.741613	84.95472	
14:28:14	0	0	0	0.05556032	-1.991568	0	3	100	0	50	-2.047577	-1.728118	84.95827	
14:28:14	0	0	0	0.05556032	-1.991568	0	3	100	0	50	-2.040371	-1.738118	84.94855	
14:28:14	0	0	0	0.02885449	-1.999613	0	3	100	0	50	-2.047171	-1.757537	84.96268	
14:28:14	0	0	0	0.02885449	-1.999613	0	3	100	0	50	-1.945684	-1.74647	84.95401	
14:28:15	0	0	0	0.02885449	-1.999613	0	3	100	0	50	-2.039595	-1.750046	84.95408	
14:28:15	0	0	0	0.02885449	-1.999613	0	3	100	0	50	-2.036677	-1.728334	84.97124	
14:28:15	0	0	0	0.02885449	-1.999613	0	3	100	0	50	-2.029816	-1.718774	84.96325	
14:28:15	0	0	0	-0.1153653	-7.435216	0	3	100	0	50	-2.018278	-1.71964	84.95667	
14:28:15	0	0	0	-0.1153653	-7.435216	0	3	100	0	50	-2.020671	-1.732463	84.97313	
14:28:16	0	0	0	-0.1153653	-7.435216	0	3	100	0	50	-2.021077	-1.732867	84.98891	
14:28:16	0	0	0	-0.1153653	-7.435216	0	3	100	0	50	-2.009782	-1.713459	84.98876	
14:28:16	0	0	0	-0.1153653	-7.435216	0	3	100	0	50	-2.014404	-1.725689	84.97449	
14:28:16	0	0	0	-0.2145929	-7.906768	0	3	100	0	50	-2.010519	-1.73534	84.96523	
14:28:16	0	0	0	-0.2145929	-7.906768	0	3	100	0	50	-2.008269	-1.724234	84.9555	
14:28:17	0	0	0	-0.2145929	-7.906768	0	3	100	0	50	-2.008049	-1.71698	84.95512	
14:28:17	0	0	0	-0.2145929	-7.906768	0	3	100	0	50	-2.01103	-1.71725	84.94234	
14:28:17	0	0	0	-0.2145929	-7.906768	0	3	100	0	50	-2.016138	-1.717044	84.95027	
14:28:17	0	0	0	-0.2974562	-8.566017	0	3	100	0	50	-2.01628	-1.729375	84.96381	
14:28:17	0	0	0	-0.2974562	-8.566017	0	3	100	0	50	-2.008686	-1.728788	84.96728	
14:28:18	0	0	0	-0.2974562	-8.566017	0	3	100	0	50	-2.008899	-1.727169	84.97203	
14:28:18	0	0	0	-0.2974562	-8.566017	0	3	100	0	50	-2.00781	-1.712338	84.96481	
14:28:18	0	0	0	-0.2974562	-8.566017	0	3	100	0	50	-2.009127	-1.713419	84.95781	
14:28:18	0	0	0	-0.1811775	0.5062287	0	3	100	0	50	-2.013322	-1.705114	84.96143	
14:28:18	0	0	0	-0.1811775	0.5062287	0	3	100	0	50	-2.024348	-1.710302	84.96072	
14:28:19	0	0	0	-0.1811775	0.5062287	0	3	100	0	50	-2.02248	-1.721462	84.9435	
14:28:19	0	0	0	-0.1811775	0.5062287	0	3	100	0	50	-2.023141	-1.721655	84.97601	
14:28:19	0	0	0	-0.1811775	0.5062287	0	3	100	0	50	-2.011628	-1.719616	84.97934	
14:28:19	0	0	0	0.05164297	10.89154	0	3	100	0	50	-2.020673	-1.721485	84.97224	
14:28:20	0	0	0	0.05164297	10.89154	0	3	100	0	50	-2.026565	-1.725475	84.96332	
14:28:20	0	0	0	0.05164297	10.89154	0	3	100	0	50	-2.024914	-1.739421	84.96112	
14:28:20	0	0	0	0.05164297	10.89154	0	3	100	0	50	-2.024976	-1.736681	84.96893	
14:28:20	0	0	0	0.05164297	10.89154	0	3	100	0	50	-2.025909	-1.760057	84.95695	
14:28:20	0	0	0	0.07404423	7.376796	0	3	100	0	50	-2.03649	-1.747922	84.95323	
14:28:21	0	0	0	0.07404423	7.376796	0	3	100	0	50	-2.031127	-1.742906	84.95746	
14:28:21	0	0	0	0.07404423	7.376796	0	3	100	0	50	-2.029901	-1.731719	84.94965	
14:28:21	0	0	0	0.07404423	7.376796	0	3	100	0	50	-2.038452	-1.728748	84.94715	
14:28:21	0	0	0	0.07404423	7.376796	0	3	100	0	50	-2.03618	-1.753823	84.93579	
14:28:21	0	0	0	0.134345	7.317028	0	3	100	0	50	-2.031069	-1.762702	84.92288	
14:28:22	0	0	0	0.134345	7.317028	0	3	100	0	50	-2.03388	-1.752947	84.90101	
14:28:22	0	0	0	0.134345	7.317028	0	3	100	0	50	-2.036657	-1.737432	84.90737	
14:28:22	0	0	0	0.134345	7.317028	0	3	100	0	50	-2.036462	-1.739509	84.90412	
14:28:22	0	0	0	0.134345	7.317028	0	3	100	0	50	-2.033272	-1.740381	84.90831	
14:28:22	0	0	0	0.2707553	10.48261	0	3	100	0	50	-2.016146	-1.744377	84.89044	
14:28:23	0	0	0	0.2707553	10.48261	0	3	100	0	50	-2.015273	-1.755809	84.88287	
14:28:23	0	0	0	0.2707553	10.48261	0	3	100	0	50	-2.016416	-1.775762	84.89573	
14:28:23	0	0	0	0.2707553	10.48261	0	3	100	0	50	-2.020229	-1.777665	84.90668	
14:28:23	0	0	0	0.2707553	10.48261	0	3	100	0	50	-2.016753	-1.783892	84.90609	
14:28:23	0	0	0	0.1542934	1.867693	0	3	100	0	50	-2.017661	-1.779403	84.89274	
14:28:24	0	0	0	0.1542934	1.867693	0	3	100	0	50	-2.022268	-1.766915	84.87853	
14:28:24	0	0	0	0.1542934	1.867693	0	3	100	0	50	-2.021292	-1.775403	84.86541	
14:28:24	0	0	0	0.1542934	1.867693	0	3	100	0	50	-2.022264	-1.770424	84.86707	
14:28:24	0	0	0	0.1542934	1.867693	0	3	100	0	50	-2.01867	-1.769732	84.86209	
14:28:24	0	0	0	0.05594906	-4.285107	0	3	100	0	50	-2.021048	-1.746918	84.86157	
14:28:25	0	0	0	0.05594906	-4.285107	0	3	100	0	50	-2.021842	-1.754545	84.85876	
14:28:25	0	0	0	0.05594906	-4.285107	0	3	100	0	50	-2.012208	-1.763234	84.87838	
14:28:25	0	0	0	0.05594906	-4.285107	0	3	100	0	50	-2.010481	-1.776069	84.87939	
14:28:25	0	0	0	0.05594906	-4.285107	0	3	100	0	50	-2.00439	-1.780431	84.88972	
14:28:25	0	0	0	-0.005736325	-4.925477	0	3	100	0	50	-2.000281	-1.799122	84.88844	
14:28:26	0	0	0	-0.005736325	-4.925477	0	3	100	0	50	-2.012345	-1.796156	84.88213	
14:28:26	0	0	0	-0.005736325	-4.925477	0	3	100	0	50	-2.016207	-1.800828	84.88741	
14:28:26	0	0	0	-0.005736325	-4.925477	0	3	100	0	50	-2.026515	-1.796002	84.88698	
14:28:26	0	0	0	-0.005736325	-4.925477	0	3	100	0	50	-2.032435	-1.804133	84.89217	
14:28:26	0	0	0	0.1929353	5.947124	0	3	100	0	50	-2.045322	-1.813486	84.88887	
14:28:27	0	0	0	0.1929353	5.947124	0	3	100	0	50	-2.038838	-1.81323	84.87334	
14:28:27	0	0	0	0.1929353	5.947124	0	3	100	0	50	-2.042471	-1.832313	84.86047	
14:28:27	0	0	0	0.1929353	5.947124	0	3	100	0	50	-2.053879	-1.826107	84.84915	
14:28:27	0	0	0	0.1929353	5.947124	0	3	100	0	50	-2.057945	-1.794602	84.85072	
14:28:27	0	0	0	0.03979424	-4.302949	0	3	100	0	50	-2.045759	-1.767986	84.84081	
14:28:28	0	0	0	0.03979424	-4.302949	0	3	100	0	50	-2.034061	-1.772034	84.8491	
14:28:28	0	0	0	0.03979424	-4.302949	0	3	100	0	50	-2.029587	-1.764984	84.85468	
14:28:28	0	0	0	0.03979424	-4.302949	0	3	100	0	50	-2.015448	-1.773178	84.84222	
14:28:28	0	0	0	0.03979424	-4.302949	0	3	100	0	50	-2.018121	-1.771158	84.84647	
14:28:28	0	0	0	0.0006623272	-3.292001	0	3	100	0	50	-1.997037	-1.768937	84.85108	
14:28:29	0	0	0	0.0006623272	-3.292001	0	3	100	0	50	-2.000493	-1.752671	84.83595	
14:28:29	0	0	0	0.0006623272	-3.292001	0	3	100	0	50	-2.007654	-1.737161	84.82822	
14:28:29	0	0	0	0.0006623272	-3.292001	0	3	100	0	50	-2.018925	-1.736212	84.82073	
14:28:29	0	0	0	0.0006623272	-3.292001	0	3	100	0	50	-2.021469	-1.741224	84.82277	
14:28:29	0	0	0	0.1147319	3.436383	0	3	100	0	50	-2.040602	-1.726177	84.82772	
14:28:30	0	0	0	0.1147319	3.436383	0	3	100	0	50	-2.043508	-1.710755	84.82225	
14:28:30	0	0	0	0.1147319	3.436383	0	3	100	0	50	-2.045442	-1.718828	84.8335	
14:28:30	0	0	0	0.1147319	3.436383	0	3	100	0	50	-2.04051	-1.718993	84.83506	
14:28:30	0	0	0	0.1147319	3.436383	0	3	100	0	50	-1.946378	-1.727702	84.83774	
14:28:30	0	0	0	-0.03377146	-5.470047	0	3	100	0	50	-2.039038	-1.721677	84.83906	
14:28:31	0	0	0	-0.03377146	-5.470047	0	3	100	0	50	-2.038474	-1.732379	84.83804	
14:28:31	0	0	0	-0.03377146	-5.470047	0	3	100	0	50	-2.04079	-1.713323	84.84539	
14:28:31	0	0	0	-0.03377146	-5.470047	0	3	100	0	50	-2.008104	-1.895739	84.84423	
14:28:31	0	0	0	-0.03377146	-5.470047	0	3	100	0	50	-2.378615	-2.689908	84.84114	
14:28:31	0	0	0	0.002405429	-2.037075	0	3	100	0	50	-3.054234	-3.496286	84.75178	
14:28:32	0	0	0	0.002405429	-2.037075	0	3	100	0	50	-3.133758	-3.59824	84.62483	
14:28:32	0	0	0	0.002405429	-2.037075	0	3	100	0	50	-3.281655	-3.746896	84.506	
14:28:32	0	0	0	0.002405429	-2.037075	0	3	100	0	50	-3.283638	-3.753119	84.36848	
14:28:32	0	0	0	0.002405429	-2.037075	0	3	100	0	50	-3.273373	-3.78106	84.23103	
14:28:32	0	0	0	-0.07329775	-3.03123	0	3	100	0	50	-3.271029	-3.776424	84.09412	
14:28:33	0	0	0	-0.07329775	-3.03123	0	3	100	0	50	-3.279275	-3.794259	83.95758	
14:28:33	0	0	0	-0.07329775	-3.03123	0	3	100	0	50	-3.276893	-3.805238	83.85113	
14:28:33	0	0	0	-0.07329775	-3.03123	0	3	100	0	50	-3.26688	-3.833527	83.72184	
14:28:33	0	0	0	-0.07329775	-3.03123	0	3	100	0	50	-3.275829	-3.863338	83.60334	
14:28:33	0	0	0	-0.3263539	-13.23972	0	3	100	0	50	-3.283802	-3.886893	83.474	
14:28:34	0	0	0	-0.3263539	-13.23972	0	3	100	0	50	-3.286519	-3.905523	83.36332	
14:28:34	0	0	0	-0.3263539	-13.23972	0	3	100	0	50	-3.289215	-3.919151	83.27065	
14:28:34	0	0	0	-0.3263539	-13.23972	0	3	100	0	50	-3.286573	-3.935054	83.17239	
14:28:34	0	0	0	-0.3263539	-13.23972	0	3	100	0	50	-3.27705	-3.92204	83.06691	
14:28:34	0	0	0	-0.2473934	-3.023648	0	3	100	0	50	-3.278029	-3.94781	82.99297	
14:28:35	0	0	0	-0.2473934	-3.023648	0	3	100	0	50	-3.281303	-3.954293	82.912	
14:28:35	0	0	0	-0.2473934	-3.023648	0	3	100	0	50	-3.291315	-3.962043	82.83324	
14:28:35	0	0	0	-0.2473934	-3.023648	0	3	100	0	50	-3.284302	-3.973424	82.7523	
14:28:35	0	0	0	-0.2473934	-3.023648	0	3	100	0	50	-3.287322	-3.97749	82.6401	
14:28:35	0	0	0	-0.1484563	2.575623	0	3	100	0	50	-3.292243	-3.996718	82.5378	
14:28:36	0	0	0	-0.1484563	2.575623	0	3	100	0	50	-3.284049	-4.009899	82.44358	
14:28:36	0	0	0	-0.1484563	2.575623	0	3	100	0	50	-3.286118	-4.04126	82.36166	
14:28:36	0	0	0	-0.1484563	2.575623	0	3	100	0	50	-3.291766	-4.059648	82.29913	
14:28:36	0	0	0	-0.1484563	2.575623	0	3	100	0	50	-3.301008	-4.061847	82.21593	
14:28:36	0	0	0	0.06495292	10.65794	0	3	100	0	50	-3.295622	-4.033853	82.12733	
14:28:37	0	0	0	0.06495292	10.65794	0	3	100	0	50	-3.306381	-4.037156	82.05383	
14:28:37	0	0	0	0.06495292	10.65794	0	3	100	0	50	-3.303109	-4.022258	81.99342	
14:28:37	0	0	0	0.06495292	10.65794	0	3	100	0	50	-3.304309	-4.023585	81.92377	
14:28:37	0	0	0	0.06495292	10.65794	0	3	100	0	50	-3.320396	-4.030933	81.85008	
14:28:37	0	0	0	-0.002346662	2.567322	0	3	100	0	50	-3.326648	-4.025816	81.78172	
14:28:38	0	0	0	-0.002346662	2.567322	0	3	100	0	50	-3.333437	-4.008253	81.70365	
14:28:38	0	0	0	-0.002346662	2.567322	0	3	100	0	50	-3.342545	-4.041611	81.64645	
14:28:38	0	0	0	-0.002346662	2.567322	0	3	100	0	50	-3.347783	-4.062973	81.59791	
14:28:38	0	0	0	-0.002346662	2.567322	0	3	100	0	50	-3.337105	-4.046046	81.5302	
14:28:38	0	0	0	-0.07395615	-0.1696703	0	3	100	0	50	-3.349925	-4.035816	81.47137	
14:28:39	0	0	0	-0.07395615	-0.1696703	0	3	100	0	50	-3.310163	-4.038174	81.41174	
14:28:39	0	0	0	-0.07395615	-0.1696703	0	3	100	0	50	-3.32405	-4.020389	81.35394	
14:28:39	0	0	0	-0.07395615	-0.1696703	0	3	100	0	50	-3.247623	-4.31538	81.35155	
14:28:39	0	0	0	-0.07395615	-0.1696703	0	3	100	0	50	11.15673	-2.50032	83.13879	
14:28:39	0	0	0	-0.05559948	-3.053059	0	3	100	0	50	1.109565	3.548103	91.80649	
14:28:40	0	0	0	-0.05559948	-3.053059	0	3	100	0	50	3.553873	1.532996	97.06952	
14:28:40	0	0	0	-0.05559948	-3.053059	0	3	100	0	50	29.61833	-0.8028384	103.3695	
14:28:40	0	0	0	-0.05559948	-3.053059	0	3	100	0	50	-5.009648	8.33372	106.9327	
14:28:40	0	0	0	-0.05559948	-3.053059	0	3	100	0	50	29.01682	3.701639	114.4436	
14:28:40	0	0	0	-0.3029567	-10.56551	0	3	100	0	50	29.1057	2.351079	115.2227	
14:28:41	0	0	0	-0.3029567	-10.56551	0	3	100	0	50	-15.24802	7.252261	109.6001	
14:28:41	0	0	0	-0.3029567	-10.56551	0	3	100	0	50	-16.66238	7.370512	108.5759	
14:28:41	0	0	0	-0.3029567	-10.56551	0	3	100	0	50	4.200487	4.439695	111.2636	
14:28:41	0	0	0	-0.3029567	-10.56551	0	3	100	0	50	53.24641	-13.29078	124.6035	
14:28:41	0	0	0	-0.4443391	-21.46337	0	3	100	0	50	32.86773	-11.2694	123.7834	
14:28:42	0	0	0	-0.4443391	-21.46337	0	3	100	0	50	-21.56941	-1.745064	112.6092	
14:28:42	0	0	0	-0.4443391	-21.46337	0	3	100	0	50	-22.09607	-0.8045939	112.3545	
14:28:42	0	0	0	-0.4443391	-21.46337	0	3	100	0	50	60.33262	-21.29835	125.6237	
14:28:42	0	0	0	-0.4443391	-21.46337	0	3	100	0	50	27.40439	-18.86182	125.1672	
14:28:42	0	0	0	-0.3705206	-18.98069	0	3	100	0	50	30.16924	-15.67854	125.2244	
14:28:43	0	0	0	-0.3705206	-18.98069	0	3	100	0	50	75.70145	-31.05583	128.3218	
14:28:43	0	0	0	-0.3705206	-18.98069	0	3	100	0	50	-3.103143	-15.47063	122.2872	
14:28:43	0	0	0	-0.3705206	-18.98069	0	3	100	0	50	-24.70264	-9.801199	119.3691	
14:28:43	0	0	0	-0.3705206	-18.98069	0	3	100	0	50	-34.75579	-6.766039	117.7006	
14:28:43	0	0	0	0.06186963	-8.15344	0	3	100	0	50	0.7511898	-11.50226	123.6761	
14:28:44	0	0	0	0.06186963	-8.15344	0	3	100	0	50	61.87501	-29.0746	132.8004	
14:28:44	0	0	0	0.06186963	-8.15344	0	3	100	0	50	-15.14607	-11.44672	122.4803	
14:28:44	0	0	0	0.06186963	-8.15344	0	3	100	0	50	-35.07228	-1.360624	117.5615	
14:28:44	0	0	0	0.06186963	-8.15344	0	3	100	0	50	17.02347	-1.660134	127.9846	
14:28:44	0	0	0	0.08692097	-28.96773	0	3	100	0	50	6.98412	1.595356	124.2975	
14:28:45	0	0	0	0.08692097	-28.96773	0	3	100	0	50	-7.307937	-8.14465	122.1004	
14:28:45	0	0	0	0.08692097	-28.96773	0	3	100	0	50	-7.19818	-8.330049	120.7006	
14:28:45	0	0	0	0.08692097	-28.96773	0	3	100	0	50	-6.951911	-8.12273	119.9703	
14:28:45	0	0	0	0.08692097	-28.96773	0	3	100	0	50	-6.778666	-7.957189	119.2997	
14:28:45	0	0	0	0.03890457	-18.5046	0	3	100	0	50	-6.626804	-7.801161	118.648	
14:28:46	0	0	0	0.03890457	-18.5046	0	3	100	0	50	-6.482119	-7.587084	117.9908	
14:28:46	0	0	0	0.03890457	-18.5046	0	3	100	0	50	-6.338236	-7.378273	117.3779	
14:28:46	0	0	0	0.03890457	-18.5046	0	3	100	0	50	-6.220308	-7.176774	116.8249	
14:28:46	0	0	0	0.03890457	-18.5046	0	3	100	0	50	-6.100286	-6.982297	116.2949	
14:28:47	0	0	0	-0.1346598	-19.92581	0	3	100	0	50	-5.992942	-6.786698	115.777	
14:28:47	0	0	0	-0.1346598	-19.92581	0	3	100	0	50	-5.894653	-6.605369	115.2964	
14:28:47	0	0	0	-0.1346598	-19.92581	0	3	100	0	50	-5.811285	-6.430991	114.8671	
14:28:47	0	0	0	-0.1346598	-19.92581	0	3	100	0	50	-5.73281	-6.238879	114.4663	
14:28:47	0	0	0	-0.1346598	-19.92581	0	3	100	0	50	-5.55059	-6.038987	114.0915	
14:28:48	0	0	0	-0.06467767	-7.168575	0	3	100	0	50	-5.58726	-5.866314	113.7236	
14:28:48	0	0	0	-0.06467767	-7.168575	0	3	100	0	50	-5.525863	-5.697817	113.3899	
14:28:48	0	0	0	-0.06467767	-7.168575	0	3	100	0	50	-5.480419	-5.551967	113.0899	
14:28:48	0	0	0	-0.06467767	-7.168575	0	3	100	0	50	-5.435482	-5.393457	112.7792	
14:28:48	0	0	0	-0.06467767	-7.168575	0	3	100	0	50	-5.398966	-5.221246	112.5095	
14:28:49	0	0	0	0.163847	5.805415	0	3	100	0	50	-5.360294	-5.065542	112.2485	
14:28:49	0	0	0	0.163847	5.805415	0	3	100	0	50	-5.322835	-4.922779	112.0127	
14:28:49	0	0	0	0.163847	5.805415	0	3	100	0	50	-5.295207	-4.788509	111.7894	
14:28:49	0	0	0	0.163847	5.805415	0	3	100	0	50	-5.270086	-4.643826	111.5866	
14:28:49	0	0	0	0.163847	5.805415	0	3	100	0	50	-5.246613	-4.521853	111.3895	
14:28:50	0	0	0	0.2274765	8.65718	0	3	100	0	50	-5.224819	-4.385493	111.2203	
14:28:50	0	0	0	0.2274765	8.65718	0	3	100	0	50	-5.203446	-4.254238	111.0562	
14:28:50	0	0	0	0.2274765	8.65718	0	3	100	0	50	-5.18062	-4.134954	110.9236	
14:28:50	0	0	0	0.2274765	8.65718	0	3	100	0	50	-5.16902	-4.044641	110.7886	
14:28:50	0	0	0	0.2274765	8.65718	0	3	100	0	50	-5.165592	-3.93254	110.6667	
14:28:51	0	0	0	0.1230372	2.892866	0	3	100	0	50	-5.068337	-3.915391	110.5454	
14:28:51	0	0	0	0.1230372	2.892866	0	3	100	0	50	-4.965386	-3.909295	110.4047	
14:28:51	0	0	0	0.1230372	2.892866	0	3	100	0	50	-4.762124	-3.923593	110.2499	
14:28:51	0	0	0	0.1230372	2.892866	0	3	100	0	50	-4.789322	-3.771659	110.1005	
14:28:51	0	0	0	0.1230372	2.892866	0	3	100	0	50	-4.850547	-3.563367	109.96	
14:28:52	0	0	0	0.06313349	2.047649	0	3	100	0	50	-4.954514	-3.362177	109.8322	
14:28:52	0	0	0	0.06313349	2.047649	0	3	100	0	50	-4.737544	-3.391917	109.7355	
14:28:52	0	0	0	0.06313349	2.047649	0	3	100	0	50	-4.81173	-3.238503	109.6219	
14:28:52	0	0	0	0.06313349	2.047649	0	3	100	0	50	-4.62424	-3.252716	109.5437	
14:28:52	0	0	0	0.06313349	2.047649	0	3	100	0	50	-4.65737	-3.113511	109.4898	
14:28:53	0	0	0	0.2460457	12.55107	0	3	100	0	50	-4.885578	-2.820673	109.3862	
14:28:53	0	0	0	0.2460457	12.55107	0	3	100	0	50	-4.927187	-2.703465	109.3174	
14:28:53	0	0	0	0.2460457	12.55107	0	3	100	0	50	-4.928613	-2.61817	109.2442	
14:28:53	0	0	0	0.2460457	12.55107	0	3	100	0	50	-4.929863	-2.541178	109.1787	
14:28:53	0	0	0	0.2460457	12.55107	0	3	100	0	50	-4.943829	-2.45293	109.1409	
14:28:54	0	0	0	0.3068746	12.33671	0	3	100	0	50	-4.940469	-2.367357	109.0986	
14:28:54	0	0	0	0.3068746	12.33671	0	3	100	0	50	-4.942005	-2.286749	109.0709	
14:28:54	0	0	0	0.3068746	12.33671	0	3	100	0	50	-4.944993	-2.203512	109.0586	
14:28:54	0	0	0	0.3068746	12.33671	0	3	100	0	50	-4.938263	-2.125429	109.0455	
14:28:54	0	0	0	0.3068746	12.33671	0	3	100	0	50	-4.938462	-2.046828	109.0436	
14:28:55	0	0	0	0.2594046	7.383598	0	3	100	0	50	-4.944409	-1.962982	109.0216	
14:28:55	0	0	0	0.2594046	7.383598	0	3	100	0	50	-4.938934	-1.889111	109.004	
14:28:55	0	0	0	0.2594046	7.383598	0	3	100	0	50	-4.923496	-1.809813	109.0092	
14:28:55	0	0	0	0.2594046	7.383598	0	3	100	0	50	-4.926631	-1.737142	109.0016	
14:28:55	0	0	0	0.2594046	7.383598	0	3	100	0	50	-4.929876	-1.661788	109.0005	
14:28:56	0	0	0	0.102447	0.684985	0	3	100	0	50	-4.928864	-1.609074	109.0014	
14:28:56	0	0	0	0.102447	0.684985	0	3	100	0	50	-4.925646	-1.535212	109.0249	
14:28:56	0	0	0	0.102447	0.684985	0	3	100	0	50	-4.916361	-1.469954	109.0482	
14:28:56	0	0	0	0.102447	0.684985	0	3	100	0	50	-4.91875	-1.411296	109.0726	
14:28:56	0	0	0	0.102447	0.684985	0	3	100	0	50	-4.92002	-1.351817	109.1083	
14:28:57	0	0	0	0.1748527	6.323312	0	3	100	0	50	-4.938193	-1.318546	109.1523	
14:28:57	0	0	0	0.1748527	6.323312	0	3	100	0	50	-4.940842	-1.244738	109.1823	
14:28:57	0	0	0	0.1748527	6.323312	0	3	100	0	50	-4.935996	-1.164442	109.2339	
14:28:57	0	0	0	0.1748527	6.323312	0	3	100	0	50	-4.939344	-1.112124	109.28	
14:28:57	0	0	0	0.1748527	6.323312	0	3	100	0	50	-4.946195	-1.064247	109.3438	
14:28:58	0	0	0	0.2973313	11.81858	0	3	100	0	50	-4.956589	-1.033395	109.3807	
14:28:58	0	0	0	0.2973313	11.81858	0	3	100	0	50	-4.960027	-0.9778052	109.4569	
14:28:58	0	0	0	0.2973313	11.81858	0	3	100	0	50	-4.960684	-0.9267426	109.4938	
14:28:58	0	0	0	0.2973313	11.81858	0	3	100	0	50	-4.971009	-0.8884986	109.5358	
14:28:58	0	0	0	0.2973313	11.81858	0	3	100	0	50	-4.979633	-0.8367542	109.5894	
14:28:59	0	0	0	0.09767333	1.124599	0	3	100	0	50	-4.983551	-0.7923439	109.6095	
14:28:59	0	0	0	0.09767333	1.124599	0	3	100	0	50	-4.982268	-0.7409907	109.6543	
14:28:59	0	0	0	0.09767333	1.124599	0	3	100	0	50	-4.984506	-0.6934803	109.7276	
14:28:59	0	0	0	0.09767333	1.124599	0	3	100	0	50	-4.974267	-0.6574401	109.7724	
14:28:59	0	0	0	0.09767333	1.124599	0	3	100	0	50	-4.966479	-0.6240705	109.8302	
14:29:00	0	0	0	0.06823897	1.156333	0	3	100	0	50	-4.962187	-0.5922285	109.8714	
14:29:00	0	0	0	0.06823897	1.156333	0	3	100	0	50	-4.967379	-0.5596898	109.9131	
14:29:00	0	0	0	0.06823897	1.156333	0	3	100	0	50	-4.976838	-0.5222297	109.9673	
14:29:00	0	0	0	0.06823897	1.156333	0	3	100	0	50	-4.969429	-0.4945202	110.0395	
14:29:00	0	0	0	0.06823897	1.156333	0	3	100	0	50	-4.956369	-0.4582689	110.0723	
14:29:01	0	0	0	0.3095375	12.63721	0	3	100	0	50	-4.965017	-0.4486535	110.1071	
14:29:01	0	0	0	0.3095375	12.63721	0	3	100	0	50	-4.967045	-0.426455	110.1606	
14:29:01	0	0	0	0.3095375	12.63721	0	3	100	0	50	-4.970501	-0.417426	110.2705	
14:29:01	0	0	0	0.3095375	12.63721	0	3	100	0	50	-4.96806	-0.3955651	110.361	
14:29:01	0	0	0	0.3095375	12.63721	0	3	100	0	50	-4.976276	-0.3748621	110.4378	
14:29:02	0	0	0	0.5850775	20.00365	0	3	100	0	50	-4.976784	-0.3739633	110.5235	
14:29:02	0	0	0	0.5850775	20.00365	0	3	100	0	50	-4.973692	-0.3725906	110.6184	
14:29:02	0	0	0	0.5850775	20.00365	0	3	100	0	50	-4.882349	-0.3564742	110.6933	
14:29:02	0	0	0	0.5850775	20.00365	0	3	100	0	50	-4.98984	-0.3336573	110.7912	
14:29:02	0	0	0	0.5850775	20.00365	0	3	100	0	50	-5.002336	-0.3130887	110.888	
14:29:03	0	0	0	0.4870622	6.920727	0	3	100	0	50	-5.003669	-0.301711	110.9532	
14:29:03	0	0	0	0.4870622	6.920727	0	3	100	0	50	-4.248152	-0.7907988	111.0636	
14:29:03	0	0	0	0.4870622	6.920727	0	3	100	0	50	-5.035015	-0.2749954	111.055	
14:29:03	0	0	0	0.4870622	6.920727	0	3	100	0	50	-7.542643	3.1338	120.1029	
14:29:03	0	0	0	0.4870622	6.920727	0	3	100	0	50	-5.666239	4.880194	139.2907	
14:29:04	0	0	0	0.339082	-4.514862	0	3	100	0	50	-7.628447	8.63585	163.0679	
14:29:04	0	0	0	0.339082	-4.514862	0	3	100	0	50	-10.86287	10.54862	174.7504	
14:29:04	0	0	0	0.339082	-4.514862	0	3	100	0	50	-8.871602	5.050592	-177.1335	
14:29:04	0	0	0	0.339082	-4.514862	0	3	100	0	50	-7.646183	4.388167	-162.8392	
14:29:04	0	0	0	0.339082	-4.514862	0	3	100	0	50	-3.072339	5.729592	-143.6007	
14:29:05	0	0	0	0.5710003	23.3026	0	3	100	0	50	-5.471241	5.091206	-149.7314	
14:29:05	0	0	0	0.5710003	23.3026	0	3	100	0	50	-7.614064	6.235596	-174.6929	
14:29:05	0	0	0	0.5710003	23.3026	0	3	100	0	50	-3.400954	7.499063	153.1933	
14:29:05	0	0	0	0.5710003	23.3026	0	3	100	0	50	-1.770536	3.793584	135.9814	
14:29:05	0	0	0	0.5710003	23.3026	0	3	100	0	50	-2.457977	0.6725432	116.6553	
14:29:06	0	0	0	0.585207	15.83948	0	3	100	0	50	-3.854357	0.3989219	101.3768	
14:29:06	0	0	0	0.585207	15.83948	0	3	100	0	50	-1.975628	0.278044	101.3453	
14:29:06	0	0	0	0.585207	15.83948	0	3	100	0	50	-1.993774	0.2273905	101.2943	
14:29:06	0	0	0	0.585207	15.83948	0	3	100	0	50	-2.179575	0.1382501	101.2234	
14:29:06	0	0	0	0.585207	15.83948	0	3	100	0	50	-1.522126	0.1961699	101.6994	
14:29:07	0	0	0	0.8133376	26.55319	0	3	100	0	50	11.16268	0.3977506	65.50344	
14:29:07	0	0	0	0.8133376	26.55319	0	3	100	0	50	9.926414	16.62553	19.99463	
14:29:07	0	0	0	0.8133376	26.55319	0	3	100	0	50	1.744343	17.21742	-7.532145	
14:29:07	0	0	0	0.8133376	26.55319	0	3	100	0	50	-1.330955	7.22198	-28.66708	
14:29:07	0	0	0	0.8133376	26.55319	0	3	100	0	50	-5.627899	5.810839	-39.29945	
14:29:08	0	0	0	0.798717	5.063424	0	3	100	0	50	-2.513562	7.323711	-43.52063	
14:29:08	0	0	0	0.798717	5.063424	0	3	100	0	50	3.652673	6.434196	-39.00846	
14:29:08	0	0	0	0.798717	5.063424	0	3	100	0	50	3.260489	6.597648	-39.12135	
14:29:08	0	0	0	0.798717	5.063424	0	3	100	0	50	3.484867	6.108717	-32.40779	
14:29:08	0	0	0	0.798717	5.063424	0	3	100	0	50	3.257981	4.813651	-19.18639	
14:29:09	0	0	0	0.2806862	-15.95229	0	3	100	0	50	3.26577	4.620504	-18.62042	
14:29:09	0	0	0	0.2806862	-15.95229	0	3	100	0	50	3.362155	4.367371	-16.81295	
14:29:09	0	0	0	0.2806862	-15.95229	0	3	100	0	50	1.208865	4.457721	-19.55169	
14:29:09	0	0	0	0.2806862	-15.95229	0	3	100	0	50	-24.35322	4.500706	-26.46296	
14:29:09	0	0	0	0.2806862	-15.95229	0	3	100	0	50	5.84387	4.362446	-18.61251	
14:29:10	0	0	0	0.2638657	-5.187452	0	3	100	0	50	27.70071	3.642082	-17.24641	
14:29:10	0	0	0	0.2638657	-5.187452	0	3	100	0	50	-2.940732	1.426654	-22.81499	
14:29:10	0	0	0	0.2638657	-5.187452	0	3	100	0	50	-26.67107	2.960043	-22.64073	
14:29:10	0	0	0	0.2638657	-5.187452	0	3	100	0	50	-27.30927	3.114045	-20.10744	
14:29:10	0	0	0	0.2638657	-5.187452	0	3	100	0	50	14.46928	-5.350412	-13.20993	
14:29:11	0	0	0	0.3086506	-4.520242	0	3	100	0	50	9.847621	-4.880323	-14.54897	
14:29:11	0	0	0	0.3086506	-4.520242	0	3	100	0	50	-27.13612	1.638503	-12.05511	
14:29:11	0	0	0	0.3086506	-4.520242	0	3	100	0	50	-5.225031	0.1068499	-11.57083	
14:29:11	0	0	0	0.3086506	-4.520242	0	3	100	0	50	-2.674873	-1.911505	-12.65076	
14:29:11	0	0	0	0.3086506	-4.520242	0	3	100	0	50	-14.22283	-0.7051249	-12.46813	
14:29:12	0	0	0	0.2964122	-5.691757	0	3	100	0	50	2.44227	-1.490716	-11.7652	
14:29:12	0	0	0	0.2964122	-5.691757	0	3	100	0	50	2.256508	0.0146358	-11.36051	
14:29:12	0	0	0	0.2964122	-5.691757	0	3	100	0	50	1.755717	5.797597	-11.93035	
14:29:12	0	0	0	0.2964122	-5.691757	0	3	100	0	50	20.06656	5.347253	-10.69092	
14:29:12	0	0	0	0.2964122	-5.691757	0	3	100	0	50	-12.93991	12.15576	-16.75111	
14:29:13	0	0	0	0.1523976	-7.693315	0	3	100	0	50	25.35941	-0.4664516	-15.35121	
14:29:13	0	0	0	0.1523976	-7.693315	0	3	100	0	50	-23.89749	6.934764	-13.01613	
14:29:13	0	0	0	0.1523976	-7.693315	0	3	100	0	50	4.390523	4.803475	-16.36254	
14:29:13	0	0	0	0.1523976	-7.693315	0	3	100	0	50	10.13186	3.139307	-17.63622	
14:29:13	0	0	0	0.1523976	-7.693315	0	3	100	0	50	-0.6873387	0.709437	-17.66404	
14:29:14	0	0	0	0.2274388	-7.724542	0	3	100	0	50	-0.7355137	-0.02507524	-17.17658	
14:29:14	0	0	0	0.2274388	-7.724542	0	3	100	0	50	-1.596009	0.7447594	-16.03937	
14:29:14	0	0	0	0.2274388	-7.724542	0	3	100	0	50	-5.483702	3.580749	-14.78313	
14:29:14	0	0	0	0.2274388	-7.724542	0	3	100	0	50	-4.590164	2.554505	-14.68588	
14:29:14	0	0	0	0.2274388	-7.724542	0	3	100	0	50	-3.752594	1.955165	-14.84575	
14:29:15	0	0	0	-0.09969379	-18.79213	0	3	100	0	50	-3.115905	1.786632	-14.86454	
14:29:15	0	0	0	-0.09969379	-18.79213	0	3	100	0	50	-2.962626	1.547483	-14.86838	
14:29:15	0	0	0	-0.09969379	-18.79213	0	3	100	0	50	-2.520216	1.494494	-14.80168	
14:29:15	0	0	0	-0.09969379	-18.79213	0	3	100	0	50	-5.858454	2.216571	-14.52047	
14:29:16	0	0	0	-0.09969379	-18.79213	0	3	100	0	50	-9.245891	4.996964	-13.01412	
14:29:16	0	0	0	-0.1187167	-12.82369	0	3	100	0	50	13.5526	5.40474	-14.68947	
14:29:16	0	0	0	-0.1187167	-12.82369	0	3	100	0	50	-21.82332	5.243753	-11.15636	
14:29:16	0	0	0	-0.1187167	-12.82369	0	3	100	0	50	11.30102	4.217414	-13.68294	
14:29:16	0	0	0	-0.1187167	-12.82369	0	3	100	0	50	17.22355	5.47823	-16.77293	
14:29:17	0	0	0	-0.1187167	-12.82369	0	3	100	0	50	-21.85018	8.716172	-12.73949	
14:29:17	0	0	0	-0.001943109	-9.555839	0	3	100	0	50	1.391951	4.56856	-13.63169	
14:29:17	0	0	0	-0.001943109	-9.555839	0	3	100	0	50	9.432279	6.24358	-13.49926	
14:29:17	0	0	0	-0.001943109	-9.555839	0	3	100	0	50	-29.25966	9.77286	-11.68135	
14:29:17	0	0	0	-0.001943109	-9.555839	0	3	100	0	50	-14.96914	2.724299	-15.51535	
14:29:18	0	0	0	-0.001943109	-9.555839	0	3	100	0	50	3.674373	-4.429393	-17.94775	
14:29:18	0	0	0	0.04417298	-3.355961	0	3	100	0	50	7.363658	3.309866	-17.35491	
14:29:18	0	0	0	0.04417298	-3.355961	0	3	100	0	50	2.335673	5.461227	-18.27139	
14:29:18	0	0	0	0.04417298	-3.355961	0	3	100	0	50	1.776108	5.432686	-18.06076	
14:29:18	0	0	0	0.04417298	-3.355961	0	3	100	0	50	1.584537	5.393158	-17.9489	
14:29:19	0	0	0	0.04417298	-3.355961	0	3	100	0	50	-0.2178315	5.989503	-18.21448	
14:29:19	0	0	0	0.4794367	34.19931	0	3	100	0	50	-22.09928	16.32127	-20.88936	
14:29:19	0	0	0	0.4794367	34.19931	0	3	100	0	50	-6.540138	14.15887	-16.67559	
14:29:19	0	0	0	0.4794367	34.19931	0	3	100	0	50	-2.521482	13.15317	-15.12001	
14:29:19	0	0	0	0.4794367	34.19931	0	3	100	0	50	-2.191084	11.96807	-14.83545	
14:29:20	0	0	0	0.4794367	34.19931	0	3	100	0	50	-3.164789	12.40498	-14.9672	
14:29:20	0	0	0	0.5803037	15.48891	0	3	100	0	50	-3.158164	12.08011	-14.81645	
14:29:20	0	0	0	0.5803037	15.48891	0	3	100	0	50	-2.978843	10.99263	-14.87108	
14:29:20	0	0	0	0.5803037	15.48891	0	3	100	0	50	-1.478796	11.98994	-14.27308	
14:29:20	0	0	0	0.5803037	15.48891	0	3	100	0	50	4.163169	10.48859	-12.85425	
14:29:21	0	0	0	0.5803037	15.48891	0	3	100	0	50	3.390034	8.906029	-13.21369	
14:29:21	0	0	0	0.5082558	8.015223	0	3	100	0	50	3.09462	8.329993	-13.50566	
14:29:21	0	0	0	0.5082558	8.015223	0	3	100	0	50	3.425046	8.299905	-13.64054	
14:29:21	0	0	0	0.5082558	8.015223	0	3	100	0	50	3.238406	8.066044	-13.78909	
14:29:21	0	0	0	0.5082558	8.015223	0	3	100	0	50	3.029292	8.31713	-13.9077	
14:29:22	0	0	0	0.5082558	8.015223	0	3	100	0	50	2.842459	8.457404	-13.92971	
14:29:22	0	0	0	0.4122011	4.956566	0	3	100	0	50	2.998111	8.605706	-13.81946	
14:29:22	0	0	0	0.4122011	4.956566	0	3	100	0	50	3.047524	8.584464	-13.79499	
14:29:22	0	0	0	0.4122011	4.956566	0	3	100	0	50	3.023442	8.415112	-13.71499	
14:29:22	0	0	0	0.4122011	4.956566	0	3	100	0	50	3.280537	8.42945	-13.73647	
14:29:23	0	0	0	0.4122011	4.956566	0	3	100	0	50	3.118526	8.125457	-13.6865	
14:29:23	0	0	0	0.4536061	8.269101	0	3	100	0	50	3.223746	8.267152	-13.76393	
14:29:23	0	0	0	0.4536061	8.269101	0	3	100	0	50	3.03042	7.919784	-13.73851	
14:29:23	0	0	0	0.4536061	8.269101	0	3	100	0	50	3.083974	7.99658	-13.76867	
14:29:23	0	0	0	0.4536061	8.269101	0	3	100	0	50	2.99922	7.631173	-13.69782	
14:29:24	0	0	0	0.4536061	8.269101	0	3	100	0	50	3.017678	7.692557	-13.75666	
14:29:24	0	0	0	0.4416469	6.997571	0	3	100	0	50	2.942821	7.402338	-13.64819	
14:29:24	0	0	0	0.4416469	6.997571	0	3	100	0	50	2.910608	7.374488	-13.66643	
14:29:24	0	0	0	0.4416469	6.997571	0	3	100	0	50	2.873257	7.312933	-13.62438	
14:29:24	0	0	0	0.4416469	6.997571	0	3	100	0	50	2.836068	7.328017	-13.60533	
14:29:25	0	0	0	0.4416469	6.997571	0	3	100	0	50	2.800736	7.287562	-13.57664	
14:29:25	0	0	0	0.3761403	5.469968	0	3	100	0	50	2.726219	7.255982	-13.56404	
14:29:25	0	0	0	0.3761403	5.469968	0	3	100	0	50	2.713711	7.271934	-13.53566	
14:29:25	0	0	0	0.3761403	5.469968	0	3	100	0	50	2.686337	7.203466	-13.52161	
14:29:25	0	0	0	0.3761403	5.469968	0	3	100	0	50	2.641483	7.110426	-13.49764	
14:29:26	0	0	0	0.3761403	5.469968	0	3	100	0	50	2.645852	7.136404	-13.44062	
14:29:26	0	0	0	0.7060449	21.79314	0	3	100	0	50	2.728174	7.106784	-13.42535	
14:29:26	0	0	0	0.7060449	21.79314	0	3	100	0	50	2.650181	7.105926	-13.39634	
14:29:26	0	0	0	0.7060449	21.79314	0	3	100	0	50	2.624102	7.072681	-13.37998	
14:29:26	0	0	0	0.7060449	21.79314	0	3	100	0	50	2.595731	7.058037	-13.35383	
14:29:27	0	0	0	0.7060449	21.79314	0	3	100	0	50	2.574692	7.058218	-13.32593	
14:29:27	0	0	0	0.5648577	10.17526	0	3	100	0	50	2.585357	7.023196	-13.28821	
14:29:27	0	0	0	0.5648577	10.17526	0	3	100	0	50	2.569079	6.991022	-13.27769	
14:29:27	0	0	0	0.5648577	10.17526	0	3	100	0	50	2.554871	6.923533	-13.27508	
14:29:27	0	0	0	0.5648577	10.17526	0	3	100	0	50	2.532063	6.923614	-13.24104	
14:29:28	0	0	0	0.5648577	10.17526	0	3	100	0	50	2.518771	6.874483	-13.20747	
14:29:28	0	0	0	0.4944207	6.235791	0	3	100	0	50	2.497616	6.861159	-13.16198	
14:29:28	0	0	0	0.4944207	6.235791	0	3	100	0	50	2.473229	6.823675	-13.11454	
14:29:28	0	0	0	0.4944207	6.235791	0	3	100	0	50	2.478141	6.860062	-13.07397	
14:29:28	0	0	0	0.4944207	6.235791	0	3	100	0	50	2.459261	6.830158	-13.03881	
14:29:29	0	0	0	0.4944207	6.235791	0	3	100	0	50	2.477792	6.803918	-13.02953	
14:29:29	0	0	0	0.5506617	9.558735	0	3	100	0	50	2.526436	6.803522	-13.10264	
14:29:29	0	0	0	0.5506617	9.558735	0	3	100	0	50	2.391405	6.680198	-13.09476	
14:29:29	0	0	0	0.5506617	9.558735	0	3	100	0	50	2.459955	6.569818	-13.00319	
14:29:29	0	0	0	0.5506617	9.558735	0	3	100	0	50	2.35209	6.399701	-12.97314	
14:29:30	0	0	0	0.5506617	9.558735	0	3	100	0	50	8.767046	7.68261	-11.40671	
14:29:30	0	0	0	0.4638601	2.801498	0	3	100	0	50	9.285136	9.362226	-11.45528	
14:29:30	0	0	0	0.4638601	2.801498	0	3	100	0	50	-21.0239	19.97646	-16.1877	
14:29:30	0	0	0	0.4638601	2.801498	0	3	100	0	50	12.49786	4.920397	-11.4027	
14:29:30	0	0	0	0.4638601	2.801498	0	3	100	0	50	-5.485441	11.16907	-12.13025	
14:29:31	0	0	0	0.4638601	2.801498	0	3	100	0	50	-16.63003	13.59764	-11.94084	
14:29:31	0	0	0	0.2798026	-16.5926	0	3	100	0	50	2.78123	3.540694	-12.08663	
14:29:31	0	0	0	0.2798026	-16.5926	0	3	100	0	50	5.332814	2.549	-14.59736	
14:29:31	0	0	0	0.2798026	-16.5926	0	3	100	0	50	1.278545	5.026263	-14.3996	
14:29:31	0	0	0	0.2798026	-16.5926	0	3	100	0	50	1.038554	4.931088	-14.14478	
14:29:32	0	0	0	0.2798026	-16.5926	0	3	100	0	50	0.7878298	4.781425	-13.95179	
14:29:32	0	0	0	0.2252012	18.29848	0	3	100	0	50	-13.9588	29.05749	-21.52608	
14:29:32	0	0	0	0.2252012	18.29848	0	3	100	0	50	-22.46368	36.13737	-25.26824	
14:29:32	0	0	0	0.2252012	18.29848	0	3	100	0	50	-0.7342911	8.780265	-21.67103	
14:29:32	0	0	0	0.2252012	18.29848	0	3	100	0	50	5.644802	-1.722604	-21.77409	
14:29:33	0	0	0	0.2252012	18.29848	0	3	100	0	50	-14.63813	30.73632	-18.68276	
14:29:33	0	0	0	0.2292345	-20.55564	0	3	100	0	50	-36.02059	48.38431	-27.11995	
14:29:33	0	0	0	0.2292345	-20.55564	0	3	100	0	50	-15.23774	26.22298	-19.60962	
14:29:33	0	0	0	0.2292345	-20.55564	0	3	100	0	50	0.6998712	12.13065	-18.13038	
14:29:33	0	0	0	0.2292345	-20.55564	0	3	100	0	50	2.374681	9.776774	-18.48647	
14:29:34	0	0	0	0.2292345	-20.55564	0	3	100	0	50	-26.82273	25.4525	-18.10844	
14:29:34	0	0	0	0.1381924	-23.93795	0	3	100	0	50	-21.42606	24.26224	-17.70376	
14:29:34	0	0	0	0.1381924	-23.93795	0	3	100	0	50	-14.39345	20.32549	-18.11685	
14:29:34	0	0	0	0.1381924	-23.93795	0	3	100	0	50	2.510484	17.08939	-17.54612	
14:29:34	0	0	0	0.1381924	-23.93795	0	3	100	0	50	-21.56671	24.20246	-19.48864	
14:29:35	0	0	0	0.1381924	-23.93795	0	3	100	0	50	-21.32447	21.0837	-18.49442	
14:29:35	0	0	0	0.05929959	-30.24797	0	3	100	0	50	1.169409	11.19394	-15.63905	
14:29:35	0	0	0	0.05929959	-30.24797	0	3	100	0	50	6.402142	3.551994	-15.48199	
14:29:35	0	0	0	0.05929959	-30.24797	0	3	100	0	50	3.060551	6.679816	-16.73497	
14:29:35	0	0	0	0.05929959	-30.24797	0	3	100	0	50	2.860113	6.829088	-16.55157	
14:29:36	0	0	0	0.05929959	-30.24797	0	3	100	0	50	2.800588	6.743839	-16.41099	
14:29:36	0	0	0	-0.15937	-17.91728	0	3	100	0	50	2.672735	6.626278	-16.29339	
14:29:36	0	0	0	-0.15937	-17.91728	0	3	100	0	50	2.443856	6.524317	-16.16564	
14:29:36	0	0	0	-0.15937	-17.91728	0	3	100	0	50	2.161323	6.447895	-16.05522	
14:29:36	0	0	0	-0.15937	-17.91728	0	3	100	0	50	1.693496	6.36313	-15.95193	
14:29:37	0	0	0	-0.15937	-17.91728	0	3	100	0	50	0.184753	6.482223	-18.51834	
14:29:37	0	0	0	-0.08270445	-2.880387	0	3	100	0	50	-10.8224	10.25373	-19.66003	
14:29:37	0	0	0	-0.08270445	-2.880387	0	3	100	0	50	-9.078118	13.41027	-18.058	
14:29:37	0	0	0	-0.08270445	-2.880387	0	3	100	0	50	6.973782	9.676892	-17.82545	
14:29:37	0	0	0	-0.08270445	-2.880387	0	3	100	0	50	11.72587	6.976283	-17.68564	
14:29:38	0	0	0	-0.08270445	-2.880387	0	3	100	0	50	-5.797982	13.56338	-18.39116	
14:29:38	0	0	0	-0.03066265	-2.569772	0	3	100	0	50	-15.62132	16.62035	-18.30682	
14:29:38	0	0	0	-0.03066265	-2.569772	0	3	100	0	50	-11.82736	16.4971	-16.8705	
14:29:38	0	0	0	-0.03066265	-2.569772	0	3	100	0	50	4.758607	10.69015	-16.94874	
14:29:38	0	0	0	-0.03066265	-2.569772	0	3	100	0	50	-15.46712	16.53721	-18.65688	
14:29:39	0	0	0	-0.03066265	-2.569772	0	3	100	0	50	-19.22709	17.09714	-18.0197	
14:29:39	0	0	0	0.409217	15.45852	0	3	100	0	50	-1.08856	11.21623	-17.38872	
14:29:39	0	0	0	0.409217	15.45852	0	3	100	0	50	1.176939	11.37068	-17.50965	
14:29:39	0	0	0	0.409217	15.45852	0	3	100	0	50	2.607852	11.04437	-18.00615	
14:29:39	0	0	0	0.409217	15.45852	0	3	100	0	50	-16.7168	17.2009	-19.71448	
14:29:40	0	0	0	0.409217	15.45852	0	3	100	0	50	-17.6799	17.16243	-18.85252	
14:29:40	0	0	0	0.3887131	5.374071	0	3	100	0	50	2.864164	11.29279	-17.15821	
14:29:40	0	0	0	0.3887131	5.374071	0	3	100	0	50	-16.2283	17.60436	-19.06781	
14:29:40	0	0	0	0.3887131	5.374071	0	3	100	0	50	-26.93938	21.61556	-20.68767	
14:29:40	0	0	0	0.3887131	5.374071	0	3	100	0	50	-4.980433	14.52525	-17.24764	
14:29:41	0	0	0	0.3887131	5.374071	0	3	100	0	50	-23.78335	20.88806	-19.25596	
14:29:41	0	0	0	0.4505022	1.655882	0	3	100	0	50	-14.39349	17.3435	-16.60081	
14:29:41	0	0	0	0.4505022	1.655882	0	3	100	0	50	2.638329	10.98242	-14.32442	
14:29:41	0	0	0	0.4505022	1.655882	0	3	100	0	50	7.399463	9.40715	-14.87706	
14:29:41	0	0	0	0.4505022	1.655882	0	3	100	0	50	-31.09326	24.21249	-18.51856	
14:29:42	0	0	0	0.4505022	1.655882	0	3	100	0	50	-5.214385	12.94492	-15.19662	
14:29:42	0	0	0	0.04803521	-13.21133	0	3	100	0	50	-8.911053	13.92021	-16.18014	
14:29:42	0	0	0	0.04803521	-13.21133	0	3	100	0	50	-36.63056	24.3609	-18.41363	
14:29:42	0	0	0	0.04803521	-13.21133	0	3	100	0	50	-4.072325	11.60478	-14.36382	
14:29:42	0	0	0	0.04803521	-13.21133	0	3	100	0	50	19.43285	5.799204	-15.85934	
14:29:43	0	0	0	0.04803521	-13.21133	0	3	100	0	50	17.70117	6.095607	-16.58603	
14:29:43	0	0	0	0.04692426	-6.836007	0	3	100	0	50	-55.79553	26.18098	-26.10481	
14:29:43	0	0	0	0.04692426	-6.836007	0	3	100	0	50	-77.64055	26.98227	-34.57103	
14:29:43	0	0	0	0.04692426	-6.836007	0	3	100	0	50	-70.85703	26.27371	-31.9726	
14:29:43	0	0	0	0.04692426	-6.836007	0	3	100	0	50	18.50216	5.50034	-28.60148	
14:29:44	0	0	0	0.04692426	-6.836007	0	3	100	0	50	17.37084	6.188558	-27.32289	
14:29:44	0	0	0	0.104125	-19.44412	0	3	100	0	50	15.82579	6.427703	-27.42242	
14:29:44	0	0	0	0.104125	-19.44412	0	3	100	0	50	-53.74212	28.19549	-29.50929	
14:29:44	0	0	0	0.104125	-19.44412	0	3	100	0	50	-46.27594	27.42377	-27.14412	
14:29:44	0	0	0	0.104125	-19.44412	0	3	100	0	50	13.04263	9.10848	-22.87465	
14:29:45	0	0	0	0.104125	-19.44412	0	3	100	0	50	29.83259	5.667265	-26.27094	
14:29:45	0	0	0	-0.02016163	-33.39222	0	3	100	0	50	13.81902	10.68062	-24.68386	
14:29:45	0	0	0	-0.02016163	-33.39222	0	3	100	0	50	-45.24588	27.9442	-27.17969	
14:29:45	0	0	0	-0.02016163	-33.39222	0	3	100	0	50	-65.15672	31.07647	-32.52024	
14:29:45	0	0	0	-0.02016163	-33.39222	0	3	100	0	50	-16.77646	19.98009	-22.9523	
14:29:46	0	0	0	-0.02016163	-33.39222	0	3	100	0	50	15.18886	12.91416	-22.60026	
14:29:46	0	0	0	-0.003870664	-33.26524	0	3	100	0	50	15.41804	11.42195	-23.23725	
14:29:46	0	0	0	-0.003870664	-33.26524	0	3	100	0	50	-51.24762	30.02474	-27.18555	
14:29:46	0	0	0	-0.003870664	-33.26524	0	3	100	0	50	-4.307024	13.00309	-22.87801	
14:29:47	0	0	0	-0.003870664	-33.26524	0	3	100	0	50	-37.3215	26.99163	-27.10328	
14:29:47	0	0	0	-0.003870664	-33.26524	0	3	100	0	50	1.714318	15.58167	-26.89459	
14:29:47	0	0	0	0.1691904	-25.7325	0	3	100	0	50	-39.56876	28.17603	-24.73843	
14:29:47	0	0	0	0.1691904	-25.7325	0	3	100	0	50	-56.70075	32.40951	-28.74376	
14:29:47	0	0	0	0.1691904	-25.7325	0	3	100	0	50	-8.101478	22.8791	-25.48982	
14:29:48	0	0	0	0.1691904	-25.7325	0	3	100	0	50	-17.60751	21.17875	-24.80672	
14:29:48	0	0	0	0.1691904	-25.7325	0	3	100	0	50	-61.87247	29.74966	-27.03776	
14:29:48	0	0	0	-0.1315925	-38.21458	0	3	100	0	50	-9.007442	15.77458	-26.86316	
14:29:48	0	0	0	-0.1315925	-38.21458	0	3	100	0	50	-51.86039	21.26011	-22.53629	
14:29:48	0	0	0	-0.1315925	-38.21458	0	3	100	0	50	8.146724	7.751573	-25.21491	
14:29:49	0	0	0	-0.1315925	-38.21458	0	3	100	0	50	11.69889	8.447036	-25.18118	
14:29:49	0	0	0	-0.1315925	-38.21458	0	3	100	0	50	12.33552	8.325542	-24.14171	
14:29:49	0	0	0	-0.286882	-67.86671	0	3	100	0	50	-7.662395	15.14447	-25.09436	
14:29:49	0	0	0	-0.286882	-67.86671	0	3	100	0	50	-84.98323	30.52202	-34.06258	
14:29:49	0	0	0	-0.286882	-67.86671	0	3	100	0	50	-89.1451	30.03883	-32.62444	
14:29:50	0	0	0	-0.286882	-67.86671	0	3	100	0	50	-22.5689	13.28937	-16.10171	
14:29:50	0	0	0	-0.286882	-67.86671	0	3	100	0	50	23.13451	-3.768608	-19.60376	
14:29:50	0	0	0	-0.4389662	-117.5597	0	3	100	0	50	-40.32837	18.75953	-21.9512	
14:29:50	0	0	0	-0.4389662	-117.5597	0	3	100	0	50	-104.2384	31.58364	-29.01605	
14:29:50	0	0	0	-0.4389662	-117.5597	0	3	100	0	50	-7.680936	4.483689	-6.543409	
14:29:51	0	0	0	-0.4389662	-117.5597	0	3	100	0	50	-1.412009	9.301289	-12.464	
14:29:51	0	0	0	-0.4389662	-117.5597	0	3	100	0	50	-103.6686	25.98938	-34.13188	
14:29:51	0	0	0	-0.7231799	-169.1103	0	3	100	0	50	-16.02831	4.615122	-7.160419	
14:29:51	0	0	0	-0.7231799	-169.1103	0	3	100	0	50	16.11228	2.981024	-13.54393	
14:29:51	0	0	0	-0.7231799	-169.1103	0	3	100	0	50	-84.81024	26.62055	-23.70256	
14:29:52	0	0	0	-0.7231799	-169.1103	0	3	100	0	50	-21.68752	1.69375	-4.035663	
14:29:52	0	0	0	-0.7231799	-169.1103	0	3	100	0	50	-0.5903786	1.188233	-14.94601	
14:29:52	0	0	0	-0.7490159	-147.6245	0	3	100	0	50	-99.31419	26.50464	-29.80634	
14:29:52	0	0	0	-0.7490159	-147.6245	0	3	100	0	50	-20.49336	13.95365	-15.24612	
14:29:52	0	0	0	-0.7490159	-147.6245	0	3	100	0	50	-16.99184	12.3266	-12.53676	
14:29:53	0	0	0	-0.7490159	-147.6245	0	3	100	0	50	-24.57523	11.20545	-12.6133	
14:29:53	0	0	0	-0.7490159	-147.6245	0	3	100	0	50	-23.55753	11.11765	-12.20689	
14:29:53	0	0	0	-1.00102	-136.4527	0	3	100	0	50	-22.65296	10.88447	-11.8198	
14:29:53	0	0	0	-1.00102	-136.4527	0	3	100	0	50	-21.79131	10.66564	-11.4925	
14:29:53	0	0	0	-1.00102	-136.4527	0	3	100	0	50	-20.90298	10.45625	-11.21136	
14:29:54	0	0	0	-1.00102	-136.4527	0	3	100	0	50	-20.12153	10.2097	-10.95228	
14:29:54	0	0	0	-1.00102	-136.4527	0	3	100	0	50	-19.42971	9.978428	-10.73431	
14:29:54	0	0	0	-0.5938712	-78.00574	0	3	100	0	50	-18.75397	9.740418	-10.56276	
14:29:54	0	0	0	-0.5938712	-78.00574	0	3	100	0	50	-18.12655	9.506198	-10.41767	
14:29:54	0	0	0	-0.5938712	-78.00574	0	3	100	0	50	-17.52804	9.247532	-10.30263	
14:29:55	0	0	0	-0.5938712	-78.00574	0	3	100	0	50	-16.95649	8.991293	-10.21556	
14:29:55	0	0	0	-0.5938712	-78.00574	0	3	100	0	50	-16.41308	8.771837	-10.14895	
14:29:55	0	0	0	-0.003591337	-23.17925	0	3	100	0	50	-15.90121	8.532964	-10.1095	
14:29:55	0	0	0	-0.003591337	-23.17925	0	3	100	0	50	-15.40447	8.302329	-10.10685	
14:29:55	0	0	0	-0.003591337	-23.17925	0	3	100	0	50	-14.86476	8.05297	-10.07566	
14:29:56	0	0	0	-0.003591337	-23.17925	0	3	100	0	50	-14.34111	7.792664	-10.06418	
14:29:56	0	0	0	-0.003591337	-23.17925	0	3	100	0	50	-13.73503	7.542813	-10.07589	
14:29:56	0	0	0	0.008354323	-6.979421	0	3	100	0	50	-13.35847	7.285448	-10.12162	
14:29:56	0	0	0	0.008354323	-6.979421	0	3	100	0	50	-12.92914	7.036329	-10.18613	
14:29:56	0	0	0	0.008354323	-6.979421	0	3	100	0	50	-12.51017	6.800218	-10.24915	
14:29:57	0	0	0	0.008354323	-6.979421	0	3	100	0	50	-12.10582	6.572079	-10.33842	
14:29:57	0	0	0	0.008354323	-6.979421	0	3	100	0	50	-11.71159	6.372545	-10.41367	
14:29:57	0	0	0	0.1293944	15.08136	0	3	100	0	50	-11.31915	6.161105	-10.51348	
14:29:57	0	0	0	0.1293944	15.08136	0	3	100	0	50	-10.97141	5.960908	-10.62212	
14:29:57	0	0	0	0.1293944	15.08136	0	3	100	0	50	-10.62084	5.768301	-10.72881	
14:29:58	0	0	0	0.1293944	15.08136	0	3	100	0	50	-10.31211	5.561676	-10.84032	
14:29:58	0	0	0	0.1293944	15.08136	0	3	100	0	50	-9.981848	5.38221	-10.96065	
14:29:58	0	0	0	0.3631964	32.82639	0	3	100	0	50	-9.693659	5.227097	-11.09406	
14:29:58	0	0	0	0.3631964	32.82639	0	3	100	0	50	-9.395621	5.079105	-11.23664	
14:29:58	0	0	0	0.3631964	32.82639	0	3	100	0	50	-9.117665	4.927948	-11.37816	
14:29:59	0	0	0	0.3631964	32.82639	0	3	100	0	50	-8.824031	4.804981	-11.49899	
14:29:59	0	0	0	0.3631964	32.82639	0	3	100	0	50	-8.579501	4.6645	-11.64987	
14:29:59	0	0	0	0.5527	45.90202	0	3	100	0	50	-8.313544	4.52562	-11.79825	
14:29:59	0	0	0	0.5527	45.90202	0	3	100	0	50	-8.094415	4.395244	-11.9628	
14:29:59	0	0	0	0.5527	45.90202	0	3	100	0	50	-7.86321	4.271101	-12.10168	
14:30:00	0	0	0	0.5527	45.90202	0	3	100	0	50	-7.660886	4.149087	-12.23452	
14:30:00	0	0	0	0.5527	45.90202	0	3	100	0	50	-7.45243	4.039584	-12.36517	
14:30:00	0	0	0	0.5719232	45.8602	0	3	100	0	50	-7.281154	3.939048	-12.50991	
14:30:00	0	0	0	0.5719232	45.8602	0	3	100	0	50	-7.064536	3.852173	-12.64903	
14:30:00	0	0	0	0.5719232	45.8602	0	3	100	0	50	-6.850238	3.72082	-12.83918	
14:30:01	0	0	0	0.5719232	45.8602	0	3	100	0	50	-6.601926	3.605048	-13.03229	
14:30:01	0	0	0	0.5719232	45.8602	0	3	100	0	50	-6.401917	3.495051	-13.20896	
14:30:01	0	0	0	0.5713583	44.78221	0	3	100	0	50	-6.186476	3.390276	-13.38513	
14:30:01	0	0	0	0.5713583	44.78221	0	3	100	0	50	-5.984384	3.279401	-13.58052	
14:30:01	0	0	0	0.5713583	44.78221	0	3	100	0	50	-5.78435	3.192538	-13.76187	
14:30:02	0	0	0	0.5713583	44.78221	0	3	100	0	50	-5.600267	3.111312	-13.94376	
14:30:02	0	0	0	0.5713583	44.78221	0	3	100	0	50	-5.412714	3.02013	-14.1232	
14:30:02	0	0	0	0.5478064	41.68021	0	3	100	0	50	-5.234932	2.933692	-14.30599	
14:30:02	0	0	0	0.5478064	41.68021	0	3	100	0	50	-5.072442	2.847709	-14.48841	
14:30:02	0	0	0	0.5478064	41.68021	0	3	100	0	50	-4.024327	2.744708	-14.69841	
14:30:03	0	0	0	0.5478064	41.68021	0	3	100	0	50	-3.73345	2.733983	-14.84942	
14:30:03	0	0	0	0.5478064	41.68021	0	3	100	0	50	-3.390041	2.763107	-14.98793	
14:30:03	0	0	0	0.5308008	41.92295	0	3	100	0	50	-2.238138	2.902793	-12.98527	
14:30:03	0	0	0	0.5308008	41.92295	0	3	100	0	50	7.674373	2.157268	-10.06345	
14:30:03	0	0	0	0.5308008	41.92295	0	3	100	0	50	-18.81331	4.662221	-14.33522	
14:30:04	0	0	0	0.5308008	41.92295	0	3	100	0	50	5.171182	1.238752	-13.28937	
14:30:04	0	0	0	0.5308008	41.92295	0	3	100	0	50	-32.18643	11.76557	-22.2461	
14:30:04	0	0	0	0.3611296	29.49667	0	3	100	0	50	-6.037765	3.498694	-15.43329	
14:30:04	0	0	0	0.3611296	29.49667	0	3	100	0	50	1.724673	7.767443	-19.99388	
14:30:04	0	0	0	0.3611296	29.49667	0	3	100	0	50	-43.65537	14.09357	-31.9584	
14:30:05	0	0	0	0.3611296	29.49667	0	3	100	0	50	-11.5346	6.384049	-20.72689	
14:30:05	0	0	0	0.3611296	29.49667	0	3	100	0	50	12.93279	1.688406	-22.0919	
14:30:05	0	0	0	0.1533643	23.33883	0	3	100	0	50	-39.04811	16.65536	-30.976	
14:30:05	0	0	0	0.1533643	23.33883	0	3	100	0	50	-43.60602	14.83352	-29.91033	
14:30:05	0	0	0	0.1533643	23.33883	0	3	100	0	50	6.813981	5.236203	-22.69961	
14:30:06	0	0	0	0.1533643	23.33883	0	3	100	0	50	-18.83906	11.81444	-28.91113	
14:30:06	0	0	0	0.1533643	23.33883	0	3	100	0	50	-31.89389	10.89237	-32.31507	
14:30:06	0	0	0	0.04834605	7.600178	0	3	100	0	50	-1.833962	1.951875	-22.4909	
14:30:06	0	0	0	0.04834605	7.600178	0	3	100	0	50	1.35988	3.696464	-20.09268	
14:30:06	0	0	0	0.04834605	7.600178	0	3	100	0	50	0.3779559	2.547614	-19.98833	
14:30:07	0	0	0	0.04834605	7.600178	0	3	100	0	50	0.3379199	2.527922	-19.96669	
14:30:07	0	0	0	0.04834605	7.600178	0	3	100	0	50	0.3868415	2.516507	-19.94716	
14:30:07	0	0	0	-0.04615067	18.8644	0	3	100	0	50	0.4376306	2.477882	-19.93591	
14:30:07	0	0	0	-0.04615067	18.8644	0	3	100	0	50	0.4815456	2.458287	-19.92368	
14:30:07	0	0	0	-0.04615067	18.8644	0	3	100	0	50	0.520582	2.431943	-19.89116	
14:30:08	0	0	0	-0.04615067	18.8644	0	3	100	0	50	0.5572667	2.409198	-19.87751	
14:30:08	0	0	0	-0.04615067	18.8644	0	3	100	0	50	0.5950982	2.394188	-19.87041	
14:30:08	0	0	0	0.3015735	38.51902	0	3	100	0	50	0.6272328	2.363797	-19.85589	
14:30:08	0	0	0	0.3015735	38.51902	0	3	100	0	50	0.6652421	2.330148	-19.84337	
14:30:08	0	0	0	0.3015735	38.51902	0	3	100	0	50	0.6934507	2.315697	-19.84162	
14:30:09	0	0	0	0.3015735	38.51902	0	3	100	0	50	0.7031422	2.302185	-19.86606	
14:30:09	0	0	0	0.3015735	38.51902	0	3	100	0	50	0.7075875	2.292184	-19.89542	
14:30:09	0	0	0	0.182	28.2212	0	3	100	0	50	0.7256629	2.275584	-19.884	
14:30:09	0	0	0	0.182	28.2212	0	3	100	0	50	0.7377419	2.26921	-19.89286	
14:30:09	0	0	0	0.182	28.2212	0	3	100	0	50	0.7613332	2.25991	-19.89445	
14:30:10	0	0	0	0.182	28.2212	0	3	100	0	50	0.7832628	2.251072	-19.89514	
14:30:10	0	0	0	0.182	28.2212	0	3	100	0	50	0.7907868	2.236296	-19.9014	
14:30:10	0	0	0	0.1893695	28.06178	0	3	100	0	50	0.8049239	2.211774	-19.91019	
14:30:10	0	0	0	0.1893695	28.06178	0	3	100	0	50	0.8147332	2.201401	-19.92788	
14:30:10	0	0	0	0.1893695	28.06178	0	3	100	0	50	0.8265524	2.202072	-19.94629	
14:30:11	0	0	0	0.1893695	28.06178	0	3	100	0	50	0.8459181	2.199978	-19.95778	
14:30:11	0	0	0	0.1893695	28.06178	0	3	100	0	50	0.8537331	2.199594	-19.97622	
14:30:11	0	0	0	0.5361865	42.36819	0	3	100	0	50	0.8627052	2.197038	-19.97014	
14:30:11	0	0	0	0.5361865	42.36819	0	3	100	0	50	0.8832639	2.187806	-19.97303	
14:30:11	0	0	0	0.5361865	42.36819	0	3	100	0	50	0.8955472	2.198691	-19.96908	
14:30:12	0	0	0	0.5361865	42.36819	0	3	100	0	50	0.919949	2.198018	-19.99287	
14:30:12	0	0	0	0.5361865	42.36819	0	3	100	0	50	0.9438657	2.187558	-20.0019	
14:30:12	0	0	0	0.6796448	40.75622	0	3	100	0	50	1.07614	2.191841	-20.00534	
14:30:12	0	0	0	0.6796448	40.75622	0	3	100	0	50	0.9896771	2.198652	-20.0087	
14:30:12	0	0	0	0.6796448	40.75622	0	3	100	0	50	0.9939126	2.196488	-20.02058	
14:30:13	0	0	0	0.6796448	40.75622	0	3	100	0	50	1.010251	2.189188	-20.03172	
14:30:13	0	0	0	0.6796448	40.75622	0	3	100	0	50	1.0307	2.183036	-20.03611	
14:30:13	0	0	0	0.4308134	20.41114	0	3	100	0	50	1.050201	2.186056	-20.03802	
14:30:13	0	0	0	0.4308134	20.41114	0	3	100	0	50	1.061893	2.182362	-20.04513	
14:30:13	0	0	0	0.4308134	20.41114	0	3	100	0	50	1.082164	2.188322	-20.0352	
14:30:14	0	0	0	0.4308134	20.41114	0	3	100	0	50	1.057335	2.19619	-20.05084	
14:30:14	0	0	0	0.4308134	20.41114	0	3	100	0	50	1.048844	2.223601	-20.05896	
14:30:14	0	0	0	0.1983558	9.472399	0	3	100	0	50	1.020347	2.226175	-20.06344	
14:30:14	0	0	0	0.1983558	9.472399	0	3	100	0	50	1.002011	2.230257	-20.05624	
14:30:14	0	0	0	0.1983558	9.472399	0	3	100	0	50	0.993193	2.228864	-20.05443	
14:30:15	0	0	0	0.1983558	9.472399	0	3	100	0	50	0.9764869	2.21435	-20.06522	
14:30:15	0	0	0	0.1983558	9.472399	0	3	100	0	50	0.9599569	2.222071	-20.07362	
14:30:15	0	0	0	0.2303903	14.05971	0	3	100	0	50	0.9456452	2.236148	-20.07988	
14:30:15	0	0	0	0.2303903	14.05971	0	3	100	0	50	0.916944	2.233389	-20.078	
14:30:15	0	0	0	0.2303903	14.05971	0	3	100	0	50	0.8981193	2.243275	-20.06563	
14:30:16	0	0	0	0.2303903	14.05971	0	3	100	0	50	0.8938614	2.2478	-20.05757	
14:30:16	0	0	0	0.2303903	14.05971	0	3	100	0	50	0.879088	2.265152	-20.07111	
14:30:16	0	0	0	0.3857052	23.27172	0	3	100	0	50	0.8757287	2.262621	-20.0683	
14:30:16	0	0	0	0.3857052	23.27172	0	3	100	0	50	0.8724926	2.255616	-20.0707	
14:30:17	0	0	0	0.3857052	23.27172	0	3	100	0	50	0.8655688	2.237342	-20.07212	
14:30:17	0	0	0	0.3857052	23.27172	0	3	100	0	50	0.6655751	2.151276	-20.08761	
14:30:17	0	0	0	0.3857052	23.27172	0	3	100	0	50	0.3373145	2.066025	-20.10959	
14:30:17	0	0	0	0.6463666	30.86935	0	3	100	0	50	0.7289367	2.178155	-20.0585	
14:30:17	0	0	0	0.6463666	30.86935	0	3	100	0	50	-0.5816975	1.886568	-20.15238	
14:30:18	0	0	0	0.6463666	30.86935	0	3	100	0	50	-3.094457	1.325692	-20.34537	
14:30:18	0	0	0	0.6463666	30.86935	0	3	100	0	50	-19.07997	5.573605	-19.70837	
14:30:18	0	0	0	0.6463666	30.86935	0	3	100	0	50	24.09934	-2.919772	-17.80638	
14:30:18	0	0	0	0.5468907	15.40192	0	3	100	0	50	-24.94058	14.06967	-20.6663	
14:30:18	0	0	0	0.5468907	15.40192	0	3	100	0	50	-12.59622	7.980924	-14.75895	
14:30:19	0	0	0	0.5468907	15.40192	0	3	100	0	50	10.21073	0.7028505	-14.73051	
14:30:19	0	0	0	0.5468907	15.40192	0	3	100	0	50	-4.552521	7.973745	-17.09846	
14:30:19	0	0	0	0.5468907	15.40192	0	3	100	0	50	-5.438628	5.406881	-16.39683	
14:30:19	0	0	0	0.2119873	3.342678	0	3	100	0	50	7.792403	1.179793	-14.28166	
14:30:19	0	0	0	0.2119873	3.342678	0	3	100	0	50	-27.38626	17.7078	-20.471	
14:30:20	0	0	0	0.2119873	3.342678	0	3	100	0	50	-2.594019	3.004249	-13.87959	
14:30:20	0	0	0	0.2119873	3.342678	0	3	100	0	50	0.1766788	5.0211	-15.37581	
14:30:20	0	0	0	0.2119873	3.342678	0	3	100	0	50	-0.9083502	5.11555	-15.92296	
14:30:20	0	0	0	0.2550529	6.011382	0	3	100	0	50	0.5152913	3.398606	-15.9654	
14:30:20	0	0	0	0.2550529	6.011382	0	3	100	0	50	0.615171	3.377802	-16.06167	
14:30:21	0	0	0	0.2550529	6.011382	0	3	100	0	50	-2.833213	5.678535	-16.15673	
14:30:21	0	0	0	0.2550529	6.011382	0	3	100	0	50	-9.462597	10.00549	-16.3774	
14:30:21	0	0	0	0.2550529	6.011382	0	3	100	0	50	-8.164312	7.9073	-15.93785	
14:30:21	0	0	0	0.4176193	21.11744	0	3	100	0	50	-12.44111	10.6931	-17.07001	
14:30:21	0	0	0	0.4176193	21.11744	0	3	100	0	50	-8.595438	8.914442	-15.29777	
14:30:22	0	0	0	0.4176193	21.11744	0	3	100	0	50	1.669599	3.961043	-15.45079	
14:30:22	0	0	0	0.4176193	21.11744	0	3	100	0	50	0.1986404	4.459631	-15.68387	
14:30:22	0	0	0	0.4176193	21.11744	0	3	100	0	50	0.5973122	4.358536	-15.37174	
14:30:22	0	0	0	0.6081982	24.04409	0	3	100	0	50	-9.804516	10.01195	-15.73334	
14:30:22	0	0	0	0.6081982	24.04409	0	3	100	0	50	-11.24123	10.80599	-16.07438	
14:30:23	0	0	0	0.6081982	24.04409	0	3	100	0	50	-9.736949	9.867877	-15.87319	
14:30:23	0	0	0	0.6081982	24.04409	0	3	100	0	50	-2.107359	5.619328	-14.49927	
14:30:23	0	0	0	0.6081982	24.04409	0	3	100	0	50	-2.065613	5.681902	-14.74357	
14:30:23	0	0	0	0.4181182	11.33611	0	3	100	0	50	-2.032928	5.715689	-14.86587	
14:30:23	0	0	0	0.4181182	11.33611	0	3	100	0	50	3.174524	4.348908	-13.4933	
14:30:24	0	0	0	0.4181182	11.33611	0	3	100	0	50	-30.78555	15.86757	-21.99708	
14:30:24	0	0	0	0.4181182	11.33611	0	3	100	0	50	5.493844	0.344483	-14.1119	
14:30:24	0	0	0	0.4181182	11.33611	0	3	100	0	50	-5.837547	7.502506	-16.93225	
14:30:24	0	0	0	0.2313933	-0.5040826	0	3	100	0	50	-27.05636	18.71415	-19.61497	
14:30:24	0	0	0	0.2313933	-0.5040826	0	3	100	0	50	11.73055	1.451681	-12.38692	
14:30:25	0	0	0	0.2313933	-0.5040826	0	3	100	0	50	-48.99866	25.42457	-25.3472	
14:30:25	0	0	0	0.2313933	-0.5040826	0	3	100	0	50	-8.081888	7.53232	-9.006604	
14:30:25	0	0	0	0.2313933	-0.5040826	0	3	100	0	50	6.510201	6.153728	-16.86141	
14:30:25	0	0	0	0.2661325	-9.990847	0	3	100	0	50	-58.8917	24.7454	-26.93191	
14:30:25	0	0	0	0.2661325	-9.990847	0	3	100	0	50	4.010719	6.003702	-14.84593	
14:30:26	0	0	0	0.2661325	-9.990847	0	3	100	0	50	-4.484625	12.34475	-18.38636	
14:30:26	0	0	0	0.2661325	-9.990847	0	3	100	0	50	-65.49992	30.93324	-26.198	
14:30:26	0	0	0	0.2661325	-9.990847	0	3	100	0	50	-86.5876	30.49195	-29.40909	
14:30:26	0	0	0	0.09520683	-24.1641	0	3	100	0	50	-82.7392	30.80073	-27.17041	
14:30:26	0	0	0	0.09520683	-24.1641	0	3	100	0	50	2.693788	10.39081	-10.70368	
14:30:27	0	0	0	0.09520683	-24.1641	0	3	100	0	50	55.48309	-0.2632253	-14.23699	
14:30:27	0	0	0	0.09520683	-24.1641	0	3	100	0	50	69.04799	0.3438452	-16.11991	
14:30:27	0	0	0	0.09520683	-24.1641	0	3	100	0	50	69.3558	3.219571	-15.95394	
14:30:27	0	0	0	-0.01162953	-37.52746	0	3	100	0	50	-30.37145	34.3448	-20.74788	
14:30:27	0	0	0	-0.01162953	-37.52746	0	3	100	0	50	-93.86642	40.55912	-33.56715	
14:30:28	0	0	0	-0.01162953	-37.52746	0	3	100	0	50	-33.62425	32.88823	-10.38748	
14:30:28	0	0	0	-0.01162953	-37.52746	0	3	100	0	50	57.04161	7.675021	-21.94473	
14:30:28	0	0	0	-0.01162953	-37.52746	0	3	100	0	50	40.66903	13.17388	-20.88126	
14:30:28	0	0	0	-0.3517531	-85.86602	0	3	100	0	50	-55.79379	38.96124	-22.78867	
14:30:28	0	0	0	-0.3517531	-85.86602	0	3	100	0	50	-84.2988	39.89627	-21.90472	
14:30:29	0	0	0	-0.3517531	-85.86602	0	3	100	0	50	-55.16967	34.06139	-14.28148	
14:30:29	0	0	0	-0.3517531	-85.86602	0	3	100	0	50	34.6261	15.25044	-23.39108	
14:30:29	0	0	0	-0.3517531	-85.86602	0	3	100	0	50	58.33759	12.92449	-22.92915	
14:30:29	0	0	0	-0.656553	-99.75777	0	3	100	0	50	6.816529	21.61235	-22.562	
14:30:29	0	0	0	-0.656553	-99.75777	0	3	100	0	50	-54.13227	33.58567	-19.38573	
14:30:30	0	0	0	-0.656553	-99.75777	0	3	100	0	50	-56.33997	33.36503	-17.68782	
14:30:30	0	0	0	-0.656553	-99.75777	0	3	100	0	50	-54.48779	32.33853	-17.02403	
14:30:30	0	0	0	-0.656553	-99.75777	0	3	100	0	50	-53.68803	31.497	-16.62867	
14:30:30	0	0	0	-0.7636131	-86.22852	0	3	100	0	50	-53.46595	30.89753	-16.36876	
14:30:30	0	0	0	-0.7636131	-86.22852	0	3	100	0	50	-53.0505	30.20222	-16.0051	
14:30:31	0	0	0	-0.7636131	-86.22852	0	3	100	0	50	-52.64358	29.26794	-15.68423	
14:30:31	0	0	0	-0.7636131	-86.22852	0	3	100	0	50	-52.39457	28.735	-15.5538	
14:30:31	0	0	0	-0.7636131	-86.22852	0	3	100	0	50	-52.3572	28.19336	-15.47615	
14:30:31	0	0	0	-0.6667252	-54.16502	0	3	100	0	50	-52.64641	27.83265	-15.44675	
14:30:31	0	0	0	-0.6667252	-54.16502	0	3	100	0	50	-52.7832	27.38543	-15.51507	
14:30:32	0	0	0	-0.6667252	-54.16502	0	3	100	0	50	-52.79458	26.92176	-15.49802	
14:30:32	0	0	0	-0.6667252	-54.16502	0	3	100	0	50	-52.72823	26.49574	-15.40006	
14:30:32	0	0	0	-0.6667252	-54.16502	0	3	100	0	50	-52.33783	25.8366	-15.34836	
14:30:32	0	0	0	-0.4015413	-22.77934	0	3	100	0	50	-52.66793	25.54436	-15.39962	
