Date	Latitude(deg) 	Longitude(deg)	hamsl(m)	hafl(m)	climbrate(cm/s)	GroundSpeed(m/s)	Airspeed(m/s)	Mav_Link(%)	Rssi_Link(%)	Throttle	Roll(deg)	Pitch(deg)	Yaw(deg)
20:33:31	0	0	0	0	0	0	0	100	0	0	0	0	0	
20:33:31	0	0	0	0	0	0	0	100	0	0	-1.128399	5.554561	80.30383	
20:33:31	0	0	0	0	0	0	0	100	0	0	-1.131104	4.959759	80.37563	
20:33:31	0	0	0	0	0	0	0	100	0	0	-1.124479	5.483438	80.44667	
20:33:31	0	0	0	0	0	0	0	100	0	0	-1.130597	5.410088	80.51898	
20:33:31	0	0	0	-0.7150737	-33.99599	0	2.010227	100	0	50	-1.13695	3.488003	80.57195	
20:33:32	0	0	0	-0.7150737	-33.99599	0	2.010227	100	0	50	-1.138156	5.22262	80.57401	
20:33:32	0	0	0	-0.7150737	-33.99599	0	2.010227	100	0	50	-1.131122	4.277799	80.61604	
20:33:32	0	0	0	-0.7150737	-33.99599	0	2.010227	100	0	50	-1.119964	4.069726	80.6348	
20:33:32	0	0	0	-0.7150737	-33.99599	0	2.010227	100	0	50	-1.121194	3.880006	80.6425	
20:33:32	0	0	0	0.03833831	10.59135	0	3.178145E-42	100	0	50	-1.129535	2.342718	80.65155	
20:33:33	0	0	0	0.03833831	10.59135	0	3.178145E-42	100	0	50	-1.136483	3.671819	80.61249	
20:33:33	0	0	0	0.03833831	10.59135	0	3.178145E-42	100	0	50	-1.147904	4.073683	80.63416	
20:33:33	0	0	0	0.03833831	10.59135	0	3.178145E-42	100	0	50	-1.142258	3.282504	80.64086	
20:33:33	0	0	0	0.03833831	10.59135	0	3.178145E-42	100	0	50	-1.149119	3.77872	80.60217	
20:33:33	0	0	0	0.5123332	23.02311	0	2.010227	100	0	50	-1.160679	3.225501	80.59921	
20:33:34	0	0	0	0.5123332	23.02311	0	2.010227	100	0	50	-1.174831	2.050426	80.59038	
20:33:34	0	0	0	0.5123332	23.02311	0	2.010227	100	0	50	-1.180821	3.086729	80.54218	
20:33:34	0	0	0	0.5123332	23.02311	0	2.010227	100	0	50	-1.187679	2.112181	80.53806	
20:33:34	0	0	0	0.5123332	23.02311	0	2.010227	100	0	50	-1.199632	1.531665	80.497	
20:33:34	0	0	0	0.5678837	13.97265	0	2.260243	100	0	50	-1.198874	1.523395	80.44452	
20:33:35	0	0	0	0.5678837	13.97265	0	2.260243	100	0	50	-1.206738	0.7751304	80.40505	
20:33:35	0	0	0	0.5678837	13.97265	0	2.260243	100	0	50	-1.211205	1.281237	80.31502	
20:33:35	0	0	0	0.5678837	13.97265	0	2.260243	100	0	50	-1.205322	2.68524	80.26318	
20:33:35	0	0	0	0.5678837	13.97265	0	2.260243	100	0	50	-0.7787837	1.707759	74.90349	
20:33:35	0	0	0	0.5481423	9.850935	0	1.488433E-11	100	0	50	-17.41697	2.491163	72.49675	
20:33:36	0	0	0	0.5481423	9.850935	0	1.488433E-11	100	0	50	-9.51632	7.568608	68.79155	
20:33:36	0	0	0	0.5481423	9.850935	0	1.488433E-11	100	0	50	3.391504	8.396612	65.11977	
20:33:36	0	0	0	0.5481423	9.850935	0	1.488433E-11	100	0	50	4.594104	6.080673	66.42666	
20:33:36	0	0	0	0.5481423	9.850935	0	1.488433E-11	100	0	50	-20.78453	5.206873	68.67671	
20:33:36	0	0	0	0.1310233	-18.51009	0	2.010227	100	0	50	0.8797692	8.242975	65.22395	
20:33:37	0	0	0	0.1310233	-18.51009	0	2.010227	100	0	50	10.83467	5.041018	64.63257	
20:33:37	0	0	0	0.1310233	-18.51009	0	2.010227	100	0	50	-13.93999	5.161654	70.0067	
20:33:37	0	0	0	0.1310233	-18.51009	0	2.010227	100	0	50	8.061057	7.027234	66.41338	
20:33:37	0	0	0	0.1310233	-18.51009	0	2.010227	100	0	50	0.4223772	14.80402	72.80876	
20:33:37	0	0	0	-0.09134329	-42.70918	0	0.7260473	100	0	50	3.794102	13.04853	73.4124	
20:33:38	0	0	0	-0.09134329	-42.70918	0	0.7260473	100	0	50	3.677248	11.79209	73.59483	
20:33:38	0	0	0	-0.09134329	-42.70918	0	0.7260473	100	0	50	3.603706	10.83223	73.72121	
20:33:38	0	0	0	-0.09134329	-42.70918	0	0.7260473	100	0	50	3.487682	12.02414	73.8177	
20:33:38	0	0	0	-0.09134329	-42.70918	0	0.7260473	100	0	50	3.3856	12.04079	73.93732	
20:33:38	0	0	0	-0.3249386	-51.3258	0	0.7260474	100	0	50	3.323414	10.67519	74.0573	
20:33:39	0	0	0	-0.3249386	-51.3258	0	0.7260474	100	0	50	3.285429	12.02077	74.16116	
20:33:39	0	0	0	-0.3249386	-51.3258	0	0.7260474	100	0	50	3.162624	10.72744	74.26508	
20:33:39	0	0	0	-0.3249386	-51.3258	0	0.7260474	100	0	50	3.082082	12.11547	74.33756	
20:33:39	0	0	0	-0.3249386	-51.3258	0	0.7260474	100	0	50	3.003264	9.959467	74.43746	
20:33:39	0	0	0	-0.4655878	-51.38072	0	0.7260473	100	0	50	2.957872	11.92362	74.48338	
20:33:40	0	0	0	-0.4655878	-51.38072	0	0.7260473	100	0	50	2.8338	12.28583	74.58626	
20:33:40	0	0	0	-0.4655878	-51.38072	0	0.7260473	100	0	50	2.735442	10.33983	74.69793	
20:33:40	0	0	0	-0.4655878	-51.38072	0	0.7260473	100	0	50	2.647208	11.78786	74.74352	
20:33:40	0	0	0	-0.4655878	-51.38072	0	0.7260473	100	0	50	2.536821	10.59377	74.82207	
20:33:40	0	0	0	-0.5035581	-44.98597	0	2.010227	100	0	50	2.431867	11.35684	74.85963	
20:33:41	0	0	0	-0.5035581	-44.98597	0	2.010227	100	0	50	2.297436	11.23679	74.91128	
20:33:41	0	0	0	-0.5035581	-44.98597	0	2.010227	100	0	50	2.166656	10.3216	74.96274	
20:33:41	0	0	0	-0.5035581	-44.98597	0	2.010227	100	0	50	2.037098	9.658862	74.97004	
20:33:41	0	0	0	-0.5035581	-44.98597	0	2.010227	100	0	50	1.932394	8.182305	74.98972	
20:33:41	0	0	0	-0.4361249	-32.16245	0	2.010227	100	0	50	1.852911	8.404319	74.94332	
20:33:42	0	0	0	-0.4361249	-32.16245	0	2.010227	100	0	50	1.759773	9.198623	74.91572	
20:33:42	0	0	0	-0.4361249	-32.16245	0	2.010227	100	0	50	1.639085	8.923892	74.90911	
20:33:42	0	0	0	-0.4361249	-32.16245	0	2.010227	100	0	50	1.54196	7.626157	74.90274	
20:33:42	0	0	0	-0.4361249	-32.16245	0	2.010227	100	0	50	1.470355	8.114331	74.84045	
20:33:42	0	0	0	-0.3295095	-18.97416	0	1.904469	100	0	50	1.3919	8.60603	74.82106	
20:33:43	0	0	0	-0.3295095	-18.97416	0	1.904469	100	0	50	1.296472	7.325545	74.78802	
20:33:43	0	0	0	-0.3295095	-18.97416	0	1.904469	100	0	50	1.185664	5.421019	74.72582	
20:33:43	0	0	0	-0.3295095	-18.97416	0	1.904469	100	0	50	1.100507	5.705375	74.61011	
20:33:43	0	0	0	-0.3295095	-18.97416	0	1.904469	100	0	50	1.015532	5.565782	74.53064	
20:33:43	0	0	0	-0.1409916	-2.875427	0	3.051526	100	0	50	0.9226118	4.95519	74.42307	
20:33:44	0	0	0	-0.1409916	-2.875427	0	3.051526	100	0	50	0.8279734	6.552247	74.31887	
20:33:44	0	0	0	-0.1409916	-2.875427	0	3.051526	100	0	50	0.7413185	6.949557	74.2785	
20:33:44	0	0	0	-0.1409916	-2.875427	0	3.051526	100	0	50	0.6502261	6.516399	74.23925	
20:33:44	0	0	0	-0.1409916	-2.875427	0	3.051526	100	0	50	0.5542411	7.338933	74.1954	
20:33:44	0	0	0	0.0783252	5.839847	0	4.455794	100	0	50	0.4712211	7.502253	74.17333	
20:33:45	0	0	0	0.0783252	5.839847	0	4.455794	100	0	50	0.384619	7.138138	74.16856	
20:33:45	0	0	0	0.0783252	5.839847	0	4.455794	100	0	50	0.3067084	6.785992	74.15385	
20:33:45	0	0	0	0.0783252	5.839847	0	4.455794	100	0	50	0.220024	5.837171	74.11134	
20:33:45	0	0	0	0.0783252	5.839847	0	4.455794	100	0	50	0.1548544	5.333171	74.03399	
20:33:45	0	0	0	-0.1345156	-5.370823	0	5.411715E-38	100	0	50	0.08682723	6.258838	73.96097	
20:33:46	0	0	0	-0.1345156	-5.370823	0	5.411715E-38	100	0	50	0.01492428	5.736113	73.91968	
20:33:46	0	0	0	-0.1345156	-5.370823	0	5.411715E-38	100	0	50	-0.0447429	4.586621	73.87287	
20:33:46	0	0	0	-0.1345156	-5.370823	0	5.411715E-38	100	0	50	-0.1189977	2.94789	73.78582	
20:33:46	0	0	0	-0.1345156	-5.370823	0	5.411715E-38	100	0	50	-0.1885146	1.261958	73.64532	
20:33:46	0	0	0	-0.08692453	1.471904	0	2.010227	100	0	50	-0.2708626	0.4724461	73.45606	
20:33:47	0	0	0	-0.08692453	1.471904	0	2.010227	100	0	50	-0.3476935	-0.4354656	73.23953	
20:33:47	0	0	0	-0.08692453	1.471904	0	2.010227	100	0	50	-0.3905021	1.620652	73.03516	
20:33:47	0	0	0	-0.08692453	1.471904	0	2.010227	100	0	50	-0.432024	-0.5227486	72.87107	
20:33:47	0	0	0	-0.08692453	1.471904	0	2.010227	100	0	50	-0.4770278	1.550718	72.68283	
20:33:47	0	0	0	-0.04711042	5.18568	0	0.711691	100	0	50	-0.4884439	2.100025	72.54411	
20:33:48	0	0	0	-0.04711042	5.18568	0	0.711691	100	0	50	11.7721	2.620895	76.20737	
20:33:48	0	0	0	-0.04711042	5.18568	0	0.711691	100	0	50	-4.615969	2.831233	83.79903	
20:33:48	0	0	0	-0.04711042	5.18568	0	0.711691	100	0	50	3.659763	1.059998	83.51723	
20:33:48	0	0	0	-0.04711042	5.18568	0	0.711691	100	0	50	13.70636	0.2507331	81.88261	
20:33:48	0	0	0	-0.06168219	22.08418	0	4.455794	100	0	50	-2.239624	3.820308	83.60045	
20:33:49	0	0	0	-0.06168219	22.08418	0	4.455794	100	0	50	-2.168623	4.351468	83.19557	
20:33:49	0	0	0	-0.06168219	22.08418	0	4.455794	100	0	50	-2.193132	4.221134	83.10748	
20:33:49	0	0	0	-0.06168219	22.08418	0	4.455794	100	0	50	-2.198598	3.979251	83.04092	
20:33:49	0	0	0	-0.06168219	22.08418	0	4.455794	100	0	50	-2.188038	3.153139	82.9547	
20:33:49	0	0	0	0.05207429	18.15391	0	1.960465E-28	100	0	50	-2.178746	3.392378	82.85267	
20:33:50	0	0	0	0.05207429	18.15391	0	1.960465E-28	100	0	50	-2.184822	3.309837	82.7635	
20:33:50	0	0	0	0.05207429	18.15391	0	1.960465E-28	100	0	50	-2.198475	1.472819	82.65215	
20:33:50	0	0	0	0.05207429	18.15391	0	1.960465E-28	100	0	50	-2.209175	-0.0302066	82.499	
20:33:50	0	0	0	0.05207429	18.15391	0	1.960465E-28	100	0	50	-2.240966	1.320827	82.31587	
20:33:50	0	0	0	-0.1025476	5.888696	0	2.010227	100	0	50	-2.256166	0.2634827	82.19501	
20:33:51	0	0	0	-0.1025476	5.888696	0	2.010227	100	0	50	-2.262208	0.6714233	82.02525	
20:33:51	0	0	0	-0.1025476	5.888696	0	2.010227	100	0	50	-2.25309	0.7667895	81.88979	
20:33:51	0	0	0	-0.1025476	5.888696	0	2.010227	100	0	50	-2.261267	-0.7530083	81.75552	
20:33:51	0	0	0	-0.1025476	5.888696	0	2.010227	100	0	50	-2.282676	0.4785592	81.58082	
20:33:51	0	0	0	-0.1671947	2.923224	0	4.834114	100	0	50	-2.2883	-0.5170274	81.44701	
20:33:52	0	0	0	-0.1671947	2.923224	0	4.834114	100	0	50	-2.288304	0.4118206	81.29593	
20:33:52	0	0	0	-0.1671947	2.923224	0	4.834114	100	0	50	-2.280472	-0.6907556	81.17213	
20:33:52	0	0	0	-0.1671947	2.923224	0	4.834114	100	0	50	-2.27931	-0.1568248	81.00868	
20:33:52	0	0	0	-0.1671947	2.923224	0	4.834114	100	0	50	-2.283507	-1.190546	80.88434	
20:33:52	0	0	0	-0.2556466	0.9351386	0	6.44731E-12	100	0	50	-2.285864	-2.107205	80.72427	
20:33:53	0	0	0	-0.2556466	0.9351386	0	6.44731E-12	100	0	50	-2.300295	-0.9448453	80.55804	
20:33:53	0	0	0	-0.2556466	0.9351386	0	6.44731E-12	100	0	50	-2.292525	-0.1359663	80.41838	
20:33:53	0	0	0	-0.2556466	0.9351386	0	6.44731E-12	100	0	50	-2.280814	-0.1377528	80.31172	
20:33:53	0	0	0	-0.2556466	0.9351386	0	6.44731E-12	100	0	50	-2.268221	-0.2032952	80.22358	
20:33:53	0	0	0	-0.2651004	0.395642	0	3.19833	100	0	50	-2.277985	-1.133886	80.12717	
20:33:54	0	0	0	-0.2651004	0.395642	0	3.19833	100	0	50	-2.278104	-2.189978	79.99138	
20:33:54	0	0	0	-0.2651004	0.395642	0	3.19833	100	0	50	-2.286298	-0.5881639	79.8419	
20:33:54	0	0	0	-0.2651004	0.395642	0	3.19833	100	0	50	-2.2972	-0.06463335	79.73882	
20:33:54	0	0	0	-0.2651004	0.395642	0	3.19833	100	0	50	-2.297604	-1.03356	79.61543	
20:33:54	0	0	0	-0.3935283	-3.232278	0	4.721976	100	0	50	-2.295959	-0.3147927	79.48691	
20:33:55	0	0	0	-0.3935283	-3.232278	0	4.721976	100	0	50	-2.29016	-1.460279	79.36951	
20:33:55	0	0	0	-0.3935283	-3.232278	0	4.721976	100	0	50	-2.300903	-0.1556727	79.24419	
20:33:55	0	0	0	-0.3935283	-3.232278	0	4.721976	100	0	50	-2.28489	-1.020407	79.14609	
20:33:55	0	0	0	-0.3935283	-3.232278	0	4.721976	100	0	50	-2.256895	-0.1833328	79.04164	
20:33:55	0	0	0	-0.3646322	1.530074	0	0.2178142	100	0	50	-2.234308	-0.06536277	78.9588	
20:33:56	0	0	0	-0.3646322	1.530074	0	0.2178142	100	0	50	-2.219842	-0.7619692	78.86411	
20:33:56	0	0	0	-0.3646322	1.530074	0	0.2178142	100	0	50	-2.201579	-0.4472983	78.75939	
20:33:56	0	0	0	-0.3646322	1.530074	0	0.2178142	100	0	50	-2.206558	-1.718393	78.67635	
20:33:56	0	0	0	-0.3646322	1.530074	0	0.2178142	100	0	50	-2.206493	-0.1342624	78.56671	
20:33:56	0	0	0	-0.2412096	6.55888	0	5.663964E-28	100	0	50	-2.182126	-0.184168	78.50816	
20:33:57	0	0	0	-0.2412096	6.55888	0	5.663964E-28	100	0	50	-2.164524	-0.6674025	78.43255	
20:33:57	0	0	0	-0.2412096	6.55888	0	5.663964E-28	100	0	50	-2.17401	-2.027162	78.35074	
20:33:57	0	0	0	-0.2412096	6.55888	0	5.663964E-28	100	0	50	-2.191477	-0.5107097	78.25603	
20:33:57	0	0	0	-0.2412096	6.55888	0	5.663964E-28	100	0	50	-2.186668	-2.051943	78.18673	
20:33:57	0	0	0	-0.3010141	1.65257	0	3.051526	100	0	50	-2.191353	-0.4088898	78.07264	
20:33:58	0	0	0	-0.3010141	1.65257	0	3.051526	100	0	50	-2.185485	-0.9487501	78.02067	
20:33:58	0	0	0	-0.3010141	1.65257	0	3.051526	100	0	50	-2.186321	-2.605356	77.95429	
20:33:58	0	0	0	-0.3010141	1.65257	0	3.051526	100	0	50	-2.180895	-0.8967361	77.84724	
20:33:58	0	0	0	-0.3010141	1.65257	0	3.051526	100	0	50	-2.172747	-2.291053	77.78316	
20:33:58	0	0	0	-0.3861888	-0.5315468	0	0.831805	100	0	50	-2.158318	-1.341256	77.68491	
20:33:59	0	0	0	-0.3861888	-0.5315468	0	0.831805	100	0	50	-2.142162	-2.804178	77.60789	
20:33:59	0	0	0	-0.3861888	-0.5315468	0	0.831805	100	0	50	-2.126742	-1.492225	77.50986	
20:33:59	0	0	0	-0.3861888	-0.5315468	0	0.831805	100	0	50	-2.119008	-3.388183	77.39663	
20:33:59	0	0	0	-0.3861888	-0.5315468	0	0.831805	100	0	50	-2.094289	-2.097139	77.25294	
20:33:59	0	0	0	-0.08484411	13.48123	0	0.6967487	100	0	50	-2.073992	-0.9666901	77.16045	
20:34:00	0	0	0	-0.08484411	13.48123	0	0.6967487	100	0	50	-2.046393	-2.224976	77.08202	
20:34:00	0	0	0	-0.08484411	13.48123	0	0.6967487	100	0	50	-2.018244	-2.265393	76.97108	
20:34:00	0	0	0	-0.08484411	13.48123	0	0.6967487	100	0	50	-1.993752	-2.290454	76.87582	
20:34:00	0	0	0	-0.08484411	13.48123	0	0.6967487	100	0	50	-1.987928	-0.7538953	76.8022	
20:34:01	0	0	0	-0.0581681	9.176522	0	0.7260474	100	0	50	-1.964833	-1.568472	76.74628	
20:34:01	0	0	0	-0.0581681	9.176522	0	0.7260474	100	0	50	-1.938915	-1.621895	76.67499	
20:34:01	0	0	0	-0.0581681	9.176522	0	0.7260474	100	0	50	-1.920256	-2.497878	76.59081	
20:34:01	0	0	0	-0.0581681	9.176522	0	0.7260474	100	0	50	-1.919028	-3.137232	76.50175	
20:34:01	0	0	0	-0.0581681	9.176522	0	0.7260474	100	0	50	-1.911259	-1.790245	76.39664	
20:34:02	0	0	0	-0.2904284	-2.660044	0	3.141797	100	0	50	-1.899786	-1.745318	76.33379	
20:34:02	0	0	0	-0.2904284	-2.660044	0	3.141797	100	0	50	-1.878892	-2.30866	76.26387	
20:34:02	0	0	0	-0.2904284	-2.660044	0	3.141797	100	0	50	-1.872682	-4.249041	76.1757	
20:34:02	0	0	0	-0.2904284	-2.660044	0	3.141797	100	0	50	-1.870396	-3.216787	76.04814	
20:34:02	0	0	0	-0.2904284	-2.660044	0	3.141797	100	0	50	-1.849378	-2.646833	75.95682	
20:34:03	0	0	0	-0.4909268	-9.476013	0	1.401298E-45	100	0	50	-1.834828	-2.190119	75.88702	
20:34:03	0	0	0	-0.4909268	-9.476013	0	1.401298E-45	100	0	50	-1.820721	-2.895062	75.84627	
20:34:03	0	0	0	-0.4909268	-9.476013	0	1.401298E-45	100	0	50	-1.810558	-3.615772	75.76686	
20:34:03	0	0	0	-0.4909268	-9.476013	0	1.401298E-45	100	0	50	-1.80386	-3.541956	75.68695	
20:34:03	0	0	0	-0.4909268	-9.476013	0	1.401298E-45	100	0	50	-1.794007	-2.941624	75.61279	
20:34:04	0	0	0	-0.4705073	-3.82765	0	0.8771297	100	0	50	-1.78477	-2.880337	75.55655	
20:34:04	0	0	0	-0.4705073	-3.82765	0	0.8771297	100	0	50	-1.789627	-4.305693	75.48563	
20:34:04	0	0	0	-0.4705073	-3.82765	0	0.8771297	100	0	50	-1.78389	-4.686504	75.38712	
20:34:04	0	0	0	-0.4705073	-3.82765	0	0.8771297	100	0	50	-1.79358	-3.869321	75.29191	
20:34:04	0	0	0	-0.4705073	-3.82765	0	0.8771297	100	0	50	-1.783745	-5.370693	75.19891	
20:34:05	0	0	0	-0.614103	-10.01552	0	4.834114	100	0	50	-1.754493	-5.073372	75.06847	
20:34:05	0	0	0	-0.614103	-10.01552	0	4.834114	100	0	50	-1.73379	-4.186043	74.93776	
20:34:05	0	0	0	-0.614103	-10.01552	0	4.834114	100	0	50	-1.711212	-4.26076	74.84406	
20:34:05	0	0	0	-0.614103	-10.01552	0	4.834114	100	0	50	-1.700904	-5.613788	74.75069	
20:34:05	0	0	0	-0.614103	-10.01552	0	4.834114	100	0	50	-1.704883	-3.876288	74.64783	
20:34:06	0	0	0	-0.536257	-1.786138	0	6.006361E-13	100	0	50	-1.687522	-3.916243	74.5874	
20:34:06	0	0	0	-0.536257	-1.786138	0	6.006361E-13	100	0	50	-1.668881	-5.103059	74.52264	
20:34:06	0	0	0	-0.536257	-1.786138	0	6.006361E-13	100	0	50	-1.645141	-6.084171	74.41216	
20:34:06	0	0	0	-0.536257	-1.786138	0	6.006361E-13	100	0	50	-1.629781	-7.718683	74.29006	
20:34:06	0	0	0	-0.536257	-1.786138	0	6.006361E-13	100	0	50	-1.619667	-5.715887	74.1452	
20:34:07	0	0	0	-0.4316232	0.8528504	0	1.936197	100	0	50	-1.597169	-5.445293	74.03442	
20:34:07	0	0	0	-0.4316232	0.8528504	0	1.936197	100	0	50	-1.57164	-5.784139	73.93219	
20:34:07	0	0	0	-0.4316232	0.8528504	0	1.936197	100	0	50	-1.549233	-5.982286	73.8131	
20:34:07	0	0	0	-0.4316232	0.8528504	0	1.936197	100	0	50	-1.517211	-7.193225	73.71504	
20:34:07	0	0	0	-0.4316232	0.8528504	0	1.936197	100	0	50	-1.504694	-5.57391	73.60439	
20:34:08	0	0	0	-0.2318982	8.118114	0	1.839537E-16	100	0	50	-1.499262	-7.677675	73.52567	
20:34:08	0	0	0	-0.2318982	8.118114	0	1.839537E-16	100	0	50	-1.477068	-6.119292	73.39507	
20:34:08	0	0	0	-0.2318982	8.118114	0	1.839537E-16	100	0	50	-1.468147	-7.387276	73.30166	
20:34:08	0	0	0	-0.2318982	8.118114	0	1.839537E-16	100	0	50	-1.455464	-6.087103	73.2055	
20:34:08	0	0	0	-0.2318982	8.118114	0	1.839537E-16	100	0	50	-1.449399	-5.747299	73.13142	
20:34:09	0	0	0	-0.4092195	-7.240621	0	1.401298E-45	100	0	50	-1.435482	-5.576408	73.06628	
20:34:09	0	0	0	-0.4092195	-7.240621	0	1.401298E-45	100	0	50	-1.436856	-6.801468	73	
20:34:09	0	0	0	-0.4092195	-7.240621	0	1.401298E-45	100	0	50	-1.429162	-8.389647	72.89306	
20:34:09	0	0	0	-0.4092195	-7.240621	0	1.401298E-45	100	0	50	-1.420065	-9.528897	72.75997	
20:34:09	0	0	0	-0.4092195	-7.240621	0	1.401298E-45	100	0	50	-1.415854	-8.102486	72.59313	
20:34:10	0	0	0	-0.5650536	-16.41874	0	6.63359E-18	100	0	50	-1.399801	-8.927459	72.4706	
20:34:10	0	0	0	-0.5650536	-16.41874	0	6.63359E-18	100	0	50	-1.375117	-8.962073	72.3224	
20:34:10	0	0	0	-0.5650536	-16.41874	0	6.63359E-18	100	0	50	-1.350487	-9.589132	72.17199	
20:34:10	0	0	0	-0.5650536	-16.41874	0	6.63359E-18	100	0	50	-1.327135	-8.856435	72.02306	
20:34:10	0	0	0	-0.5650536	-16.41874	0	6.63359E-18	100	0	50	-1.320143	-7.402809	71.90437	
20:34:11	0	0	0	-0.6042427	-18.65335	0	0.711691	100	0	50	-1.312524	-8.206445	71.81644	
20:34:11	0	0	0	-0.6042427	-18.65335	0	0.711691	100	0	50	-1.292179	-9.798965	71.70031	
20:34:11	0	0	0	-0.6042427	-18.65335	0	0.711691	100	0	50	-1.282715	-9.821312	71.57191	
20:34:11	0	0	0	-0.6042427	-18.65335	0	0.711691	100	0	50	-1.279333	-9.866933	71.45199	
20:34:11	0	0	0	-0.6042427	-18.65335	0	0.711691	100	0	50	-1.265395	-9.448652	71.33033	
20:34:12	0	0	0	-0.5962478	-18.8175	0	3.037617E-11	100	0	50	-1.255962	-7.635063	71.22449	
20:34:12	0	0	0	-0.5962478	-18.8175	0	3.037617E-11	100	0	50	-1.251791	-7.34351	71.15704	
20:34:12	0	0	0	-0.5962478	-18.8175	0	3.037617E-11	100	0	50	-1.24831	-7.775866	71.08887	
20:34:12	0	0	0	-0.5962478	-18.8175	0	3.037617E-11	100	0	50	-1.252627	-6.347765	71.03195	
20:34:12	0	0	0	-0.5962478	-18.8175	0	3.037617E-11	100	0	50	-1.251697	-5.762559	71.01511	
20:34:13	0	0	0	-0.6783105	-18.06323	0	0.6841921	100	0	50	-1.264821	-5.460705	71.02761	
20:34:13	0	0	0	-0.6783105	-18.06323	0	0.6841921	100	0	50	-1.260062	-5.412209	71.02995	
20:34:13	0	0	0	-0.6783105	-18.06323	0	0.6841921	100	0	50	-1.259826	-5.570463	71.04433	
20:34:13	0	0	0	-0.6783105	-18.06323	0	0.6841921	100	0	50	-1.253819	-5.292935	71.04021	
20:34:13	0	0	0	-0.6783105	-18.06323	0	0.6841921	100	0	50	-1.246147	-5.177067	71.04543	
20:34:14	0	0	0	-0.668415	-8.98988	0	8.389431E-15	100	0	50	-1.240661	-4.699843	71.03925	
20:34:14	0	0	0	-0.668415	-8.98988	0	8.389431E-15	100	0	50	-1.251595	-5.129867	71.05137	
20:34:14	0	0	0	-0.668415	-8.98988	0	8.389431E-15	100	0	50	-1.253237	-5.867156	71.05971	
20:34:14	0	0	0	-0.668415	-8.98988	0	8.389431E-15	100	0	50	-1.26757	-4.974407	71.05829	
20:34:14	0	0	0	-0.668415	-8.98988	0	8.389431E-15	100	0	50	-1.281482	-6.202408	71.05453	
20:34:15	0	0	0	-0.4414851	4.636624	0	1.536224E-09	100	0	50	-1.287283	-4.473524	71.04513	
20:34:15	0	0	0	-0.4414851	4.636624	0	1.536224E-09	100	0	50	-1.285671	-4.055853	71.07169	
20:34:15	0	0	0	-0.4414851	4.636624	0	1.536224E-09	100	0	50	-1.294529	-5.276751	71.09689	
20:34:15	0	0	0	-0.4414851	4.636624	0	1.536224E-09	100	0	50	-1.301389	-4.792551	71.11391	
20:34:15	0	0	0	-0.4414851	4.636624	0	1.536224E-09	100	0	50	-1.307391	-3.600271	71.13535	
20:34:16	0	0	0	-0.3174812	9.404747	0	1.621559	100	0	50	-1.322659	-3.094888	71.19687	
20:34:16	0	0	0	-0.3174812	9.404747	0	1.621559	100	0	50	-1.325592	-5.133827	71.25341	
20:34:16	0	0	0	-0.3174812	9.404747	0	1.621559	100	0	50	-1.313063	-3.265774	71.27341	
20:34:16	0	0	0	-0.3174812	9.404747	0	1.621559	100	0	50	-1.319949	-5.33162	71.3134	
20:34:16	0	0	0	-0.3174812	9.404747	0	1.621559	100	0	50	-1.317976	-3.714943	71.33078	
20:34:17	0	0	0	-0.1292449	15.25549	0	0.08111989	100	0	50	-1.31735	-4.701048	71.39437	
20:34:17	0	0	0	-0.1292449	15.25549	0	0.08111989	100	0	50	-1.309917	-4.162498	71.40466	
20:34:17	0	0	0	-0.1292449	15.25549	0	0.08111989	100	0	50	-1.302533	-2.728862	71.44559	
20:34:17	0	0	0	-0.1292449	15.25549	0	0.08111989	100	0	50	-1.293436	-2.725722	71.53191	
20:34:17	0	0	0	-0.1292449	15.25549	0	0.08111989	100	0	50	-1.29774	-4.304205	71.59441	
20:34:18	0	0	0	-0.1335293	10.20663	0	0.7260473	100	0	50	-1.305026	-3.583409	71.61113	
20:34:18	0	0	0	-0.1335293	10.20663	0	0.7260473	100	0	50	-1.307423	-4.331676	71.64936	
20:34:18	0	0	0	-0.1335293	10.20663	0	0.7260473	100	0	50	-1.30567	-4.278909	71.66289	
20:34:18	0	0	0	-0.1335293	10.20663	0	0.7260473	100	0	50	-1.308822	-4.185878	71.69244	
20:34:18	0	0	0	-0.1335293	10.20663	0	0.7260473	100	0	50	-1.299492	-5.181433	71.71935	
20:34:19	0	0	0	-0.29407	-1.412098	0	1.401298E-45	100	0	50	-1.303316	-4.744471	71.70724	
20:34:19	0	0	0	-0.29407	-1.412098	0	1.401298E-45	100	0	50	-1.306324	-3.655719	71.73884	
20:34:19	0	0	0	-0.29407	-1.412098	0	1.401298E-45	100	0	50	-1.304392	-3.943849	71.77534	
20:34:19	0	0	0	-0.29407	-1.412098	0	1.401298E-45	100	0	50	-1.309075	-5.359599	71.79025	
20:34:19	0	0	0	-0.29407	-1.412098	0	1.401298E-45	100	0	50	-1.306694	-6.118385	71.76997	
20:34:20	0	0	0	-0.5702717	-13.53857	0	5.638459E-17	100	0	50	-1.314015	-4.826494	71.75905	
20:34:20	0	0	0	-0.5702717	-13.53857	0	5.638459E-17	100	0	50	-1.310248	-3.337624	71.78278	
20:34:20	0	0	0	-0.5702717	-13.53857	0	5.638459E-17	100	0	50	-1.305335	-2.70425	71.85028	
20:34:20	0	0	0	-0.5702717	-13.53857	0	5.638459E-17	100	0	50	-1.303831	-2.889907	71.93824	
20:34:20	0	0	0	-0.5702717	-13.53857	0	5.638459E-17	100	0	50	-1.300824	-2.96641	72.01766	
20:34:21	0	0	0	-0.5069835	-3.076229	0	2.014302E-15	100	0	50	-1.292987	-2.551338	72.08571	
20:34:21	0	0	0	-0.5069835	-3.076229	0	2.014302E-15	100	0	50	-1.293847	-2.855233	72.15524	
20:34:21	0	0	0	-0.5069835	-3.076229	0	2.014302E-15	100	0	50	-1.285873	-2.890916	72.22065	
20:34:21	0	0	0	-0.5069835	-3.076229	0	2.014302E-15	100	0	50	-1.282249	-2.271262	72.29562	
20:34:21	0	0	0	-0.5069835	-3.076229	0	2.014302E-15	100	0	50	-1.285017	-2.662936	72.3902	
20:34:22	0	0	0	-0.4521059	1.006032	0	2.318855	100	0	50	-1.288308	-3.881127	72.45693	
20:34:22	0	0	0	-0.4521059	1.006032	0	2.318855	100	0	50	-1.292213	-4.609553	72.4943	
20:34:22	0	0	0	-0.4521059	1.006032	0	2.318855	100	0	50	-1.290296	-5.344387	72.49024	
20:34:22	0	0	0	-0.4521059	1.006032	0	2.318855	100	0	50	-1.288845	-3.667033	72.48254	
20:34:22	0	0	0	-0.4521059	1.006032	0	2.318855	100	0	50	-1.280191	-3.303621	72.51768	
20:34:23	0	0	0	-0.3061508	8.801615	0	4.834114	100	0	50	-1.279792	-5.099979	72.55767	
20:34:23	0	0	0	-0.3061508	8.801615	0	4.834114	100	0	50	-1.269172	-6.249182	72.53419	
20:34:23	0	0	0	-0.3061508	8.801615	0	4.834114	100	0	50	-1.262938	-6.12227	72.48033	
20:34:23	0	0	0	-0.3061508	8.801615	0	4.834114	100	0	50	-1.257878	-4.329508	72.44423	
20:34:23	0	0	0	-0.3061508	8.801615	0	4.834114	100	0	50	-1.249309	-3.214623	72.47091	
20:34:24	0	0	0	-0.3408043	3.223601	0	1.359919E-28	100	0	50	-1.25267	-3.894696	72.50066	
20:34:24	0	0	0	-0.3408043	3.223601	0	1.359919E-28	100	0	50	-1.249924	-2.633974	72.52485	
20:34:24	0	0	0	-0.3408043	3.223601	0	1.359919E-28	100	0	50	-1.24667	-2.564285	72.58794	
20:34:24	0	0	0	-0.3408043	3.223601	0	1.359919E-28	100	0	50	-1.24621	-2.617408	72.66069	
20:34:24	0	0	0	-0.3408043	3.223601	0	1.359919E-28	100	0	50	-1.243067	-4.634777	72.71318	
20:34:25	0	0	0	-0.4274244	1.313868	0	4.455794	100	0	50	-1.241176	-2.549258	72.72594	
20:34:25	0	0	0	-0.4274244	1.313868	0	4.455794	100	0	50	-1.238491	-4.102195	72.7877	
20:34:25	0	0	0	-0.4274244	1.313868	0	4.455794	100	0	50	-1.229986	-5.772238	72.82355	
20:34:25	0	0	0	-0.4274244	1.313868	0	4.455794	100	0	50	-1.211419	-4.869533	72.80744	
20:34:25	0	0	0	-0.4274244	1.313868	0	4.455794	100	0	50	-1.209984	-4.070704	72.83494	
20:34:26	0	0	0	-0.1644799	10.25575	0	1.401298E-45	100	0	50	-1.214648	-2.82312	72.85433	
20:34:26	0	0	0	-0.1644799	10.25575	0	1.401298E-45	100	0	50	-1.205843	-2.916495	72.92611	
20:34:26	0	0	0	-0.1644799	10.25575	0	1.401298E-45	100	0	50	-1.199641	-2.546226	72.98331	
20:34:26	0	0	0	-0.1644799	10.25575	0	1.401298E-45	100	0	50	-1.209693	-2.863679	73.06416	
20:34:26	0	0	0	-0.1644799	10.25575	0	1.401298E-45	100	0	50	-1.209194	-2.841167	73.10811	
20:34:27	0	0	0	-0.4772081	-4.944455	0	3.051526	100	0	50	-1.209462	-1.379418	73.17899	
20:34:27	0	0	0	-0.4772081	-4.944455	0	3.051526	100	0	50	-1.20322	-0.9200498	73.27824	
20:34:27	0	0	0	-0.4772081	-4.944455	0	3.051526	100	0	50	-1.212132	-0.8672705	73.37727	
20:34:27	0	0	0	-0.4772081	-4.944455	0	3.051526	100	0	50	-1.224247	-1.919979	73.47617	
20:34:27	0	0	0	-0.4772081	-4.944455	0	3.051526	100	0	50	-1.221414	-1.951843	73.55205	
20:34:28	0	0	0	-0.4172575	1.705858	0	4.836071E-38	100	0	50	-1.213184	-0.8716245	73.6197	
20:34:28	0	0	0	-0.4172575	1.705858	0	4.836071E-38	100	0	50	-1.203184	-0.8171102	73.72121	
20:34:28	0	0	0	-0.4172575	1.705858	0	4.836071E-38	100	0	50	-1.20089	-0.7931797	73.81496	
20:34:28	0	0	0	-0.4172575	1.705858	0	4.836071E-38	100	0	50	-1.194507	-0.7673889	73.90987	
20:34:28	0	0	0	-0.4172575	1.705858	0	4.836071E-38	100	0	50	-1.194731	-0.7806473	73.99199	
20:34:29	0	0	0	-0.1548144	14.06635	0	4.455794	100	0	50	-1.184998	-1.183574	74.08019	
20:34:29	0	0	0	-0.1548144	14.06635	0	4.455794	100	0	50	-1.186192	-2.211672	74.13576	
20:34:29	0	0	0	-0.1548144	14.06635	0	4.455794	100	0	50	-1.18743	-2.023684	74.15591	
20:34:29	0	0	0	-0.1548144	14.06635	0	4.455794	100	0	50	-1.193079	-1.600887	74.20075	
20:34:29	0	0	0	-0.1548144	14.06635	0	4.455794	100	0	50	-1.189048	-1.954122	74.23894	
20:34:30	0	0	0	-0.1555224	10.59834	0	1.401298E-45	100	0	50	-1.190304	-1.527999	74.25842	
20:34:30	0	0	0	-0.1555224	10.59834	0	1.401298E-45	100	0	50	-1.186106	-1.489165	74.33113	
20:34:30	0	0	0	-0.1555224	10.59834	0	1.401298E-45	100	0	50	-1.182359	-1.831476	74.39197	
20:34:30	0	0	0	-0.1555224	10.59834	0	1.401298E-45	100	0	50	-1.178138	-2.465233	74.4426	
20:34:30	0	0	0	-0.1555224	10.59834	0	1.401298E-45	100	0	50	-1.170588	-2.684335	74.48542	
20:34:31	0	0	0	-0.3602696	-1.136403	0	5.351584	100	0	50	-1.169946	-1.984025	74.52016	
20:34:31	0	0	0	-0.3602696	-1.136403	0	5.351584	100	0	50	-1.168546	-2.737361	74.56966	
20:34:31	0	0	0	-0.3602696	-1.136403	0	5.351584	100	0	50	-1.171293	-1.453302	74.60936	
20:34:31	0	0	0	-0.3602696	-1.136403	0	5.351584	100	0	50	-1.165384	-1.888754	74.67456	
20:34:31	0	0	0	-0.3602696	-1.136403	0	5.351584	100	0	50	-1.155034	-1.534879	74.71783	
20:34:32	0	0	0	-0.4146612	-0.7981983	0	1.657722E-40	100	0	50	-1.145065	-0.977232	74.77832	
20:34:32	0	0	0	-0.4146612	-0.7981983	0	1.657722E-40	100	0	50	-1.150416	-1.167892	74.8622	
20:34:32	0	0	0	-0.4146612	-0.7981983	0	1.657722E-40	100	0	50	-1.142188	-2.186688	74.91625	
20:34:32	0	0	0	-0.4146612	-0.7981983	0	1.657722E-40	100	0	50	-1.13746	-3.457553	74.94299	
20:34:32	0	0	0	-0.4146612	-0.7981983	0	1.657722E-40	100	0	50	-1.136043	-1.710545	74.94115	
20:34:33	0	0	0	-0.2832248	7.250185	0	0.7260473	100	0	50	-1.125401	-1.389591	74.98996	
20:34:33	0	0	0	-0.2832248	7.250185	0	0.7260473	100	0	50	-1.127645	-0.7837161	75.0465	
20:34:33	0	0	0	-0.2832248	7.250185	0	0.7260473	100	0	50	-1.132779	-0.8531858	75.09788	
20:34:33	0	0	0	-0.2832248	7.250185	0	0.7260473	100	0	50	-1.118644	-0.5435273	75.17214	
20:34:33	0	0	0	-0.2832248	7.250185	0	0.7260473	100	0	50	-1.115978	-0.5307861	75.22684	
20:34:34	0	0	0	-0.2094855	9.893249	0	1.401298E-45	100	0	50	-1.10393	-0.4986576	75.29743	
20:34:34	0	0	0	-0.2094855	9.893249	0	1.401298E-45	100	0	50	-1.094835	-1.232787	75.35055	
20:34:34	0	0	0	-0.2094855	9.893249	0	1.401298E-45	100	0	50	-1.104479	-0.7181865	75.41647	
20:34:34	0	0	0	-0.2094855	9.893249	0	1.401298E-45	100	0	50	-1.090313	-2.308677	75.44248	
20:34:34	0	0	0	-0.2094855	9.893249	0	1.401298E-45	100	0	50	-1.086153	-2.05621	75.46425	
20:34:35	0	0	0	-0.1393457	10.22772	0	2.010227	100	0	50	-1.083233	-3.916296	75.46378	
20:34:35	0	0	0	-0.1393457	10.22772	0	2.010227	100	0	50	-1.090016	-1.807016	75.42898	
20:34:35	0	0	0	-0.1393457	10.22772	0	2.010227	100	0	50	-1.087873	-2.303301	75.43326	
20:34:35	0	0	0	-0.1393457	10.22772	0	2.010227	100	0	50	-1.091162	-3.045511	75.44109	
20:34:35	0	0	0	-0.1393457	10.22772	0	2.010227	100	0	50	-1.095122	-3.417054	75.42622	
20:34:36	0	0	0	-0.2381032	2.347143	0	0.7260474	100	0	50	-1.092982	-2.528981	75.40779	
20:34:36	0	0	0	-0.2381032	2.347143	0	0.7260474	100	0	50	-1.078362	-1.592001	75.41008	
20:34:36	0	0	0	-0.2381032	2.347143	0	0.7260474	100	0	50	-1.075203	-1.229532	75.43538	
20:34:36	0	0	0	-0.2381032	2.347143	0	0.7260474	100	0	50	-1.072677	-2.168594	75.47499	
20:34:36	0	0	0	-0.2381032	2.347143	0	0.7260474	100	0	50	-1.082115	-2.053228	75.47546	
20:34:37	0	0	0	-0.2749611	0.6022757	0	4.943364E-16	100	0	50	-1.074515	-2.319487	75.50912	
20:34:37	0	0	0	-0.2749611	0.6022757	0	4.943364E-16	100	0	50	-1.077882	-2.204199	75.50594	
20:34:37	0	0	0	-0.2749611	0.6022757	0	4.943364E-16	100	0	50	-1.077678	-1.990108	75.51909	
20:34:37	0	0	0	-0.2749611	0.6022757	0	4.943364E-16	100	0	50	-1.086477	-2.154293	75.53268	
20:34:37	0	0	0	-0.2749611	0.6022757	0	4.943364E-16	100	0	50	-1.095734	-2.032611	75.54942	
20:34:38	0	0	0	-0.2548679	2.882128	0	8.427383E-26	100	0	50	-1.097643	-2.250222	75.54931	
20:34:38	0	0	0	-0.2548679	2.882128	0	8.427383E-26	100	0	50	-1.093012	-1.070151	75.56847	
20:34:38	0	0	0	-0.2548679	2.882128	0	8.427383E-26	100	0	50	-1.106753	-1.007455	75.6118	
20:34:38	0	0	0	-0.2548679	2.882128	0	8.427383E-26	100	0	50	-1.113444	-0.9856699	75.67374	
20:34:38	0	0	0	-0.2548679	2.882128	0	8.427383E-26	100	0	50	-1.105965	-1.022796	75.71842	
20:34:39	0	0	0	-0.2259601	3.80871	0	1.662997E-12	100	0	50	-1.111383	-1.074841	75.75044	
20:34:39	0	0	0	-0.2259601	3.80871	0	1.662997E-12	100	0	50	-1.115462	-0.8811024	75.7844	
20:34:39	0	0	0	-0.2259601	3.80871	0	1.662997E-12	100	0	50	-1.096933	-1.104199	75.82821	
20:34:39	0	0	0	-0.2259601	3.80871	0	1.662997E-12	100	0	50	-1.092782	-2.266945	75.85751	
20:34:39	0	0	0	-0.2259601	3.80871	0	1.662997E-12	100	0	50	-1.081068	-3.559939	75.85147	
20:34:40	0	0	0	-0.08945747	9.710249	0	3.560283	100	0	50	-1.06566	-2.33752	75.82431	
20:34:40	0	0	0	-0.08945747	9.710249	0	3.560283	100	0	50	-1.0576	-3.513599	75.82822	
20:34:40	0	0	0	-0.08945747	9.710249	0	3.560283	100	0	50	-1.055377	-1.791015	75.80566	
20:34:40	0	0	0	-0.08945747	9.710249	0	3.560283	100	0	50	-1.057875	-1.761204	75.81322	
20:34:40	0	0	0	-0.08945747	9.710249	0	3.560283	100	0	50	-1.048426	-2.249861	75.82874	
20:34:41	0	0	0	-0.03373601	8.455616	0	2.019321E-11	100	0	50	-1.053517	-1.571475	75.84459	
20:34:41	0	0	0	-0.03373601	8.455616	0	2.019321E-11	100	0	50	-1.045569	-2.299899	75.86219	
20:34:41	0	0	0	-0.03373601	8.455616	0	2.019321E-11	100	0	50	-1.030216	-1.530585	75.8642	
20:34:41	0	0	0	-0.03373601	8.455616	0	2.019321E-11	100	0	50	-1.044394	-3.701977	75.86546	
20:34:41	0	0	0	-0.03373601	8.455616	0	2.019321E-11	100	0	50	-1.031177	-3.655279	75.82103	
20:34:42	0	0	0	-0.0687717	4.123363	0	3.051526	100	0	50	-1.044789	-1.566445	75.7979	
20:34:42	0	0	0	-0.0687717	4.123363	0	3.051526	100	0	50	-1.040645	-1.614891	75.81164	
20:34:42	0	0	0	-0.0687717	4.123363	0	3.051526	100	0	50	-1.046208	-3.666002	75.82166	
20:34:42	0	0	0	-0.0687717	4.123363	0	3.051526	100	0	50	-1.041051	-1.641526	75.80058	
20:34:42	0	0	0	-0.0687717	4.123363	0	3.051526	100	0	50	-1.037017	-3.652744	75.79309	
20:34:43	0	0	0	-0.2795746	-6.490959	0	1.401298E-45	100	0	50	-1.053214	-1.51581	75.76849	
20:34:43	0	0	0	-0.2795746	-6.490959	0	1.401298E-45	100	0	50	-1.038299	-1.673782	75.78897	
20:34:43	0	0	0	-0.2795746	-6.490959	0	1.401298E-45	100	0	50	-1.029109	-2.246604	75.80493	
20:34:43	0	0	0	-0.2795746	-6.490959	0	1.401298E-45	100	0	50	-1.027933	-3.273544	75.80445	
20:34:43	0	0	0	-0.2795746	-6.490959	0	1.401298E-45	100	0	50	-1.033899	-3.456711	75.76184	
20:34:44	0	0	0	-0.42458	-9.942672	0	5.480123E-11	100	0	50	-1.026964	-2.108798	75.7458	
20:34:44	0	0	0	-0.42458	-9.942672	0	5.480123E-11	100	0	50	-1.027524	-2.334791	75.75195	
20:34:44	0	0	0	-0.42458	-9.942672	0	5.480123E-11	100	0	50	-1.03251	-1.783324	75.75558	
20:34:44	0	0	0	-0.42458	-9.942672	0	5.480123E-11	100	0	50	-1.034069	-2.753907	75.77888	
20:34:44	0	0	0	-0.42458	-9.942672	0	5.480123E-11	100	0	50	-1.038994	-4.645059	75.75407	
20:34:45	0	0	0	-0.2967584	-2.919809	0	7.411583E-19	100	0	50	-1.041979	-3.800807	75.68066	
20:34:45	0	0	0	-0.2967584	-2.919809	0	7.411583E-19	100	0	50	-1.044632	-3.109255	75.64063	
20:34:45	0	0	0	-0.2967584	-2.919809	0	7.411583E-19	100	0	50	-1.053403	-1.879679	75.61893	
20:34:45	0	0	0	-0.2967584	-2.919809	0	7.411583E-19	100	0	50	-1.049922	-1.257415	75.64543	
20:34:46	0	0	0	-0.2967584	-2.919809	0	7.411583E-19	100	0	50	-1.054794	-1.249981	75.69553	
20:34:46	0	0	0	-0.3542452	-3.483524	0	1.401298E-45	100	0	50	-1.068985	-1.139413	75.72244	
20:34:46	0	0	0	-0.3542452	-3.483524	0	1.401298E-45	100	0	50	-1.043125	-1.037559	75.73275	
20:34:46	0	0	0	-0.3542452	-3.483524	0	1.401298E-45	100	0	50	-1.026223	-0.9905345	75.75436	
20:34:46	0	0	0	-0.3542452	-3.483524	0	1.401298E-45	100	0	50	-1.010908	-2.23299	75.78223	
20:34:47	0	0	0	-0.3542452	-3.483524	0	1.401298E-45	100	0	50	-0.9921294	-1.937384	75.75494	
20:34:47	0	0	0	-0.3310629	-1.126295	0	0.01435632	100	0	50	-0.9789148	-0.1985997	75.748	
20:34:47	0	0	0	-0.3310629	-1.126295	0	0.01435632	100	0	50	-0.9738869	-0.7640834	75.80589	
20:34:47	0	0	0	-0.3310629	-1.126295	0	0.01435632	100	0	50	-0.9664214	-0.8011445	75.83449	
20:34:47	0	0	0	-0.3310629	-1.126295	0	0.01435632	100	0	50	-0.966442	0.2576334	75.88351	
20:34:48	0	0	0	-0.3310629	-1.126295	0	0.01435632	100	0	50	-0.9697424	0.005804082	75.96917	
20:34:48	0	0	0	-0.4425874	-5.756571	0	0.05979311	100	0	50	-0.9622597	-0.3986994	76.03474	
20:34:48	0	0	0	-0.4425874	-5.756571	0	0.05979311	100	0	50	-0.951444	-1.243861	76.08897	
20:34:48	0	0	0	-0.4425874	-5.756571	0	0.05979311	100	0	50	-0.9453744	-2.24361	76.09232	
20:34:48	0	0	0	-0.4425874	-5.756571	0	0.05979311	100	0	50	-0.9407406	-1.151867	76.08231	
20:34:49	0	0	0	-0.4425874	-5.756571	0	0.05979311	100	0	50	-0.9464175	0.4642173	76.11018	
20:34:49	0	0	0	-0.4528787	-3.157881	0	0.7260476	100	0	50	-0.9467305	1.373156	76.17932	
20:34:49	0	0	0	-0.4528787	-3.157881	0	0.7260476	100	0	50	-0.9381129	1.374986	76.24443	
20:34:49	0	0	0	-0.4528787	-3.157881	0	0.7260476	100	0	50	-0.9418757	0.9691061	76.3296	
20:34:49	0	0	0	-0.4528787	-3.157881	0	0.7260476	100	0	50	-0.9374725	0.5453299	76.4033	
20:34:50	0	0	0	-0.4528787	-3.157881	0	0.7260476	100	0	50	-0.9158293	1.676451	76.46098	
20:34:50	0	0	0	-0.5815912	-6.606967	0	1.519411E-29	100	0	50	-0.9079321	1.648861	76.55496	
20:34:50	0	0	0	-0.5815912	-6.606967	0	1.519411E-29	100	0	50	-0.8967401	1.587643	76.63908	
20:34:50	0	0	0	-0.5815912	-6.606967	0	1.519411E-29	100	0	50	-0.8960446	1.488318	76.72097	
20:34:50	0	0	0	-0.5815912	-6.606967	0	1.519411E-29	100	0	50	-0.9045057	1.436493	76.79978	
20:34:51	0	0	0	-0.5815912	-6.606967	0	1.519411E-29	100	0	50	-0.9078442	1.45162	76.88305	
20:34:51	0	0	0	-0.426944	4.003953	0	1.155911E-27	100	0	50	-0.8940612	1.430838	76.98233	
20:34:51	0	0	0	-0.426944	4.003953	0	1.155911E-27	100	0	50	-0.8936673	1.146123	77.05956	
20:34:51	0	0	0	-0.426944	4.003953	0	1.155911E-27	100	0	50	-0.8940815	0.8034346	77.13581	
20:34:51	0	0	0	-0.426944	4.003953	0	1.155911E-27	100	0	50	-0.9008365	1.041839	77.18799	
20:34:52	0	0	0	-0.426944	4.003953	0	1.155911E-27	100	0	50	-0.8968454	-0.8127132	77.23886	
20:34:52	0	0	0	-0.2657765	9.118414	0	1.519412E-29	100	0	50	-0.896119	-1.897296	77.22456	
20:34:52	0	0	0	-0.2657765	9.118414	0	1.519412E-29	100	0	50	-0.8843598	-0.1424379	77.19064	
20:34:52	0	0	0	-0.2657765	9.118414	0	1.519412E-29	100	0	50	-0.9004471	-0.1199993	77.19562	
20:34:52	0	0	0	-0.2657765	9.118414	0	1.519412E-29	100	0	50	-0.9006588	-0.5349423	77.22233	
20:34:53	0	0	0	-0.2657765	9.118414	0	1.519412E-29	100	0	50	-0.9098832	-2.095838	77.21206	
20:34:53	0	0	0	-0.1938176	8.981943	0	2.241501	100	0	50	-0.9178528	-0.4548154	77.16492	
20:34:53	0	0	0	-0.1938176	8.981943	0	2.241501	100	0	50	-0.9122826	-1.398414	77.15836	
20:34:53	0	0	0	-0.1938176	8.981943	0	2.241501	100	0	50	-0.9252306	-0.05428002	77.15659	
20:34:53	0	0	0	-0.1938176	8.981943	0	2.241501	100	0	50	-0.9276626	-0.3892519	77.17036	
20:34:54	0	0	0	-0.1938176	8.981943	0	2.241501	100	0	50	-0.9282603	-2.212247	77.16922	
20:34:54	0	0	0	-0.2351921	3.829998	0	1.353793E-17	100	0	50	-0.9254147	-2.941542	77.12177	
20:34:54	0	0	0	-0.2351921	3.829998	0	1.353793E-17	100	0	50	-0.9186066	-0.907934	77.04878	
20:34:54	0	0	0	-0.2351921	3.829998	0	1.353793E-17	100	0	50	-0.9241805	-2.808014	77.03436	
20:34:54	0	0	0	-0.2351921	3.829998	0	1.353793E-17	100	0	50	-0.9250424	-0.7208151	77.0102	
20:34:55	0	0	0	-0.2351921	3.829998	0	1.353793E-17	100	0	50	-0.9196543	-1.207357	77.01357	
20:34:55	0	0	0	-0.2861484	0.6473807	0	0.7260474	100	0	50	-0.9177547	-1.372739	77.00806	
20:34:55	0	0	0	-0.2861484	0.6473807	0	0.7260474	100	0	50	-0.9150304	-0.7063371	76.98091	
20:34:55	0	0	0	-0.2861484	0.6473807	0	0.7260474	100	0	50	-0.9237708	-2.50228	76.98923	
20:34:55	0	0	0	-0.2861484	0.6473807	0	0.7260474	100	0	50	-0.9224979	-1.413471	76.9369	
20:34:56	0	0	0	-0.2861484	0.6473807	0	0.7260474	100	0	50	-0.9350495	-0.01406793	76.92768	
20:34:56	0	0	0	-0.3489694	-1.329188	0	2.010227	100	0	50	-0.9360232	-0.7271966	76.96802	
20:34:56	0	0	0	-0.3489694	-1.329188	0	2.010227	100	0	50	-0.930886	0.3569207	76.98791	
20:34:56	0	0	0	-0.3489694	-1.329188	0	2.010227	100	0	50	-0.9269692	-0.5694785	77.04006	
20:34:56	0	0	0	-0.3489694	-1.329188	0	2.010227	100	0	50	-0.9377524	0.330473	77.0362	
20:34:57	0	0	0	-0.3489694	-1.329188	0	2.010227	100	0	50	-0.9425721	0.3905621	77.06701	
20:34:57	0	0	0	-0.3687041	-1.306627	0	0.05979311	100	0	50	-0.9479153	0.6196541	77.10761	
20:34:57	0	0	0	-0.3687041	-1.306627	0	0.05979311	100	0	50	-0.9543248	0.3739378	77.14197	
20:34:57	0	0	0	-0.3687041	-1.306627	0	0.05979311	100	0	50	-0.9506707	0.1691523	77.16911	
20:34:57	0	0	0	-0.3687041	-1.306627	0	0.05979311	100	0	50	-0.9513124	0.1422903	77.19986	
20:34:58	0	0	0	-0.3687041	-1.306627	0	0.05979311	100	0	50	-0.9296106	0.1746048	77.23142	
20:34:58	0	0	0	-0.3835673	0.2866158	0	0.001689007	100	0	50	-0.9183589	0.7236753	77.25173	
20:34:58	0	0	0	-0.3835673	0.2866158	0	0.001689007	100	0	50	-0.9214666	0.3719533	77.27863	
20:34:58	0	0	0	-0.3835673	0.2866158	0	0.001689007	100	0	50	-0.9125466	-0.01766987	77.29246	
20:34:58	0	0	0	-0.3835673	0.2866158	0	0.001689007	100	0	50	-0.9206289	-1.100841	77.32011	
20:34:59	0	0	0	-0.3835673	0.2866158	0	0.001689007	100	0	50	-0.9269699	-0.4713955	77.30513	
20:34:59	0	0	0	-0.5412816	-6.450939	0	3.167174	100	0	50	-0.9135591	0.5026904	77.31299	
20:34:59	0	0	0	-0.5412816	-6.450939	0	3.167174	100	0	50	-0.9101671	-0.6695064	77.35699	
20:34:59	0	0	0	-0.5412816	-6.450939	0	3.167174	100	0	50	-0.9033027	-0.5067652	77.33299	
20:34:59	0	0	0	-0.5412816	-6.450939	0	3.167174	100	0	50	-0.9026027	0.4597801	77.3315	
20:35:00	0	0	0	-0.5412816	-6.450939	0	3.167174	100	0	50	-0.9122974	0.6707337	77.3643	
20:35:00	0	0	0	-0.5212475	-1.433285	0	3.051526	100	0	50	-0.9108558	0.6897063	77.40977	
20:35:00	0	0	0	-0.5212475	-1.433285	0	3.051526	100	0	50	-0.8962911	-0.05457745	77.43307	
20:35:00	0	0	0	-0.5212475	-1.433285	0	3.051526	100	0	50	-0.8899385	0.1917478	77.43694	
20:35:00	0	0	0	-0.5212475	-1.433285	0	3.051526	100	0	50	-0.8930708	1.532515	77.45628	
20:35:01	0	0	0	-0.5212475	-1.433285	0	3.051526	100	0	50	-0.8966551	0.9852534	77.51673	
20:35:01	0	0	0	-0.4429474	2.840087	0	0.3557631	100	0	50	-0.892254	0.6193833	77.52625	
20:35:01	0	0	0	-0.4429474	2.840087	0	0.3557631	100	0	50	-0.8881221	1.870174	77.53172	
20:35:01	0	0	0	-0.4429474	2.840087	0	0.3557631	100	0	50	-0.8801827	2.737731	77.59586	
20:35:01	0	0	0	-0.4429474	2.840087	0	0.3557631	100	0	50	-0.8812404	2.864336	77.68949	
20:35:02	0	0	0	-0.4429474	2.840087	0	0.3557631	100	0	50	-0.8840784	2.34716	77.7711	
20:35:02	0	0	0	-0.4011939	3.93736	0	1.284395	100	0	50	-0.8875503	0.9832194	77.84406	
20:35:02	0	0	0	-0.4011939	3.93736	0	1.284395	100	0	50	-0.8854778	0.6472701	77.85272	
20:35:02	0	0	0	-0.4011939	3.93736	0	1.284395	100	0	50	-0.8813622	1.852522	77.87443	
20:35:02	0	0	0	-0.4011939	3.93736	0	1.284395	100	0	50	-0.8828093	1.352996	77.93146	
20:35:03	0	0	0	-0.4011939	3.93736	0	1.284395	100	0	50	-0.8810039	0.2379322	77.96178	
20:35:03	0	0	0	-0.3349681	3.758966	0	1.401298E-45	100	0	50	-0.8797578	0.6699372	77.96384	
20:35:03	0	0	0	-0.3349681	3.758966	0	1.401298E-45	100	0	50	-0.8695412	1.551676	77.98444	
20:35:03	0	0	0	-0.3349681	3.758966	0	1.401298E-45	100	0	50	-0.8687862	0.5777959	78.02255	
20:35:03	0	0	0	-0.3349681	3.758966	0	1.401298E-45	100	0	50	-0.8646794	-0.3913151	78.03141	
20:35:04	0	0	0	-0.3349681	3.758966	0	1.401298E-45	100	0	50	-0.8660564	1.136523	78.01965	
20:35:04	0	0	0	-0.4186273	-1.722318	0	0.4770131	100	0	50	-0.8770629	1.127792	78.0417	
20:35:04	0	0	0	-0.4186273	-1.722318	0	0.4770131	100	0	50	-0.867574	1.108083	78.04276	
20:35:04	0	0	0	-0.4186273	-1.722318	0	0.4770131	100	0	50	-0.8704872	0.923463	78.08077	
20:35:04	0	0	0	-0.4186273	-1.722318	0	0.4770131	100	0	50	-0.855413	0.4726959	78.09863	
20:35:05	0	0	0	-0.4186273	-1.722318	0	0.4770131	100	0	50	-0.8591995	1.097725	78.10643	
20:35:05	0	0	0	-0.5014369	-1.201551	0	0.04185518	100	0	50	-0.8549875	1.073335	78.13123	
20:35:05	0	0	0	-0.5014369	-1.201551	0	0.04185518	100	0	50	-0.8517772	1.04284	78.14446	
20:35:05	0	0	0	-0.5014369	-1.201551	0	0.04185518	100	0	50	-0.8591563	-0.819207	78.15195	
20:35:05	0	0	0	-0.5014369	-1.201551	0	0.04185518	100	0	50	-0.8548172	-2.54695	78.10307	
20:35:06	0	0	0	-0.5014369	-1.201551	0	0.04185518	100	0	50	-0.8593231	-0.4398264	78.02935	
20:35:06	0	0	0	-0.4550525	1.466379	0	1.401298E-45	100	0	50	-0.8624938	-2.559265	77.98014	
20:35:06	0	0	0	-0.4550525	1.466379	0	1.401298E-45	100	0	50	-0.8732048	-0.8792279	77.91037	
20:35:06	0	0	0	-0.4550525	1.466379	0	1.401298E-45	100	0	50	-0.8729962	-1.460284	77.86342	
20:35:06	0	0	0	-0.4550525	1.466379	0	1.401298E-45	100	0	50	-0.8723122	-1.342891	77.81225	
20:35:07	0	0	0	-0.4550525	1.466379	0	1.401298E-45	100	0	50	-0.8673498	-0.65363	77.76856	
20:35:07	0	0	0	-0.5407092	-1.697048	0	0.1220267	100	0	50	-0.8664022	-0.552536	77.75736	
20:35:07	0	0	0	-0.5407092	-1.697048	0	0.1220267	100	0	50	-0.8716581	-1.184107	77.73582	
20:35:07	0	0	0	-0.5407092	-1.697048	0	0.1220267	100	0	50	-0.8725645	-0.7852736	77.71426	
20:35:07	0	0	0	-0.5407092	-1.697048	0	0.1220267	100	0	50	-0.8756285	-2.379884	77.69543	
20:35:08	0	0	0	-0.5407092	-1.697048	0	0.1220267	100	0	50	-0.8683102	-1.297326	77.61778	
20:35:08	0	0	0	-0.5759864	-3.053262	0	1.164098E-12	100	0	50	-0.862287	-2.404432	77.58088	
20:35:08	0	0	0	-0.5759864	-3.053262	0	1.164098E-12	100	0	50	-0.8626891	-1.094216	77.52301	
20:35:08	0	0	0	-0.5759864	-3.053262	0	1.164098E-12	100	0	50	-0.8652402	-0.6073816	77.49746	
20:35:08	0	0	0	-0.5759864	-3.053262	0	1.164098E-12	100	0	50	-0.861123	-0.5751753	77.48888	
20:35:09	0	0	0	-0.5759864	-3.053262	0	1.164098E-12	100	0	50	-0.8614334	-1.201781	77.48434	
20:35:09	0	0	0	-0.3515899	9.868893	0	5.815818E-17	100	0	50	-0.8501524	-0.94184	77.45296	
20:35:09	0	0	0	-0.3515899	9.868893	0	5.815818E-17	100	0	50	-0.8469208	-1.04723	77.4333	
20:35:09	0	0	0	-0.3515899	9.868893	0	5.815818E-17	100	0	50	-0.852028	-1.160324	77.42032	
20:35:09	0	0	0	-0.3515899	9.868893	0	5.815818E-17	100	0	50	-0.85232	-1.20891	77.40716	
20:35:10	0	0	0	-0.3515899	9.868893	0	5.815818E-17	100	0	50	-0.8372878	-1.329757	77.3824	
20:35:10	0	0	0	-0.04141476	20.00158	0	4.834114	100	0	50	-0.8385877	-1.837715	77.35201	
20:35:10	0	0	0	-0.04141476	20.00158	0	4.834114	100	0	50	-0.8340777	-3.049195	77.30077	
20:35:10	0	0	0	-0.04141476	20.00158	0	4.834114	100	0	50	-0.8312073	-3.299606	77.20999	
20:35:10	0	0	0	-0.04141476	20.00158	0	4.834114	100	0	50	-0.8261841	-2.955745	77.14156	
20:35:11	0	0	0	-0.04141476	20.00158	0	4.834114	100	0	50	-0.8296075	-3.496895	77.04893	
20:35:11	0	0	0	0.02421748	13.91626	0	2.211427E-12	100	0	50	-0.8409951	-3.127958	76.97366	
20:35:11	0	0	0	0.02421748	13.91626	0	2.211427E-12	100	0	50	-0.854116	-4.438161	76.89515	
20:35:11	0	0	0	0.02421748	13.91626	0	2.211427E-12	100	0	50	-0.8549469	-4.261152	76.78172	
20:35:11	0	0	0	0.02421748	13.91626	0	2.211427E-12	100	0	50	-0.8548973	-3.247675	76.67964	
20:35:12	0	0	0	0.02421748	13.91626	0	2.211427E-12	100	0	50	-0.8490354	-3.009432	76.59642	
20:35:12	0	0	0	-0.4132866	-12.35137	0	0.04185518	100	0	50	-0.8432486	-2.498001	76.5173	
20:35:12	0	0	0	-0.4132866	-12.35137	0	0.04185518	100	0	50	-0.8404824	-2.558626	76.46164	
20:35:12	0	0	0	-0.4132866	-12.35137	0	0.04185518	100	0	50	-0.835633	-2.157987	76.41891	
20:35:12	0	0	0	-0.4132866	-12.35137	0	0.04185518	100	0	50	-0.8517464	-3.062545	76.37849	
20:35:13	0	0	0	-0.4132866	-12.35137	0	0.04185518	100	0	50	-0.8583079	-3.896558	76.305	
20:35:13	0	0	0	-0.3749843	-6.129526	0	1.569753	100	0	50	-0.8602418	-2.635484	76.22257	
20:35:13	0	0	0	-0.3749843	-6.129526	0	1.569753	100	0	50	-0.8591219	-2.006613	76.17993	
20:35:13	0	0	0	-0.3749843	-6.129526	0	1.569753	100	0	50	-0.859533	-3.272037	76.12647	
20:35:13	0	0	0	-0.3749843	-6.129526	0	1.569753	100	0	50	-0.8729548	-2.513076	76.06892	
20:35:14	0	0	0	-0.3749843	-6.129526	0	1.569753	100	0	50	-0.8770055	-1.087774	76.03511	
20:35:14	0	0	0	-0.4967104	-8.32828	0	5.043077	100	0	50	-0.8724352	0.4003743	76.06507	
20:35:14	0	0	0	-0.4967104	-8.32828	0	5.043077	100	0	50	-0.8799915	0.9713507	76.13026	
20:35:14	0	0	0	-0.4967104	-8.32828	0	5.043077	100	0	50	-0.8779204	1.111024	76.1966	
20:35:14	0	0	0	-0.4967104	-8.32828	0	5.043077	100	0	50	-0.8694341	0.984965	76.26615	
20:35:15	0	0	0	-0.4967104	-8.32828	0	5.043077	100	0	50	-0.8692055	0.2196197	76.32811	
20:35:15	0	0	0	-0.5226104	-4.244682	0	1.960465E-28	100	0	50	-0.8809544	0.4089594	76.36346	
20:35:15	0	0	0	-0.5226104	-4.244682	0	1.960465E-28	100	0	50	-0.8887782	0.8536412	76.41006	
20:35:15	0	0	0	-0.5226104	-4.244682	0	1.960465E-28	100	0	50	-0.8777877	0.03313103	76.46014	
20:35:15	0	0	0	-0.5226104	-4.244682	0	1.960465E-28	100	0	50	-0.867463	0.7134067	76.49989	
20:35:16	0	0	0	-0.5226104	-4.244682	0	1.960465E-28	100	0	50	-0.8558127	-0.1157914	76.5369	
20:35:16	0	0	0	-0.3292004	6.190854	0	0.7260473	100	0	50	-0.8493313	-0.2500055	76.58034	
20:35:16	0	0	0	-0.3292004	6.190854	0	0.7260473	100	0	50	-0.8523572	-0.2595383	76.60777	
20:35:16	0	0	0	-0.3292004	6.190854	0	0.7260473	100	0	50	-0.855136	-0.2481504	76.62341	
20:35:16	0	0	0	-0.3292004	6.190854	0	0.7260473	100	0	50	-0.8489408	-1.963281	76.63541	
20:35:17	0	0	0	-0.3292004	6.190854	0	0.7260473	100	0	50	-0.8572977	-0.7565997	76.61089	
20:35:17	0	0	0	-0.4090379	-0.1612657	0	3.369531	100	0	50	-0.8605566	0.8117889	76.62249	
20:35:17	0	0	0	-0.4090379	-0.1612657	0	3.369531	100	0	50	-0.8564909	0.4361211	76.67003	
20:35:17	0	0	0	-0.4090379	-0.1612657	0	3.369531	100	0	50	-0.85511	1.012258	76.70782	
20:35:17	0	0	0	-0.4090379	-0.1612657	0	3.369531	100	0	50	-0.8409567	1.089062	76.77445	
20:35:18	0	0	0	-0.4090379	-0.1612657	0	3.369531	100	0	50	-0.8391654	1.203215	76.83327	
20:35:18	0	0	0	-0.6191251	-7.891988	0	1.401298E-45	100	0	50	-0.8505493	1.203257	76.88641	
20:35:18	0	0	0	-0.6191251	-7.891988	0	1.401298E-45	100	0	50	-0.8535075	1.18866	76.93046	
20:35:18	0	0	0	-0.6191251	-7.891988	0	1.401298E-45	100	0	50	-0.8478385	1.140867	76.97545	
20:35:18	0	0	0	-0.6191251	-7.891988	0	1.401298E-45	100	0	50	-0.8547925	-0.2360307	77.0156	
20:35:19	0	0	0	-0.6191251	-7.891988	0	1.401298E-45	100	0	50	-0.8515306	0.4860484	77.01158	
20:35:19	0	0	0	-0.4632868	2.156489	0	0.3669538	100	0	50	-0.8468893	-0.004777314	77.03503	
20:35:19	0	0	0	-0.4632868	2.156489	0	0.3669538	100	0	50	-0.8415114	-0.6511907	77.02274	
20:35:19	0	0	0	-0.4632868	2.156489	0	0.3669538	100	0	50	-0.8470088	-0.9859413	77.00945	
20:35:19	0	0	0	-0.4632868	2.156489	0	0.3669538	100	0	50	-0.8491688	-0.6125104	76.98079	
20:35:20	0	0	0	-0.4632868	2.156489	0	0.3669538	100	0	50	-0.8649454	0.6137344	76.95007	
20:35:20	0	0	0	-0.5424736	-1.172378	0	0.5082331	100	0	50	-0.8765547	1.407554	76.97375	
20:35:20	0	0	0	-0.5424736	-1.172378	0	0.5082331	100	0	50	-0.8715113	0.9960405	77.01446	
20:35:20	0	0	0	-0.5424736	-1.172378	0	0.5082331	100	0	50	-0.867966	-0.2341524	77.02964	
20:35:20	0	0	0	-0.5424736	-1.172378	0	0.5082331	100	0	50	-0.870768	-0.1739011	77.02197	
20:35:21	0	0	0	-0.5424736	-1.172378	0	0.5082331	100	0	50	-0.8742296	0.1665268	77.03736	
20:35:21	0	0	0	-0.500497	1.014245	0	0.08541872	100	0	50	-0.8733633	-0.2499772	77.04416	
20:35:21	0	0	0	-0.500497	1.014245	0	0.08541872	100	0	50	-0.8756705	1.250704	77.04896	
20:35:21	0	0	0	-0.500497	1.014245	0	0.08541872	100	0	50	-0.8792016	1.779228	77.11081	
20:35:21	0	0	0	-0.500497	1.014245	0	0.08541872	100	0	50	-0.8776641	1.390343	77.17967	
20:35:22	0	0	0	-0.500497	1.014245	0	0.08541872	100	0	50	-0.8749762	-0.184948	77.23357	
20:35:22	0	0	0	-0.4650146	2.448239	0	1.009489E-13	100	0	50	-0.8758475	1.550064	77.24174	
20:35:22	0	0	0	-0.4650146	2.448239	0	1.009489E-13	100	0	50	-0.8778723	0.624583	77.28011	
20:35:22	0	0	0	-0.4650146	2.448239	0	1.009489E-13	100	0	50	-0.8774517	-0.9750087	77.29755	
20:35:22	0	0	0	-0.4650146	2.448239	0	1.009489E-13	100	0	50	-0.8873961	0.848333	77.30042	
20:35:23	0	0	0	-0.4650146	2.448239	0	1.009489E-13	100	0	50	-0.8823493	0.1980385	77.32971	
20:35:23	0	0	0	-0.4741528	2.251498	0	1.599929E-29	100	0	50	-0.8847918	-1.501988	77.33431	
20:35:23	0	0	0	-0.4741528	2.251498	0	1.599929E-29	100	0	50	-0.8759809	0.2580053	77.31419	
20:35:23	0	0	0	-0.4741528	2.251498	0	1.599929E-29	100	0	50	-0.866448	1.069772	77.34964	
20:35:23	0	0	0	-0.4741528	2.251498	0	1.599929E-29	100	0	50	-0.8768929	0.2486266	77.35365	
20:35:24	0	0	0	-0.4741528	2.251498	0	1.599929E-29	100	0	50	-0.8728097	1.140397	77.37078	
20:35:24	0	0	0	-0.2539558	10.83644	0	3.818809	100	0	50	-0.8705602	-0.4815965	77.38009	
20:35:24	0	0	0	-0.2539558	10.83644	0	3.818809	100	0	50	-0.8773884	0.9850336	77.36102	
20:35:24	0	0	0	-0.2539558	10.83644	0	3.818809	100	0	50	-0.8674659	1.889904	77.38976	
20:35:25	0	0	0	-0.2539558	10.83644	0	3.818809	100	0	50	-0.8625252	-0.1092244	77.46965	
20:35:25	0	0	0	-0.2539558	10.83644	0	3.818809	100	0	50	-0.8575268	1.912904	77.46922	
20:35:25	0	0	0	-0.2796848	4.93884	0	1.447734E-26	100	0	50	-0.860837	0.3769058	77.51955	
20:35:25	0	0	0	-0.2796848	4.93884	0	1.447734E-26	100	0	50	-0.8513685	-0.04225866	77.53314	
20:35:25	0	0	0	-0.2796848	4.93884	0	1.447734E-26	100	0	50	-0.8515746	1.776893	77.51768	
20:35:26	0	0	0	-0.2796848	4.93884	0	1.447734E-26	100	0	50	-0.8464735	1.298854	77.58448	
20:35:26	0	0	0	-0.2796848	4.93884	0	1.447734E-26	100	0	50	-0.8539445	-0.3700046	77.61378	
20:35:26	0	0	0	-0.2755024	4.052796	0	0.7260473	100	0	50	-0.8731931	0.9067767	77.60594	
20:35:26	0	0	0	-0.2755024	4.052796	0	0.7260473	100	0	50	-0.8754987	1.322066	77.6078	
20:35:26	0	0	0	-0.2755024	4.052796	0	0.7260473	100	0	50	-0.8643097	1.3009	77.63441	
20:35:27	0	0	0	-0.2755024	4.052796	0	0.7260473	100	0	50	-0.8610814	0.2636039	77.6583	
20:35:27	0	0	0	-0.2755024	4.052796	0	0.7260473	100	0	50	-0.8676156	0.3965549	77.66683	
20:35:27	0	0	0	-0.3034345	0.1845369	0	0.7260474	100	0	50	-0.864834	-0.7185351	77.66198	
20:35:27	0	0	0	-0.3034345	0.1845369	0	0.7260474	100	0	50	-0.8726739	0.125118	77.62074	
20:35:27	0	0	0	-0.3034345	0.1845369	0	0.7260474	100	0	50	-0.8618394	0.7338474	77.64043	
20:35:28	0	0	0	-0.3034345	0.1845369	0	0.7260474	100	0	50	-0.8462767	0.7386049	77.66474	
20:35:28	0	0	0	-0.3034345	0.1845369	0	0.7260474	100	0	50	-0.8439449	0.7371112	77.66927	
20:35:28	0	0	0	-0.316937	-0.02619064	0	2.983405E-24	100	0	50	-0.8559651	0.2992982	77.69374	
20:35:28	0	0	0	-0.316937	-0.02619064	0	2.983405E-24	100	0	50	-0.8473341	-0.003055842	77.67741	
20:35:28	0	0	0	-0.316937	-0.02619064	0	2.983405E-24	100	0	50	-0.8390195	-0.01657548	77.65973	
20:35:29	0	0	0	-0.316937	-0.02619064	0	2.983405E-24	100	0	50	-0.8341414	0.4821571	77.68778	
20:35:29	0	0	0	-0.316937	-0.02619064	0	2.983405E-24	100	0	50	-0.8332856	0.8879418	77.71708	
20:35:29	0	0	0	-0.3897204	-2.449813	0	1.401298E-45	100	0	50	-0.8295497	0.8720313	77.74017	
20:35:29	0	0	0	-0.3897204	-2.449813	0	1.401298E-45	100	0	50	-0.8285033	-0.1907114	77.74989	
20:35:29	0	0	0	-0.3897204	-2.449813	0	1.401298E-45	100	0	50	-0.8303716	-0.195888	77.71527	
20:35:30	0	0	0	-0.3897204	-2.449813	0	1.401298E-45	100	0	50	-0.8233311	-0.1280249	77.69736	
20:35:30	0	0	0	-0.3897204	-2.449813	0	1.401298E-45	100	0	50	-0.8202421	-0.5338333	77.69586	
20:35:30	0	0	0	-0.2966044	3.508759	0	0.916896	100	0	50	-0.8237627	0.6572678	77.70716	
20:35:30	0	0	0	-0.2966044	3.508759	0	0.916896	100	0	50	-0.8290049	-0.5011832	77.71054	
20:35:30	0	0	0	-0.2966044	3.508759	0	0.916896	100	0	50	-0.8253065	-2.112305	77.68438	
20:35:31	0	0	0	-0.2966044	3.508759	0	0.916896	100	0	50	-0.8428786	-2.107813	77.61693	
20:35:31	0	0	0	-0.2966044	3.508759	0	0.916896	100	0	50	-0.8582504	-0.5306408	77.55202	
20:35:31	0	0	0	-0.3504248	-2.238973	0	3.818809	100	0	50	-0.8539384	-1.975741	77.52808	
20:35:31	0	0	0	-0.3504248	-2.238973	0	3.818809	100	0	50	-0.850055	-0.1296834	77.46909	
20:35:31	0	0	0	-0.3504248	-2.238973	0	3.818809	100	0	50	-0.8424621	-0.27503	77.45571	
20:35:32	0	0	0	-0.3504248	-2.238973	0	3.818809	100	0	50	-0.8453453	-1.980016	77.43839	
20:35:32	0	0	0	-0.3504248	-2.238973	0	3.818809	100	0	50	-0.8547217	-0.07301223	77.39346	
20:35:32	0	0	0	-0.5529019	-9.595705	0	5.333658E-24	100	0	50	-0.8512501	0.7406599	77.38393	
20:35:32	0	0	0	-0.5529019	-9.595705	0	5.333658E-24	100	0	50	-0.8487251	0.7493176	77.4009	
20:35:32	0	0	0	-0.5529019	-9.595705	0	5.333658E-24	100	0	50	-0.8455246	-1.35316	77.39129	
20:35:33	0	0	0	-0.5529019	-9.595705	0	5.333658E-24	100	0	50	-0.8411523	-1.860879	77.35286	
20:35:33	0	0	0	-0.5529019	-9.595705	0	5.333658E-24	100	0	50	-0.8368948	-0.00714946	77.31633	
20:35:33	0	0	0	-0.7388281	-14.71185	0	0.7226003	100	0	50	-0.8278329	1.642568	77.32294	
20:35:33	0	0	0	-0.7388281	-14.71185	0	0.7226003	100	0	50	-0.8401761	1.816672	77.36678	
20:35:33	0	0	0	-0.7388281	-14.71185	0	0.7226003	100	0	50	-0.8520361	1.723046	77.41109	
20:35:34	0	0	0	-0.7388281	-14.71185	0	0.7226003	100	0	50	-0.85311	1.639917	77.46609	
20:35:34	0	0	0	-0.7388281	-14.71185	0	0.7226003	100	0	50	-0.8531368	0.977823	77.50231	
20:35:34	0	0	0	-0.7985888	-11.48098	0	0.7260474	100	0	50	-0.8440292	-0.7853286	77.52335	
20:35:34	0	0	0	-0.7985888	-11.48098	0	0.7260474	100	0	50	-0.8450492	0.4393685	77.48915	
20:35:34	0	0	0	-0.7985888	-11.48098	0	0.7260474	100	0	50	-0.8439229	0.8536769	77.49221	
20:35:35	0	0	0	-0.7985888	-11.48098	0	0.7260474	100	0	50	-0.8403577	-0.1528999	77.50314	
20:35:35	0	0	0	-0.7985888	-11.48098	0	0.7260474	100	0	50	-0.8317016	-1.477674	77.48594	
20:35:35	0	0	0	-0.7023941	-1.816564	0	2.010227	100	0	50	-0.8273329	-1.196085	77.41557	
20:35:35	0	0	0	-0.7023941	-1.816564	0	2.010227	100	0	50	-0.8304622	-0.2532128	77.37589	
20:35:35	0	0	0	-0.7023941	-1.816564	0	2.010227	100	0	50	-0.8384871	-0.6073043	77.35133	
20:35:36	0	0	0	-0.7023941	-1.816564	0	2.010227	100	0	50	-0.8399997	-0.7851475	77.32276	
20:35:36	0	0	0	-0.7023941	-1.816564	0	2.010227	100	0	50	-0.8483994	-0.3690336	77.2918	
20:35:36	0	0	0	-0.6489566	1.004085	0	0.8771297	100	0	50	-0.8498539	-0.9906118	77.28583	
20:35:36	0	0	0	-0.6489566	1.004085	0	0.8771297	100	0	50	-0.8447828	-1.331398	77.24988	
20:35:36	0	0	0	-0.6489566	1.004085	0	0.8771297	100	0	50	-0.837746	-0.6949044	77.22159	
20:35:37	0	0	0	-0.6489566	1.004085	0	0.8771297	100	0	50	-0.840604	-1.078102	77.2111	
20:35:37	0	0	0	-0.6489566	1.004085	0	0.8771297	100	0	50	-0.8433104	-1.059625	77.17097	
20:35:37	0	0	0	-0.7636597	-4.499448	0	2.877415E-37	100	0	50	-0.8481505	-0.8088293	77.14229	
20:35:37	0	0	0	-0.7636597	-4.499448	0	2.877415E-37	100	0	50	-0.84835	-0.2376036	77.12974	
20:35:37	0	0	0	-0.7636597	-4.499448	0	2.877415E-37	100	0	50	-0.8456102	-0.1972234	77.1068	
20:35:38	0	0	0	-0.7636597	-4.499448	0	2.877415E-37	100	0	50	-0.8390079	-0.5906005	77.09729	
20:35:38	0	0	0	-0.7636597	-4.499448	0	2.877415E-37	100	0	50	-0.8357576	-1.891748	77.05489	
20:35:38	0	0	0	-0.5431215	7.293815	0	0.7260473	100	0	50	-0.8263239	-0.1608402	77.00558	
20:35:38	0	0	0	-0.5431215	7.293815	0	0.7260473	100	0	50	-0.8378569	0.8462702	77.01447	
20:35:38	0	0	0	-0.5431215	7.293815	0	0.7260473	100	0	50	-0.8383496	1.031968	77.04572	
20:35:39	0	0	0	-0.5431215	7.293815	0	0.7260473	100	0	50	-0.8312954	1.263156	77.08788	
20:35:39	0	0	0	-0.5431215	7.293815	0	0.7260473	100	0	50	-0.8442933	-0.3766229	77.13191	
20:35:39	0	0	0	-0.3381746	11.45488	0	0.7260473	100	0	50	-0.8422363	-0.2671968	77.12405	
20:35:39	0	0	0	-0.3381746	11.45488	0	0.7260473	100	0	50	-0.8349656	1.488268	77.1238	
20:35:45	0	0	0	-0.3381746	11.45488	0	0.7260473	100	0	50	-0.8344091	2.209664	77.18729	
20:35:46	0	0	0	-0.3381746	11.45488	0	0.7260473	100	0	50	-0.8317424	1.999529	77.25571	
20:35:46	0	0	0	-0.3381746	11.45488	0	0.7260473	100	0	50	-0.8380796	0.3117222	77.31158	
20:35:46	0	0	0	-0.6492376	-7.801091	0	5.704084E-13	100	0	50	-0.8362432	2.014704	77.33538	
20:35:46	0	0	0	-0.6492376	-7.801091	0	5.704084E-13	100	0	50	-0.8403459	0.07443262	77.39314	
20:35:46	0	0	0	-0.6492376	-7.801091	0	5.704084E-13	100	0	50	-0.8488691	1.939459	77.39288	
20:35:46	0	0	0	-0.6492376	-7.801091	0	5.704084E-13	100	0	50	-0.8419442	-0.06986857	77.43916	
20:35:46	0	0	0	-0.6492376	-7.801091	0	5.704084E-13	100	0	50	-0.8407302	-0.9507366	77.43298	
20:35:46	0	0	0	-1.0096	-20.60205	0	1.671469E-41	100	0	50	-0.8342257	0.8035426	77.39923	
20:35:46	0	0	0	-1.0096	-20.60205	0	1.671469E-41	100	0	50	-0.8277925	1.750984	77.4193	
20:35:46	0	0	0	-1.0096	-20.60205	0	1.671469E-41	100	0	50	-0.8341587	-0.0295097	77.44611	
20:35:47	0	0	0	-1.0096	-20.60205	0	1.671469E-41	100	0	50	-0.830064	1.618429	77.44545	
20:35:47	0	0	0	-1.0096	-20.60205	0	1.671469E-41	100	0	50	-0.8372592	1.212669	77.48338	
20:35:47	0	0	0	-1.170656	-19.37307	0	4.204454E-13	100	0	50	-0.8400818	1.143188	77.52386	
20:35:47	0	0	0	-1.170656	-19.37307	0	4.204454E-13	100	0	50	-0.8471826	1.03526	77.56387	
20:35:47	0	0	0	-1.170656	-19.37307	0	4.204454E-13	100	0	50	-0.85728	-0.437779	77.58427	
20:35:47	0	0	0	-1.170656	-19.37307	0	4.204454E-13	100	0	50	-0.8590598	-0.2700849	77.54638	
20:35:47	0	0	0	-1.170656	-19.37307	0	4.204454E-13	100	0	50	-0.8639163	1.4912	77.53578	
20:36:04	0	0	0	-0.7800294	7.697567	0	1.599929E-29	100	0	50	-0.8560057	1.651647	77.6041	
20:36:04	0	0	0	-0.7800294	7.697567	0	1.599929E-29	100	0	50	-0.8547774	1.364611	77.6522	
20:36:04	0	0	0	-0.7800294	7.697567	0	1.599929E-29	100	0	50	-0.8538118	1.354595	77.68661	
20:36:04	0	0	0	-0.7800294	7.697567	0	1.599929E-29	100	0	50	-0.852836	1.841085	77.72899	
20:36:04	0	0	0	-0.7800294	7.697567	0	1.599929E-29	100	0	50	-0.8617633	2.017844	77.78344	
20:36:04	0	0	0	-0.3092843	25.39889	0	2.010227	100	0	50	-0.8602185	1.978461	77.82493	
20:36:04	0	0	0	-0.3092843	25.39889	0	2.010227	100	0	50	-0.8723165	1.934254	77.86476	
20:36:05	0	0	0	-0.3092843	25.39889	0	2.010227	100	0	50	-0.8727753	1.882803	77.8985	
20:36:05	0	0	0	-0.3092843	25.39889	0	2.010227	100	0	50	-0.8674623	1.834832	77.92065	
20:36:05	0	0	0	-0.3092843	25.39889	0	2.010227	100	0	50	-0.8608617	1.782723	77.94596	
20:36:05	0	0	0	-0.11783	22.75284	0	0.9410597	100	0	50	-0.8754904	0.7413033	77.98469	
20:36:05	0	0	0	-0.11783	22.75284	0	0.9410597	100	0	50	-0.8650728	0.7637736	77.9771	
20:36:05	0	0	0	-0.11783	22.75284	0	0.9410597	100	0	50	-0.8644449	0.751232	77.98335	
20:36:06	0	0	0	-0.11783	22.75284	0	0.9410597	100	0	50	-0.8639442	0.775323	77.96517	
20:36:06	0	0	0	-0.11783	22.75284	0	0.9410597	100	0	50	-0.8682608	0.8760266	77.99312	
20:36:06	0	0	0	-0.3793592	2.071	0	5.526552	100	0	50	-0.8811532	0.8369407	77.97412	
20:36:06	0	0	0	-0.3793592	2.071	0	5.526552	100	0	50	-0.8701817	1.500616	77.99002	
20:36:06	0	0	0	-0.3793592	2.071	0	5.526552	100	0	50	-0.8767456	1.789896	77.99754	
20:36:06	0	0	0	-0.3793592	2.071	0	5.526552	100	0	50	-0.8711437	1.991677	78.03001	
20:36:06	0	0	0	-0.3793592	2.071	0	5.526552	100	0	50	-0.8600238	1.489676	78.06487	
20:36:06	0	0	0	-0.5018535	-3.557234	0	1.401298E-45	100	0	50	-0.8567001	1.657919	78.10387	
20:36:07	0	0	0	-0.5018535	-3.557234	0	1.401298E-45	100	0	50	-0.8524589	1.656578	78.11943	
20:36:07	0	0	0	-0.5018535	-3.557234	0	1.401298E-45	100	0	50	-0.8487186	-0.02976596	78.15643	
20:36:07	0	0	0	-0.5018535	-3.557234	0	1.401298E-45	100	0	50	-0.8428363	-1.47397	78.12811	
20:36:07	0	0	0	-0.5018535	-3.557234	0	1.401298E-45	100	0	50	-0.8336146	-1.991842	78.06845	
20:36:07	0	0	0	-0.4627769	-1.14738	0	4.203895E-45	100	0	50	-0.8484559	-1.990424	77.98889	
20:36:07	0	0	0	-0.4627769	-1.14738	0	4.203895E-45	100	0	50	-0.8390568	-0.3978605	77.91763	
