Date	Latitude(deg) 	Longitude(deg)	hamsl(m)	hafl(m)	climbrate(cm/s)	GroundSpeed(m/s)	Airspeed(m/s)	Mav_Link(%)	Rssi_Link(%)	Throttle	Roll(deg)	Pitch(deg)	Yaw(deg)
10:56:25	52.95277	-1.183305	51.235	0	0	0.9	0	17	0	0	0.5141792	3.013192	45.43629	
10:56:25	52.95278	-1.18331	51.574	0	0	0.18	0	18	0	0	1.059507	3.477606	45.36042	
10:56:25	52.95274	-1.183265	49.837	0	0	2.4	0	19	0	0	0.5760926	2.407393	45.2708	
10:56:25	52.95274	-1.183264	49.722	3.753886	1.002389	0.79	3	21	0	50	0.49958	2.395016	45.23193	
10:56:25	52.95274	-1.183265	49.56	3.753886	1.002389	0.61	3	22	0	50	0.4212268	2.391415	45.17651	
10:56:26	52.95274	-1.183267	49.33	3.753886	1.002389	1.07	3	24	0	50	0.3522679	2.413449	45.11423	
10:56:26	52.95274	-1.183271	49.382	3.753886	1.002389	1.67	3	25	0	50	0.290231	2.446113	45.04498	
10:56:26	52.95274	-1.183272	49.076	3.753886	1.002389	0.85	3	26	0	50	0.2291751	2.461058	44.98283	
10:56:26	52.95274	-1.183272	48.796	4.627073	55.70552	0.62	3	27	0	50	0.1786388	2.488336	44.96389	
10:56:26	52.95274	-1.183271	48.509	4.627073	55.70552	0.45	3	28	0	50	0.1309736	2.510752	44.90002	
10:56:26	52.95274	-1.183271	48.381	4.627073	55.70552	0.26	3	29	0	50	0.08407711	2.509019	44.83094	
10:56:26	52.95274	-1.183268	48.531	4.627073	55.70552	0.28	3	30	0	50	0.02968556	2.527697	44.747	
10:56:26	52.95274	-1.183268	48.458	4.627073	55.70552	0.9	3	31	0	50	-0.01704803	2.539268	44.67554	
10:56:26	52.95274	-1.183269	48.384	4.551323	44.67281	0.97	3	32	0	50	-0.06550484	2.554775	44.60205	
10:56:26	52.95274	-1.183271	48.194	4.551323	44.67281	1.32	3	33	0	50	-0.1229374	2.563913	44.52011	
10:56:26	52.95273	-1.183266	47.596	4.551323	44.67281	0.13	3	34	0	50	-0.1618696	2.565289	44.3622	
10:56:26	52.95273	-1.183266	47.596	4.551323	44.67281	1.18	3	35	0	50	-0.2030301	2.571046	44.22366	
10:56:26	52.95273	-1.183263	47.212	4.551323	44.67281	2	3	36	0	50	-0.2565031	2.563862	44.09349	
10:56:26	52.95272	-1.183261	46.625	4.55325	40.65583	1.96	3	37	0	50	-0.3028348	2.545158	43.96156	
10:56:26	52.95272	-1.183259	45.954	4.55325	40.65583	1.62	3	37	0	50	-0.3496823	2.549984	43.8893	
10:56:26	52.95271	-1.183257	45.391	4.55325	40.65583	1.9	3	38	0	50	-0.3812656	2.55596	43.80753	
10:56:27	52.95271	-1.183255	44.786	4.55325	40.65583	1.4	3	39	0	50	-0.4125052	2.551737	43.67472	
10:56:27	52.95271	-1.183255	44.263	4.55325	40.65583	0.79	3	40	0	50	-0.4443355	2.56384	43.53233	
10:56:27	52.95271	-1.183257	43.698	4.498806	35.27998	0.68	3	41	0	50	-0.4670417	2.572715	43.39432	
10:56:27	52.95271	-1.183262	43.5	4.498806	35.27998	2.33	3	41	0	50	-0.4906957	2.577564	43.29031	
10:56:27	52.95271	-1.183269	43.285	4.498806	35.27998	3.25	3	42	0	50	-0.5367882	2.581045	42.60273	
10:56:27	52.95271	-1.183277	43.103	4.498806	35.27998	4.04	3	43	0	50	-0.6360205	2.547699	40.87863	
10:56:27	52.95271	-1.183285	42.604	4.498806	35.27998	4.39	3	43	0	50	-0.7686986	2.545995	38.87426	
10:56:27	52.95272	-1.183296	42.107	4.493549	33.32522	4.87	3	44	0	50	-0.8960643	2.535371	36.85501	
10:56:27	52.95274	-1.183324	41.821	4.493549	33.32522	5.78	3	45	0	50	-1.018719	2.512619	34.8695	
10:56:27	52.95274	-1.183324	41.821	4.493549	33.32522	7.29	3	45	0	50	-1.14848	2.475381	32.86579	
10:56:27	52.95275	-1.183339	42.134	4.493549	33.32522	7.96	3	46	0	50	-1.273324	2.430456	30.91661	
10:56:28	52.95275	-1.183347	42.55	4.493549	33.32522	5.83	3	47	0	50	-1.386967	2.395895	29.00533	
10:56:28	52.95276	-1.183352	42.573	4.365885	24.56579	4.02	3	47	0	50	-1.491168	2.368336	27.12379	
10:56:28	52.95277	-1.18336	42.4	4.365885	24.56579	4.44	3	48	0	50	-1.593105	2.322809	25.24282	
10:56:28	52.95277	-1.183369	42.416	4.365885	24.56579	4.66	3	48	0	50	-1.690232	2.269069	23.37273	
10:56:28	52.95278	-1.183379	42.48	4.365885	24.56579	4.75	3	49	0	50	-1.770655	2.232166	21.51931	
10:56:28	52.95279	-1.183391	42.635	4.365885	24.56579	5.93	3	49	0	50	-1.847334	2.202955	19.66391	
10:56:28	52.9528	-1.183406	42.771	4.289276	22.24384	6.83	3	50	0	50	-1.923235	2.166175	17.85474	
10:56:28	52.95281	-1.183428	43.216	4.289276	22.24384	6.87	3	50	0	50	-1.974224	2.123204	16.09639	
10:56:28	52.95281	-1.183428	43.216	4.289276	22.24384	5.65	3	51	0	50	-2.043776	2.080848	14.1781	
10:56:28	52.95282	-1.183436	43.577	4.289276	22.24384	5.45	3	52	0	50	-2.109856	2.033933	12.19375	
10:56:28	52.95283	-1.183439	43.942	4.289276	22.24384	4.06	3	52	0	50	-2.171869	1.981516	10.30493	
10:56:29	52.95283	-1.183443	44.415	4.449378	30.31064	3.53	3	52	0	50	-2.227259	1.946652	8.474165	
10:56:29	52.95284	-1.183449	44.907	4.449378	30.31064	3.63	3	53	0	50	-2.212724	1.982034	8.462421	
10:56:29	52.95285	-1.183459	46.057	4.449378	30.31064	3.76	3	53	0	50	-2.153665	2.044732	9.169985	
10:56:29	52.95285	-1.183459	46.057	4.449378	30.31064	3.79	3	54	0	50	-2.06006	2.091843	9.848967	
10:56:29	52.95286	-1.183465	46.696	4.449378	30.31064	3.83	3	54	0	50	-1.98472	2.17048	10.54642	
10:56:29	52.95287	-1.183475	47.824	4.341775	21.66272	4.23	3.824605	55	0	50	-0.5883576	1.683195	11.2752	
10:56:29	52.95287	-1.183475	47.824	4.341775	21.66272	4.23	3.824605	55	0	50	0.07425312	1.497156	12.07828	
10:56:29	52.95287	-1.183475	47.824	4.341775	21.66272	4.23	3.824605	56	0	50	0.1673013	1.544033	12.8666	
10:56:29	52.95288	-1.183483	49.063	4.341775	21.66272	4.23	3.824605	56	0	50	0.2055036	1.589432	13.61852	
10:56:29	52.95293	-1.183525	51.305	4.341775	21.66272	5.58	3.824605	56	0	50	0.2365708	1.632569	14.34879	
10:56:29	52.95293	-1.183537	51.762	4.226674	16.08747	4.39	3.824605	57	0	50	0.2564162	1.67852	15.03155	
10:56:29	52.95293	-1.183537	51.762	4.226674	16.08747	4.39	3.824605	57	0	50	0.2750273	1.72527	15.7003	
10:56:30	52.95295	-1.183549	52.839	4.226674	16.08747	1.59	3.824605	58	0	50	0.3116313	1.774258	16.35747	
10:56:30	52.95295	-1.183555	53.374	4.226674	16.08747	1.12	3.824605	58	0	50	0.3252554	1.795648	17.00558	
10:56:30	52.95296	-1.183563	54.03	4.226674	16.08747	1.83	3.824605	58	0	50	0.3421906	1.845232	17.63943	
10:56:30	52.95297	-1.183572	54.717	4.175744	16.44656	2.32	3.824605	59	0	50	0.3483647	1.890631	18.23971	
10:56:30	52.95297	-1.18357	54.762	4.175744	16.44656	1.01	3.824605	59	0	50	0.3644082	1.918633	18.82844	
10:56:31	52.95296	-1.18356	54.696	4.175744	16.44656	1.37	3.824605	60	0	50	0.3759011	1.968041	19.38996	
10:56:31	52.95297	-1.183566	54.824	4.175744	16.44656	0.64	3.824605	60	0	50	0.382614	2.004239	19.91769	
10:56:31	52.95297	-1.183565	54.971	4.175744	16.44656	0.79	3.824605	60	0	50	0.3995532	2.04271	20.41839	
10:56:31	52.95297	-1.18356	54.999	4.125478	14.43594	0.91	3.824605	61	0	50	0.4010283	2.076784	20.93616	
10:56:31	52.95297	-1.183556	54.686	4.125478	14.43594	0.91	3.824605	61	0	50	0.4098529	2.121196	21.45714	
10:56:32	52.95297	-1.183562	54.411	4.125478	14.43594	0.13	3.824605	62	0	50	0.4126693	2.143541	21.99611	
10:56:32	52.95297	-1.183562	54.411	4.125478	14.43594	0.13	3.824605	62	0	50	0.4437483	2.186203	22.58383	
10:56:32	52.95297	-1.183562	54.411	4.125478	14.43594	0.13	3.824605	62	0	50	0.4796358	2.224915	23.17977	
10:56:32	52.95297	-1.183562	54.411	4.193191	17.7548	0.13	3.824605	63	0	50	0.517096	2.234633	23.77832	
10:56:32	52.95297	-1.183562	54.411	4.193191	17.7548	0.13	3.824605	63	0	50	0.5439839	2.256196	24.3395	
10:56:33	52.95297	-1.183562	54.411	4.193191	17.7548	0.13	3.824605	63	0	50	0.5719638	2.295655	24.87197	
10:56:33	52.95297	-1.183562	54.411	4.193191	17.7548	0.13	3.824605	64	0	50	0.599915	2.295979	25.3767	
10:56:33	52.95297	-1.183562	54.411	4.193191	17.7548	0.13	3.824605	64	0	50	0.6192598	2.315857	25.897	
10:56:33	52.95297	-1.183555	53.988	3.973203	6.055427	1.41	3.824605	64	0	50	0.6429425	2.329526	26.4066	
10:56:33	52.95293	-1.183491	52.833	3.973203	6.055427	4.89	3.824605	65	0	50	0.6564568	2.354935	26.85434	
10:56:34	52.95292	-1.183479	52.017	3.973203	6.055427	5.33	3.824605	65	0	50	0.747149	2.352676	28.5707	
10:56:34	52.95293	-1.183497	52.452	3.973203	6.055427	2.91	3.824605	65	0	50	0.8887478	2.356088	30.41449	
10:56:34	52.95293	-1.183507	52.514	3.973203	6.055427	1.52	3.824605	66	0	50	0.9644663	2.3892	30.75605	
10:56:34	52.95293	-1.183499	51.948	3.889987	6.14326	2.9	3.824605	66	0	50	0.9817309	2.402505	31.09094	
10:56:34	52.95293	-1.183501	51.368	3.889987	6.14326	2.82	3.824605	66	0	50	0.9633842	2.426466	31.42337	
10:56:35	52.95293	-1.183507	51.21	3.889987	6.14326	1.7	3.824605	67	0	50	0.9369296	2.453884	31.6998	
10:56:35	52.95293	-1.183505	51.498	3.889987	6.14326	1.07	3.824605	67	0	50	0.9071028	2.463019	31.97389	
10:56:35	52.95293	-1.183509	51.768	3.889987	6.14326	0.39	3.824605	67	0	50	0.8840334	2.484656	32.25245	
10:56:35	52.95293	-1.183513	51.688	4.082023	17.36223	0.39	3.824605	67	0	50	0.8690372	2.496899	32.53546	
10:56:35	52.95293	-1.183515	51.585	4.082023	17.36223	0.26	3.824605	68	0	50	0.8467001	2.502075	32.79181	
10:56:36	52.95294	-1.183519	51.436	4.082023	17.36223	0.47	3.824605	68	0	50	0.8198569	2.498604	33.03905	
10:56:36	52.95295	-1.183526	51.682	4.082023	17.36223	1.76	3.824605	68	0	50	0.7975883	2.514797	33.27999	
10:56:36	52.95295	-1.183534	51.911	4.082023	17.36223	2.83	3.824605	69	0	50	0.7682167	2.532386	33.47295	
10:56:36	52.95295	-1.183542	52.272	4.147987	17.99501	3.12	3.824605	69	0	50	0.731505	2.525414	33.63972	
10:56:36	52.95296	-1.183548	52.13	4.147987	17.99501	1.77	3.824605	69	0	50	0.6826558	2.529002	33.81021	
10:56:37	52.95296	-1.183555	52.096	4.147987	17.99501	1.5	3.824605	70	0	50	0.6396174	2.55977	34.01719	
10:56:37	52.95298	-1.18359	52.305	4.147987	17.99501	0.45	3.824605	70	0	50	0.6002272	2.586455	34.32739	
10:56:37	52.953	-1.18362	52.442	4.147987	17.99501	0.16	3.824605	70	0	50	1.947224	2.298888	34.69437	
10:56:37	52.95301	-1.18365	52.174	4.15805	13.84353	1.04	3	70	0	50	2.756541	2.164389	35.15427	
10:56:37	52.95303	-1.183678	51.939	4.15805	13.84353	1.33	3	71	0	50	3.400137	2.798005	35.64901	
10:56:38	52.95304	-1.1837	52.121	4.15805	13.84353	0.38	3	71	0	50	3.183732	3.049978	36.08201	
10:56:38	52.95305	-1.183722	51.951	4.15805	13.84353	0.17	3	71	0	50	2.838147	1.592572	36.46531	
10:56:38	52.95307	-1.18375	51.825	4.15805	13.84353	0.09	3	72	0	50	1.59699	1.631835	37.64101	
10:56:38	52.95307	-1.183749	51.638	4.010881	4.214346	0.47	3	72	0	50	3.345465	1.324272	39.18627	
10:56:38	52.95307	-1.183748	51.681	4.010881	4.214346	0.14	3	72	0	50	4.740734	1.078009	39.8474	
10:56:39	52.95307	-1.18375	51.679	4.010881	4.214346	0.97	3	72	0	50	-10.17194	-1.698428	38.61323	
10:56:39	52.95307	-1.18375	51.788	4.010881	4.214346	0.85	3	73	0	50	-1.791181	-0.7105168	39.42668	
10:56:39	52.95307	-1.183753	51.773	4.010881	4.214346	1.63	3	73	0	50	8.433945	0.3477206	41.19094	
10:56:39	52.95308	-1.183752	51.909	3.907796	4.755682	1.2	3	73	0	50	-0.1995308	0.007362135	40.75382	
10:56:39	52.95308	-1.183751	51.953	3.907796	4.755682	0.97	3	73	0	50	-10.08374	-1.701963	40.10773	
10:56:40	52.95308	-1.183751	52.115	3.907796	4.755682	1.68	3	74	0	50	-4.688819	-0.2645251	41.04254	
10:56:40	52.95308	-1.183754	52.382	3.907796	4.755682	2.36	3	74	0	50	6.289787	0.4988542	41.61709	
10:56:40	52.95309	-1.183757	52.276	3.907796	4.755682	2.25	3	74	0	50	6.801654	0.5031754	41.59258	
10:56:40	52.95309	-1.183762	52.236	3.787297	14.56725	2.52	3	74	0	50	5.575389	0.7146441	41.37622	
10:56:40	52.95309	-1.183767	52.06	3.787297	14.56725	2.55	3	74	0	50	3.135655	1.136353	41.07932	
10:56:41	52.95309	-1.183766	52.039	3.787297	14.56725	1.14	3	75	0	50	0.5213508	1.462406	40.94486	
10:56:41	52.95309	-1.183766	51.6	3.787297	14.56725	0.33	3	75	0	50	0.2413468	1.508188	40.85919	
10:56:41	52.95309	-1.183767	51.285	3.787297	14.56725	0.77	3	75	0	50	0.1855376	1.55901	40.87457	
10:56:41	52.95309	-1.183768	50.853	3.695003	11.52932	0.55	3	75	0	50	-0.1402442	1.583762	40.85044	
10:56:41	52.95309	-1.183767	50.552	3.695003	11.52932	0.52	3	76	0	50	-0.1493977	1.609323	40.80167	
10:56:42	52.95309	-1.183767	50.376	3.695003	11.52932	0.47	3	76	0	50	0.0199008	1.686332	40.71481	
10:56:42	52.95309	-1.183769	50.212	3.695003	11.52932	0.88	3	76	0	50	0.246597	1.764881	40.60561	
10:56:42	52.95309	-1.183771	50.253	3.695003	11.52932	1.19	3	76	0	50	0.3413693	1.835007	40.52722	
10:56:42	52.95309	-1.183774	50.177	3.564759	5.239427	1.5	3	77	0	50	0.318601	1.866964	40.45827	
10:56:43	52.95309	-1.183777	50.305	3.564759	5.239427	1.96	3	77	0	50	0.3052566	1.923464	40.35271	
10:56:43	52.95309	-1.18378	50.324	3.564759	5.239427	2.37	3	77	0	50	0.3033547	1.982171	40.24729	
10:56:43	52.95309	-1.183781	50.137	3.564759	5.239427	1.45	3	77	0	50	0.2761876	2.030921	40.17467	
10:56:43	52.95309	-1.183783	50.075	3.564759	5.239427	1.58	3	77	0	50	0.2526649	2.075125	40.1371	
10:56:43	52.95309	-1.183785	49.878	3.472882	1.964857	1.46	3	78	0	50	0.2456694	2.11073	40.09311	
10:56:43	52.95309	-1.183787	49.822	3.472882	1.964857	1.63	3	78	0	50	0.2329263	2.164277	40.01708	
10:56:44	52.9531	-1.183788	49.821	3.472882	1.964857	1.32	3	78	0	50	0.2251774	2.199965	39.93252	
10:56:44	52.9531	-1.183788	49.767	3.472882	1.964857	1.2	3	78	0	50	0.2171065	2.238828	39.89685	
10:56:44	52.9531	-1.18379	49.719	3.472882	1.964857	1.51	3	78	0	50	0.2420465	2.277589	39.8827	
10:56:44	52.9531	-1.183792	49.757	3.574158	7.359912	1.5	3	79	0	50	0.2520632	2.331288	39.87919	
10:56:45	52.9531	-1.183794	49.786	3.574158	7.359912	1.48	3	79	0	50	0.2495845	2.344658	39.85589	
10:56:45	52.9531	-1.183794	49.865	3.574158	7.359912	1.1	3	79	0	50	0.2479477	2.373548	39.83002	
10:56:45	52.9531	-1.183796	49.909	3.574158	7.359912	1.69	3	79	0	50	0.2615813	2.416695	39.76565	
10:56:45	52.95309	-1.183769	49.742	3.574158	7.359912	0.74	3	79	0	50	0.2157366	2.443615	39.74361	
10:56:45	52.95307	-1.183741	49.597	3.522648	3.745447	0.25	3	79	0	50	0.1451736	2.440084	39.72476	
10:56:46	52.95305	-1.183719	49.367	3.522648	3.745447	0.45	3	80	0	50	-0.008923944	2.441038	39.80991	
10:56:46	52.95304	-1.183699	49.12	3.522648	3.745447	0.5	3	80	0	50	-0.2953369	2.414123	39.97141	
10:56:46	52.95303	-1.183682	49.024	3.522648	3.745447	0.52	3	80	0	50	-0.2561278	2.430063	39.93741	
10:56:46	52.95301	-1.183661	48.824	3.522648	3.745447	0.69	3	80	0	50	-0.1603825	2.464396	39.85901	
10:56:46	52.953	-1.183642	48.527	3.239897	-8.146277	1.28	3	80	0	50	-0.06466684	2.47644	39.76286	
10:56:47	52.95299	-1.183626	48.47	3.239897	-8.146277	0.45	3	81	0	50	0.07359378	2.502652	39.67644	
10:56:47	52.95299	-1.183612	48.59	3.239897	-8.146277	0.91	3	81	0	50	0.07139435	2.519663	39.61441	
10:56:47	52.95297	-1.183592	48.384	3.239897	-8.146277	2.08	3	81	0	50	0.04429841	2.54834	39.53543	
10:56:47	52.95297	-1.183592	48.384	3.239897	-8.146277	1.87	3	81	0	50	0.06327038	2.573143	39.49284	
10:56:47	52.95296	-1.183581	48.251	2.947673	-14.58464	0.55	3	81	0	50	0.07108927	2.585516	39.46946	
10:56:48	52.95295	-1.183571	48.128	2.947673	-14.58464	0.44	3	82	0	50	0.05424693	2.593532	39.44734	
10:56:48	52.95295	-1.183562	48.169	2.947673	-14.58464	1.67	3	82	0	50	-0.6649786	2.183689	39.37302	
10:56:48	52.95293	-1.183546	46.641	2.947673	-14.58464	1.32	3	82	0	50	-1.38289	1.983969	39.27523	
10:56:48	52.95293	-1.183546	46.641	2.947673	-14.58464	0.78	3	82	0	50	-0.4936168	2.580163	39.19717	
10:56:48	52.95292	-1.183538	46.155	2.925031	-7.589112	1.23	3	82	0	50	0.5157024	3.107541	39.17822	
10:56:49	52.95291	-1.183531	45.953	2.925031	-7.589112	0.52	3	82	0	50	0.3619795	2.854698	39.12835	
10:56:49	52.95291	-1.183525	45.797	2.925031	-7.589112	0.91	3	83	0	50	-0.2727385	2.132784	39.09057	
10:56:49	52.9529	-1.183519	45.699	2.925031	-7.589112	0.95	3	83	0	50	-0.3880526	2.067705	39.05491	
10:56:49	52.9529	-1.183513	44.906	2.925031	-7.589112	0.77	3	83	0	50	-0.6047076	2.524742	39.04025	
10:56:49	52.95289	-1.183507	44.825	2.802972	-5.497067	0.42	3	83	0	50	0.8169042	2.707774	39.26708	
10:56:50	52.95289	-1.183504	44.808	2.802972	-5.497067	1.59	3	83	0	50	7.343956	1.17038	40.14031	
10:56:50	52.95288	-1.183499	44.295	2.802972	-5.497067	1.04	3	83	0	50	12.22442	0.7158741	40.72745	
10:56:50	52.95288	-1.183495	43.67	2.802972	-5.497067	0.52	3	83	0	50	-0.6382094	0.2112027	39.13001	
10:56:50	52.95287	-1.183488	43.1	2.802972	-5.497067	0.29	3	83	0	50	-11.45777	-1.549392	38.21882	
10:56:50	52.95287	-1.183482	42.519	3.026775	9.814785	0.26	3	84	0	50	-9.526831	-1.057904	38.60058	
10:56:51	52.95286	-1.183475	42.385	3.026775	9.814785	0.66	3	84	0	50	-4.462912	-0.3758331	38.9014	
10:56:51	52.95285	-1.183468	42.325	3.026775	9.814785	0.95	3	84	0	50	1.94725	0.8085031	39.2649	
10:56:51	52.95285	-1.18346	42.154	3.026775	9.814785	0.74	3	84	0	50	1.294465	1.142709	39.47736	
10:56:51	52.95285	-1.183452	41.784	3.026775	9.814785	1.07	3	84	0	50	-5.197761	0.1296687	39.09545	
10:56:51	52.95284	-1.183446	41.715	3.572409	29.97321	1.93	3	84	0	50	-6.181874	0.7431605	39.07338	
10:56:52	52.95283	-1.183439	41.086	3.572409	29.97321	2.27	3	85	0	50	-2.415354	2.145917	39.06997	
10:56:52	52.95282	-1.18343	39.97	3.572409	29.97321	1.16	3	85	0	50	3.776509	2.201481	39.5225	
10:56:52	52.95282	-1.18343	39.97	3.572409	29.97321	1.19	3	85	0	50	5.550939	2.202354	39.64857	
10:56:52	52.95281	-1.183428	39.512	3.572409	29.97321	1.04	3	85	0	50	8.163689	1.430697	39.42871	
10:56:52	52.95281	-1.183424	38.821	3.752631	26.09759	0.14	3	85	0	50	4.17133	0.5418494	39.08574	
10:56:53	52.9528	-1.183417	38.018	3.752631	26.09759	1.19	3	85	0	50	-6.072031	-0.2796757	37.80634	
10:56:53	52.9528	-1.183413	37.26	3.752631	26.09759	0.62	3	85	0	50	-6.586992	-0.4466207	38.15109	
10:56:53	52.95279	-1.183411	37.117	3.752631	26.09759	0.84	3	86	0	50	8.253958	0.171143	38.58516	
10:56:53	52.95279	-1.183407	36.988	3.752631	26.09759	1.23	3	86	0	50	13.24509	0.5933025	38.89634	
10:56:53	52.95279	-1.183402	36.693	3.821572	27.71874	1.71	3	86	0	50	1.5169	1.041301	38.00508	
10:56:54	52.95278	-1.183396	36.239	3.821572	27.71874	2.21	3	86	0	50	-6.677391	0.6381727	37.79996	
10:56:54	52.95277	-1.18339	36.124	3.821572	27.71874	1.97	3	86	0	50	-3.644564	0.9062514	38.3571	
10:56:54	52.95277	-1.183383	35.877	3.821572	27.71874	1.92	3	86	0	50	8.577559	0.388391	38.88566	
10:56:54	52.95276	-1.183377	35.652	3.821572	27.71874	1.81	3	86	0	50	12.82437	0.6616782	39.40382	
10:56:54	52.95275	-1.183365	34.981	3.86077	19.52982	0.91	3	86	0	50	3.123255	0.3210388	39.02682	
10:56:55	52.95275	-1.183362	35.008	3.86077	19.52982	0.22	3	86	0	50	-2.345258	0.6905724	39.27404	
10:56:55	52.95275	-1.18336	34.982	3.86077	19.52982	0.71	3	87	0	50	-2.7521	0.9742716	39.64371	
10:56:55	52.95275	-1.183355	34.501	3.86077	19.52982	0.85	3	87	0	50	-1.998084	1.160272	39.82127	
10:56:55	52.95274	-1.18335	34.332	3.86077	19.52982	1.89	3	87	0	50	1.473631	1.577142	39.89901	
10:56:55	52.95274	-1.183344	34.13	3.964793	15.61581	2.18	3	87	0	50	1.97762	2.539018	40.12417	
10:56:56	52.95273	-1.183338	34.103	3.964793	15.61581	1.62	3	87	0	50	2.721394	2.529947	40.00676	
10:56:56	52.95273	-1.183333	34.124	3.964793	15.61581	0.85	3	87	0	50	2.073765	1.777391	40.32532	
10:56:56	52.95273	-1.183332	33.945	3.964793	15.61581	0.72	3	87	0	50	1.145325	0.8500311	40.47204	
10:56:56	52.95273	-1.183333	33.808	3.964793	15.61581	1.99	3	87	0	50	0.05857567	0.463507	40.60197	
10:56:56	52.95273	-1.183332	33.644	3.805127	1.738514	1.41	3	88	0	50	0.8559926	0.678574	40.71164	
10:56:57	52.95273	-1.183331	33.524	3.805127	1.738514	0.66	3	88	0	50	0.792167	0.7644635	40.83812	
10:56:57	52.95273	-1.183329	33.346	3.805127	1.738514	1.83	3	88	0	50	0.506333	0.8163677	40.9473	
10:56:57	52.95272	-1.183327	33.164	3.805127	1.738514	1.71	3	88	0	50	0.4227653	0.8966076	40.99236	
10:56:57	52.95272	-1.183323	33.072	3.805127	1.738514	1.4	3	88	0	50	0.35786	0.9660956	41.04891	
10:56:57	52.95271	-1.18332	32.867	3.759885	-2.481725	0.74	3	88	0	50	0.2829561	1.03358	41.11813	
10:56:58	52.95271	-1.18332	32.796	3.759885	-2.481725	1.17	3	88	0	50	0.2319914	1.107237	41.17141	
10:56:58	52.95271	-1.183322	32.685	3.759885	-2.481725	1.11	3	88	0	50	0.1782148	1.173662	41.20559	
10:56:58	52.95271	-1.183321	32.613	3.759885	-2.481725	0.58	3	88	0	50	0.1437629	1.273763	41.25079	
10:56:58	52.95271	-1.18332	32.555	3.759885	-2.481725	0.45	3	88	0	50	0.1022353	1.333812	41.31346	
10:56:58	52.95271	-1.183319	32.419	3.748415	-3.043253	0.24	3	89	0	50	0.04852154	1.366223	41.31959	
10:56:59	52.95271	-1.183316	32.351	3.748415	-3.043253	0.39	3	89	0	50	-0.008174494	1.4452	41.34723	
10:56:59	52.95271	-1.183312	32.223	3.748415	-3.043253	1.67	3	89	0	50	-0.05651561	1.494137	41.35644	
10:56:59	52.95271	-1.18331	32.159	3.748415	-3.043253	0.45	3	89	0	50	-0.1016322	1.54336	41.41263	
10:56:59	52.95271	-1.183308	32.078	3.748415	-3.043253	0.51	3	89	0	50	-0.1517767	1.578423	41.40702	
10:56:59	52.95271	-1.183306	32.04	3.785752	0.08915319	0.09	3	89	0	50	-0.1893499	1.614472	41.38179	
10:57:00	52.95271	-1.183307	31.992	3.785752	0.08915319	0.98	3	89	0	50	-0.2372581	1.646755	41.39432	
10:57:00	52.95271	-1.183309	32.022	3.785752	0.08915319	1.95	3	89	0	50	-0.2738533	1.683467	41.33737	
10:57:00	52.95271	-1.18331	32.129	3.785752	0.08915319	1.82	3	89	0	50	-0.3162905	1.745035	41.28311	
10:57:00	52.95271	-1.183309	32.234	3.785752	0.08915319	0.09	3	89	0	50	-0.3719209	1.782423	41.23852	
10:57:00	52.95271	-1.183308	32.272	3.66176	-6.427631	0.29	3	89	0	50	-0.4079462	1.824542	41.18626	
10:57:01	52.95271	-1.183306	32.365	3.66176	-6.427631	0.35	3	90	0	50	-0.4413131	1.847885	41.1333	
10:57:01	52.95271	-1.183306	32.492	3.66176	-6.427631	0.9	3	90	0	50	-0.475845	1.870848	41.08807	
10:57:01	52.95271	-1.183307	32.623	3.66176	-6.427631	1.55	3	90	0	50	-0.5174304	1.87733	41.0255	
10:57:01	52.95271	-1.183306	32.442	3.66176	-6.427631	0.58	3	90	0	50	-0.5558476	1.906923	40.97882	
10:57:01	52.95271	-1.183304	31.555	3.637364	-3.883778	0.64	3	90	0	50	0.180867	2.425013	40.94323	
10:57:02	52.95271	-1.183302	30.893	3.637364	-3.883778	0.39	3	90	0	50	0.189098	2.174892	40.9418	
10:57:02	52.95271	-1.183302	30.266	3.637364	-3.883778	1.02	3	90	0	50	0.3262787	2.430231	40.95226	
10:57:02	52.95271	-1.183302	30.532	3.637364	-3.883778	0.55	3	90	0	50	-0.4085288	2.517274	40.91429	
10:57:02	52.95271	-1.183298	30.672	3.637364	-3.883778	1.24	3	90	0	50	0.1548464	2.134762	40.89472	
10:57:02	52.95271	-1.183295	30.728	3.526613	-7.088282	0.52	3	90	0	50	0.09891501	2.171505	40.89281	
10:57:03	52.95271	-1.183293	30.396	3.526613	-7.088282	0.85	3	90	0	50	0.04271941	2.199591	40.90021	
10:57:03	52.9527	-1.18329	29.907	3.526613	-7.088282	1.12	3	91	0	50	-0.0232755	2.223902	40.8779	
10:57:03	52.9527	-1.183286	29.442	3.526613	-7.088282	1.06	3	91	0	50	-0.07743625	2.245779	40.84101	
10:57:03	52.95269	-1.183283	29.039	3.526613	-7.088282	1.41	3	91	0	50	-0.1354237	2.266053	40.84235	
10:57:03	52.95268	-1.183279	28.016	3.707367	2.903952	2.97	3	91	0	50	-0.1769525	2.278525	40.83184	
10:57:04	52.95267	-1.183277	26.842	3.707367	2.903952	2.29	3	91	0	50	-0.2175116	2.291743	40.78069	
10:57:04	52.95267	-1.183275	26.753	3.707367	2.903952	2.3	3	91	0	50	-0.2590176	2.333627	40.73864	
10:57:04	52.95266	-1.183274	26.627	3.707367	2.903952	1.16	3	91	0	50	-0.3027797	2.382734	40.70405	
10:57:04	52.95266	-1.183271	26.409	3.707367	2.903952	1.68	3	91	0	50	-0.3606655	2.397735	40.66392	
10:57:04	52.95266	-1.183267	26.099	3.914975	10.90524	0.94	3	91	0	50	-0.4057189	2.426276	40.5962	
10:57:05	52.95266	-1.183264	25.901	3.914975	10.90524	0.94	3	91	0	50	-0.4381874	2.470656	40.52897	
10:57:05	52.95266	-1.183262	25.603	3.914975	10.90524	0.04	3	91	0	50	-0.4810152	2.494841	40.45763	
10:57:05	52.95266	-1.183262	25.701	3.914975	10.90524	0.62	3	91	0	50	-0.5200067	2.505035	40.3853	
10:57:05	52.95266	-1.18326	26.279	3.914975	10.90524	1.41	3	91	0	50	-0.5602071	2.521138	40.32572	
10:57:05	52.95266	-1.183255	26.521	3.900452	4.322971	1.87	3	92	0	50	-0.5979537	2.548901	40.2574	
10:57:06	52.95266	-1.183254	26.863	3.900452	4.322971	0.35	3	92	0	50	-0.6090934	2.573572	40.18023	
10:57:06	52.95266	-1.183258	26.804	3.900452	4.322971	1.92	3	92	0	50	-0.7733487	2.555044	40.75822	
10:57:06	52.95266	-1.183266	26.65	3.900452	4.322971	3.12	3	92	0	50	4.090739	2.097975	42.62074	
10:57:06	52.95267	-1.183275	26.603	3.900452	4.322971	4.25	3	92	0	50	8.501145	1.689096	41.83651	
10:57:06	52.95267	-1.183278	26.495	4.0697	14.03607	2.59	3	92	0	50	-5.504824	0.705406	38.59624	
10:57:07	52.95267	-1.183279	26.297	4.0697	14.03607	1.56	3	92	0	50	-10.93435	-0.08844901	37.66477	
10:57:07	52.95267	-1.183278	26.365	4.0697	14.03607	1.04	3	92	0	50	8.522496	1.495032	38.90336	
10:57:07	52.95267	-1.183277	26.444	4.0697	14.03607	1.04	3	92	0	50	9.362394	1.527374	39.37507	
10:57:07	52.95267	-1.183275	26.515	4.0697	14.03607	0.76	3	92	0	50	-4.287355	-0.1776863	37.37777	
10:57:07	52.95267	-1.183273	26.576	4.055769	3.923125	1.49	3	92	0	50	0.02583215	0.4003699	37.46881	
10:57:08	52.95267	-1.183274	26.886	4.055769	3.923125	2.06	3	92	0	50	12.6295	1.068117	38.79114	
10:57:08	52.95268	-1.183276	26.728	4.055769	3.923125	2.29	3	92	0	50	2.418245	1.027382	37.13758	
10:57:08	52.95268	-1.18328	26.887	4.055769	3.923125	2.63	3	92	0	50	-8.694987	0.5686198	35.34652	
10:57:08	52.95269	-1.183286	27.102	4.055769	3.923125	2.91	3	93	0	50	-3.283186	1.795645	35.32008	
10:57:08	52.95269	-1.18329	27.119	4.002645	33.30497	2.97	3	93	0	50	5.075509	1.769304	36.60364	
10:57:09	52.95269	-1.183294	27.01	4.002645	33.30497	3.13	3	93	0	50	9.051831	1.317723	36.5909	
10:57:09	52.9527	-1.183298	27.124	4.002645	33.30497	3.28	3	93	0	50	2.739391	1.964442	34.07987	
10:57:09	52.9527	-1.183302	27.067	4.002645	33.30497	3.5	3	93	0	50	-11.73905	0.07879403	30.81785	
10:57:10	52.95271	-1.183304	27.017	4.002645	33.30497	1.51	3	93	0	50	-10.74119	0.2369328	29.82417	
10:57:10	52.95271	-1.183303	26.911	4.191543	24.74809	0.55	3	93	0	50	-0.1654902	2.459253	30.41822	
10:57:10	52.95271	-1.183306	27.008	4.191543	24.74809	1.65	3	93	0	50	-1.492042	2.59722	30.3335	
10:57:10	52.95271	-1.183306	26.926	4.191543	24.74809	0.69	3	93	0	50	-2.108012	2.412357	30.92441	
10:57:10	52.9527	-1.183305	27.184	4.191543	24.74809	0.78	3	93	0	50	-1.065539	2.428108	31.10789	
10:57:10	52.9527	-1.183304	27.199	4.191543	24.74809	0.45	3	93	0	50	-0.2574026	2.941531	31.3689	
10:57:10	52.95271	-1.183305	27.728	4.051066	8.304017	1.01	3	93	0	50	-0.1193323	2.354636	31.6377	
10:57:11	52.95271	-1.183306	28.109	4.051066	8.304017	0.37	3	93	0	50	0.3953966	2.779408	31.95821	
10:57:11	52.95271	-1.183309	28.996	4.051066	8.304017	0.42	3	93	0	50	-0.2099352	2.764266	32.19334	
10:57:11	52.95271	-1.183309	29.643	4.051066	8.304017	1.66	3	93	0	50	0.1209011	2.628348	32.40446	
10:57:11	52.95271	-1.183307	29.988	4.051066	8.304017	1.77	3	93	0	50	1.089506	2.11106	32.69754	
10:57:11	52.95272	-1.183306	30.326	3.834455	-5.733665	1.55	3	93	0	50	0.9575633	2.15817	33.04649	
10:57:12	52.95272	-1.183306	30.939	3.834455	-5.733665	0.97	3	94	0	50	0.2096487	1.684319	33.33888	
10:57:12	52.95273	-1.183307	31.49	3.834455	-5.733665	0.72	3	94	0	50	0.142929	2.229105	33.60871	
10:57:12	52.95273	-1.183311	32.277	3.834455	-5.733665	1.48	3	94	0	50	-0.6670383	2.206989	33.81313	
10:57:12	52.95274	-1.183321	32.81	3.834455	-5.733665	4.08	3	94	0	50	-2.095546	2.164487	33.25788	
10:57:13	52.95275	-1.183331	32.807	3.578357	-16.33417	5.1	4.938933	94	0	50	-3.551922	1.362695	31.33826	
10:57:13	52.95276	-1.183341	33.016	3.578357	-16.33417	4.69	4.938933	94	0	50	-4.258148	0.5328592	29.48376	
10:57:13	52.95276	-1.183349	33.104	3.578357	-16.33417	2.46	4.938933	94	0	50	-3.689595	1.296214	28.29911	
10:57:13	52.95277	-1.183355	33.357	3.578357	-16.33417	1.52	4.938933	94	0	50	-2.374368	2.289751	28.4993	
10:57:13	52.95277	-1.183357	33.674	3.578357	-16.33417	0.83	4.938933	94	0	50	-1.121617	2.472175	28.79181	
10:57:14	52.95277	-1.183359	33.848	3.653732	-7.040767	0.53	3	94	0	50	-0.1184291	2.354255	29.18082	
10:57:14	52.95277	-1.183361	34.317	3.653732	-7.040767	1.26	3	94	0	50	0.1705885	3.276706	29.52948	
10:57:14	52.95277	-1.183362	34.714	3.653732	-7.040767	1.82	3	94	0	50	1.021077	3.582816	29.90175	
10:57:14	52.95277	-1.183362	35.119	3.653732	-7.040767	0.41	3	94	0	50	1.292009	3.178713	30.28192	
10:57:14	52.95277	-1.183363	35.333	3.653732	-7.040767	0.61	3	94	0	50	0.6374549	2.722534	30.64326	
10:57:15	52.95277	-1.183364	35.326	3.708262	-3.89004	0.37	3	94	0	50	0.5010893	2.637527	30.95677	
10:57:15	52.95277	-1.183366	35.246	3.708262	-3.89004	0.7	3	94	0	50	0.2172181	2.413359	31.25873	
10:57:15	52.95277	-1.183369	35.284	3.708262	-3.89004	0.91	3	94	0	50	0.02527375	3.003544	31.52562	
10:57:15	52.95277	-1.183371	35.516	3.708262	-3.89004	0.64	3	94	0	50	-0.1103797	2.571602	31.80121	
10:57:15	52.95278	-1.183374	35.488	3.708262	-3.89004	0.97	3	94	0	50	-0.7188929	1.916887	32.05164	
10:57:16	52.95278	-1.183377	35.663	3.911406	5.543711	0.5	3	94	0	50	-0.8356169	2.41194	32.3198	
10:57:16	52.95278	-1.183378	35.897	3.911406	5.543711	1.28	3	94	0	50	0.3363978	2.822978	32.60953	
10:57:16	52.95278	-1.183379	35.775	3.911406	5.543711	0.82	3	95	0	50	0.6489198	3.033523	32.65185	
10:57:16	52.95278	-1.183382	35.752	3.911406	5.543711	1.37	3	95	0	50	-3.12418	2.790307	33.23039	
10:57:16	52.95277	-1.183386	36.06	3.911406	5.543711	2.88	3	95	0	50	12.64964	3.014743	34.63682	
10:57:17	52.95277	-1.183388	36.357	3.913606	1.064354	1.37	3	95	0	50	-2.305073	1.81933	33.18931	
10:57:17	52.95277	-1.183388	36.618	3.913606	1.064354	1.02	3	95	0	50	-6.899566	-0.949896	32.89213	
10:57:17	52.95277	-1.183387	36.964	3.913606	1.064354	0.9	3	95	0	50	3.624497	-1.203321	34.22055	
10:57:17	52.95277	-1.183387	37.295	3.913606	1.064354	0.34	3	95	0	50	-6.121897	-2.236417	33.10889	
10:57:17	52.95278	-1.183386	37.829	3.913606	1.064354	0.84	3	95	0	50	-9.894875	-2.381119	32.28721	
10:57:18	52.95278	-1.183385	38.325	3.836123	11.16782	0.88	3	95	0	50	3.732734	-1.007177	34.59996	
10:57:18	52.95278	-1.183386	38.748	3.836123	11.16782	0.13	3	95	0	50	8.677138	-0.07265876	35.92301	
10:57:18	52.95278	-1.183388	39.113	3.836123	11.16782	0.63	3	95	0	50	6.334831	0.3103191	35.68831	
10:57:18	52.95278	-1.183392	39.442	3.836123	11.16782	1.02	3	95	0	50	-7.38136	-0.6482757	33.99144	
10:57:18	52.95279	-1.183396	39.841	3.836123	11.16782	1.28	3	95	0	50	-12.54944	-1.602151	33.97971	
10:57:19	52.95279	-1.183402	40.36	3.810884	1.706195	0.63	3	95	0	50	-5.147686	-0.8917264	34.83458	
10:57:19	52.95279	-1.183402	40.36	3.810884	1.706195	0.62	3	95	0	50	5.705734	0.1211677	35.58966	
10:57:19	52.95279	-1.183403	40.7	3.810884	1.706195	1.38	3	95	0	50	11.5973	0.6099845	36.29854	
10:57:19	52.95278	-1.183404	40.789	3.810884	1.706195	2.47	3	95	0	50	5.768525	0.7291319	35.97506	
10:57:19	52.95278	-1.183406	40.81	3.810884	1.706195	2.85	3	95	0	50	-5.400948	0.8814548	34.97067	
10:57:20	52.95277	-1.183408	40.703	3.76917	6.536098	3.88	3.888547	95	0	50	-9.780417	0.9595627	35.9989	
10:57:20	52.95277	-1.183412	40.181	3.76917	6.536098	3.17	3.888547	95	0	50	-12.83383	1.039037	37.45295	
10:57:20	52.95276	-1.183416	40.432	3.76917	6.536098	3.43	3.888547	95	0	50	-10.74701	1.149206	38.45475	
10:57:20	52.95276	-1.183416	40.432	3.76917	6.536098	2.28	3.888547	95	0	50	-3.78228	1.688184	38.48485	
10:57:20	52.95277	-1.183419	40.236	3.76917	6.536098	0.94	3.888547	95	0	50	-2.374581	1.460597	36.76423	
10:57:21	52.95277	-1.183418	40.108	3.572261	-5.415096	1.37	3	95	0	50	-3.304864	2.410285	35.71643	
10:57:21	52.95277	-1.183416	40.357	3.572261	-5.415096	1.66	3	96	0	50	-2.260668	2.611537	35.09277	
10:57:21	52.95276	-1.183414	40.115	3.572261	-5.415096	2.07	3	96	0	50	0.1054392	4.028564	33.78672	
10:57:21	52.95276	-1.183414	39.669	3.572261	-5.415096	1.27	3	96	0	50	1.078183	4.224444	33.68384	
10:57:21	52.95277	-1.183414	39.258	3.572261	-5.415096	0.72	3	96	0	50	0.5611429	3.527945	34.96236	
10:57:22	52.95277	-1.183415	38.761	3.636182	-3.593342	0.09	3	96	0	50	-0.4741432	2.956279	35.77608	
10:57:22	52.95277	-1.183418	38.086	3.636182	-3.593342	0.34	3	96	0	50	-0.7859093	2.254763	35.9059	
10:57:22	52.95276	-1.18342	37.655	3.636182	-3.593342	2.38	3	96	0	50	0.2013393	2.14982	37.5021	
10:57:22	52.95276	-1.183419	37.335	3.636182	-3.593342	2.6	3	96	0	50	0.7242261	2.152175	39.46136	
10:57:22	52.95276	-1.183421	36.931	3.636182	-3.593342	1.91	3	96	0	50	1.136674	1.982636	42.96204	
10:57:23	52.95275	-1.183424	36.592	3.87025	3.744401	2	3	96	0	50	0.4116343	1.974297	46.25828	
10:57:23	52.95275	-1.183426	36.569	3.87025	3.744401	1.33	3	96	0	50	0.05138319	2.112353	48.61102	
10:57:23	52.95275	-1.183427	36.668	3.87025	3.744401	2.32	3	96	0	50	-0.7435182	1.673818	50.60592	
10:57:23	52.95275	-1.183426	36.937	3.87025	3.744401	2.91	3	96	0	50	0.0395653	1.732859	52.15413	
10:57:23	52.95274	-1.183425	36.974	3.87025	3.744401	2.64	3	96	0	50	0.9148382	1.702556	53.27563	
10:57:24	52.95274	-1.183424	37.234	3.734267	-4.121912	3.29	3	96	0	50	0.733878	1.587655	53.47861	
10:57:24	52.95273	-1.183423	37.539	3.734267	-4.121912	3.08	3	96	0	50	1.025669	1.74952	54.93282	
10:57:24	52.95273	-1.183421	37.362	3.734267	-4.121912	2.6	3	96	0	50	0.9880933	1.5894	57.33109	
10:57:24	52.95273	-1.183423	36.983	3.734267	-4.121912	1.04	3	96	0	50	0.4745964	0.5213079	57.84826	
10:57:24	52.95273	-1.183426	36.557	3.734267	-4.121912	2.81	3	96	0	50	-0.7041491	0.2857502	57.8399	
10:57:25	52.95273	-1.183428	36.068	3.792133	-2.060873	2.11	3	96	0	50	-0.4264668	1.246853	57.68451	
10:57:25	52.95273	-1.183428	35.929	3.792133	-2.060873	0.97	3	96	0	50	-0.2765606	0.4700983	57.20744	
10:57:25	52.95273	-1.183426	35.886	3.792133	-2.060873	0.89	3	96	0	50	-1.812877	-0.8064466	56.78808	
10:57:25	52.95273	-1.183424	35.759	3.792133	-2.060873	0.93	3	96	0	50	-1.556592	-0.7106788	53.87813	
10:57:25	52.95273	-1.183419	35.697	3.792133	-2.060873	2.02	3	96	0	50	-0.9308105	-0.5971205	50.32592	
10:57:26	52.95273	-1.183414	35.633	3.523175	-14.35022	1.95	3	96	0	50	-0.1154339	-1.163814	47.40818	
10:57:26	52.95273	-1.183409	35.624	3.523175	-14.35022	2.32	3	96	0	50	0.6608199	0.1214162	45.54137	
10:57:26	52.95273	-1.183406	35.647	3.523175	-14.35022	3.09	3	96	0	50	1.101702	0.5164849	42.41029	
10:57:26	52.95272	-1.183406	35.895	3.523175	-14.35022	3.22	3	96	0	50	1.455655	2.069062	40.65961	
10:57:26	52.95272	-1.183404	36.262	3.523175	-14.35022	2.69	3	96	0	50	1.032642	2.835244	40.10941	
10:57:27	52.95272	-1.183407	36.446	3.618005	-14.33336	2.26	3	96	0	50	0.9638553	2.093704	38.15989	
10:57:27	52.95272	-1.183413	36.649	3.618005	-14.33336	2.53	3	96	0	50	-0.3071449	2.426117	36.60075	
10:57:27	52.95272	-1.183417	36.934	3.618005	-14.33336	1.96	3	96	0	50	-0.7820219	2.636488	35.47889	
10:57:27	52.95272	-1.183418	37.261	3.618005	-14.33336	0.08	3	97	0	50	-0.7823165	1.978664	35.1156	
10:57:27	52.95272	-1.18342	37.454	3.618005	-14.33336	1.16	3	97	0	50	-0.5275195	-0.04389831	34.75311	
10:57:28	52.95272	-1.183427	37.371	3.715191	-4.901146	2.1	3	97	0	50	-0.5162835	0.8241774	34.49433	
10:57:28	52.95273	-1.183437	37.255	3.715191	-4.901146	2.69	3	97	0	50	-1.79783	0.9199559	34.15401	
10:57:28	52.95273	-1.183447	37.183	3.715191	-4.901146	2.95	3	97	0	50	-2.662758	0.4107205	33.75381	
10:57:28	52.95274	-1.183456	37.071	3.715191	-4.901146	3.61	3	97	0	50	-3.044127	-0.02340778	33.28611	
10:57:28	52.95274	-1.183459	37.324	3.715191	-4.901146	1.87	3	97	0	50	-3.551135	-1.416998	31.89461	
10:57:29	52.95275	-1.183463	37.355	3.769279	-1.613039	2	3	97	0	50	-1.794409	-1.11626	31.43668	
10:57:29	52.95275	-1.183466	37.514	3.769279	-1.613039	1.18	3	97	0	50	-1.892082	-0.9613964	31.13167	
10:57:29	52.95275	-1.183467	37.665	3.769279	-1.613039	0.97	3	97	0	50	-1.040476	-0.4191794	30.82865	
10:57:29	52.95275	-1.18346	37.507	3.769279	-1.613039	2.03	3	97	0	50	-0.09530189	-0.8526551	30.57023	
10:57:29	52.95275	-1.183457	37.133	3.769279	-1.613039	0.72	3	97	0	50	0.003731622	-0.829952	30.44198	
10:57:30	52.95275	-1.183451	36.871	3.743466	-2.229132	2.03	3	97	0	50	-0.02048528	-0.7670983	30.3816	
10:57:30	52.95275	-1.18345	36.628	3.743466	-2.229132	1.16	3	97	0	50	-0.08117148	-0.7458988	30.2691	
10:57:30	52.95275	-1.183445	36.311	3.743466	-2.229132	2.16	3	97	0	50	-0.126497	-0.6866366	30.14678	
10:57:30	52.95275	-1.183439	35.977	3.743466	-2.229132	2.74	3	97	0	50	-0.1810651	-0.6325457	30.00955	
10:57:30	52.95275	-1.183437	35.76	3.743466	-2.229132	1.5	3	97	0	50	-0.2177836	-0.5720984	29.88232	
10:57:31	52.95275	-1.183435	35.61	3.796736	0.2659225	1.11	3	97	0	50	-0.2702229	-0.5384832	29.74524	
10:57:31	52.95275	-1.183433	35.438	3.796736	0.2659225	0.95	3	97	0	50	-0.312612	-0.4994291	29.60038	
10:57:31	52.95275	-1.183432	35.282	3.796736	0.2659225	0.63	3	97	0	50	0.8041452	-0.9000406	30.22878	
10:57:31	52.95275	-1.183432	35.077	3.796736	0.2659225	0.82	3	97	0	50	16.12308	-2.00276	33.28053	
10:57:31	52.95275	-1.183432	35.037	3.796736	0.2659225	0.75	3	97	0	50	6.240942	-2.839036	30.94073	
10:57:32	52.95275	-1.183433	35.015	3.895905	3.271739	1.05	3	97	0	50	-4.788658	-2.883757	29.11318	
10:57:32	52.95276	-1.183434	34.935	3.895905	3.271739	1.36	3	97	0	50	-1.913652	-2.905984	29.6476	
10:57:32	52.95276	-1.183435	34.863	3.895905	3.271739	1.56	3	97	0	50	7.629962	-2.682157	30.58685	
10:57:32	52.95277	-1.183435	34.481	3.895905	3.271739	0.68	3	97	0	50	14.58348	-1.648058	31.65231	
10:57:32	52.95277	-1.183435	34.503	3.895905	3.271739	0.47	3	97	0	50	9.09151	-1.354049	29.70071	
10:57:33	52.95277	-1.183434	34.05	3.99294	4.350542	0.58	3	97	0	50	6.242152	-0.6707017	29.00266	
10:57:33	52.95277	-1.183435	33.706	3.99294	4.350542	0.34	3	97	0	50	-3.147099	-1.109125	28.64538	
10:57:33	52.95278	-1.183435	33.753	3.99294	4.350542	0.5	3	97	0	50	-5.894121	-0.5479329	28.94538	
10:57:33	52.95278	-1.183433	34.263	3.99294	4.350542	0.68	3	97	0	50	-4.048104	-0.5291826	29.26427	
10:57:33	52.95279	-1.183431	34.42	3.99294	4.350542	0.39	3	97	0	50	0.8232787	-1.251574	29.82569	
10:57:34	52.95279	-1.18343	34.649	4.060083	4.045494	0.36	3	97	0	50	8.008803	-0.7581995	30.82807	
10:57:34	52.95279	-1.183429	34.882	4.060083	4.045494	0.25	3	97	0	50	13.18443	0.06766119	31.26682	
10:57:34	52.95279	-1.183429	35.044	4.060083	4.045494	0.08	3	97	0	50	13.86079	0.3282434	30.8949	
10:57:34	52.9528	-1.18343	35.889	4.060083	4.045494	0.47	3	97	0	50	5.403378	0.9812538	28.23431	
10:57:34	52.9528	-1.183432	36.69	4.060083	4.045494	0.53	3	97	0	50	-1.678771	1.290471	27.08999	
10:57:35	52.9528	-1.183437	36.912	4.124463	5.947264	1.28	3	97	0	50	-2.182028	1.203309	27.88846	
10:57:35	52.9528	-1.183443	36.75	4.124463	5.947264	0.94	3	97	0	50	4.827231	1.533838	28.77263	
10:57:35	52.9528	-1.183449	37.007	4.124463	5.947264	1.41	3	97	0	50	8.673315	1.561865	29.13707	
10:57:35	52.95281	-1.183452	37.648	4.124463	5.947264	0.88	3	97	0	50	-1.443971	1.372633	26.60825	
10:57:35	52.95281	-1.183453	38.007	4.124463	5.947264	0.25	3	97	0	50	-1.204886	0.5785157	26.51725	
10:57:36	52.95281	-1.183453	38.11	4.127984	9.517757	0.45	3	97	0	50	0.414266	0.2479975	26.80928	
10:57:36	52.95281	-1.183454	38.264	4.127984	9.517757	0.17	3	97	0	50	0.9093966	0.09718221	26.92475	
10:57:36	52.95281	-1.183455	38.415	4.127984	9.517757	0.21	3	97	0	50	0.6151733	0.1406858	26.96235	
10:57:36	52.95281	-1.183456	38.694	4.127984	9.517757	0.12	3	98	0	50	0.542073	0.1810942	27.03084	
10:57:37	52.95282	-1.183455	38.815	4.127984	9.517757	0.48	3	98	0	50	0.7972859	0.08895963	27.05085	
10:57:37	52.95282	-1.183454	38.93	4.235364	9.609346	0.42	3	98	0	50	1.15355	-0.1485372	27.07586	
10:57:37	52.95282	-1.183453	39.101	4.235364	9.609346	0.45	3	98	0	50	0.9804482	-0.1639239	27.13194	
10:57:37	52.95282	-1.183454	39.158	4.235364	9.609346	0.29	3	98	0	50	0.6953819	-0.09667923	27.16027	
10:57:37	52.95282	-1.183454	39.197	4.235364	9.609346	0.37	3	98	0	50	0.8411182	-0.1555873	27.24953	
10:57:38	52.95282	-1.183453	39.386	4.235364	9.609346	0.41	3	98	0	50	4.819574	-0.5418136	28.24724	
10:57:38	52.95282	-1.183451	39.859	4.05829	-2.311314	0.13	3	98	0	50	4.006488	-0.3283851	28.17068	
10:57:38	52.95282	-1.183451	40.126	4.05829	-2.311314	0.28	3	98	0	50	-0.4009171	-0.5733349	27.67795	
10:57:38	52.95282	-1.18345	40.454	4.05829	-2.311314	0.04	3	98	0	50	0.05627029	-0.05375131	27.95135	
10:57:38	52.95282	-1.18345	40.454	4.05829	-2.311314	0.16	3	98	0	50	0.4366615	0.3021231	27.99606	
10:57:39	52.95282	-1.183448	40.728	4.05829	-2.311314	0.55	3	98	0	50	0.6592568	-0.02795673	28.00208	
10:57:39	52.95283	-1.183445	41.053	3.910261	-3.309792	0.51	3	98	0	50	0.7707371	-0.4060719	28.06176	
10:57:39	52.95283	-1.183442	41.569	3.910261	-3.309792	0.31	3	98	0	50	0.6603432	-0.2767496	28.10816	
10:57:39	52.95283	-1.183438	42.227	3.910261	-3.309792	0.83	3	98	0	50	0.8916168	-0.2350667	28.10915	
10:57:39	52.95282	-1.183432	42.813	3.910261	-3.309792	1.04	3	98	0	50	1.310729	-0.1796567	28.19171	
10:57:40	52.95282	-1.183428	43.27	3.910261	-3.309792	0.91	3	98	0	50	1.281664	-0.2101088	28.32437	
10:57:40	52.95282	-1.183423	43.727	3.801219	-7.801498	0.9	3	98	0	50	1.0635	-0.3281167	28.45086	
10:57:40	52.95282	-1.183421	43.919	3.801219	-7.801498	0.71	3	98	0	50	0.9492455	-0.1521167	28.54828	
10:57:40	52.95282	-1.183418	44.503	3.801219	-7.801498	0.19	3	98	0	50	0.5610141	0.05129443	28.56746	
10:57:40	52.95283	-1.183415	44.788	3.801219	-7.801498	0.83	3	98	0	50	0.6966713	-0.06874793	28.57667	
10:57:41	52.95283	-1.183412	45.11	3.801219	-7.801498	0.58	3	98	0	50	3.497015	-0.4364217	29.51373	
10:57:41	52.95283	-1.183408	45.572	4.003516	5.717236	1.12	3	98	0	50	11.42734	-0.7359332	30.65185	
10:57:41	52.95283	-1.183403	45.865	4.003516	5.717236	1.31	3	98	0	50	17.49118	-1.359885	31.02571	
10:57:41	52.95283	-1.183397	46.317	4.003516	5.717236	1.28	3	98	0	50	9.030796	-1.358577	29.08327	
10:57:41	52.95283	-1.183395	46.461	4.003516	5.717236	0.66	3	98	0	50	-0.9418834	-1.309379	28.22021	
10:57:42	52.95282	-1.183391	47.066	4.003516	5.717236	0.58	3	98	0	50	-3.526761	-0.6320694	29.38955	
10:57:42	52.95282	-1.183389	47.252	4.119658	7.423793	0.85	3	98	0	50	-3.309626	-0.7453516	29.91279	
10:57:42	52.95282	-1.183384	47.44	4.119658	7.423793	1.23	3	98	0	50	1.334569	-0.2184557	30.28092	
10:57:42	52.95282	-1.183382	47.619	4.119658	7.423793	0.52	3	98	0	50	1.060472	-0.1084965	30.48991	
10:57:42	52.95282	-1.183379	47.701	4.119658	7.423793	1.1	3	98	0	50	1.19823	-0.1589374	30.59296	
10:57:43	52.95282	-1.183376	47.764	4.119658	7.423793	1.2	3	98	0	50	1.377399	-0.5082598	30.71243	
10:57:43	52.95282	-1.183372	47.986	4.055348	-4.25113	1.1	3	98	0	50	1.329516	-0.3810853	30.87887	
10:57:43	52.95282	-1.183368	48.397	4.055348	-4.25113	0.74	3	98	0	50	1.04365	-0.1797951	30.99523	
10:57:43	52.95282	-1.183364	48.804	4.055348	-4.25113	0.7	3	98	0	50	0.7899171	-0.09589398	31.09618	
10:57:43	52.95282	-1.183362	49.011	4.055348	-4.25113	0.65	3	98	0	50	0.7202877	0.2398378	31.19247	
10:57:44	52.95282	-1.183361	49.335	4.055348	-4.25113	0.61	3	98	0	50	0.6036666	0.5685339	31.24742	
10:57:44	52.95282	-1.18336	49.731	3.837717	-12.58533	0.65	3	98	0	50	0.4087012	0.8013737	31.2874	
10:57:44	52.95282	-1.183359	49.973	3.837717	-12.58533	0.26	3	98	0	50	0.1896126	0.5725423	31.29491	
10:57:44	52.95282	-1.183356	50.166	3.837717	-12.58533	0.66	3	98	0	50	0.401122	0.04612311	31.28814	
10:57:44	52.95281	-1.183356	50.218	3.837717	-12.58533	0.26	3	98	0	50	0.2695451	0.1422599	31.3241	
10:57:45	52.95281	-1.183355	50.464	3.837717	-12.58533	0.31	3	98	0	50	0.2073393	0.2543231	31.33039	
10:57:45	52.95281	-1.183355	50.596	3.90856	-4.296946	0.51	3	98	0	50	0.2759148	0.3895153	31.32642	
10:57:45	52.95281	-1.183355	50.505	3.90856	-4.296946	0.74	3	98	0	50	0.2467575	-0.2733959	31.3395	
10:57:45	52.95281	-1.183353	50.654	3.90856	-4.296946	0.33	3	98	0	50	0.2381874	-0.448814	31.36733	
10:57:45	52.95281	-1.183353	50.813	3.90856	-4.296946	0.19	3	98	0	50	-0.0412518	-0.2874043	31.4093	
10:57:46	52.95281	-1.183353	50.919	3.90856	-4.296946	0.41	3	98	0	50	-0.1467459	-0.4047853	31.41456	
10:57:46	52.95281	-1.183351	50.941	3.695488	-12.40747	0.41	3	98	0	50	0.05152999	-0.1899431	31.40464	
10:57:46	52.95281	-1.18335	50.879	3.695488	-12.40747	0.62	3	98	0	50	0.17916	-0.2894465	31.46608	
10:57:46	52.95281	-1.183347	51.071	3.695488	-12.40747	0.7	3	98	0	50	0.326684	-0.1508393	31.50686	
10:57:46	52.95281	-1.183343	51.099	3.695488	-12.40747	1.05	3	98	0	50	0.4425249	-0.5171023	31.53895	
10:57:47	52.95281	-1.183339	51.102	3.695488	-12.40747	1.41	3	98	0	50	0.597146	-0.9960029	31.63141	
10:57:47	52.95281	-1.183334	51.259	3.820599	-1.950245	0.95	3	98	0	50	0.4742071	-0.7515638	31.71946	
10:57:47	52.95281	-1.183334	51.505	3.820599	-1.950245	0.91	3	98	0	50	-0.02759967	0.2006791	31.78229	
10:57:47	52.9528	-1.183335	51.718	3.820599	-1.950245	0.72	3	98	0	50	-0.1111986	0.4581414	31.77283	
10:57:47	52.9528	-1.183334	52.029	3.820599	-1.950245	0.28	3	98	0	50	-0.3431304	0.05994691	31.74156	
10:57:48	52.9528	-1.183334	52.355	3.820599	-1.950245	0.63	3	98	0	50	-0.4978509	0.2628426	31.75891	
10:57:48	52.9528	-1.183336	52.556	4.235034	15.24064	1.16	3	98	0	50	-0.7362314	0.7873603	31.72383	
10:57:48	52.9528	-1.183343	52.977	4.235034	15.24064	0.97	3	98	0	50	-0.6441752	0.8800865	31.6569	
10:57:48	52.95279	-1.183348	53.653	4.235034	15.24064	0.61	3	98	0	50	-0.3680352	0.5479196	31.60193	
10:57:48	52.95279	-1.183354	53.991	4.235034	15.24064	0.14	3	98	0	50	-0.2087983	-0.03401817	31.57807	
10:57:49	52.95279	-1.183359	54.43	4.235034	15.24064	0.26	3	98	0	50	-0.04370072	-0.474809	31.58019	
10:57:49	52.95278	-1.183368	55.741	4.364248	13.15474	1.09	3	98	0	50	-0.236407	-0.2246941	31.61957	
10:57:49	52.95278	-1.18337	56.05	4.364248	13.15474	0.97	3	98	0	50	-0.5489265	0.3549924	31.63199	
10:57:49	52.95278	-1.183369	56.251	4.364248	13.15474	0.13	3	98	0	50	-0.6880803	0.3526151	31.58022	
10:57:49	52.95278	-1.183366	56.295	4.364248	13.15474	0.57	3	98	0	50	0.05936331	-0.6662659	31.54094	
10:57:50	52.95278	-1.183364	56.365	4.364248	13.15474	0.53	3	98	0	50	0.4225575	-1.582038	31.58141	
10:57:50	52.95278	-1.183363	56.4	4.246062	2.26493	0.21	3	98	0	50	0.4026089	-1.70916	31.66603	
10:57:50	52.95278	-1.183364	56.552	4.246062	2.26493	0.36	3	98	0	50	0.2163121	-1.122162	31.7636	
10:57:50	52.95278	-1.183362	56.585	4.246062	2.26493	1.64	3	98	0	50	-0.1241524	-0.8190367	31.84548	
10:57:50	52.95278	-1.183359	56.501	4.246062	2.26493	1.16	3	98	0	50	0.2132374	-2.324106	31.88562	
10:57:51	52.95278	-1.183357	56.59	4.246062	2.26493	0.13	3	98	0	50	0.6371763	-2.030653	32.02539	
10:57:51	52.95278	-1.183356	56.529	3.784237	-21.09361	0.53	3	98	0	50	0.2323297	-1.114679	32.17746	
10:57:51	52.95278	-1.183355	56.563	3.784237	-21.09361	0.42	3	98	0	50	0.3218896	-1.384615	32.27997	
10:57:51	52.95278	-1.183352	56.676	3.784237	-21.09361	0.42	3	98	0	50	0.3780469	-0.8173005	32.36627	
10:57:51	52.95278	-1.183351	56.767	3.784237	-21.09361	0.37	3	98	0	50	0.2975158	-1.072109	32.44487	
10:57:52	52.95278	-1.183349	56.902	3.784237	-21.09361	0.31	3	98	0	50	0.217742	-0.9867444	32.52697	
10:57:52	52.95277	-1.183346	57.155	3.509879	-24.86997	0.84	3	99	0	50	0.03312838	-1.078221	32.57726	
10:57:52	52.95278	-1.183341	57.146	3.509879	-24.86997	1.55	3	99	0	50	0.5003787	-0.9210667	32.60027	
10:57:52	52.95277	-1.183338	57.147	3.509879	-24.86997	0.88	3	99	0	50	0.8068774	-1.996424	32.64261	
10:57:52	52.95277	-1.183336	57.174	3.509879	-24.86997	0.62	3	99	0	50	0.490401	-1.540246	32.81182	
10:57:53	52.95277	-1.183332	57.261	3.509879	-24.86997	1.4	3	99	0	50	0.2455268	-0.6654952	32.90654	
10:57:53	52.95277	-1.183329	57.308	3.544502	-14.75298	0.69	3	99	0	50	0.5643992	-1.660831	32.97546	
10:57:53	52.95277	-1.183328	57.169	3.544502	-14.75298	0.74	3	99	0	50	0.003475936	-1.428664	33.07725	
10:57:53	52.95278	-1.183325	57.246	3.544502	-14.75298	1.12	3	99	0	50	0.08754843	-1.290729	33.13555	
10:57:53	52.95278	-1.183322	57.286	3.544502	-14.75298	0.77	3	99	0	50	0.03468305	-1.611349	33.18488	
10:57:54	52.95278	-1.183318	56.773	3.544502	-14.75298	0.78	3	99	0	50	0.04551925	-1.064651	33.23764	
10:57:54	52.95278	-1.183313	56.513	3.679931	-2.792099	0.98	3	99	0	50	0.2174759	-0.7690221	33.24527	
10:57:54	52.95279	-1.183306	56.057	3.679931	-2.792099	0.37	3	99	0	50	0.01580097	-0.9815332	33.26735	
10:57:54	52.95279	-1.183306	56.057	3.679931	-2.792099	0.11	3	99	0	50	-0.03286866	-0.1079396	33.25586	
10:57:54	52.95279	-1.183303	55.929	3.679931	-2.792099	0.25	3	99	0	50	-0.339055	0.06102309	33.19207	
10:57:55	52.95279	-1.183301	55.841	3.679931	-2.792099	0.44	3	99	0	50	-0.2253941	0.3527175	33.14838	
10:57:55	52.95279	-1.183298	55.56	3.952225	8.793133	0.59	3	99	0	50	-0.007589334	0.3323832	33.13858	
10:57:55	52.95279	-1.183295	55.433	3.952225	8.793133	0.42	3	99	0	50	-0.06103909	-0.3886057	33.13135	
10:57:55	52.95279	-1.183292	55.356	3.952225	8.793133	0.22	3	99	0	50	-0.4843817	-0.3698203	33.11951	
10:57:55	52.95279	-1.183291	55.231	3.952225	8.793133	0.62	3	99	0	50	-0.3329227	0.01395727	33.04895	
10:57:56	52.95279	-1.183288	54.994	3.952225	8.793133	0.69	3	99	0	50	-0.4681024	0.8848417	32.98135	
10:57:56	52.95279	-1.183287	54.932	4.02282	8.944026	0.33	3	99	0	50	-0.1442435	-0.2960756	32.92671	
10:57:56	52.95279	-1.183286	54.935	4.02282	8.944026	0.39	3	99	0	50	-0.3904017	0.4061927	32.90485	
10:57:56	52.95279	-1.183285	55.017	4.02282	8.944026	0.45	3	99	0	50	-0.7947466	0.4779062	32.84146	
10:57:56	52.95279	-1.183281	55.015	4.02282	8.944026	0.48	3	99	0	50	-0.3902116	0.4682934	32.78589	
10:57:57	52.95279	-1.183277	54.888	4.02282	8.944026	0.66	3	99	0	50	-0.08778185	-0.5901377	32.74022	
10:57:57	52.95279	-1.183273	54.738	3.922675	0.03241254	0.83	3	99	0	50	0.1068348	-0.5718613	32.76453	
10:57:57	52.95279	-1.183269	54.644	3.922675	0.03241254	0.72	3	99	0	50	0.02826416	-1.032723	32.80576	
10:57:57	52.9528	-1.183265	54.44	3.922675	0.03241254	0.97	3	99	0	50	0.1781125	-0.5113291	32.8386	
10:57:57	52.9528	-1.18326	54.054	3.922675	0.03241254	1.54	3	99	0	50	0.4511704	-0.6144954	32.87156	
10:57:58	52.9528	-1.183256	53.59	3.922675	0.03241254	1.04	3	99	0	50	1.150419	-1.271209	32.90765	
10:57:58	52.9528	-1.183252	53.255	3.637582	-13.46455	0.98	3	99	0	50	0.7157493	-1.008775	33.0012	
10:57:58	52.9528	-1.183247	53.229	3.637582	-13.46455	0.44	3	99	0	50	0.5343765	-0.9610565	33.07331	
10:57:58	52.9528	-1.183243	53.23	3.637582	-13.46455	0.66	3	99	0	50	0.04440837	-0.5626227	33.12099	
10:57:58	52.9528	-1.183237	53.103	3.637582	-13.46455	1.45	3	99	0	50	0.1748927	-1.056691	33.13196	
10:57:59	52.9528	-1.183232	52.833	3.637582	-13.46455	0.98	3	99	0	50	0.823172	-1.737151	33.19149	
10:57:59	52.9528	-1.183228	52.693	3.663229	-7.868429	0.74	3	99	0	50	0.5237142	-1.281137	33.33282	
10:57:59	52.9528	-1.183224	53.241	3.663229	-7.868429	0.22	3	99	0	50	0.3654066	-0.9550191	33.38923	
10:57:59	52.9528	-1.183223	53.698	3.663229	-7.868429	0.69	3	99	0	50	-0.1718606	-0.3186903	33.40236	
10:57:59	52.9528	-1.18322	53.685	3.663229	-7.868429	0.61	3	99	0	50	-0.3672661	-0.01236778	33.35949	
10:58:00	52.95281	-1.183212	53.556	3.663229	-7.868429	1.1	3	99	0	50	0.3690118	-1.364703	33.28333	
10:58:00	52.95281	-1.183212	53.556	3.532491	-11.59642	1.06	3	99	0	50	0.5130295	-1.720382	33.32362	
10:58:00	52.95281	-1.183209	53.577	3.532491	-11.59642	0.55	3	99	0	50	0.7825162	-1.235631	33.38172	
10:58:00	52.95281	-1.183207	53.512	3.532491	-11.59642	0.36	3	99	0	50	0.5911365	-0.6114357	33.44584	
10:58:00	52.95281	-1.183207	53.367	3.532491	-11.59642	0.45	3	99	0	50	0.3674429	-0.5969363	33.50621	
10:58:01	52.95281	-1.183206	53.22	3.532491	-11.59642	0.31	3	99	0	50	0.3681975	-0.4937766	33.55302	
10:58:01	52.95281	-1.183203	52.875	3.564845	-5.882627	1.51	3	99	0	50	0.2794857	-0.7262642	33.56901	
10:58:01	52.95281	-1.1832	52.94	3.564845	-5.882627	0.66	3	99	0	50	0.7072006	-1.985412	33.58758	
10:58:01	52.95281	-1.183199	52.735	3.564845	-5.882627	0.65	3	99	0	50	0.4614815	-1.461053	33.69724	
10:58:01	52.95281	-1.183196	52.613	3.564845	-5.882627	1.23	3	99	0	50	0.5940629	-1.405727	33.73845	
10:58:02	52.95281	-1.183194	52.577	3.564845	-5.882627	0.39	3	99	0	50	0.6252594	-1.535706	33.81451	
10:58:02	52.95281	-1.183193	52.695	3.677538	0.3975298	0.58	3	99	0	50	0.1958885	-0.7007076	33.88715	
10:58:02	52.95281	-1.183192	52.701	3.677538	0.3975298	0.87	3	99	0	50	0.3082116	-0.5449991	33.88215	
10:58:02	52.95281	-1.18319	52.735	3.677538	0.3975298	0.39	3	99	0	50	0.2965339	-1.080956	33.8875	
10:58:02	52.95281	-1.18319	52.714	3.677538	0.3975298	0.47	3	99	0	50	0.1166816	-0.5087159	33.9013	
10:58:03	52.95281	-1.183189	52.837	3.677538	0.3975298	0.59	3	99	0	50	0.181084	-0.4559825	33.8655	
10:58:03	52.95281	-1.183187	52.753	3.747469	3.712568	0.87	3	99	0	50	0.2385954	-0.7587004	33.87823	
10:58:03	52.95281	-1.183186	52.456	3.747469	3.712568	1.11	3	99	0	50	0.3088794	-1.190267	33.87748	
10:58:03	52.95281	-1.183185	52.022	3.747469	3.712568	1.1	3	99	0	50	0.5451171	-1.144575	33.9226	
10:58:04	52.95281	-1.183184	51.8	3.747469	3.712568	0.53	3	99	0	50	0.4017883	-0.8698583	33.97713	
10:58:04	52.95282	-1.183182	51.467	3.747469	3.712568	1.19	3	99	0	50	0.1665605	-0.6749575	33.98413	
10:58:04	52.95282	-1.183182	51.368	3.520394	-9.137816	0.21	3	99	0	50	0.1424003	-0.9832804	33.9846	
10:58:04	52.95281	-1.183183	51.408	3.520394	-9.137816	0.72	3	99	0	50	-0.2628747	-0.1220053	33.95358	
10:58:04	52.95281	-1.183184	51.518	3.520394	-9.137816	0.17	3	99	0	50	-0.3690884	0.07153203	33.86506	
10:58:05	52.95281	-1.183184	51.406	3.520394	-9.137816	0.44	3	99	0	50	-0.2593319	-0.6567706	33.78522	
10:58:05	52.95282	-1.183181	51.396	3.520394	-9.137816	1.49	3	99	0	50	-0.06716128	-1.301199	33.75172	
10:58:05	52.95282	-1.183179	51.343	3.497226	-5.518579	0.22	3	99	0	50	0.03486092	-1.761759	33.8187	
10:58:05	52.95282	-1.183179	51.377	3.497226	-5.518579	0.25	3	99	0	50	-0.1598821	-0.824886	33.87112	
10:58:05	52.95282	-1.183181	51.412	3.497226	-5.518579	0.65	3	99	0	50	-0.2668318	-0.4107198	33.8785	
10:58:06	52.95281	-1.183183	51.466	3.497226	-5.518579	0.31	3	99	0	50	-0.5502602	-0.2642952	33.81917	
10:58:06	52.95281	-1.183185	51.489	3.497226	-5.518579	0.32	3	99	0	50	-0.6920612	-0.5161474	33.74589	
10:58:06	52.95281	-1.183188	51.464	3.781865	9.164362	0.71	3	99	0	50	-0.7124044	-0.2635441	33.65624	
10:58:06	52.95281	-1.18319	51.482	3.781865	9.164362	0.42	3	99	0	50	-0.7906619	-0.1824501	33.59862	
10:58:06	52.95281	-1.183192	51.461	3.781865	9.164362	0.22	3	99	0	50	-0.783502	-0.5218674	33.52575	
10:58:07	52.95281	-1.183193	51.514	3.781865	9.164362	0.09	3	99	0	50	-0.4834183	-0.5823262	33.47723	
10:58:07	52.95281	-1.183194	51.452	3.781865	9.164362	0.14	3	99	0	50	-0.2407104	-0.583743	33.42816	
10:58:07	52.95281	-1.183197	51.635	3.764431	4.813065	0.21	3	99	0	50	-0.3008547	-0.4848241	33.41692	
10:58:07	52.95281	-1.183197	51.635	3.764431	4.813065	0.5	3	99	0	50	-0.629065	-0.257252	34.39904	
10:58:07	52.95281	-1.183199	51.778	3.764431	4.813065	0.58	3	99	0	50	-4.117918	-0.7475858	33.64292	
10:58:08	52.95281	-1.183202	51.707	3.764431	4.813065	0.34	3	99	0	50	-1.333813	-2.009259	33.82512	
10:58:08	52.95281	-1.183202	51.581	3.764431	4.813065	0.58	3	99	0	50	11.62218	-1.925756	34.95549	
10:58:08	52.95282	-1.183202	51.005	3.822097	10.04982	0.77	3	99	0	50	0.5957306	-2.332632	32.97451	
10:58:08	52.95282	-1.183202	51.005	3.822097	10.04982	0.91	3	99	0	50	-6.233819	-3.183181	32.62962	
10:58:08	52.95282	-1.183204	50.828	3.822097	10.04982	0.19	3	99	0	50	-0.3044865	-2.032937	33.87279	
10:58:09	52.95282	-1.183208	50.855	3.822097	10.04982	1.3	3	99	0	50	3.426191	-1.014023	35.23942	
10:58:09	52.95282	-1.183214	50.974	3.822097	10.04982	1.37	3	99	0	50	11.09528	-0.6644896	33.90521	
10:58:09	52.95282	-1.18322	51.004	4.051618	9.497586	1.16	3	99	0	50	11.12794	-1.283197	33.27678	
10:58:09	52.95281	-1.183225	50.832	4.051618	9.497586	1.39	3	99	0	50	1.671524	-1.448345	31.41495	
10:58:09	52.95281	-1.18323	50.535	4.051618	9.497586	0.75	3	99	0	50	0.4531856	-1.769521	31.27135	
10:58:10	52.95281	-1.183238	49.394	4.051618	9.497586	1.68	3	99	0	50	0.4129834	-2.658306	32.17775	
10:58:10	52.95281	-1.183246	48.715	4.051618	9.497586	0.97	3	99	0	50	0.2138404	-3.1153	32.55477	
10:58:10	52.95281	-1.183256	48.076	3.847974	-1.751955	0.91	3	99	0	50	-0.2784482	-1.817495	33.98404	
10:58:10	52.95281	-1.183265	47.153	3.847974	-1.751955	0.72	3	99	0	50	-0.3329898	-1.462883	33.89305	
10:58:10	52.95281	-1.183274	46.339	3.847974	-1.751955	0.38	3	99	0	50	-0.162523	-1.686399	33.84024	
10:58:11	52.95281	-1.183283	45.629	3.847974	-1.751955	0.78	3	99	0	50	-0.2672615	-1.468567	33.78024	
10:58:11	52.95281	-1.183293	45.029	3.847974	-1.751955	0.87	3	99	0	50	-0.3240855	-0.7900064	33.676	
10:58:11	52.95281	-1.183304	44.6	3.599084	-12.68964	1.19	3	99	0	50	-0.5112292	-0.2457128	33.58853	
10:58:11	52.9528	-1.183314	44.149	3.599084	-12.68964	1.43	3	99	0	50	-0.9138817	-0.1824148	33.51674	
10:58:11	52.9528	-1.183325	44.091	3.599084	-12.68964	1.71	3	99	0	50	-1.004167	0.213103	33.37201	
10:58:12	52.9528	-1.183336	43.888	3.599084	-12.68964	1.33	3	99	0	50	-0.9208233	0.1171263	33.23338	
10:58:12	52.9528	-1.183346	43.654	3.599084	-12.68964	1.5	3	99	0	50	-0.6034515	0.3464847	33.08447	
10:58:12	52.95279	-1.183356	43.256	3.05367	-32.85964	1.58	3	99	0	50	-0.3284823	0.8150311	32.94893	
10:58:12	52.95279	-1.183364	42.603	3.05367	-32.85964	0.45	3	99	0	50	-0.08533163	0.2203391	32.81709	
10:58:12	52.95279	-1.183372	42.269	3.05367	-32.85964	0.52	3	99	0	50	-0.03468532	-0.366717	32.76903	
10:58:13	52.95279	-1.183379	41.749	3.05367	-32.85964	0.56	3	99	0	50	-0.00584471	-0.7883402	32.7179	
10:58:13	52.95279	-1.183385	41.149	3.05367	-32.85964	0.51	3	99	0	50	0.1301058	-1.032277	32.7086	
10:58:13	52.95279	-1.183392	40.57	2.749363	-32.93338	0.72	3	99	0	50	-0.01221555	-1.05067	32.70945	
10:58:13	52.95279	-1.183397	40.25	2.749363	-32.93338	0.72	3	99	0	50	-0.2008098	-0.9882293	32.67497	
10:58:13	52.95279	-1.183401	39.655	2.749363	-32.93338	0.77	3	99	0	50	0.2233935	-1.277042	32.65183	
10:58:14	52.95279	-1.183406	38.892	2.749363	-32.93338	0.82	3	99	0	50	0.6234699	-1.536157	32.67998	
10:58:14	52.95279	-1.183409	38.041	2.749363	-32.93338	1.09	3	99	0	50	0.8354612	-1.682779	32.7146	
10:58:14	52.95279	-1.183413	37.608	2.853013	-15.8006	0.41	3	99	0	50	0.673166	-1.335819	32.80805	
10:58:14	52.95279	-1.183414	36.915	2.853013	-15.8006	0.61	3	99	0	50	0.4919227	-1.243951	32.81011	
10:58:14	52.95279	-1.183414	36.915	2.853013	-15.8006	0.58	3	99	0	50	0.6108838	-1.33355	32.80719	
10:58:15	52.95279	-1.183414	36.421	2.853013	-15.8006	0.48	3	99	0	50	0.4200321	-1.027568	32.84632	
10:58:15	52.95279	-1.183413	36.067	2.853013	-15.8006	0.53	3	99	0	50	0.2574548	-0.9057921	32.81555	
10:58:15	52.95279	-1.183412	35.908	3.142782	2.111516	0.24	3	99	0	50	0.4777427	-0.7772081	32.78834	
10:58:15	52.95279	-1.183407	35.684	3.142782	2.111516	1.41	3	99	0	50	1.078076	-1.81621	32.78142	
10:58:15	52.95279	-1.1834	35.429	3.142782	2.111516	1.93	3	99	0	50	1.73468	-2.579981	32.8389	
10:58:16	52.95279	-1.183398	34.647	3.142782	2.111516	1.28	3	99	0	50	1.473612	-2.389844	33.01746	
10:58:16	52.95279	-1.183397	33.88	3.142782	2.111516	1.39	3	99	0	50	1.05311	-2.273388	33.15005	
10:58:16	52.95279	-1.183394	33.154	3.392272	10.1823	1.43	3	99	0	50	1.263758	-2.206549	33.22718	
10:58:16	52.95279	-1.183389	32.204	3.392272	10.1823	2.38	3	99	0	50	1.856555	-2.880499	33.30523	
10:58:16	52.95279	-1.183385	31.054	3.392272	10.1823	2.08	3	99	0	50	1.64479	-3.011973	33.47258	
10:58:17	52.95279	-1.183384	30.177	3.392272	10.1823	0.97	3	99	0	50	1.185341	-2.259247	33.62819	
10:58:17	52.95279	-1.183382	29.494	3.392272	10.1823	1.04	3	99	0	50	1.186422	-1.907685	33.68234	
10:58:17	52.95279	-1.183379	28.406	3.327772	1.225546	1.55	3	99	0	50	1.399753	-2.151432	33.7537	
10:58:17	52.9528	-1.183364	25.646	3.327772	1.225546	2.8	3	99	0	50	2.279917	-3.359482	33.79929	
10:58:17	52.9528	-1.183358	24.486	3.327772	1.225546	2.01	3	99	0	50	2.27772	-3.170702	33.99086	
10:58:18	52.9528	-1.183359	23.362	3.327772	1.225546	1.96	3	99	0	50	1.53551	-2.617078	34.16866	
10:58:18	52.9528	-1.183359	22.404	3.327772	1.225546	1.81	3	99	0	50	0.9712549	-2.368245	34.2539	
10:58:18	52.9528	-1.183361	21.881	3.202611	-4.839259	0.98	3	99	0	50	1.096099	-2.04209	34.29785	
10:58:18	52.9528	-1.183364	21.573	3.202611	-4.839259	0.88	3	99	0	50	0.660073	-1.200473	34.34328	
10:58:18	52.9528	-1.183366	21.078	3.202611	-4.839259	1.43	3	99	0	50	0.2427167	-0.700316	34.31718	
10:58:19	52.9528	-1.183371	21.239	3.202611	-4.839259	0.82	3	99	0	50	0.2252815	-1.148965	34.23962	
10:58:19	52.95279	-1.183378	21.366	3.202611	-4.839259	1.58	3	99	0	50	0.1602401	-0.1443691	34.17303	
10:58:19	52.95279	-1.183383	21.338	3.371495	3.058473	0.76	3	99	0	50	-0.3169027	0.4292522	34.0785	
10:58:19	52.95279	-1.183387	21.507	3.371495	3.058473	0.62	3	99	0	50	-0.02653732	-0.2176134	33.93144	
10:58:19	52.95279	-1.18339	21.431	3.371495	3.058473	0.38	3	99	0	50	0.3982656	0.006607897	33.83666	
10:58:20	52.95279	-1.183393	21.156	3.371495	3.058473	0.53	3	99	0	50	0.5845984	-0.05107811	33.75644	
10:58:20	52.95279	-1.183395	20.642	3.371495	3.058473	0.97	3	99	0	50	0.6059244	-0.7956674	33.71758	
10:58:20	52.95279	-1.183396	20.306	3.508258	7.917629	0.91	3	99	0	50	0.4513091	-1.270308	33.70871	
10:58:20	52.95279	-1.183397	19.908	3.508258	7.917629	0.94	3	99	0	50	1.023871	-1.270316	33.7006	
10:58:20	52.95278	-1.183404	19.517	3.508258	7.917629	0.55	3	99	0	50	1.084503	-1.212077	33.70919	
10:58:21	52.95278	-1.183404	19.517	3.508258	7.917629	0.52	3	99	0	50	0.4414763	-0.3434673	33.70662	
10:58:21	52.95278	-1.183408	19.318	3.508258	7.917629	0.7	3	99	0	50	0.381331	0.02820449	33.61547	
10:58:21	52.95278	-1.18341	18.776	3.785367	17.51071	0.57	3	99	0	50	0.3456832	0.4828202	33.51857	
