Date	Latitude(deg) 	Longitude(deg)	hamsl(m)	hafl(m)	climbrate(cm/s)	GroundSpeed(m/s)	Airspeed(m/s)	Mav_Link(%)	Rssi_Link(%)	Throttle	Roll(deg)	Pitch(deg)	Yaw(deg)
12:09:55	-6.728683	38.94616	126.298	0	0	0.06	0	100	0	0	-2.596569	5.005722	-20.50588	
12:09:56	-6.728684	38.94616	126.292	0.3482447	-2.980079	0.08	3	100	0	6546	-2.762878	4.982693	-20.60974	
12:09:56	-6.728685	38.94616	126.438	0.3482447	-2.980079	0.06	3	100	0	6546	-2.846423	4.987307	-20.65223	
12:09:56	-6.728685	38.94616	126.461	0.3482447	-2.980079	0.04	3	100	0	6546	-2.818489	4.935423	-20.70616	
12:09:56	-6.728685	38.94616	126.483	0.3482447	-2.980079	0.04	3	100	0	6546	-2.770189	4.925954	-20.76295	
12:09:57	-6.728685	38.94616	126.505	0.3482447	-2.980079	0.04	3	100	0	6546	-2.73965	4.916073	-20.89513	
12:09:57	-6.728685	38.94616	126.489	-0.5048639	-47.6156	0.07	3	100	0	6546	-2.79221	4.845082	-20.94127	
12:09:57	-6.728685	38.94616	126.495	-0.5048639	-47.6156	0.06	3	100	0	6546	-2.815466	4.831387	-20.96374	
12:09:57	-6.728685	38.94616	126.484	-0.5048639	-47.6156	0.09	3	100	0	6546	-2.869812	4.859295	-21.04663	
12:09:57	-6.728685	38.94616	126.506	-0.5048639	-47.6156	0.04	3	100	0	6546	-2.878761	4.908123	-21.11183	
12:09:58	-6.728685	38.94616	126.524	-0.5048639	-47.6156	0.09	3	100	0	6546	-2.78349	4.949461	-21.14836	
12:09:58	-6.728685	38.94616	126.545	0.277492	-5.520479	0.03	3	100	0	6546	-2.814763	4.951548	-21.28792	
12:09:58	-6.728685	38.94616	126.566	0.277492	-5.520479	0.06	3	100	0	6546	-2.887899	4.94429	-21.29322	
12:09:58	-6.728685	38.94616	126.521	0.277492	-5.520479	0.06	3	100	0	6546	-2.911211	4.945676	-21.36473	
12:09:58	-6.728685	38.94616	126.501	0.277492	-5.520479	0.14	3	100	0	6546	-2.832805	5.070248	-21.44035	
12:09:59	-6.728685	38.94616	126.485	0.277492	-5.520479	0.03	3	100	0	6546	-2.84441	5.002273	-21.49937	
12:09:59	-6.728685	38.94616	126.476	0.4689091	-4.707006	0.09	3	100	0	6546	-2.887955	4.970732	-21.49727	
12:09:59	-6.728685	38.94616	126.463	0.4689091	-4.707006	0.02	3	100	0	6546	-2.868521	4.930144	-21.62248	
12:09:59	-6.728685	38.94616	126.483	0.4689091	-4.707006	0.12	3	100	0	6546	-2.855731	4.835323	-21.59769	
12:09:59	-6.728685	38.94616	126.487	0.4689091	-4.707006	0.07	3	100	0	6546	-2.800574	4.840066	-21.69123	
12:10:00	-6.728685	38.94616	126.479	0.4689091	-4.707006	0.03	3	100	0	6546	-2.832757	4.889048	-21.72637	
12:10:00	-6.728685	38.94616	126.425	0.5706187	-8.656004	0.04	3	100	0	6546	-2.843537	4.929199	-21.70205	
12:10:00	-6.728685	38.94616	126.358	0.5706187	-8.656004	0.09	3	100	0	6546	-2.765239	4.938296	-21.7917	
12:10:00	-6.728685	38.94616	126.324	0.5706187	-8.656004	0.09	3	100	0	6546	-2.757638	4.912121	-21.79307	
12:10:00	-6.728685	38.94616	126.324	0.5706187	-8.656004	0.09	3	100	0	6546	-2.836751	4.806377	-21.81711	
12:10:00	-6.728685	38.94616	126.316	0.5706187	-8.656004	0.04	3	100	0	6546	-2.82029	4.890437	-21.84814	
12:10:01	-6.728685	38.94616	126.24	0.4622559	-18.29527	0.04	3	100	0	6546	-2.886204	4.894848	-21.89903	
12:10:01	-6.728685	38.94616	126.24	0.4622559	-18.29527	0.04	3	100	0	6546	-2.871333	4.936911	-21.91801	
12:10:01	-6.728685	38.94616	126.161	0.4622559	-18.29527	0.03	3	100	0	6546	-2.860506	4.914473	-22.0312	
12:10:01	-6.728685	38.94616	126.181	0.4622559	-18.29527	0.06	3	100	0	6546	-2.886564	4.927062	-22.12631	
12:10:02	-6.728685	38.94616	126.176	0.4622559	-18.29527	0.09	3	100	0	6546	-2.942586	4.902095	-22.08855	
12:10:02	-6.728685	38.94616	126.162	0.3219776	-24.8823	0.11	3	100	0	6546	-2.951668	4.922869	-22.12697	
12:10:02	-6.728686	38.94615	126.164	0.3219776	-24.8823	0.12	3	100	0	6546	-2.981276	4.891113	-22.11812	
12:10:02	-6.728686	38.94615	126.169	0.3219776	-24.8823	0.04	3	100	0	6546	-2.892935	4.825945	-22.15382	
12:10:02	-6.728686	38.94615	126.161	0.3219776	-24.8823	0.08	3	100	0	6546	-2.876596	4.859131	-22.14738	
12:10:03	-6.728686	38.94615	126.138	0.3219776	-24.8823	0.06	3	100	0	6546	-2.85098	4.803016	-22.14933	
12:10:03	-6.728686	38.94615	126.174	0.2816176	-22.63487	0.04	3	100	0	6546	-2.8145	4.823747	-22.0822	
12:10:03	-6.728686	38.94615	126.153	0.2816176	-22.63487	0.04	3	100	0	6546	-2.762089	4.912457	-22.15374	
12:10:03	-6.728686	38.94615	126.153	0.2816176	-22.63487	0.04	3	100	0	6546	-2.793689	4.815881	-22.24816	
12:10:03	-6.728686	38.94615	126.092	0.2816176	-22.63487	0.11	3	100	0	6546	-2.762242	4.878292	-22.27156	
12:10:04	-6.728686	38.94615	126.068	0.2816176	-22.63487	0.03	3	100	0	6546	-2.78191	4.817311	-22.32539	
12:10:04	-6.728686	38.94615	126.069	0.2365283	-22.74199	0.02	3	100	0	6546	-2.812811	4.792322	-22.39173	
12:10:04	-6.728686	38.94615	126.105	0.2365283	-22.74199	0.01	3	100	0	6546	-2.751731	4.826785	-22.32713	
12:10:04	-6.728686	38.94615	126.072	0.2365283	-22.74199	0.03	3	100	0	6546	-2.749267	4.825386	-22.37706	
12:10:04	-6.728686	38.94615	126.072	0.2365283	-22.74199	0.03	3	100	0	6546	-2.768246	4.838558	-22.35408	
12:10:05	-6.728685	38.94615	126.064	0.2365283	-22.74199	0.07	3	100	0	6546	-2.785466	4.81121	-22.38174	
12:10:05	-6.728685	38.94615	126.012	0.0140423	-29.58759	0.04	3	100	0	6546	-2.695052	4.873528	-22.43361	
12:10:05	-6.728685	38.94615	125.959	0.0140423	-29.58759	0.06	3	100	0	6546	-2.74532	4.90545	-22.57543	
12:10:05	-6.728685	38.94615	125.947	0.0140423	-29.58759	0.04	3	100	0	6546	-2.702751	4.899819	-22.5743	
12:10:05	-6.728685	38.94615	125.947	0.0140423	-29.58759	0.04	3	100	0	6546	-2.793723	4.898673	-22.61213	
12:10:06	-6.728685	38.94615	125.86	0.0140423	-29.58759	0.04	3	100	0	6546	-2.796202	4.896566	-22.62622	
12:10:06	-6.728685	38.94615	125.86	0.1254565	-18.77649	0.04	3	100	0	6546	-2.812299	4.928363	-22.56849	
12:10:06	-6.728686	38.94615	125.812	0.1254565	-18.77649	0.06	3	100	0	6546	-2.801008	4.947725	-22.61849	
12:10:06	-6.728686	38.94615	125.762	0.1254565	-18.77649	0.06	3	100	0	6546	-2.745575	4.950932	-22.57345	
12:10:06	-6.728686	38.94615	125.745	0.1254565	-18.77649	0.14	3	100	0	6546	-2.77447	4.959403	-22.54786	
12:10:07	-6.728686	38.94615	125.712	0.1254565	-18.77649	0.04	3	100	0	6546	-2.872353	4.856165	-22.60289	
12:10:07	-6.728686	38.94615	125.648	0.4133362	-4.781892	0.03	3	100	0	6546	-2.767414	4.909638	-22.70996	
12:10:07	-6.728685	38.94615	125.678	0.4133362	-4.781892	0.03	3	100	0	6546	-2.707885	4.902541	-22.63392	
12:10:07	-6.728685	38.94615	125.69	0.4133362	-4.781892	0.07	3	100	0	6546	-2.722306	4.853035	-22.74382	
12:10:07	-6.728685	38.94615	125.626	0.4133362	-4.781892	0.11	3	100	0	6546	-2.784688	4.833908	-22.77461	
12:10:08	-6.728685	38.94615	125.598	0.4133362	-4.781892	0.14	3	100	0	6546	-2.666519	4.918868	-22.74417	
12:10:08	-6.728685	38.94615	125.598	0.4585354	-7.785139	0.14	3	100	0	6546	-2.611387	4.918899	-22.78765	
12:10:08	-6.728685	38.94615	125.617	0.4585354	-7.785139	0.02	3	100	0	6546	-2.579568	4.873716	-22.71554	
12:10:08	-6.728685	38.94615	125.635	0.4585354	-7.785139	0.06	3	100	0	6546	-2.739309	4.879489	-22.66978	
12:10:08	-6.728685	38.94615	125.665	0.4585354	-7.785139	0.07	3	100	0	6546	-2.776351	4.928489	-22.74765	
12:10:09	-6.728685	38.94615	125.685	0.4585354	-7.785139	0.06	3	100	0	6546	-2.746771	4.930439	-22.76088	
12:10:09	-6.728685	38.94615	125.668	0.3897297	-10.8971	0.04	3	100	0	6546	-2.731218	4.865938	-22.81023	
12:10:09	-6.728685	38.94615	125.694	0.3897297	-10.8971	0.06	3	100	0	6546	-2.812048	4.901457	-22.82791	
12:10:09	-6.728685	38.94615	125.661	0.3897297	-10.8971	0.06	3	100	0	6546	-2.822336	4.821342	-22.8062	
12:10:10	-6.728685	38.94615	125.657	0.3897297	-10.8971	0.09	3	100	0	6546	-2.745775	4.951389	-22.7772	
12:10:10	-6.728685	38.94615	125.66	0.3897297	-10.8971	0.09	3	100	0	6546	-2.830498	5.026975	-22.77314	
12:10:10	-6.728685	38.94615	125.629	0.4576469	-9.673935	0.14	3	100	0	6546	-2.818614	5.062466	-22.80075	
12:10:10	-6.728685	38.94615	125.635	0.4576469	-9.673935	0.06	3	100	0	6546	-2.915842	5.011024	-22.77896	
12:10:11	-6.728685	38.94615	125.672	0.4576469	-9.673935	0.06	3	100	0	6546	-2.845402	4.987368	-22.7731	
12:10:11	-6.728685	38.94615	125.703	0.4576469	-9.673935	0.04	3	100	0	6546	-2.819423	4.919134	-22.80011	
12:10:11	-6.728685	38.94615	125.718	0.4576469	-9.673935	0.03	3	100	0	6546	-2.751336	4.985029	-22.75358	
12:10:11	-6.728685	38.94615	125.738	0.6495542	-1.45177	0.16	3	100	0	6546	-2.731712	4.924223	-22.82199	
12:10:11	-6.728685	38.94615	125.768	0.6495542	-1.45177	0.04	3	100	0	6546	-2.860299	4.897392	-22.80727	
12:10:11	-6.728685	38.94615	125.818	0.6495542	-1.45177	0.12	3	100	0	6546	-2.675564	4.922158	-22.77962	
12:10:12	-6.728685	38.94615	125.843	0.6495542	-1.45177	0.02	3	100	0	6546	-2.829387	4.854846	-22.82382	
12:10:12	-6.728685	38.94615	125.855	0.6495542	-1.45177	0.02	3	100	0	6546	-2.79306	4.881037	-22.84041	
12:10:12	-6.728685	38.94615	125.908	0.6294926	-7.160873	0.08	3	100	0	6546	-2.756404	4.902997	-22.88104	
12:10:12	-6.728685	38.94615	125.934	0.6294926	-7.160873	0.07	3	100	0	6546	-2.727647	4.842149	-22.86626	
12:10:12	-6.728685	38.94615	125.992	0.6294926	-7.160873	0.02	3	100	0	6546	-2.753107	4.847752	-22.86205	
12:10:12	-6.728685	38.94615	126.045	0.6294926	-7.160873	0.04	3	100	0	6546	-2.790251	4.913815	-22.86721	
12:10:13	-6.728685	38.94615	126.093	0.6294926	-7.160873	0.06	3	100	0	6546	-2.726724	4.950973	-22.90326	
12:10:13	-6.728685	38.94615	126.118	0.1478427	-29.00035	0.04	3	100	0	6546	-2.80095	4.978691	-22.93554	
12:10:13	-6.728685	38.94615	126.203	0.1478427	-29.00035	0.01	3	100	0	6546	-2.777889	4.883409	-22.99882	
12:10:13	-6.728685	38.94615	126.227	0.1478427	-29.00035	0.04	3	100	0	6546	-2.761461	4.914247	-23.0075	
12:10:13	-6.728685	38.94615	126.261	0.1478427	-29.00035	0.02	3	100	0	6546	-2.820725	4.943029	-23.064	
12:10:14	-6.728685	38.94615	126.312	0.1478427	-29.00035	0.09	3	100	0	6546	-2.760276	4.953858	-22.97286	
12:10:14	-6.728685	38.94615	126.357	0.05037747	-25.0027	0.12	3	100	0	6546	-2.703472	5.047383	-23.01768	
12:10:14	-6.728685	38.94615	126.43	0.05037747	-25.0027	0.04	3	100	0	6546	-2.682855	5.061818	-22.95488	
12:10:14	-6.728685	38.94615	126.49	0.05037747	-25.0027	0.06	3	100	0	6546	-2.775385	5.005914	-22.9551	
12:10:14	-6.728685	38.94615	126.506	0.05037747	-25.0027	0.03	3	100	0	6546	-2.685374	5.017714	-22.99721	
12:10:15	-6.728685	38.94615	126.534	0.05037747	-25.0027	0.04	3	100	0	6546	-2.717388	4.972245	-23.03271	
12:10:15	-6.728685	38.94615	126.601	0.2502586	-10.81685	0.06	3	100	0	6546	-2.736349	5.003025	-23.03527	
12:10:15	-6.728685	38.94615	126.652	0.2502586	-10.81685	0.03	3	100	0	6546	-2.695141	5.018491	-23.05402	
12:10:15	-6.728685	38.94615	126.715	0.2502586	-10.81685	0.03	3	100	0	6546	-2.690539	5.017427	-23.07984	
12:10:16	-6.728685	38.94615	126.759	0.2502586	-10.81685	0.09	3	100	0	6546	-2.7368	4.97909	-23.06246	
12:10:16	-6.728685	38.94615	126.803	0.2502586	-10.81685	0.06	3	100	0	6546	-2.665062	5.046055	-23.01538	
12:10:16	-6.728685	38.94615	126.839	0.4456159	-1.731017	0.09	3	100	0	6546	-2.744457	5.00718	-23.01908	
12:10:16	-6.728685	38.94615	126.9	0.4456159	-1.731017	0.06	3	100	0	6546	-2.824157	4.958769	-23.00427	
12:10:16	-6.728685	38.94615	126.929	0.4456159	-1.731017	0.09	3	100	0	6546	-2.773295	4.96329	-22.92776	
12:10:16	-6.728685	38.94615	126.958	0.4456159	-1.731017	0.03	3	100	0	6546	-2.812792	5.031914	-23.00759	
12:10:17	-6.728685	38.94615	127.025	0.4456159	-1.731017	0.09	3	100	0	6546	-2.709169	5.039583	-22.95345	
12:10:17	-6.728685	38.94615	127.09	0.562833	-0.1884174	0.03	3	100	0	6547	-2.759122	4.971662	-22.93356	
12:10:17	-6.728685	38.94615	127.175	0.562833	-0.1884174	0.04	3	100	0	6547	-2.70497	5.003527	-22.88708	
12:10:17	-6.728685	38.94615	127.216	0.562833	-0.1884174	0.03	3	100	0	6547	-2.652773	5.039802	-22.90607	
12:10:17	-6.728685	38.94615	127.25	0.562833	-0.1884174	0.07	3	100	0	6547	-2.625962	4.989017	-22.92264	
12:10:18	-6.728685	38.94615	127.264	0.562833	-0.1884174	0.04	3	100	0	6547	-2.663967	4.88399	-22.94794	
12:10:18	-6.728685	38.94615	127.275	0.7705773	5.20856	0.03	3	100	0	6546	-2.642475	4.997652	-22.91678	
12:10:18	-6.728685	38.94615	127.313	0.7705773	5.20856	0.07	3	100	0	6546	-2.623008	4.974483	-22.89955	
12:10:18	-6.728685	38.94615	127.365	0.7705773	5.20856	0.09	3	100	0	6546	-2.59552	5.021949	-22.879	
12:10:18	-6.728685	38.94615	127.372	0.7705773	5.20856	0.04	3	100	0	6546	-2.727003	5.045738	-22.91761	
12:10:19	-6.728685	38.94615	127.429	0.7705773	5.20856	0.06	3	100	0	6546	-2.72893	4.99908	-22.96432	
12:10:19	-6.728685	38.94615	127.486	0.7109083	-3.272426	0.06	3	100	0	6546	-2.73714	4.943542	-22.98503	
12:10:19	-6.728685	38.94615	127.53	0.7109083	-3.272426	0.07	3	100	0	6546	-2.730966	4.906655	-23.01675	
12:10:19	-6.728685	38.94615	127.594	0.7109083	-3.272426	0.06	3	100	0	6546	-2.66847	5.044003	-23.04185	
12:10:19	-6.728685	38.94615	127.652	0.7109083	-3.272426	0.02	3	100	0	6546	-2.641168	5.004657	-23.11893	
12:10:20	-6.728685	38.94615	127.687	0.7109083	-3.272426	0.08	3	100	0	6546	-2.63214	4.952971	-23.06081	
12:10:20	-6.728685	38.94615	127.77	0.577701	-9.442507	0.02	3	100	0	6547	-2.755075	4.944702	-23.05372	
12:10:20	-6.728685	38.94615	127.821	0.577701	-9.442507	0.02	3	100	0	6547	-2.677505	4.989828	-23.04407	
12:10:20	-6.728685	38.94615	127.894	0.577701	-9.442507	0.09	3	100	0	6547	-2.615263	4.984807	-23.07713	
12:10:20	-6.728685	38.94615	127.905	0.577701	-9.442507	0.03	3	100	0	6547	-2.754865	4.91573	-23.06981	
12:10:21	-6.728685	38.94615	127.917	0.577701	-9.442507	0.06	3	100	0	6547	-2.686134	4.96734	-23.08165	
12:10:21	-6.728685	38.94615	127.971	0.577701	-9.442507	0.07	3	100	0	6547	-2.608792	5.01097	-23.06878	
12:10:21	-6.728685	38.94615	127.997	0.577701	-9.442507	0.03	3	100	0	6547	-2.694583	5.082839	-23.12531	
12:10:21	-6.728685	38.94615	128.057	0.577701	-9.442507	0.03	3	100	0	6547	-2.712386	4.988159	-23.17572	
12:10:22	-6.728685	38.94615	128.082	0.577701	-9.442507	0.08	3	100	0	6547	-2.660303	4.966974	-23.22618	
12:10:22	-6.728685	38.94615	128.132	0.577701	-9.442507	0.07	3	100	0	6547	-2.717114	4.875772	-23.24608	
12:10:22	-6.728685	38.94615	128.121	0.5381564	-8.736788	0.09	3	100	0	6546	-2.74375	5.065198	-23.24694	
12:10:22	-6.728685	38.94615	128.162	0.5381564	-8.736788	0.03	3	100	0	6546	-2.769659	4.936725	-23.27118	
12:10:22	-6.728685	38.94615	128.177	0.5381564	-8.736788	0.04	3	100	0	6546	-2.677345	4.998623	-23.25578	
12:10:22	-6.728685	38.94615	128.216	0.5381564	-8.736788	0.04	3	100	0	6546	-2.69812	5.00416	-23.16953	
12:10:23	-6.728685	38.94615	128.251	0.5381564	-8.736788	0.06	3	100	0	6546	-2.708776	5.095716	-23.15489	
12:10:23	-6.728685	38.94615	128.255	0.4253	-11.58982	0.06	3	100	0	6546	-2.726642	4.999665	-23.21311	
12:10:23	-6.728685	38.94615	128.266	0.4253	-11.58982	0.07	3	100	0	6546	-2.60119	5.112584	-23.19867	
12:10:23	-6.728685	38.94615	128.279	0.4253	-11.58982	0.09	3	100	0	6546	-2.624544	5.00611	-23.27936	
12:10:23	-6.728685	38.94615	128.307	0.4253	-11.58982	0.03	3	100	0	6546	-2.730075	4.973424	-23.26281	
12:10:24	-6.728685	38.94615	128.3	0.4253	-11.58982	0.03	3	100	0	6546	-2.638566	5.006927	-23.27147	
12:10:24	-6.728685	38.94615	128.346	0.515991	-5.221141	0.06	3	100	0	6546	-2.654664	5.078358	-23.27211	
12:10:24	-6.728685	38.94615	128.365	0.515991	-5.221141	0.07	3	100	0	6546	-2.661047	4.956032	-23.32885	
12:10:24	-6.728685	38.94615	128.387	0.515991	-5.221141	0.04	3	100	0	6546	-2.728409	5.042618	-23.36442	
12:10:24	-6.728685	38.94615	128.425	0.515991	-5.221141	0.03	3	100	0	6546	-2.687043	5.060053	-23.33627	
12:10:25	-6.728685	38.94615	128.454	0.515991	-5.221141	0.08	3	100	0	6546	-2.676504	5.007765	-23.30472	
12:10:25	-6.728685	38.94615	128.49	0.6909133	1.995216	0.07	3	100	0	6546	-2.544128	5.028738	-23.29707	
12:10:25	-6.728685	38.94615	128.515	0.6909133	1.995216	0.04	3	100	0	6546	-2.691837	5.038263	-23.32762	
12:10:25	-6.728685	38.94616	128.545	0.6909133	1.995216	0.04	3	100	0	6546	-2.653156	4.966187	-23.3481	
12:10:25	-6.728685	38.94616	128.597	0.6909133	1.995216	0.04	3	100	0	6546	-2.569535	5.011797	-23.29737	
12:10:26	-6.728685	38.94616	128.628	0.6909133	1.995216	0.04	3	100	0	6546	-2.58405	4.954861	-23.25258	
12:10:26	-6.728685	38.94616	128.628	0.9965783	13.23227	0.02	3	100	0	6546	-2.61875	5.052485	-23.32593	
12:10:26	-6.728685	38.94616	128.624	0.9965783	13.23227	0.09	3	100	0	6546	-2.620136	5.021785	-23.25478	
12:10:26	-6.728685	38.94616	128.584	0.9965783	13.23227	0.14	3	100	0	6546	-2.520857	5.134621	-23.27411	
12:10:27	-6.728685	38.94616	128.579	0.9965783	13.23227	0.02	3	100	0	6546	-2.518764	5.164427	-23.23343	
12:10:27	-6.728685	38.94616	128.584	0.9965783	13.23227	0.02	3	100	0	6546	-2.607557	5.052645	-23.26229	
12:10:27	-6.728685	38.94616	128.59	1.032628	6.678196	0.03	3	100	0	6546	-2.603854	5.059655	-23.24068	
12:10:27	-6.728685	38.94616	128.625	1.032628	6.678196	0.03	3	100	0	6546	-2.641826	5.026384	-23.19561	
12:10:27	-6.728685	38.94616	128.67	1.032628	6.678196	0.13	3	100	0	6546	-2.591067	5.022058	-23.18708	
12:10:27	-6.728685	38.94616	128.674	1.032628	6.678196	0.08	3	100	0	6546	-2.754778	4.976214	-23.26155	
12:10:28	-6.728685	38.94616	128.675	1.032628	6.678196	0.04	3	100	0	6546	-2.69188	5.003397	-23.26027	
12:10:28	-6.728685	38.94616	128.684	0.7837051	-8.823313	0.04	3	100	0	6546	-2.565348	5.060057	-23.21342	
12:10:28	-6.728685	38.94616	128.688	0.7837051	-8.823313	0.07	3	100	0	6546	-2.579865	5.022725	-23.20993	
12:10:28	-6.728685	38.94616	128.663	0.7837051	-8.823313	0.04	3	100	0	6546	-2.630745	4.963622	-23.17592	
12:10:28	-6.728685	38.94616	128.629	0.7837051	-8.823313	0.06	3	100	0	6546	-2.63475	5.083391	-23.17748	
12:10:29	-6.728685	38.94616	128.598	0.7837051	-8.823313	0.09	3	100	0	6546	-2.673912	5.065071	-23.19604	
12:10:29	-6.728685	38.94616	128.607	0.6772569	-12.32227	0.09	3	100	0	6546	-2.677004	4.987051	-23.30321	
12:10:29	-6.728685	38.94616	128.591	0.6772569	-12.32227	0.11	3	100	0	6546	-2.632303	5.071977	-23.20853	
12:10:29	-6.728685	38.94616	128.6	0.6772569	-12.32227	0.02	3	100	0	6546	-2.434352	5.015388	-23.27074	
12:10:29	-6.728685	38.94616	128.62	0.6772569	-12.32227	0.04	3	100	0	6546	-2.534064	5.003142	-23.24872	
12:10:30	-6.728685	38.94616	128.579	0.6772569	-12.32227	0.04	3	100	0	6546	-2.537127	5.057982	-23.24481	
12:10:30	-6.728685	38.94616	128.583	0.7042354	-7.260837	0.09	3	100	0	6546	-2.607447	5.075566	-23.27271	
12:10:30	-6.728684	38.94616	128.546	0.7042354	-7.260837	0.09	3	100	0	6546	-2.589439	4.984592	-23.30166	
12:10:30	-6.728684	38.94616	128.545	0.7042354	-7.260837	0.07	3	100	0	6546	-2.614188	5.003364	-23.33272	
12:10:30	-6.728684	38.94616	128.535	0.7042354	-7.260837	0.01	3	100	0	6546	-2.71892	5.084791	-23.36363	
12:10:31	-6.728684	38.94616	128.52	0.7042354	-7.260837	0.04	3	100	0	6546	-2.671501	5.097192	-23.33229	
12:10:31	-6.728684	38.94616	128.502	0.7270305	-4.896328	0.02	3	100	0	6546	-2.690636	5.098235	-23.31658	
12:10:31	-6.728684	38.94616	128.531	0.7270305	-4.896328	0.02	3	100	0	6546	-2.651066	5.113708	-23.34342	
12:10:31	-6.728684	38.94616	128.548	0.7270305	-4.896328	0.06	3	100	0	6546	-2.663193	5.134565	-23.34178	
12:10:31	-6.728684	38.94616	128.542	0.7270305	-4.896328	0.06	3	100	0	6546	-2.676377	5.06142	-23.33031	
12:10:32	-6.728684	38.94616	128.544	0.7270305	-4.896328	0.04	3	100	0	6546	-2.579023	5.081995	-23.36299	
12:10:32	-6.728683	38.94616	128.572	0.6018766	-9.473341	0.03	3	100	0	6546	-2.621989	5.10388	-23.34885	
12:10:32	-6.728683	38.94616	128.627	0.6018766	-9.473341	0.07	3	100	0	6546	-2.654931	5.065024	-23.3016	
12:10:32	-6.728683	38.94616	128.646	0.6018766	-9.473341	0.07	3	100	0	6546	-2.704366	5.107152	-23.35368	
12:10:32	-6.728683	38.94616	128.68	0.6018766	-9.473341	0.04	3	100	0	6546	-2.685968	5.130755	-23.35225	
12:10:33	-6.728683	38.94616	128.711	0.6018766	-9.473341	0.09	3	100	0	6546	-2.637926	5.122453	-23.34414	
12:10:33	-6.728683	38.94616	128.731	0.6662912	-4.541912	0.03	3	100	0	6546	-2.619223	5.126441	-23.36662	
12:10:33	-6.728683	38.94616	128.737	0.6662912	-4.541912	0.02	3	100	0	6546	-2.668611	5.022745	-23.29959	
12:10:33	-6.728683	38.94616	128.736	0.6662912	-4.541912	0.08	3	100	0	6546	-2.67479	5.086289	-23.27981	
12:10:33	-6.728683	38.94616	128.744	0.6662912	-4.541912	0.06	3	100	0	6546	-2.726828	5.129989	-23.24986	
12:10:34	-6.728683	38.94616	128.759	0.6662912	-4.541912	0.09	3	100	0	6546	-2.735392	5.132312	-23.23855	
12:10:34	-6.728683	38.94616	128.728	0.5920146	-8.501862	0.02	3	100	0	6546	-2.701577	5.183753	-23.21368	
12:10:34	-6.728683	38.94616	128.693	0.5920146	-8.501862	0.01	3	100	0	6546	-2.681503	5.115074	-23.16347	
12:10:34	-6.728683	38.94616	128.7	0.5920146	-8.501862	0.06	3	100	0	6546	-2.645515	5.094203	-23.14992	
12:10:34	-6.728683	38.94616	128.718	0.5920146	-8.501862	0.08	3	100	0	6546	-2.657667	5.10183	-23.22419	
12:10:35	-6.728683	38.94616	128.714	0.5920146	-8.501862	0.04	3	100	0	6546	-2.693999	5.193443	-23.19192	
12:10:35	-6.728683	38.94616	128.717	0.5222332	-8.661757	0.04	3	100	0	6546	-2.626284	5.097016	-23.18806	
12:10:35	-6.728683	38.94616	128.745	0.5222332	-8.661757	0.06	3	100	0	6546	-2.649709	5.060758	-23.17672	
12:10:35	-6.728683	38.94616	128.772	0.5222332	-8.661757	0.09	3	100	0	6546	-2.684107	5.049603	-23.101	
12:10:36	-6.728682	38.94616	128.772	0.5222332	-8.661757	0.03	3	100	0	6546	-2.590106	5.06551	-23.10209	
12:10:36	-6.728682	38.94616	128.78	0.5222332	-8.661757	0.04	3	100	0	6546	-2.693552	5.0646	-23.03176	
12:10:36	-6.728682	38.94616	128.764	0.8310367	6.42812	0.04	3	100	0	6546	-2.706008	4.998979	-23.05829	
12:10:36	-6.728682	38.94616	128.775	0.8310367	6.42812	0.03	3	100	0	6546	-2.665137	4.964203	-22.98353	
12:10:36	-6.728682	38.94616	128.754	0.8310367	6.42812	0.08	3	100	0	6546	-2.686407	5.010546	-22.9652	
12:10:37	-6.728682	38.94616	128.745	0.8310367	6.42812	0.06	3	100	0	6546	-2.724799	5.051133	-23.00758	
12:10:37	-6.728682	38.94616	128.754	0.8310367	6.42812	0.07	3	100	0	6546	-2.73249	5.035013	-23.02495	
12:10:37	-6.728682	38.94616	128.797	0.7778201	0.06670864	0.03	3	100	0	6546	-2.706664	5.059677	-22.95405	
12:10:37	-6.728682	38.94616	128.799	0.7778201	0.06670864	0.09	3	100	0	6546	-2.697789	5.095699	-22.98769	
12:10:37	-6.728682	38.94616	128.81	0.7778201	0.06670864	0.04	3	100	0	6546	-2.736124	5.080298	-22.98408	
12:10:37	-6.728682	38.94616	128.807	0.7778201	0.06670864	0.11	3	100	0	6546	-2.671394	5.103118	-23.02217	
12:10:38	-6.728682	38.94616	128.785	0.7778201	0.06670864	0.07	3	100	0	6546	-2.635896	5.141758	-22.97328	
12:10:38	-6.728682	38.94616	128.782	0.8704931	3.377884	0.02	3	100	0	6546	-2.700022	5.065161	-23.06017	
12:10:38	-6.728682	38.94616	128.786	0.8704931	3.377884	0.04	3	100	0	6546	-2.667615	4.999021	-23.09568	
12:10:38	-6.728682	38.94616	128.75	0.8704931	3.377884	0.06	3	100	0	6546	-2.726145	5.049006	-23.16134	
12:10:38	-6.728682	38.94616	128.744	0.8704931	3.377884	0.08	3	100	0	6546	-2.740155	5.084087	-23.15769	
12:10:39	-6.728682	38.94616	128.745	0.8704931	3.377884	0.03	3	100	0	6546	-2.715211	5.11114	-23.09489	
12:10:39	-6.728682	38.94616	128.709	0.9219955	4.06558	0.08	3	100	0	6546	-2.647746	5.059774	-23.08138	
12:10:39	-6.728682	38.94616	128.702	0.9219955	4.06558	0.04	3	100	0	6546	-2.606431	5.086522	-23.14624	
12:10:39	-6.728682	38.94616	128.704	0.9219955	4.06558	0.06	3	100	0	6546	-2.678265	5.079496	-23.14247	
12:10:39	-6.728681	38.94616	128.703	0.9219955	4.06558	0.09	3	100	0	6546	-2.725239	4.997418	-23.17901	
12:10:40	-6.728681	38.94616	128.746	0.9219955	4.06558	0.09	3	100	0	6546	-2.742451	5.042803	-23.19989	
12:10:40	-6.728681	38.94616	128.733	1.026585	6.145357	0.12	3	100	0	6546	-2.637691	5.149322	-23.21704	
12:10:40	-6.728681	38.94616	128.698	1.026585	6.145357	0.01	3	100	0	6546	-2.566135	5.104396	-23.1857	
12:10:40	-6.728681	38.94616	128.677	1.026585	6.145357	0.03	3	100	0	6546	-2.649	5.077016	-23.15015	
12:10:40	-6.728681	38.94616	128.69	1.026585	6.145357	0.03	3	100	0	6546	-2.617337	5.076263	-23.1461	
12:10:41	-6.728681	38.94616	128.671	1.026585	6.145357	0.04	3	100	0	6546	-2.609106	5.079751	-23.11731	
12:10:41	-6.728681	38.94616	128.676	1.013719	1.745506	0.06	3	100	0	6546	-2.607285	5.038743	-23.16199	
12:10:41	-6.728681	38.94616	128.677	1.013719	1.745506	0.04	3	100	0	6546	-2.61297	5.056889	-23.12722	
12:10:41	-6.728681	38.94616	128.704	1.013719	1.745506	0.03	3	100	0	6546	-2.635957	5.110179	-23.1121	
12:10:42	-6.728681	38.94616	128.712	1.013719	1.745506	0	3	100	0	6546	-2.617237	5.057701	-23.14019	
12:10:42	-6.728681	38.94616	128.728	1.013719	1.745506	0.08	3	100	0	6546	-2.657948	5.055483	-23.06134	
12:10:42	-6.728681	38.94616	128.755	1.033677	-0.9101177	0.02	3	100	0	6546	-2.68175	5.043503	-23.0687	
12:10:42	-6.728681	38.94616	128.761	1.033677	-0.9101177	0.06	3	100	0	6546	-2.631951	5.033355	-23.05587	
12:10:42	-6.728681	38.94616	128.795	1.033677	-0.9101177	0.01	3	100	0	6546	-2.637235	5.03761	-23.06285	
12:10:42	-6.728681	38.94616	128.784	1.033677	-0.9101177	0.08	3	100	0	6546	-2.639022	5.053808	-23.10839	
12:10:43	-6.728681	38.94616	128.771	1.033677	-0.9101177	0.03	3	100	0	6546	-2.655747	5.006287	-23.11531	
12:10:43	-6.728681	38.94616	128.786	0.8907618	-7.575201	0.04	3	100	0	6546	-2.662824	5.059004	-23.13729	
12:10:43	-6.728681	38.94616	128.798	0.8907618	-7.575201	0.08	3	100	0	6546	-2.649561	5.092588	-23.06026	
12:10:43	-6.728681	38.94616	128.831	0.8907618	-7.575201	0.04	3	100	0	6546	-2.600059	5.113448	-23.05724	
12:10:43	-6.728681	38.94617	128.843	0.8907618	-7.575201	0.11	3	100	0	6546	-2.683007	5.139004	-23.06868	
12:10:44	-6.728681	38.94617	128.839	0.8907618	-7.575201	0.08	3	100	0	6546	-2.703193	5.153699	-23.08528	
12:10:44	-6.728681	38.94617	128.773	0.7897636	-9.447782	0.11	3	100	0	6546	-2.653939	5.14426	-23.01148	
12:10:44	-6.728681	38.94617	128.762	0.7897636	-9.447782	0.08	3	100	0	6546	-2.726897	5.125549	-23.02942	
12:10:44	-6.728681	38.94617	128.765	0.7897636	-9.447782	0.07	3	100	0	6546	-2.687334	5.076384	-23.03786	
12:10:45	-6.728681	38.94617	128.779	0.7897636	-9.447782	0.03	3	100	0	6546	-2.65701	5.059046	-22.97643	
12:10:45	-6.728681	38.94617	128.763	0.7897636	-9.447782	0.09	3	100	0	6546	-2.655513	5.135663	-22.96261	
12:10:45	-6.728681	38.94617	128.745	0.6727734	-11.19193	0.04	3	100	0	6546	-2.643281	5.183892	-22.97911	
12:10:45	-6.728682	38.94617	128.708	0.6727734	-11.19193	0.09	3	100	0	6546	-2.640051	5.128958	-22.88872	
12:10:45	-6.728682	38.94617	128.703	0.6727734	-11.19193	0.08	3	100	0	6546	-2.714689	5.059854	-22.94062	
12:10:45	-6.728682	38.94617	128.685	0.6727734	-11.19193	0.01	3	100	0	6546	-2.658835	5.090597	-22.87042	
12:10:46	-6.728682	38.94617	128.699	0.6727734	-11.19193	0.04	3	100	0	6546	-2.636327	5.127584	-22.95209	
12:10:46	-6.728682	38.94617	128.709	0.7956337	0.004834123	0.06	3	100	0	6546	-2.610235	5.137222	-22.95196	
12:10:46	-6.728682	38.94617	128.688	0.7956337	0.004834123	0.08	3	100	0	6546	-2.587846	5.161636	-23.0068	
12:10:46	-6.728682	38.94617	128.688	0.7956337	0.004834123	0.04	3	100	0	6546	-2.614245	5.146386	-23.00161	
12:10:46	-6.728682	38.94617	128.663	0.7956337	0.004834123	0.04	3	100	0	6546	-2.602016	5.068685	-22.93007	
12:10:47	-6.728682	38.94617	128.644	0.7956337	0.004834123	0.01	3	100	0	6546	-2.647584	5.072638	-23.02401	
12:10:47	-6.728682	38.94617	128.636	0.941187	5.037005	0.04	3	100	0	6546	-2.610534	5.036348	-23.02486	
12:10:47	-6.728682	38.94617	128.597	0.941187	5.037005	0.06	3	100	0	6546	-2.612622	5.069325	-22.9771	
12:10:48	-6.728682	38.94617	128.56	0.941187	5.037005	0.09	3	100	0	6546	-2.578373	5.076894	-22.93682	
12:10:48	-6.728682	38.94617	128.546	0.941187	5.037005	0.02	3	100	0	6546	-2.56496	5.026296	-22.93917	
12:10:48	-6.728682	38.94617	128.543	0.941187	5.037005	0.07	3	100	0	6546	-2.631768	5.036226	-22.88795	
12:10:48	-6.728682	38.94617	128.505	1.021866	4.808369	0.06	3	100	0	6546	-2.606532	5.049698	-22.84938	
12:10:48	-6.728682	38.94617	128.472	1.021866	4.808369	0.06	3	100	0	6546	-2.602861	5.070795	-22.83844	
12:10:48	-6.728683	38.94617	128.462	1.021866	4.808369	0.08	3	100	0	6546	-2.66437	5.132953	-22.89618	
12:10:49	-6.728683	38.94617	128.468	1.021866	4.808369	0.08	3	100	0	6546	-2.697377	5.098778	-22.90125	
12:10:49	-6.728683	38.94617	128.482	1.021866	4.808369	0.08	3	100	0	6546	-2.634211	5.07614	-22.86761	
12:10:49	-6.728683	38.94617	128.478	0.827332	-6.638904	0.03	3	100	0	6546	-2.58754	5.095488	-22.91885	
12:10:49	-6.728683	38.94617	128.461	0.827332	-6.638904	0.08	3	100	0	6546	-2.678585	5.107353	-22.91357	
12:10:49	-6.728683	38.94617	128.456	0.827332	-6.638904	0.11	3	100	0	6546	-2.67384	5.16019	-22.90788	
12:10:50	-6.728683	38.94617	128.476	0.827332	-6.638904	0.08	3	100	0	6546	-2.597421	5.238514	-22.88087	
12:10:50	-6.728683	38.94617	128.484	0.827332	-6.638904	0.06	3	100	0	6546	-2.599298	5.151599	-22.90374	
12:10:50	-6.728683	38.94617	128.48	0.7388522	-9.598535	0.06	3	100	0	6546	-2.581885	5.066022	-22.87316	
12:10:50	-6.728683	38.94617	128.438	0.7388522	-9.598535	0.04	3	100	0	6546	-2.634004	5.110637	-22.89667	
12:10:50	-6.728683	38.94617	128.389	0.7388522	-9.598535	0.09	3	100	0	6546	-2.714453	5.17802	-22.91019	
12:10:50	-6.728683	38.94617	128.383	0.7388522	-9.598535	0.03	3	100	0	6546	-2.710581	5.17231	-22.97853	
12:10:51	-6.728683	38.94617	128.352	0.7388522	-9.598535	0.11	3	100	0	6546	-2.6594	5.224763	-22.94021	
12:10:51	-6.728683	38.94617	128.339	0.7124133	-7.233181	0.09	3	100	0	6546	-2.645627	5.278297	-22.8634	
12:10:51	-6.728683	38.94617	128.339	0.7124133	-7.233181	0.09	3	100	0	6546	-2.655214	5.249864	-22.87955	
12:10:51	-6.728683	38.94617	128.339	0.7124133	-7.233181	0.06	3	100	0	6546	-2.62962	5.200938	-22.93403	
12:10:52	-6.728683	38.94617	128.346	0.7124133	-7.233181	0.07	3	100	0	6546	-2.733232	5.135675	-22.93931	
12:10:52	-6.728683	38.94617	128.342	0.7124133	-7.233181	0.09	3	100	0	6546	-2.610605	5.163566	-22.97357	
12:10:52	-6.728683	38.94617	128.323	0.8630025	0.8688089	0.04	3	100	0	6546	-2.739144	5.206809	-23.04509	
12:10:52	-6.728683	38.94617	128.324	0.8630025	0.8688089	0.03	3	100	0	6546	-2.702668	5.16838	-22.98485	
12:10:53	-6.728683	38.94617	128.318	0.8630025	0.8688089	0.03	3	100	0	6546	-2.678633	5.160016	-23.0075	
12:10:53	-6.728683	38.94617	128.318	0.8630025	0.8688089	0.03	3	100	0	6546	-2.654836	5.067027	-22.9752	
12:10:53	-6.728683	38.94617	128.339	0.8630025	0.8688089	0.08	3	100	0	6546	-2.658479	5.063721	-22.87689	
12:10:53	-6.728683	38.94617	128.301	0.7833711	-5.463744	0.06	3	100	0	6546	-2.628714	5.09663	-22.86833	
12:10:53	-6.728683	38.94617	128.261	0.7833711	-5.463744	0.04	3	100	0	6546	-2.598846	5.106567	-22.858	
12:10:54	-6.728683	38.94617	128.307	0.7833711	-5.463744	0.04	3	100	0	6546	-2.611437	4.962317	-22.95812	
12:10:54	-6.728683	38.94617	128.335	0.7833711	-5.463744	0.08	3	100	0	6546	-2.618377	5.071804	-22.99068	
12:10:54	-6.728683	38.94617	128.352	0.7833711	-5.463744	0.06	3	100	0	6546	-2.642413	5.028234	-22.90339	
12:10:54	-6.728683	38.94617	128.342	0.4664424	-17.55168	0.07	3	100	0	6547	-2.606191	4.990683	-22.89033	
12:10:55	-6.728682	38.94617	128.362	0.4664424	-17.55168	0.04	3	100	0	6547	-2.547432	4.994848	-22.8002	
12:10:55	-6.728682	38.94617	128.364	0.4664424	-17.55168	0.06	3	100	0	6547	-2.539025	5.029295	-22.82276	
12:10:55	-6.728682	38.94617	128.336	0.4664424	-17.55168	0.02	3	100	0	6547	-2.632049	5.098022	-22.82125	
12:10:55	-6.728682	38.94617	128.351	0.4664424	-17.55168	0.09	3	100	0	6547	-2.65719	5.056097	-22.87453	
12:10:55	-6.728682	38.94617	128.367	0.5712493	-6.323894	0.13	3	100	0	6546	-2.69163	4.964466	-22.85653	
12:10:55	-6.728682	38.94617	128.369	0.5712493	-6.323894	0.07	3	100	0	6546	-2.51821	5.073388	-22.80659	
12:10:56	-6.728682	38.94617	128.358	0.5712493	-6.323894	0.06	3	100	0	6546	-2.644843	5.112211	-22.86091	
12:10:56	-6.728682	38.94617	128.324	0.5712493	-6.323894	0.04	3	100	0	6546	-2.575246	5.073682	-22.8899	
12:10:56	-6.728682	38.94617	128.331	0.5712493	-6.323894	0.13	3	100	0	6546	-2.628433	5.051919	-22.86603	
12:10:56	-6.728682	38.94617	128.359	0.7497002	3.807763	0.06	3	100	0	6546	-2.551509	5.104732	-22.92944	
12:10:56	-6.728682	38.94617	128.351	0.7497002	3.807763	0.02	3	100	0	6546	-2.627413	5.046216	-22.9178	
12:10:57	-6.728682	38.94617	128.326	0.7497002	3.807763	0.07	3	100	0	6546	-2.635804	5.008634	-22.89164	
12:10:57	-6.728682	38.94617	128.317	0.7497002	3.807763	0.02	3	100	0	6546	-2.686467	4.947739	-22.87414	
12:10:57	-6.728682	38.94617	128.301	0.7497002	3.807763	0.04	3	100	0	6546	-2.634855	4.998542	-22.76335	
12:10:57	-6.728682	38.94617	128.318	0.9777791	13.11789	0.09	3	100	0	6546	-2.684416	5.038546	-22.82106	
12:10:58	-6.728682	38.94617	128.344	0.9777791	13.11789	0.06	3	100	0	6546	-2.751258	4.956805	-22.77101	
12:10:58	-6.728682	38.94617	128.338	0.9777791	13.11789	0.04	3	100	0	6546	-2.719749	4.927999	-22.75226	
12:10:58	-6.728682	38.94617	128.364	0.9777791	13.11789	0.03	3	100	0	6546	-2.645182	4.990145	-22.72016	
12:10:58	-6.728682	38.94617	128.402	0.9777791	13.11789	0.06	3	100	0	6546	-2.711205	4.929436	-22.75226	
12:10:58	-6.728682	38.94617	128.402	1.077311	10.6075	0.02	3	100	0	6546	-2.619664	4.954363	-22.75794	
12:10:58	-6.728681	38.94617	128.398	1.077311	10.6075	0.12	3	100	0	6546	-2.663346	4.937327	-22.70773	
12:10:59	-6.728681	38.94617	128.379	1.077311	10.6075	0.07	3	100	0	6546	-2.81896	4.891634	-22.74212	
12:10:59	-6.728681	38.94617	128.365	1.077311	10.6075	0.02	3	100	0	6546	-2.694344	5.060591	-22.69779	
12:10:59	-6.728682	38.94617	128.369	1.077311	10.6075	0.21	3	100	0	6546	-2.665673	4.956651	-22.74172	
12:10:59	-6.728682	38.94617	128.351	1.054945	5.70769	0.04	3	100	0	6546	-2.633502	5.25682	-22.79945	
12:10:59	-6.728682	38.94617	128.325	1.054945	5.70769	0.14	3	100	0	6546	-2.693097	5.003445	-22.8056	
12:11:00	-6.728682	38.94617	128.304	1.054945	5.70769	0.03	3	100	0	6546	-2.757829	5.13928	-22.81356	
12:11:00	-6.728682	38.94617	128.293	1.054945	5.70769	0.02	3	100	0	6546	-2.626227	5.038487	-22.83858	
12:11:00	-6.728682	38.94617	128.285	1.054945	5.70769	0.09	3	100	0	6546	-2.663825	4.99321	-22.8358	
12:11:00	-6.728682	38.94617	128.267	1.169131	7.393361	0.03	3	100	0	6546	-2.725506	5.077465	-22.86052	
12:11:01	-6.728682	38.94617	128.338	1.169131	7.393361	0.13	3	100	0	6546	-2.633449	4.978806	-22.76944	
12:11:01	-6.728682	38.94617	128.318	1.169131	7.393361	0.03	3	100	0	6546	-2.527071	5.10935	-22.77565	
12:11:01	-6.728681	38.94617	128.336	1.169131	7.393361	0.02	3	100	0	6546	-2.673232	5.009794	-22.7669	
12:11:01	-6.728681	38.94617	128.353	1.169131	7.393361	0.04	3	100	0	6546	-2.668763	5.044473	-22.75525	
12:11:02	-6.728681	38.94617	128.352	1.081547	-0.3084365	0.11	3	100	0	6546	-2.632609	5.110602	-22.73082	
12:11:02	-6.728681	38.94617	128.342	1.081547	-0.3084365	0.02	3	100	0	6546	-2.684996	4.928563	-22.71034	
12:11:02	-6.728681	38.94617	128.354	1.081547	-0.3084365	0.06	3	100	0	6546	-2.652352	5.010605	-22.71708	
12:11:02	-6.728681	38.94617	128.389	1.081547	-0.3084365	0.09	3	100	0	6546	-2.685884	5.069026	-22.71649	
12:11:03	-6.728681	38.94617	128.432	1.081547	-0.3084365	0.06	3	100	0	6546	-2.608682	5.093144	-22.70818	
12:11:03	-6.728681	38.94617	128.43	0.9245825	-7.421899	0.02	3	100	0	6546	-2.590154	4.945698	-22.65579	
12:11:03	-6.728681	38.94617	128.454	0.9245825	-7.421899	0.03	3	100	0	6546	-2.624233	4.948997	-22.68001	
12:11:03	-6.728681	38.94617	128.459	0.9245825	-7.421899	0.03	3	100	0	6546	-2.607564	4.94763	-22.67147	
12:11:03	-6.728681	38.94617	128.441	0.9245825	-7.421899	0.02	3	100	0	6546	-2.65929	4.978558	-22.64943	
12:11:03	-6.728681	38.94617	128.485	0.9245825	-7.421899	0.08	3	100	0	6546	-2.631146	5.02651	-22.64496	
12:11:03	-6.728681	38.94617	128.505	0.9890639	-1.015774	0.09	3	100	0	6546	-2.709075	5.020058	-22.73633	
12:11:04	-6.72868	38.94617	128.513	0.9890639	-1.015774	0.04	3	100	0	6546	-2.531983	4.991057	-22.75253	
12:11:04	-6.72868	38.94617	128.522	0.9890639	-1.015774	0.06	3	100	0	6546	-2.634158	4.927431	-22.79139	
12:11:04	-6.72868	38.94617	128.561	0.9890639	-1.015774	0.04	3	100	0	6546	-2.651899	5.045538	-22.76718	
12:11:04	-6.72868	38.94617	128.562	0.9890639	-1.015774	0.03	3	100	0	6546	-2.624387	5.087148	-22.76121	
12:11:04	-6.72868	38.94617	128.566	0.9749603	-2.789088	0.04	3	100	0	6546	-2.618445	5.074172	-22.71648	
12:11:04	-6.72868	38.94617	128.591	0.9749603	-2.789088	0.04	3	100	0	6546	-2.66783	5.092012	-22.78631	
12:11:05	-6.72868	38.94617	128.588	0.9749603	-2.789088	0.13	3	100	0	6546	-2.690644	5.10429	-22.79636	
12:11:05	-6.72868	38.94617	128.612	0.9749603	-2.789088	0.03	3	100	0	6546	-2.762558	5.138196	-22.83083	
12:11:05	-6.72868	38.94617	128.654	0.9749603	-2.789088	0.04	3	100	0	6546	-2.61307	5.067852	-22.82349	
12:11:05	-6.72868	38.94617	128.707	0.8246675	-8.493073	0.08	3	100	0	6546	-2.580046	5.041456	-22.79011	
12:11:05	-6.72868	38.94617	128.742	0.8246675	-8.493073	0.07	3	100	0	6546	-2.581592	4.938449	-22.80929	
12:11:06	-6.72868	38.94617	128.771	0.8246675	-8.493073	0.03	3	100	0	6546	-2.709266	5.001003	-22.76482	
12:11:06	-6.72868	38.94617	128.801	0.8246675	-8.493073	0.09	3	100	0	6546	-2.637852	5.037091	-22.78777	
12:11:06	-6.72868	38.94617	128.844	0.8246675	-8.493073	0.09	3	100	0	6546	-2.755645	5.079849	-22.77781	
12:11:06	-6.72868	38.94617	128.888	0.9410455	-1.623832	0.04	3	100	0	6546	-2.680995	5.126781	-22.76663	
12:11:07	-6.72868	38.94617	128.866	0.9410455	-1.623832	0.07	3	100	0	6546	-2.566544	4.539886	-22.84357	
12:11:07	-6.72868	38.94617	128.865	0.9410455	-1.623832	0.08	3	100	0	6546	-2.675932	4.61996	-22.83965	
12:11:07	-6.728679	38.94617	128.874	0.9410455	-1.623832	0.02	3	100	0	6546	-2.599377	4.762163	-22.86196	
12:11:07	-6.728679	38.94617	128.914	0.9410455	-1.623832	0.04	3	100	0	6546	-2.753297	5.05095	-22.87051	
12:11:07	-6.728679	38.94617	128.933	0.8272045	-5.272213	0.14	3	100	0	6546	-2.730071	5.093225	-22.85209	
12:11:07	-6.728679	38.94617	128.946	0.8272045	-5.272213	0.02	3	100	0	6546	-2.599301	4.930009	-22.85583	
12:11:08	-6.728679	38.94617	128.966	0.8272045	-5.272213	0.06	3	100	0	6546	-2.760526	4.891423	-22.91547	
12:11:08	-6.728679	38.94617	129.004	0.8272045	-5.272213	0.01	3	100	0	6546	-2.787308	4.952041	-22.94052	
12:11:08	-6.728679	38.94617	129.01	0.8272045	-5.272213	0.02	3	100	0	6546	-2.723382	4.835999	-23.02641	
12:11:08	-6.728679	38.94617	129.056	1.058446	8.707729	0.06	3	100	0	6546	-2.707428	4.839469	-23.05301	
12:11:08	-6.728679	38.94617	129.056	1.058446	8.707729	0.09	3	100	0	6546	-2.645682	4.810102	-22.96034	
12:11:09	-6.728679	38.94617	129.045	1.058446	8.707729	0.11	3	100	0	6546	-2.608001	4.797301	-22.90513	
12:11:09	-6.728679	38.94617	129.045	1.058446	8.707729	0.02	3	100	0	6546	-2.576249	4.615655	-22.99897	
12:11:09	-6.728678	38.94617	129.032	1.058446	8.707729	0.04	3	100	0	6546	-2.726844	4.783176	-22.93863	
12:11:09	-6.728678	38.94617	129.062	1.150608	8.985721	0.07	3	100	0	6547	-2.765464	4.877578	-22.97874	
12:11:09	-6.728678	38.94617	129.083	1.150608	8.985721	0.06	3	100	0	6547	-2.667847	4.541954	-23.03126	
12:11:10	-6.728678	38.94617	129.108	1.150608	8.985721	0.02	3	100	0	6547	-2.621791	4.363108	-23.04936	
12:11:10	-6.728678	38.94617	129.125	1.150608	8.985721	0.09	3	100	0	6547	-2.663017	4.051976	-23.06319	
12:11:10	-6.728678	38.94617	129.153	1.150608	8.985721	0.04	3	100	0	6547	-2.869511	4.934751	-23.149	
12:11:10	-6.728678	38.94617	129.17	0.9697822	-5.573834	0.03	3	100	0	6546	-2.782136	4.395839	-23.1282	
12:11:10	-6.728678	38.94617	129.2	0.9697822	-5.573834	0.11	3	100	0	6546	-2.827162	4.885307	-23.14403	
12:11:11	-6.728678	38.94617	129.258	0.9697822	-5.573834	0.07	3	100	0	6546	-2.691552	4.470001	-23.20941	
12:11:11	-6.728678	38.94617	129.303	0.9697822	-5.573834	0.04	3	100	0	6546	-2.77213	4.376676	-23.16703	
12:11:11	-6.728678	38.94617	129.33	0.9697822	-5.573834	0.09	3	100	0	6546	-2.762588	4.441854	-23.11291	
12:11:11	-6.728678	38.94617	129.354	0.7341629	-12.58574	0.07	3	100	0	6546	-2.770188	4.585759	-23.07552	
12:11:11	-6.728678	38.94617	129.354	0.7341629	-12.58574	0.08	3	100	0	6546	-2.740982	4.544966	-22.98516	
12:11:12	-6.728677	38.94617	129.404	0.7341629	-12.58574	0.03	3	100	0	6546	-2.784208	4.429223	-22.97605	
12:11:12	-6.728677	38.94617	129.403	0.7341629	-12.58574	0.01	3	100	0	6546	-2.769032	4.472525	-22.9867	
12:11:12	-6.728677	38.94617	129.403	0.7341629	-12.58574	0.09	3	100	0	6546	-2.751116	4.459043	-22.90058	
12:11:12	-6.728677	38.94617	129.394	0.7902414	-5.026262	0.01	3	100	0	6546	-2.75301	4.394814	-22.95601	
12:11:13	-6.728677	38.94617	129.406	0.7902414	-5.026262	0.03	3	100	0	6546	-2.75757	4.500885	-22.93339	
12:11:13	-6.728677	38.94617	129.412	0.7902414	-5.026262	0.13	3	100	0	6546	-2.749486	4.506835	-23.39976	
12:11:13	-6.728676	38.94617	129.449	0.7902414	-5.026262	0.16	3	100	0	6546	-2.387889	4.39192	-23.38332	
12:11:13	-6.728676	38.94617	129.459	0.7902414	-5.026262	0.11	3	100	0	6546	0.4571837	4.71222	-22.40312	
12:11:13	-6.728676	38.94617	129.468	1.172153	29.71977	0.09	3	100	0	6546	5.747845	4.384824	-22.91625	
12:11:13	-6.728676	38.94617	129.509	1.172153	29.71977	0.02	3	100	0	6546	8.768668	2.267511	-25.12648	
12:11:14	-6.728676	38.94617	129.561	1.172153	29.71977	0.09	3	100	0	6546	8.267076	1.048053	-27.15802	
12:11:14	-6.728676	38.94617	129.587	1.172153	29.71977	0.09	3	100	0	6546	1.200258	0.799628	-28.04293	
12:11:14	-6.728676	38.94617	129.598	1.172153	29.71977	0.03	3	100	0	6546	-5.766544	1.261924	-26.74754	
12:11:14	-6.728676	38.94617	129.649	1.502598	22.67458	0.07	3	100	0	6546	-3.334337	1.597947	-24.89446	
12:11:15	-6.728676	38.94617	129.657	1.502598	22.67458	0.07	3	100	0	6546	2.090064	-0.3110957	-24.25947	
12:11:15	-6.728676	38.94617	129.669	1.502598	22.67458	0.14	3	100	0	6546	4.194986	-1.203284	-24.04511	
12:11:15	-6.728676	38.94617	129.672	1.502598	22.67458	0.04	3	100	0	6546	1.433106	0.5100088	-23.1876	
12:11:15	-6.728676	38.94617	129.632	1.502598	22.67458	0.14	3	100	0	6546	0.2548654	1.472938	-22.46262	
12:11:15	-6.728676	38.94617	129.546	1.268739	-3.420302	0.09	3	100	0	6546	0.6824313	1.544517	-22.87344	
12:11:16	-6.728676	38.94617	129.449	1.268739	-3.420302	0.16	3	100	0	6546	0.9439087	4.12876	-23.3373	
12:11:16	-6.728676	38.94617	129.416	1.268739	-3.420302	0.03	3	100	0	6546	1.927245	6.055399	-23.55755	
12:11:16	-6.728676	38.94617	129.412	1.268739	-3.420302	0.14	3	100	0	6546	3.045273	7.445608	-23.63436	
12:11:16	-6.728676	38.94617	129.341	1.268739	-3.420302	0.04	3	100	0	6546	0.4392829	9.662549	-23.47462	
12:11:16	-6.728676	38.94617	129.284	1.08743	1.737797	0.04	3	100	0	6546	-1.386095	10.99227	-24.05313	
12:11:17	-6.728676	38.94617	129.232	1.08743	1.737797	0.18	3	100	0	6546	-2.735111	10.64153	-25.25931	
12:11:17	-6.728677	38.94617	129.184	1.08743	1.737797	0.04	3	100	0	6546	-2.859107	8.95263	-25.67822	
12:11:17	-6.728677	38.94617	129.16	1.08743	1.737797	0.09	3	100	0	6546	-2.928281	7.140255	-26.79136	
12:11:17	-6.728677	38.94617	129.08	1.08743	1.737797	0.02	3	100	0	6546	-2.887683	5.099512	-26.99425	
12:11:17	-6.728677	38.94617	129.02	1.067145	4.095176	0.14	3	100	0	6544	-2.977001	4.838392	-26.6528	
12:11:17	-6.728677	38.94617	128.965	1.067145	4.095176	0.19	3	100	0	6544	-2.821604	4.76301	-25.70867	
12:11:18	-6.728677	38.94617	128.947	1.067145	4.095176	0.17	3	100	0	6544	-2.693969	4.838008	-24.79852	
12:11:18	-6.728677	38.94617	128.81	1.067145	4.095176	0.09	3	100	0	6544	-2.716112	4.914001	-23.64874	
12:11:18	-6.728678	38.94617	128.811	1.067145	4.095176	0.09	3	100	0	6544	-2.923495	4.727099	-23.66948	
12:11:18	-6.728678	38.94617	128.811	1.030034	-0.5818349	0.07	3	100	0	6546	-2.94762	4.778066	-23.64341	
12:11:18	-6.728678	38.94617	128.803	1.030034	-0.5818349	0.09	3	100	0	6546	-2.79093	4.876068	-23.63427	
12:11:19	-6.728677	38.94617	128.774	1.030034	-0.5818349	0.09	3	100	0	6546	-2.749366	4.759051	-23.55977	
12:11:19	-6.728677	38.94617	128.758	1.030034	-0.5818349	0.03	3	100	0	6546	-2.743949	4.71839	-23.47512	
12:11:19	-6.728677	38.94617	128.779	1.030034	-0.5818349	0.03	3	100	0	6546	-2.717498	4.80791	-23.40993	
12:11:19	-6.728677	38.94617	128.759	0.9795069	-1.779005	0.09	3	100	0	6546	-2.708004	4.849	-23.37005	
12:11:19	-6.728677	38.94617	128.714	0.9795069	-1.779005	0.04	3	100	0	6546	-2.688766	4.866528	-23.29446	
12:11:20	-6.728677	38.94617	128.718	0.9795069	-1.779005	0.02	3	100	0	6546	-2.736077	4.820014	-23.29743	
12:11:20	-6.728677	38.94617	128.726	0.9795069	-1.779005	0.04	3	100	0	6546	-2.704419	4.858249	-23.24711	
12:11:20	-6.728677	38.94617	128.74	0.9795069	-1.779005	0.04	3	100	0	6546	-2.675067	4.829307	-23.23866	
12:11:20	-6.728677	38.94617	128.74	0.909139	-3.343174	0.17	3	100	0	6546	-2.607332	4.917373	-23.11881	
12:11:21	-6.728676	38.94617	128.801	0.909139	-3.343174	0.08	3	100	0	6546	-2.574045	4.911232	-23.0543	
12:11:21	-6.728676	38.94617	128.829	0.909139	-3.343174	0.03	3	100	0	6546	-2.636164	4.873114	-23.04584	
12:11:21	-6.728676	38.94617	128.842	0.909139	-3.343174	0.12	3	100	0	6546	-2.613424	5.023371	-23.07354	
12:11:21	-6.728676	38.94617	128.864	0.909139	-3.343174	0.01	3	100	0	6546	-2.592558	5.008062	-23.05895	
12:11:21	-6.728676	38.94617	128.917	0.8927163	-3.516693	0.03	3	100	0	6546	-2.586398	4.968755	-22.99395	
12:11:21	-6.728676	38.94617	128.952	0.8927163	-3.516693	0.04	3	100	0	6546	-2.597575	4.994366	-22.97357	
12:11:22	-6.728676	38.94617	128.995	0.8927163	-3.516693	0.09	3	100	0	6546	-2.663301	5.039134	-22.98565	
12:11:22	-6.728676	38.94617	129.044	0.8927163	-3.516693	0.08	3	100	0	6546	-2.642919	5.079507	-23.00621	
12:11:22	-6.728676	38.94617	129.03	0.8927163	-3.516693	0.14	3	100	0	6546	-2.696235	5.072392	-22.92754	
12:11:22	-6.728676	38.94617	129.001	1.057375	3.882539	0.03	3	100	0	6546	-2.641122	5.046833	-22.88934	
12:11:23	-6.728676	38.94617	128.996	1.057375	3.882539	0.01	3	100	0	6546	-2.556259	4.992896	-22.86045	
12:11:23	-6.728676	38.94617	128.967	1.057375	3.882539	0.09	3	100	0	6546	-2.489068	5.003434	-22.82652	
12:11:23	-6.728675	38.94617	128.969	1.057375	3.882539	0.09	3	100	0	6546	-2.478169	4.958943	-22.87311	
12:11:23	-6.728675	38.94617	128.945	1.057375	3.882539	0.03	3	100	0	6546	-2.529112	4.958542	-22.84663	
12:11:23	-6.728675	38.94617	128.917	1.009935	-1.167764	0.06	3	100	0	6546	-2.574057	4.964239	-22.80188	
12:11:24	-6.728675	38.94617	128.897	1.009935	-1.167764	0.07	3	100	0	6546	-2.523247	5.028415	-22.77017	
12:11:24	-6.728675	38.94617	128.897	1.009935	-1.167764	0.04	3	100	0	6546	-2.537352	4.980428	-22.82275	
12:11:24	-6.728674	38.94617	128.913	1.009935	-1.167764	0.13	3	100	0	6546	-2.608999	4.916557	-22.79318	
12:11:24	-6.728674	38.94617	128.905	1.009935	-1.167764	0.09	3	100	0	6546	-2.099669	4.907221	-22.77663	
12:11:24	-6.728674	38.94617	128.88	0.9829883	0.7864414	0.13	3	100	0	6546	-0.759999	5.100291	-22.04198	
12:11:24	-6.728674	38.94617	128.928	0.9829883	0.7864414	0.08	3	100	0	6546	0.7946602	5.006775	-22.54287	
12:11:25	-6.728674	38.94617	128.965	0.9829883	0.7864414	0.21	3	100	0	6546	1.373335	4.912611	-23.25242	
12:11:25	-6.728674	38.94617	128.946	0.9829883	0.7864414	0.08	3	100	0	6546	1.966322	4.856187	-23.58045	
12:11:25	-6.728674	38.94616	128.93	0.9829883	0.7864414	0.11	3	100	0	6546	2.296273	4.810643	-23.89723	
12:11:25	-6.728674	38.94616	128.901	0.5849526	-18.39941	0.03	3	100	0	6546	2.107883	4.923568	-24.04929	
12:11:26	-6.728674	38.94616	128.903	0.5849526	-18.39941	0.09	3	100	0	6546	2.230207	4.983617	-24.35121	
12:11:26	-6.728673	38.94616	128.873	0.5849526	-18.39941	0.03	3	100	0	6546	2.172675	4.919308	-24.68793	
12:11:26	-6.728673	38.94616	128.855	0.5849526	-18.39941	0.03	3	100	0	6546	2.015076	4.917033	-24.89672	
12:11:26	-6.728673	38.94616	128.83	0.5849526	-18.39941	0.09	3	100	0	6546	1.629337	5.062092	-25.01507	
12:11:26	-6.728673	38.94616	128.816	0.6142104	-12.49115	0.08	3	100	0	6546	-0.2190899	4.951386	-25.10184	
12:11:27	-6.728673	38.94616	128.816	0.6142104	-12.49115	0.08	3	100	0	6546	-2.156031	5.030085	-24.85848	
12:11:27	-6.728673	38.94616	128.794	0.6142104	-12.49115	0.03	3	100	0	6546	-2.376093	4.937357	-24.78505	
12:11:27	-6.728673	38.94616	128.782	0.6142104	-12.49115	0.02	3	100	0	6546	-2.333442	5.168388	-24.02623	
12:11:27	-6.728673	38.94616	128.81	0.6142104	-12.49115	0.03	3	100	0	6546	-2.22855	5.188421	-23.99826	
12:11:28	-6.728673	38.94616	128.823	0.6562657	-0.847783	0.11	3	100	0	6546	-2.380875	5.295443	-24.16121	
12:11:28	-6.728673	38.94616	128.846	0.6562657	-0.847783	0.08	3	100	0	6546	-2.425844	5.082067	-24.05594	
12:11:28	-6.728673	38.94616	128.822	0.6562657	-0.847783	0.07	3	100	0	6546	-2.468391	5.108227	-24.00116	
12:11:28	-6.728673	38.94616	128.821	0.6562657	-0.847783	0.13	3	100	0	6546	-2.628404	5.149295	-23.97017	
12:11:28	-6.728673	38.94616	128.803	0.6562657	-0.847783	0.13	3	100	0	6546	-2.702422	4.975164	-23.88593	
12:11:28	-6.728673	38.94616	128.801	0.590852	-2.182841	0.04	3	100	0	6546	-2.800333	5.058775	-23.87679	
12:11:29	-6.728673	38.94616	128.751	0.590852	-2.182841	0.02	3	100	0	6546	-2.672918	5.096328	-23.79395	
12:11:29	-6.728673	38.94616	128.68	0.590852	-2.182841	0.14	3	100	0	6546	-2.601852	5.0639	-23.71644	
12:11:29	-6.728673	38.94616	128.641	0.590852	-2.182841	0.04	3	100	0	6546	-2.703178	5.149884	-23.70704	
12:11:29	-6.728673	38.94616	128.635	0.590852	-2.182841	0.04	3	100	0	6546	-2.593896	5.10788	-23.61853	
12:11:29	-6.728673	38.94616	128.606	0.5539466	-3.685551	0.04	3	100	0	6546	-2.538753	5.011925	-23.58865	
12:11:30	-6.728673	38.94616	128.588	0.5539466	-3.685551	0.09	3	100	0	6546	-2.617426	5.045399	-23.57825	
12:11:30	-6.728673	38.94616	128.537	0.5539466	-3.685551	0.04	3	100	0	6546	-2.479473	5.055277	-23.58072	
12:11:30	-6.728673	38.94616	128.503	0.5539466	-3.685551	0.19	3	100	0	6546	-2.497488	5.025388	-23.46535	
12:11:30	-6.728673	38.94616	128.53	0.5539466	-3.685551	0.07	3	100	0	6546	-2.362036	5.123384	-23.51137	
12:11:30	-6.728673	38.94616	128.53	0.625266	0.2334062	0.06	3	100	0	6546	-2.487008	5.13013	-23.46479	
12:11:31	-6.728673	38.94616	128.494	0.625266	0.2334062	0.04	3	100	0	6546	-2.554956	5.125638	-23.37585	
12:11:31	-6.728673	38.94616	128.516	0.625266	0.2334062	0.07	3	100	0	6546	-2.478547	4.999053	-23.35655	
12:11:31	-6.728673	38.94616	128.555	0.625266	0.2334062	0.22	3	100	0	6546	-2.5191	5.00221	-23.30096	
12:11:31	-6.728673	38.94616	128.568	0.625266	0.2334062	0.04	3	100	0	6546	-2.552673	4.817941	-23.24423	
12:11:32	-6.728673	38.94616	128.596	0.6192359	-2.021483	0.03	3	100	0	6546	-2.408688	5.008628	-23.25487	
12:11:32	-6.728673	38.94616	128.662	0.6192359	-2.021483	0.09	3	100	0	6546	-2.457498	5.044685	-23.22595	
12:11:32	-6.728673	38.94616	128.621	0.6192359	-2.021483	0.03	3	100	0	6546	-2.500112	4.997415	-23.16355	
12:11:32	-6.728673	38.94616	128.636	0.6192359	-2.021483	0.04	3	100	0	6546	-2.318167	5.090306	-23.14552	
12:11:32	-6.728673	38.94616	128.67	0.6192359	-2.021483	0.07	3	100	0	6546	-2.312553	5.162529	-23.19808	
12:11:32	-6.728673	38.94616	128.685	0.4527062	-8.059215	0.06	3	100	0	6546	-2.322502	5.188013	-23.23853	
12:11:33	-6.728673	38.94616	128.685	0.4527062	-8.059215	0.14	3	100	0	6546	-2.299108	5.182508	-23.23528	
12:11:33	-6.728673	38.94616	128.718	0.4527062	-8.059215	0.12	3	100	0	6546	-2.209793	5.228197	-23.20038	
12:11:33	-6.728673	38.94616	128.716	0.4527062	-8.059215	0.09	3	100	0	6546	-2.366843	5.002754	-23.15749	
12:11:33	-6.728673	38.94616	128.709	0.4527062	-8.059215	0.08	3	100	0	6546	-2.233186	5.058074	-23.13115	
12:11:34	-6.728673	38.94616	128.736	0.5862395	0.1316722	0.04	3	100	0	6546	-2.357834	5.025412	-23.19666	
12:11:34	-6.728673	38.94616	128.762	0.5862395	0.1316722	0.11	3	100	0	6546	-2.323274	5.048783	-23.09411	
12:11:34	-6.728673	38.94616	128.802	0.5862395	0.1316722	0.06	3	100	0	6546	-2.470138	5.097422	-23.11914	
12:11:34	-6.728673	38.94616	128.819	0.5862395	0.1316722	0.03	3	100	0	6546	-2.290574	5.022083	-23.06495	
12:11:34	-6.728673	38.94616	128.775	0.5862395	0.1316722	0.07	3	100	0	6546	-2.307417	5.108394	-23.03752	
12:11:34	-6.728673	38.94616	128.759	0.6142172	0.9869951	0.14	3	100	0	6546	-2.305931	5.151708	-23.07555	
12:11:35	-6.728673	38.94616	128.731	0.6142172	0.9869951	0.09	3	100	0	6546	-2.220001	5.018661	-23.05557	
12:11:35	-6.728673	38.94616	128.747	0.6142172	0.9869951	0.01	3	100	0	6546	-2.281347	5.191477	-22.9767	
12:11:35	-6.728673	38.94616	128.763	0.6142172	0.9869951	0.09	3	100	0	6546	-2.335299	5.091255	-23.04637	
12:11:35	-6.728673	38.94616	128.757	0.6142172	0.9869951	0.04	3	100	0	6546	-2.359401	5.03074	-22.94964	
12:11:36	-6.728673	38.94616	128.821	0.5065197	-4.918754	0.17	3	100	0	6546	-2.308103	5.060831	-22.93503	
12:11:36	-6.728673	38.94616	128.821	0.5065197	-4.918754	0.11	3	100	0	6546	-2.395971	4.916234	-22.90445	
12:11:36	-6.728673	38.94616	128.88	0.5065197	-4.918754	0.13	3	100	0	6546	-2.229292	5.063197	-22.88431	
12:11:36	-6.728673	38.94616	128.88	0.5065197	-4.918754	0.08	3	100	0	6546	-2.431169	5.092192	-22.92312	
12:11:36	-6.728673	38.94616	128.92	0.5065197	-4.918754	0.09	3	100	0	6546	-2.33831	5.060534	-22.84431	
12:11:36	-6.728673	38.94616	128.954	0.4825923	-4.349318	0.08	3	100	0	6546	-2.25618	5.073429	-22.86057	
12:11:37	-6.728673	38.94616	128.97	0.4825923	-4.349318	0.09	3	100	0	6546	-2.352763	5.241015	-22.90943	
12:11:37	-6.728673	38.94616	128.97	0.4825923	-4.349318	0.16	3	100	0	6546	-2.361006	5.223258	-22.95743	
12:11:37	-6.728673	38.94616	128.956	0.4825923	-4.349318	0.12	3	100	0	6546	-2.436244	5.040268	-22.93571	
12:11:37	-6.728673	38.94616	128.979	0.4825923	-4.349318	0.08	3	100	0	6546	-2.264431	5.03865	-22.998	
12:11:37	-6.728673	38.94616	128.978	0.5851171	0.2839176	0.13	3	100	0	6546	-2.311243	5.03546	-23.04621	
12:11:38	-6.728673	38.94616	129.02	0.5851171	0.2839176	0.13	3	100	0	6546	-2.217175	5.104403	-23.01462	
12:11:38	-6.728673	38.94616	128.998	0.5851171	0.2839176	0.09	3	100	0	6546	-2.243537	5.13241	-22.96881	
12:11:38	-6.728673	38.94616	128.992	0.5851171	0.2839176	0.08	3	100	0	6546	-2.409234	5.075677	-22.99901	
12:11:38	-6.728673	38.94616	128.947	0.5851171	0.2839176	0.08	3	100	0	6546	-2.312628	5.004897	-22.93563	
12:11:39	-6.728673	38.94616	128.94	0.6502909	0.3585427	0.09	3	100	0	6546	-2.366836	5.003436	-22.92994	
12:11:39	-6.728673	38.94616	128.961	0.6502909	0.3585427	0.07	3	100	0	6546	-2.283261	5.088365	-22.84461	
12:11:39	-6.728673	38.94616	128.975	0.6502909	0.3585427	0.07	3	100	0	6546	-2.328839	5.039022	-22.85982	
12:11:39	-6.728673	38.94616	128.975	0.6502909	0.3585427	0.09	3	100	0	6546	-2.305274	5.104461	-22.89656	
12:11:39	-6.728673	38.94616	128.993	0.6502909	0.3585427	0.08	3	100	0	6546	-2.325894	5.034138	-22.79609	
12:11:40	-6.728673	38.94616	128.97	0.5960444	-2.51599	0.06	3	100	0	6546	-2.389626	5.053074	-22.71589	
12:11:40	-6.728673	38.94616	128.968	0.5960444	-2.51599	0.09	3	100	0	6546	-2.316983	5.056582	-22.71639	
12:11:40	-6.728673	38.94616	128.953	0.5960444	-2.51599	0.02	3	100	0	6546	-2.365963	5.006717	-22.64744	
12:11:40	-6.728673	38.94616	128.953	0.5960444	-2.51599	0.09	3	100	0	6546	-2.322409	5.09171	-22.54708	
12:11:40	-6.728673	38.94616	128.937	0.5960444	-2.51599	0.06	3	100	0	6546	-2.275353	5.102576	-22.51298	
12:11:41	-6.728674	38.94616	128.902	0.7679126	5.594355	0.08	3	100	0	6546	-2.414019	5.076734	-22.54709	
12:11:41	-6.728674	38.94616	128.878	0.7679126	5.594355	0.02	3	100	0	6546	-2.378166	5.027804	-22.49776	
12:11:41	-6.728674	38.94616	128.843	0.7679126	5.594355	0.04	3	100	0	6546	-2.354729	5.084403	-22.56802	
12:11:41	-6.728674	38.94616	128.777	0.7679126	5.594355	0.04	3	100	0	6546	-2.303699	5.095732	-22.55302	
12:11:41	-6.728674	38.94616	128.762	0.7679126	5.594355	0.03	3	100	0	6546	-2.323285	5.103624	-22.57425	
12:11:41	-6.728674	38.94616	128.729	0.8274588	6.276678	0.08	3	100	0	6546	-2.358071	5.081523	-22.54129	
12:11:42	-6.728674	38.94616	128.689	0.8274588	6.276678	0.02	3	100	0	6546	-2.353985	5.016095	-22.5663	
12:11:42	-6.728674	38.94616	128.648	0.8274588	6.276678	0.07	3	100	0	6546	-2.328743	5.087138	-22.49552	
12:11:42	-6.728675	38.94616	128.627	0.8274588	6.276678	0.02	3	100	0	6546	-2.357236	5.111876	-22.57493	
12:11:42	-6.728675	38.94616	128.579	0.8274588	6.276678	0.04	3	100	0	6546	-2.347286	5.061468	-22.63392	
12:11:42	-6.728675	38.94616	128.487	0.6140308	-7.196065	0.11	3	100	0	6547	-2.324354	5.020472	-22.64836	
12:11:43	-6.728675	38.94616	128.423	0.6140308	-7.196065	0.06	3	100	0	6547	-2.379076	4.958783	-22.61401	
12:11:43	-6.728675	38.94616	128.392	0.6140308	-7.196065	0.07	3	100	0	6547	-2.419134	5.00736	-22.57869	
12:11:43	-6.728675	38.94616	128.339	0.6140308	-7.196065	0.04	3	100	0	6547	-2.385231	5.06263	-22.54495	
12:11:43	-6.728675	38.94616	128.302	0.6140308	-7.196065	0.06	3	100	0	6547	-2.338849	4.999324	-22.57808	
12:11:43	-6.728675	38.94616	128.239	0.4993806	-8.052393	0.06	3	100	0	6546	-2.408762	5.004142	-22.59385	
12:11:44	-6.728675	38.94616	128.191	0.4993806	-8.052393	0.03	3	100	0	6546	-2.412155	5.066161	-22.60562	
12:11:44	-6.728675	38.94616	128.152	0.4993806	-8.052393	0.18	3	100	0	6546	-2.392127	4.976383	-22.63748	
12:11:44	-6.728675	38.94616	128.117	0.4993806	-8.052393	0.07	3	100	0	6546	-2.414299	4.94274	-22.64772	
12:11:44	-6.728675	38.94616	128.107	0.4993806	-8.052393	0.02	3	100	0	6546	-2.431721	5.071937	-22.67371	
12:11:44	-6.728675	38.94616	128.051	0.5169346	-4.972783	0.07	3	100	0	6545	-2.415573	5.0605	-22.73319	
12:11:45	-6.728675	38.94616	128.004	0.5169346	-4.972783	0.08	3	100	0	6545	-2.38774	5.045187	-22.75591	
12:11:45	-6.728675	38.94616	127.965	0.5169346	-4.972783	0.12	3	100	0	6545	-2.402395	5.060231	-22.65699	
12:11:45	-6.728676	38.94616	127.89	0.5169346	-4.972783	0.06	3	100	0	6545	-2.443723	5.129424	-22.69187	
12:11:45	-6.728676	38.94616	127.929	0.5169346	-4.972783	0.04	3	100	0	6545	-2.412523	5.062605	-22.6804	
12:11:45	-6.728676	38.94616	127.913	0.5806417	1.008606	0.14	3	100	0	6546	-2.463864	4.988147	-22.69408	
12:11:46	-6.728676	38.94616	127.893	0.5806417	1.008606	0.11	3	100	0	6546	-2.504272	4.9807	-22.61916	
12:11:46	-6.728676	38.94616	127.87	0.5806417	1.008606	0.03	3	100	0	6546	-2.415302	5.058406	-22.58622	
12:11:46	-6.728676	38.94616	127.86	0.5806417	1.008606	0.02	3	100	0	6546	-2.349426	5.093299	-22.55221	
12:11:46	-6.728676	38.94616	127.841	0.5806417	1.008606	0.02	3	100	0	6546	-2.343129	5.050976	-22.52463	
12:11:46	-6.728676	38.94616	127.824	0.6758741	3.60442	0.08	3	100	0	6546	-2.391912	5.020797	-22.44419	
12:11:47	-6.728676	38.94616	127.829	0.6758741	3.60442	0.03	3	100	0	6546	-2.41273	5.0157	-22.44692	
12:11:47	-6.728676	38.94616	127.81	0.6758741	3.60442	0.09	3	100	0	6546	-2.441844	5.02315	-22.53325	
12:11:47	-6.728676	38.94616	127.759	0.6758741	3.60442	0.04	3	100	0	6546	-2.459534	5.007903	-22.53916	
12:11:47	-6.728676	38.94616	127.735	0.6758741	3.60442	0.12	3	100	0	6546	-2.411389	5.111012	-22.57483	
12:11:47	-6.728676	38.94616	127.667	0.5514739	-3.110619	0.01	3	100	0	6546	-2.370417	5.122266	-22.55411	
12:11:48	-6.728676	38.94616	127.605	0.5514739	-3.110619	0.04	3	100	0	6546	-2.379756	5.061018	-22.55547	
12:11:48	-6.728676	38.94616	127.484	0.5514739	-3.110619	0.11	3	100	0	6546	-2.381343	4.991821	-22.54335	
12:11:48	-6.728676	38.94616	127.484	0.5514739	-3.110619	0.09	3	100	0	6546	-2.44406	5.038781	-22.51509	
12:11:48	-6.728676	38.94616	127.414	0.5514739	-3.110619	0.04	3	100	0	6546	-2.446621	5.141073	-22.47432	
12:11:49	-6.728676	38.94616	127.414	0.8614131	11.08365	0.04	3	100	0	6546	-2.382289	5.157749	-22.49856	
12:11:49	-6.728676	38.94616	127.34	0.8614131	11.08365	0.04	3	100	0	6546	-2.349924	5.16468	-22.48838	
12:11:49	-6.728677	38.94616	127.298	0.8614131	11.08365	0.09	3	100	0	6546	-2.413275	5.207251	-22.59192	
12:11:49	-6.728677	38.94616	127.272	0.8614131	11.08365	0.06	3	100	0	6546	-2.432685	5.122952	-22.59657	
12:11:49	-6.728677	38.94616	127.259	0.8614131	11.08365	0.11	3	100	0	6546	-2.343801	5.044622	-22.62385	
12:11:50	-6.728676	38.94616	127.244	0.7968546	1.751835	0.04	3	100	0	6546	-2.291924	5.089974	-22.5346	
12:11:50	-6.728677	38.94616	127.219	0.7968546	1.751835	0.07	3	100	0	6546	-2.337425	5.141834	-22.53817	
12:11:50	-6.728677	38.94616	127.218	0.7968546	1.751835	0.02	3	100	0	6546	-2.373441	5.120534	-22.54998	
12:11:50	-6.728677	38.94616	127.183	0.7968546	1.751835	0.04	3	100	0	6546	-2.373572	5.045997	-22.47545	
12:11:50	-6.728677	38.94616	127.147	0.7968546	1.751835	0.04	3	100	0	6546	-2.427237	5.047495	-22.51686	
12:11:50	-6.728677	38.94616	127.109	0.515869	-11.07553	0.04	3	100	0	6546	-2.463851	5.058451	-22.54152	
12:11:51	-6.728677	38.94616	127.091	0.515869	-11.07553	0.04	3	100	0	6546	-2.484985	5.06005	-22.6041	
12:11:51	-6.728677	38.94616	127.068	0.515869	-11.07553	0.04	3	100	0	6546	-2.405264	5.087984	-22.5732	
12:11:51	-6.728677	38.94616	127.046	0.515869	-11.07553	0.07	3	100	0	6546	-2.395273	5.05514	-22.52762	
12:11:51	-6.728677	38.94616	127.012	0.515869	-11.07553	0.02	3	100	0	6546	-2.385224	5.058295	-22.43569	
12:11:51	-6.728677	38.94616	127.005	0.3997594	-10.34123	0.13	3	100	0	6546	-2.376986	5.160769	-22.40036	
12:11:52	-6.728677	38.94616	127.016	0.3997594	-10.34123	0.04	3	100	0	6546	-2.382778	5.145447	-22.40419	
12:11:52	-6.728677	38.94616	126.995	0.3997594	-10.34123	0.09	3	100	0	6546	-2.438702	5.083292	-22.42916	
12:11:52	-6.728677	38.94616	126.979	0.3997594	-10.34123	0.04	3	100	0	6546	-2.417303	5.072323	-22.40082	
12:11:52	-6.728677	38.94616	126.955	0.3997594	-10.34123	0.04	3	100	0	6546	-2.395185	5.073589	-22.44199	
