Date	Latitude(deg) 	Longitude(deg)	hamsl(m)	hafl(m)	climbrate(cm/s)	GroundSpeed(m/s)	Airspeed(m/s)	Mav_Link(%)	Rssi_Link(%)	Throttle	Roll(deg)	Pitch(deg)	Yaw(deg)
13:07:37	0	0	0	0	0	0	0	100	0	0	-7.811781	-1.184922	-86.91747	
13:07:37	0	0	0	0	0	0	0	100	0	0	-7.827893	-1.208293	-86.99084	
13:07:37	0	0	0	0.08947433	-16.77773	0	3	100	0	4	-7.841611	-1.188542	-87.05876	
13:07:37	0	0	0	0.08947433	-16.77773	0	3	100	0	4	-7.855831	-1.191972	-87.12366	
13:07:37	0	0	0	0.08947433	-16.77773	0	3	100	0	4	-7.864837	-1.19936	-87.19254	
13:07:38	0	0	0	0.08947433	-16.77773	0	3	100	0	4	-7.867007	-1.202905	-87.26502	
13:07:38	0	0	0	0.08947433	-16.77773	0	3	100	0	4	-7.870958	-1.240469	-87.33331	
13:07:38	0	0	0	0.02738289	-8.277285	0	3	100	0	4	-7.88231	-1.241046	-87.39017	
13:07:38	0	0	0	0.02738289	-8.277285	0	3	100	0	4	-7.888855	-1.243609	-87.44655	
13:07:38	0	0	0	0.02738289	-8.277285	0	3	100	0	4	-7.896724	-1.255492	-87.48977	
13:07:39	0	0	0	0.02738289	-8.277285	0	3	100	0	4	-7.903254	-1.256585	-87.53635	
13:07:39	0	0	0	0.02738289	-8.277285	0	3	100	0	4	-7.909811	-1.248526	-87.59772	
13:07:39	0	0	0	0.5493518	13.92033	0	3	100	0	4	-7.90817	-1.252417	-87.64605	
13:07:39	0	0	0	0.5493518	13.92033	0	3	100	0	4	-7.919657	-1.249198	-87.6955	
13:07:39	0	0	0	0.5493518	13.92033	0	3	100	0	4	-7.92802	-1.24671	-87.74429	
13:07:40	0	0	0	0.5493518	13.92033	0	3	100	0	4	-7.937674	-1.248778	-87.77664	
13:07:40	0	0	0	0.5493518	13.92033	0	3	100	0	4	-7.939072	-1.259154	-87.8	
13:07:40	0	0	0	0.8898711	21.10208	0	3	100	0	4	-7.934678	-1.254338	-87.833	
13:07:40	0	0	0	0.8898711	21.10208	0	3	100	0	4	-7.93669	-1.246512	-87.86613	
13:07:40	0	0	0	0.8898711	21.10208	0	3	100	0	4	-7.928229	-1.228412	-87.88883	
13:07:41	0	0	0	0.8898711	21.10208	0	3	100	0	4	-7.930138	-1.233687	-87.9193	
13:07:41	0	0	0	0.8898711	21.10208	0	3	100	0	4	-7.919697	-1.232366	-87.94449	
13:07:41	0	0	0	1.037146	17.66389	0	3	100	0	4	-7.911141	-1.22408	-87.97083	
13:07:41	0	0	0	1.037146	17.66389	0	3	100	0	4	-7.913965	-1.206383	-87.99763	
13:07:41	0	0	0	1.037146	17.66389	0	3	100	0	4	-7.917826	-1.197305	-88.03082	
13:07:42	0	0	0	1.037146	17.66389	0	3	100	0	4	-7.918704	-1.190587	-88.06456	
13:07:42	0	0	0	1.037146	17.66389	0	3	100	0	4	-7.912432	-1.191376	-88.07651	
13:07:42	0	0	0	0.6892514	-5.804899	0	3	100	0	4	-7.912868	-1.176388	-88.0843	
13:07:42	0	0	0	0.6892514	-5.804899	0	3	100	0	4	-7.909107	-1.175768	-88.09656	
13:07:42	0	0	0	0.6892514	-5.804899	0	3	100	0	4	-7.913796	-1.16839	-88.11402	
13:07:43	0	0	0	0.6892514	-5.804899	0	3	100	0	4	-7.912501	-1.180542	-88.13366	
13:07:43	0	0	0	0.6892514	-5.804899	0	3	100	0	4	-7.927246	-1.192176	-88.15228	
13:07:43	0	0	0	0.4075596	-16.43153	0	3	100	0	4	-7.927456	-1.207436	-88.17004	
13:07:43	0	0	0	0.4075596	-16.43153	0	3	100	0	4	-7.925014	-1.216564	-88.18484	
13:07:43	0	0	0	0.4075596	-16.43153	0	3	100	0	4	-7.928393	-1.218186	-88.18937	
13:07:44	0	0	0	0.4075596	-16.43153	0	3	100	0	4	-7.925165	-1.213434	-88.18981	
13:07:44	0	0	0	0.4075596	-16.43153	0	3	100	0	4	-7.924322	-1.210224	-88.20184	
13:07:44	0	0	0	0.03449669	-27.68711	0	3	100	0	4	-7.91716	-1.204924	-88.1936	
13:07:44	0	0	0	0.03449669	-27.68711	0	3	100	0	4	-7.925749	-1.211476	-88.20007	
13:07:44	0	0	0	0.03449669	-27.68711	0	3	100	0	4	-7.921426	-1.210556	-88.20432	
13:07:45	0	0	0	0.03449669	-27.68711	0	3	100	0	4	-7.930131	-1.218742	-88.20425	
13:07:45	0	0	0	0.03449669	-27.68711	0	3	100	0	4	-7.933719	-1.214566	-88.19991	
13:07:45	0	0	0	0.08692434	-16.30277	0	3	100	0	4	-7.942698	-1.223111	-88.2006	
13:07:45	0	0	0	0.08692434	-16.30277	0	3	100	0	4	-7.956734	-1.221745	-88.20387	
13:07:45	0	0	0	0.08692434	-16.30277	0	3	100	0	4	-7.958331	-1.211866	-88.20648	
13:07:46	0	0	0	0.08692434	-16.30277	0	3	100	0	4	-7.95163	-1.212421	-88.21065	
13:07:46	0	0	0	0.08692434	-16.30277	0	3	100	0	4	-7.95393	-1.219779	-88.20863	
13:07:46	0	0	0	0.2160994	-4.053082	0	3	100	0	4	-7.949842	-1.230301	-88.21307	
13:07:46	0	0	0	0.2160994	-4.053082	0	3	100	0	4	-7.963995	-1.22673	-88.21957	
13:07:46	0	0	0	0.2160994	-4.053082	0	3	100	0	4	-7.978135	-1.22589	-88.2199	
13:07:47	0	0	0	0.2160994	-4.053082	0	3	100	0	4	-7.991411	-1.211571	-88.21736	
13:07:47	0	0	0	0.2160994	-4.053082	0	3	100	0	4	-7.999326	-1.200772	-88.21513	
13:07:47	0	0	0	0.3749573	3.332998	0	3	100	0	4	-8.000426	-1.180525	-88.20768	
13:07:47	0	0	0	0.3749573	3.332998	0	3	100	0	4	-8.007275	-1.175749	-88.19242	
13:07:47	0	0	0	0.3749573	3.332998	0	3	100	0	4	-8.004656	-1.164641	-88.19257	
13:07:48	0	0	0	0.3749573	3.332998	0	3	100	0	4	-8.008305	-1.155756	-88.18068	
13:07:48	0	0	0	0.3749573	3.332998	0	3	100	0	4	-8.015555	-1.137418	-88.17348	
13:07:48	0	0	0	0.4100109	3.703828	0	3	100	0	4	-8.015065	-1.120726	-88.17219	
13:07:48	0	0	0	0.4100109	3.703828	0	3	100	0	4	-8.018398	-1.118019	-88.16553	
13:07:49	0	0	0	0.4100109	3.703828	0	3	100	0	4	-8.023469	-1.119745	-88.15242	
13:07:49	0	0	0	0.4100109	3.703828	0	3	100	0	4	-8.017246	-1.114943	-88.12142	
13:07:49	0	0	0	0.4100109	3.703828	0	3	100	0	4	-8.010646	-1.088647	-88.12145	
13:07:49	0	0	0	0.4253991	1.843374	0	3	100	0	4	-8.007692	-1.094628	-88.11912	
13:07:49	0	0	0	0.4253991	1.843374	0	3	100	0	4	-8.009193	-1.095458	-88.11134	
13:07:50	0	0	0	0.4253991	1.843374	0	3	100	0	4	-7.99556	-1.110097	-88.105	
13:07:50	0	0	0	0.4253991	1.843374	0	3	100	0	4	-7.990811	-1.09886	-88.09233	
13:07:50	0	0	0	0.4253991	1.843374	0	3	100	0	4	-7.990888	-1.100225	-88.09852	
13:07:50	0	0	0	0.2771718	-7.296572	0	3	100	0	4	-7.983703	-1.091127	-88.08797	
13:07:50	0	0	0	0.2771718	-7.296572	0	3	100	0	4	-7.988054	-1.068894	-88.08475	
13:07:51	0	0	0	0.2771718	-7.296572	0	3	100	0	4	-7.988894	-1.073804	-88.0803	
13:07:51	0	0	0	0.2771718	-7.296572	0	3	100	0	4	-7.984678	-1.05375	-88.09016	
13:07:51	0	0	0	0.2771718	-7.296572	0	3	100	0	4	-7.977824	-1.055384	-88.0852	
13:07:51	0	0	0	0.1603072	-9.658451	0	3	100	0	4	-7.970064	-1.048939	-88.09145	
13:07:51	0	0	0	0.1603072	-9.658451	0	3	100	0	4	-7.959577	-1.040579	-88.10713	
13:07:52	0	0	0	0.1603072	-9.658451	0	3	100	0	4	-7.947003	-1.035296	-88.09911	
13:07:52	0	0	0	0.1603072	-9.658451	0	3	100	0	4	-7.944165	-1.024367	-88.10342	
13:07:52	0	0	0	0.1603072	-9.658451	0	3	100	0	4	-7.949001	-1.015748	-88.11715	
13:07:52	0	0	0	0.1317127	-7.388482	0	3	100	0	4	-7.946354	-0.9935656	-88.11848	
13:07:52	0	0	0	0.1317127	-7.388482	0	3	100	0	4	-7.950013	-0.994743	-88.1186	
13:07:53	0	0	0	0.1317127	-7.388482	0	3	100	0	4	-7.945105	-0.9940839	-88.11236	
13:07:53	0	0	0	0.1317127	-7.388482	0	3	100	0	4	-7.940527	-0.9877689	-88.11098	
13:07:53	0	0	0	0.1317127	-7.388482	0	3	100	0	4	-7.947629	-0.992838	-88.1079	
13:07:53	0	0	0	0.09367874	-6.78293	0	3	100	0	4	-7.935647	-0.9965481	-88.10307	
13:07:53	0	0	0	0.09367874	-6.78293	0	3	100	0	4	-7.941387	-1.000722	-88.09613	
13:07:54	0	0	0	0.09367874	-6.78293	0	3	100	0	4	-7.941041	-0.980816	-88.09821	
13:07:54	0	0	0	0.09367874	-6.78293	0	3	100	0	4	-7.940153	-1.01716	-88.08868	
13:07:54	0	0	0	0.09367874	-6.78293	0	3	100	0	4	-7.939547	-1.021997	-88.07645	
13:07:54	0	0	0	0.2955415	5.064762	0	3	100	0	4	-7.945203	-1.043509	-88.06917	
13:07:54	0	0	0	0.2955415	5.064762	0	3	100	0	4	-7.936388	-1.06007	-88.05196	
13:07:55	0	0	0	0.2955415	5.064762	0	3	100	0	4	-7.935884	-1.0464	-88.05931	
13:07:55	0	0	0	0.2955415	5.064762	0	3	100	0	4	-7.937205	-1.033209	-88.05438	
13:07:55	0	0	0	0.2955415	5.064762	0	3	100	0	4	-7.92371	-1.040313	-88.04516	
13:07:55	0	0	0	0.3810408	4.976478	0	3	100	0	4	-7.922456	-1.029796	-88.02155	
13:07:55	0	0	0	0.3810408	4.976478	0	3	100	0	4	-7.933005	-1.01877	-88.00989	
13:07:56	0	0	0	0.3810408	4.976478	0	3	100	0	4	-7.92254	-0.9929342	-88.00855	
13:07:56	0	0	0	0.3810408	4.976478	0	3	100	0	4	-7.918664	-0.9818773	-88.01193	
13:07:56	0	0	0	0.3810408	4.976478	0	3	100	0	4	-7.913905	-0.9827132	-88.00087	
13:07:56	0	0	0	0.4614487	6.134174	0	3	100	0	4	-7.914266	-0.9653001	-88.01124	
13:07:56	0	0	0	0.4614487	6.134174	0	3	100	0	4	-7.901617	-0.939044	-88.00315	
13:07:57	0	0	0	0.4614487	6.134174	0	3	100	0	4	-7.9048	-0.9425377	-88.00462	
13:07:57	0	0	0	0.4614487	6.134174	0	3	100	0	4	-7.899983	-0.9526186	-88.00103	
13:07:57	0	0	0	0.4614487	6.134174	0	3	100	0	4	-7.896827	-0.9641927	-88.02063	
13:07:57	0	0	0	0.287927	-3.852236	0	3	100	0	4	-7.896222	-0.9684661	-87.9984	
13:07:57	0	0	0	0.287927	-3.852236	0	3	100	0	4	-7.887375	-0.9626012	-87.97993	
13:07:58	0	0	0	0.287927	-3.852236	0	3	100	0	4	-7.881939	-0.9660625	-87.97225	
13:07:58	0	0	0	0.287927	-3.852236	0	3	100	0	4	-7.88819	-0.965502	-87.94534	
13:07:58	0	0	0	0.287927	-3.852236	0	3	100	0	4	-7.880485	-0.9727179	-87.93737	
13:07:58	0	0	0	0.4033539	1.554079	0	3	100	0	4	-7.875767	-0.9730666	-87.92204	
13:07:58	0	0	0	0.4033539	1.554079	0	3	100	0	4	-7.872239	-0.9630107	-87.90001	
13:07:59	0	0	0	0.4033539	1.554079	0	3	100	0	4	-7.880834	-0.9572137	-87.87715	
13:07:59	0	0	0	0.4033539	1.554079	0	3	100	0	4	-7.880296	-0.9591508	-87.87061	
13:07:59	0	0	0	0.4033539	1.554079	0	3	100	0	4	-7.871465	-0.9516527	-87.8791	
13:07:59	0	0	0	0.503128	4.61152	0	3	100	0	4	-7.862945	-0.9454158	-87.8727	
13:07:59	0	0	0	0.503128	4.61152	0	3	100	0	4	-7.864559	-0.9655634	-87.85774	
13:08:00	0	0	0	0.503128	4.61152	0	3	100	0	4	-7.859522	-0.9646066	-87.85152	
13:08:00	0	0	0	0.503128	4.61152	0	3	100	0	4	-7.851099	-0.9549332	-87.84636	
13:08:00	0	0	0	0.503128	4.61152	0	3	100	0	4	-7.842455	-0.9642649	-87.85229	
13:08:00	0	0	0	0.5194546	1.881257	0	3	100	0	4	-7.844266	-0.9740657	-87.841	
13:08:00	0	0	0	0.5194546	1.881257	0	3	100	0	4	-7.836133	-0.9502264	-87.82542	
13:08:01	0	0	0	0.5194546	1.881257	0	3	100	0	4	-7.833809	-0.9432008	-87.82567	
13:08:01	0	0	0	0.5194546	1.881257	0	3	100	0	4	-7.837949	-0.9344279	-87.82971	
13:08:01	0	0	0	0.5194546	1.881257	0	3	100	0	4	-7.840862	-0.9236782	-87.83936	
13:08:01	0	0	0	0.3034323	-9.872361	0	3	100	0	4	-7.844739	-0.9257804	-87.84895	
13:08:01	0	0	0	0.3034323	-9.872361	0	3	100	0	4	-7.839403	-0.9202056	-87.84525	
13:08:02	0	0	0	0.3034323	-9.872361	0	3	100	0	4	-7.837669	-0.9306166	-87.84877	
13:08:02	0	0	0	0.3034323	-9.872361	0	3	100	0	4	-7.84615	-0.932387	-87.85007	
13:08:02	0	0	0	0.3034323	-9.872361	0	3	100	0	4	-7.846761	-0.9311242	-87.84873	
13:08:02	0	0	0	0.1438604	-11.90054	0	3	100	0	4	-7.843006	-0.9264029	-87.8517	
13:08:02	0	0	0	0.1438604	-11.90054	0	3	100	0	4	-7.846167	-0.9585639	-87.85085	
13:08:03	0	0	0	0.1438604	-11.90054	0	3	100	0	4	-7.853096	-0.9538118	-87.83587	
13:08:03	0	0	0	0.1438604	-11.90054	0	3	100	0	4	-7.859007	-0.9675136	-87.81445	
13:08:03	0	0	0	0.1438604	-11.90054	0	3	100	0	4	-7.856426	-0.9824624	-87.78307	
13:08:03	0	0	0	0.06706102	-9.611617	0	3	100	0	4	-7.856057	-0.9911321	-87.78238	
13:08:03	0	0	0	0.06706102	-9.611617	0	3	100	0	4	-7.858069	-0.9944722	-87.77062	
13:08:04	0	0	0	0.06706102	-9.611617	0	3	100	0	4	-7.856327	-1.011741	-87.76349	
13:08:04	0	0	0	0.06706102	-9.611617	0	3	100	0	4	-7.857887	-0.9999632	-87.73903	
13:08:04	0	0	0	0.06706102	-9.611617	0	3	100	0	4	-7.854936	-0.9955086	-87.7295	
13:08:04	0	0	0	0.4518197	9.878577	0	3	100	0	4	-7.859518	-0.9875897	-87.71207	
13:08:04	0	0	0	0.4518197	9.878577	0	3	100	0	4	-7.843224	-0.9780778	-87.69787	
13:08:05	0	0	0	0.4518197	9.878577	0	3	100	0	4	-7.84542	-0.9853175	-87.68397	
13:08:05	0	0	0	0.4518197	9.878577	0	3	100	0	4	-7.840925	-0.9973693	-87.66932	
13:08:05	0	0	0	0.4518197	9.878577	0	3	100	0	4	-7.833065	-1.002485	-87.6653	
13:08:05	0	0	0	0.5920512	11.56291	0	3	100	0	4	-7.838424	-1.014818	-87.64598	
13:08:05	0	0	0	0.5920512	11.56291	0	3	100	0	4	-7.836535	-1.016787	-87.62793	
13:08:06	0	0	0	0.5920512	11.56291	0	3	100	0	4	-7.832688	-1.006613	-87.61401	
13:08:06	0	0	0	0.5920512	11.56291	0	3	100	0	4	-7.81875	-0.9894004	-87.61322	
13:08:06	0	0	0	0.5920512	11.56291	0	3	100	0	4	-7.82259	-0.9724267	-87.5974	
13:08:06	0	0	0	0.588167	6.511455	0	3	100	0	4	-7.822426	-0.9745041	-87.58314	
13:08:06	0	0	0	0.588167	6.511455	0	3	100	0	4	-7.815036	-0.9808707	-87.58263	
13:08:07	0	0	0	0.588167	6.511455	0	3	100	0	4	-7.814148	-0.9918018	-87.57692	
13:08:07	0	0	0	0.588167	6.511455	0	3	100	0	4	-7.804602	-0.9966433	-87.57526	
13:08:07	0	0	0	0.588167	6.511455	0	3	100	0	4	-7.807087	-1.015213	-87.56589	
13:08:07	0	0	0	0.482	-2.30157	0	3	100	0	4	-7.812865	-1.005938	-87.54968	
13:08:07	0	0	0	0.482	-2.30157	0	3	100	0	4	-7.815148	-1.002388	-87.53474	
13:08:08	0	0	0	0.482	-2.30157	0	3	100	0	4	-7.803985	-0.9843495	-87.52026	
13:08:08	0	0	0	0.482	-2.30157	0	3	100	0	4	-7.796865	-0.9846959	-87.49672	
13:08:08	0	0	0	0.482	-2.30157	0	3	100	0	4	-7.797859	-0.9917167	-87.48968	
13:08:08	0	0	0	0.227433	-12.16186	0	3	100	0	4	-7.801898	-1.003207	-87.46429	
13:08:08	0	0	0	0.227433	-12.16186	0	3	100	0	4	-7.798956	-1.012938	-87.44983	
13:08:09	0	0	0	0.227433	-12.16186	0	3	100	0	4	-7.799531	-1.017637	-87.42905	
13:08:09	0	0	0	0.227433	-12.16186	0	3	100	0	4	-7.802711	-1.016379	-87.41076	
13:08:09	0	0	0	0.227433	-12.16186	0	3	100	0	4	-7.800403	-1.015841	-87.3936	
13:08:09	0	0	0	0.1225037	-12.4915	0	3	100	0	4	-7.803622	-1.011219	-87.39001	
13:08:09	0	0	0	0.1225037	-12.4915	0	3	100	0	4	-7.799017	-1.022247	-87.3816	
13:08:10	0	0	0	0.1225037	-12.4915	0	3	100	0	4	-7.802004	-1.025448	-87.36002	
13:08:10	0	0	0	0.1225037	-12.4915	0	3	100	0	4	-7.80162	-1.008217	-87.34103	
13:08:10	0	0	0	0.1225037	-12.4915	0	3	100	0	4	-7.796932	-1.017308	-87.33652	
13:08:10	0	0	0	-0.264427	-25.17096	0	3	100	0	5	-7.790569	-1.00863	-87.32652	
13:08:10	0	0	0	-0.264427	-25.17096	0	3	100	0	5	-7.79601	-1.003144	-87.3015	
13:08:11	0	0	0	-0.264427	-25.17096	0	3	100	0	5	-7.788192	-0.9902499	-87.28789	
13:08:11	0	0	0	-0.264427	-25.17096	0	3	100	0	5	-7.787899	-0.9750967	-87.26698	
13:08:11	0	0	0	-0.264427	-25.17096	0	3	100	0	5	-7.791834	-0.9710788	-87.26346	
13:08:11	0	0	0	-0.4225917	-20.77051	0	3	100	0	4	-7.781756	-0.9650671	-87.25464	
13:08:11	0	0	0	-0.4225917	-20.77051	0	3	100	0	4	-7.770573	-0.9529622	-87.24881	
13:08:12	0	0	0	-0.4225917	-20.77051	0	3	100	0	4	-7.773619	-0.9509864	-87.25115	
13:08:12	0	0	0	-0.4225917	-20.77051	0	3	100	0	4	-7.767991	-0.9440039	-87.262	
13:08:12	0	0	0	-0.4225917	-20.77051	0	3	100	0	4	-7.759585	-0.9487904	-87.25082	
13:08:12	0	0	0	-0.241197	-6.801436	0	3	100	0	4	-7.755228	-0.9420864	-87.25086	
13:08:12	0	0	0	-0.241197	-6.801436	0	3	100	0	4	-7.756077	-0.9370264	-87.23779	
13:08:13	0	0	0	-0.241197	-6.801436	0	3	100	0	4	-7.76023	-0.9482732	-87.22071	
13:08:13	0	0	0	-0.241197	-6.801436	0	3	100	0	4	-7.755344	-0.9446825	-87.21919	
13:08:13	0	0	0	-0.241197	-6.801436	0	3	100	0	4	-7.747955	-0.9430541	-87.23298	
13:08:13	0	0	0	-0.2148547	-3.810334	0	3	100	0	4	-7.752931	-0.9497179	-87.22094	
13:08:13	0	0	0	-0.2148547	-3.810334	0	3	100	0	4	-7.757908	-0.9777886	-87.2173	
13:08:14	0	0	0	-0.2148547	-3.810334	0	3	100	0	4	-7.761707	-0.9782925	-87.2198	
13:08:14	0	0	0	-0.2148547	-3.810334	0	3	100	0	4	-7.756782	-0.9670588	-87.21197	
13:08:14	0	0	0	-0.2148547	-3.810334	0	3	100	0	4	-7.752179	-0.9503237	-87.19135	
13:08:14	0	0	0	-0.06465614	4.182759	0	3	100	0	4	-7.744196	-0.9477993	-87.18794	
13:08:14	0	0	0	-0.06465614	4.182759	0	3	100	0	4	-7.74754	-0.9627026	-87.17528	
13:08:15	0	0	0	-0.06465614	4.182759	0	3	100	0	4	-7.734762	-0.988851	-87.16351	
13:08:15	0	0	0	-0.06465614	4.182759	0	3	100	0	4	-7.719592	-0.9772629	-87.15686	
13:08:15	0	0	0	-0.06465614	4.182759	0	3	100	0	4	-7.718576	-0.9814366	-87.15358	
13:08:15	0	0	0	0.09077442	9.857354	0	3	100	0	4	-7.715041	-0.9587553	-87.13337	
13:08:15	0	0	0	0.09077442	9.857354	0	3	100	0	4	-7.718492	-0.9551076	-87.12519	
13:08:16	0	0	0	0.09077442	9.857354	0	3	100	0	4	-7.71184	-0.9624969	-87.12582	
13:08:16	0	0	0	0.09077442	9.857354	0	3	100	0	4	-7.715008	-0.9507219	-87.11062	
13:08:16	0	0	0	0.09077442	9.857354	0	3	100	0	4	-7.7243	-0.962895	-87.11314	
13:08:16	0	0	0	0.1777276	8.801603	0	3	100	0	4	-7.744814	-0.9551549	-87.10751	
13:08:17	0	0	0	0.1777276	8.801603	0	3	100	0	4	-7.758873	-0.957055	-87.09791	
13:08:17	0	0	0	0.1777276	8.801603	0	3	100	0	4	-7.755114	-0.9528738	-87.08378	
13:08:17	0	0	0	0.1777276	8.801603	0	3	100	0	4	-7.752151	-0.9784135	-87.0925	
13:08:17	0	0	0	0.1777276	8.801603	0	3	100	0	4	-7.749163	-0.9948536	-87.07938	
13:08:17	0	0	0	0.03737404	-0.4844098	0	3	100	0	4	-7.741028	-0.9868634	-87.07563	
13:08:18	0	0	0	0.03737404	-0.4844098	0	3	100	0	4	-7.728357	-0.9833279	-87.08157	
13:08:18	0	0	0	0.03737404	-0.4844098	0	3	100	0	4	-7.739913	-0.977498	-87.07992	
13:08:18	0	0	0	0.03737404	-0.4844098	0	3	100	0	4	-7.745592	-0.9764354	-87.07151	
13:08:18	0	0	0	0.03737404	-0.4844098	0	3	100	0	4	-7.760542	-0.978999	-87.0525	
13:08:18	0	0	0	-0.00580613	-3.213504	0	3	100	0	4	-7.756742	-0.9821881	-87.04125	
13:08:19	0	0	0	-0.00580613	-3.213504	0	3	100	0	4	-7.758543	-0.9896158	-87.038	
13:08:19	0	0	0	-0.00580613	-3.213504	0	3	100	0	4	-7.760602	-1.004464	-87.02522	
13:08:19	0	0	0	-0.00580613	-3.213504	0	3	100	0	4	-7.755183	-1.013783	-87.02206	
13:08:19	0	0	0	-0.00580613	-3.213504	0	3	100	0	4	-7.764864	-1.021322	-87.01628	
13:08:19	0	0	0	0.1108889	1.860482	0	3	100	0	4	-7.78617	-1.049265	-87.01279	
13:08:20	0	0	0	0.1108889	1.860482	0	3	100	0	4	-7.788221	-1.027753	-87.01086	
13:08:20	0	0	0	0.1108889	1.860482	0	3	100	0	4	-7.796854	-1.056338	-87.00275	
13:08:20	0	0	0	0.1108889	1.860482	0	3	100	0	4	-7.801715	-1.065306	-86.98854	
13:08:20	0	0	0	0.1108889	1.860482	0	3	100	0	4	-7.802314	-1.055572	-86.97485	
13:08:20	0	0	0	0.1734004	2.728546	0	3	100	0	4	-7.800887	-1.073481	-86.96948	
13:08:21	0	0	0	0.1734004	2.728546	0	3	100	0	4	-7.800674	-1.073264	-86.94964	
13:08:21	0	0	0	0.1734004	2.728546	0	3	100	0	4	-7.803775	-1.066356	-86.93442	
13:08:21	0	0	0	0.1734004	2.728546	0	3	100	0	4	-7.811477	-1.072342	-86.91789	
13:08:21	0	0	0	0.1734004	2.728546	0	3	100	0	4	-7.800738	-1.094931	-86.91502	
13:08:21	0	0	0	0.3751175	9.864662	0	3	100	0	4	-7.794053	-1.095797	-86.90112	
13:08:22	0	0	0	0.3751175	9.864662	0	3	100	0	4	-7.794652	-1.085178	-86.8742	
13:08:22	0	0	0	0.3751175	9.864662	0	3	100	0	4	-7.798105	-1.079643	-86.85341	
13:08:22	0	0	0	0.3751175	9.864662	0	3	100	0	4	-7.793439	-1.065634	-86.84958	
13:08:22	0	0	0	0.3751175	9.864662	0	3	100	0	4	-7.798156	-1.08129	-86.84187	
13:08:22	0	0	0	0.2120605	-0.8469949	0	3	100	0	4	-7.790993	-1.088095	-86.83606	
13:08:23	0	0	0	0.2120605	-0.8469949	0	3	100	0	4	-7.787286	-1.099242	-86.83456	
13:08:23	0	0	0	0.2120605	-0.8469949	0	3	100	0	4	-7.788471	-1.105374	-86.82574	
13:08:23	0	0	0	0.2120605	-0.8469949	0	3	100	0	4	-7.797609	-1.111133	-86.8101	
13:08:23	0	0	0	0.2120605	-0.8469949	0	3	100	0	4	-7.795387	-1.099164	-86.80974	
13:08:23	0	0	0	0.2059624	1.36197	0	3	100	0	4	-7.802862	-1.102241	-86.79102	
13:08:24	0	0	0	0.2059624	1.36197	0	3	100	0	4	-7.805558	-1.108034	-86.77862	
13:08:24	0	0	0	0.2059624	1.36197	0	3	100	0	4	-7.812441	-1.11284	-86.77063	
13:08:24	0	0	0	0.2059624	1.36197	0	3	100	0	4	-7.812354	-1.113374	-86.7579	
13:08:24	0	0	0	0.2059624	1.36197	0	3	100	0	4	-7.824616	-1.112441	-86.74846	
13:08:24	0	0	0	0.1744244	-0.5686806	0	3	100	0	4	-7.823727	-1.119692	-86.73972	
13:08:25	0	0	0	0.1744244	-0.5686806	0	3	100	0	4	-7.82462	-1.139099	-86.72115	
13:08:25	0	0	0	0.1744244	-0.5686806	0	3	100	0	4	-7.825598	-1.141985	-86.70477	
13:08:25	0	0	0	0.1744244	-0.5686806	0	3	100	0	4	-7.832472	-1.13762	-86.6796	
13:08:25	0	0	0	0.1744244	-0.5686806	0	3	100	0	4	-7.84503	-1.138312	-86.66673	
13:08:25	0	0	0	0.04774673	-6.035473	0	3	100	0	4	-7.84372	-1.13198	-86.6652	
13:08:26	0	0	0	0.04774673	-6.035473	0	3	100	0	4	-7.841675	-1.126106	-86.65396	
13:08:26	0	0	0	0.04774673	-6.035473	0	3	100	0	4	-7.843474	-1.112753	-86.64203	
13:08:26	0	0	0	0.04774673	-6.035473	0	3	100	0	4	-7.847313	-1.121142	-86.63813	
13:08:26	0	0	0	0.04774673	-6.035473	0	3	100	0	4	-7.843271	-1.126015	-86.63247	
13:08:26	0	0	0	-0.08193173	-10.1056	0	3	100	0	4	-7.841919	-1.127475	-86.6265	
13:08:27	0	0	0	-0.08193173	-10.1056	0	3	100	0	4	-7.836774	-1.118154	-86.61233	
13:08:27	0	0	0	-0.08193173	-10.1056	0	3	100	0	4	-7.837407	-1.126712	-86.59278	
13:08:27	0	0	0	-0.08193173	-10.1056	0	3	100	0	4	-7.845268	-1.125121	-86.59268	
13:08:27	0	0	0	-0.08193173	-10.1056	0	3	100	0	4	-7.845175	-1.116338	-86.57196	
13:08:27	0	0	0	-0.1300448	-8.883851	0	3	100	0	4	-7.842453	-1.118683	-86.57245	
13:08:28	0	0	0	-0.1300448	-8.883851	0	3	100	0	4	-7.846634	-1.141475	-86.55716	
13:08:28	0	0	0	-0.1300448	-8.883851	0	3	100	0	4	-7.836257	-1.146593	-86.53423	
13:08:28	0	0	0	-0.1300448	-8.883851	0	3	100	0	4	-7.833163	-1.149061	-86.53157	
13:08:28	0	0	0	-0.1300448	-8.883851	0	3	100	0	4	-7.825266	-1.138245	-86.51685	
13:08:28	0	0	0	-0.09164613	-3.938133	0	3	100	0	4	-7.818028	-1.139968	-86.50095	
13:08:29	0	0	0	-0.09164613	-3.938133	0	3	100	0	4	-7.812514	-1.1296	-86.48427	
13:08:29	0	0	0	-0.09164613	-3.938133	0	3	100	0	4	-7.809408	-1.123044	-86.47127	
13:08:29	0	0	0	-0.09164613	-3.938133	0	3	100	0	4	-7.817287	-1.136901	-86.46084	
13:08:29	0	0	0	-0.09164613	-3.938133	0	3	100	0	4	-7.81609	-1.121214	-86.47016	
13:08:29	0	0	0	-0.02769414	1.357553	0	3	100	0	4	-7.809904	-1.137819	-86.45911	
13:08:30	0	0	0	-0.02769414	1.357553	0	3	100	0	4	-7.815365	-1.151731	-86.45309	
13:08:30	0	0	0	-0.02769414	1.357553	0	3	100	0	4	-7.818667	-1.144172	-86.43829	
13:08:30	0	0	0	-0.02769414	1.357553	0	3	100	0	4	-7.815411	-1.133608	-86.43967	
13:08:30	0	0	0	-0.02769414	1.357553	0	3	100	0	4	-7.80802	-1.118092	-86.43521	
13:08:30	0	0	0	0.3379062	17.45726	0	3	100	0	4	-7.807797	-1.109441	-86.42696	
13:08:31	0	0	0	0.3379062	17.45726	0	3	100	0	4	-7.806339	-1.097071	-86.42152	
13:08:31	0	0	0	0.3379062	17.45726	0	3	100	0	4	-7.809853	-1.084393	-86.41087	
13:08:31	0	0	0	0.3379062	17.45726	0	3	100	0	4	-7.813671	-1.077549	-86.40097	
13:08:31	0	0	0	0.3379062	17.45726	0	3	100	0	4	-7.810997	-1.078931	-86.39369	
13:08:31	0	0	0	0.525087	17.8142	0	3	100	0	4	-7.80682	-1.085334	-86.3865	
13:08:32	0	0	0	0.525087	17.8142	0	3	100	0	4	-7.804332	-1.085437	-86.38164	
13:08:32	0	0	0	0.525087	17.8142	0	3	100	0	4	-7.810746	-1.075458	-86.37472	
13:08:32	0	0	0	0.525087	17.8142	0	3	100	0	4	-7.810743	-1.056877	-86.38044	
13:08:32	0	0	0	0.525087	17.8142	0	3	100	0	4	-7.808176	-1.055122	-86.38661	
13:08:32	0	0	0	0.1957693	-3.327056	0	3	100	0	4	-7.816593	-1.081686	-86.38367	
13:08:33	0	0	0	0.1957693	-3.327056	0	3	100	0	4	-7.808605	-1.090675	-86.39846	
13:08:33	0	0	0	0.1957693	-3.327056	0	3	100	0	4	-7.800961	-1.089757	-86.40092	
13:08:33	0	0	0	0.1957693	-3.327056	0	3	100	0	4	-7.789279	-1.092908	-86.39855	
13:08:33	0	0	0	0.1957693	-3.327056	0	3	100	0	4	-7.771784	-1.076384	-86.39999	
13:08:33	0	0	0	-0.01096809	-11.81103	0	3	100	0	4	-7.75697	-1.080539	-86.42345	
13:08:34	0	0	0	-0.01096809	-11.81103	0	3	100	0	4	-7.761993	-1.078445	-86.4078	
13:08:34	0	0	0	-0.01096809	-11.81103	0	3	100	0	4	-7.757368	-1.068202	-86.39603	
13:08:34	0	0	0	-0.01096809	-11.81103	0	3	100	0	4	-7.756326	-1.057145	-86.40251	
13:08:34	0	0	0	-0.01096809	-11.81103	0	3	100	0	4	-7.748879	-1.053624	-86.409	
13:08:34	0	0	0	-0.1010421	-11.12905	0	3	100	0	4	-7.763151	-1.073217	-86.40518	
13:08:35	0	0	0	-0.1010421	-11.12905	0	3	100	0	4	-7.760231	-1.062195	-86.39408	
13:08:35	0	0	0	-0.1010421	-11.12905	0	3	100	0	4	-7.748589	-1.047018	-86.39088	
13:08:35	0	0	0	-0.1010421	-11.12905	0	3	100	0	4	-7.742523	-1.055257	-86.38872	
13:08:35	0	0	0	-0.1010421	-11.12905	0	3	100	0	4	-7.747358	-1.083877	-86.39497	
13:08:35	0	0	0	-0.1006634	-6.034525	0	3	100	0	4	-7.745525	-1.084132	-86.38493	
13:08:36	0	0	0	-0.1006634	-6.034525	0	3	100	0	4	-7.749312	-1.109985	-86.38385	
13:08:36	0	0	0	-0.1006634	-6.034525	0	3	100	0	4	-7.746048	-1.097534	-86.38762	
13:08:36	0	0	0	-0.1006634	-6.034525	0	3	100	0	4	-7.744141	-1.103603	-86.37692	
13:08:36	0	0	0	-0.1006634	-6.034525	0	3	100	0	4	-7.74461	-1.120391	-86.39065	
13:08:36	0	0	0	-0.117234	-4.521042	0	3	100	0	4	-7.75583	-1.136471	-86.38929	
13:08:37	0	0	0	-0.117234	-4.521042	0	3	100	0	4	-7.751144	-1.138633	-86.3933	
13:08:37	0	0	0	-0.117234	-4.521042	0	3	100	0	4	-7.74895	-1.134102	-86.39202	
13:08:37	0	0	0	-0.117234	-4.521042	0	3	100	0	4	-7.749132	-1.141963	-86.37154	
13:08:37	0	0	0	-0.117234	-4.521042	0	3	100	0	4	-7.750258	-1.148392	-86.37227	
13:08:37	0	0	0	-0.1922328	-6.031102	0	3	100	0	4	-7.739895	-1.146753	-86.36155	
13:08:38	0	0	0	-0.1922328	-6.031102	0	3	100	0	4	-7.732579	-1.145059	-86.34431	
13:08:38	0	0	0	-0.1922328	-6.031102	0	3	100	0	4	-7.731709	-1.136243	-86.33984	
13:08:38	0	0	0	-0.1922328	-6.031102	0	3	100	0	4	-7.737198	-1.135242	-86.32116	
13:08:38	0	0	0	-0.1922328	-6.031102	0	3	100	0	4	-7.735489	-1.123687	-86.30994	
13:08:38	0	0	0	0.02082955	6.083057	0	3	100	0	4	-7.730204	-1.120515	-86.30989	
13:08:39	0	0	0	0.02082955	6.083057	0	3	100	0	4	-7.725838	-1.115942	-86.31253	
13:08:39	0	0	0	0.02082955	6.083057	0	3	100	0	4	-7.718609	-1.126276	-86.32175	
13:08:39	0	0	0	0.02082955	6.083057	0	3	100	0	4	-7.725841	-1.129912	-86.32412	
13:08:39	0	0	0	0.02082955	6.083057	0	3	100	0	4	-7.724807	-1.132935	-86.33076	
13:08:39	0	0	0	-0.0841728	0.09237178	0	3	100	0	4	-7.722639	-1.12095	-86.33266	
13:08:40	0	0	0	-0.0841728	0.09237178	0	3	100	0	4	-7.721487	-1.110723	-86.3234	
13:08:40	0	0	0	-0.0841728	0.09237178	0	3	100	0	4	-7.717708	-1.085	-86.31915	
13:08:40	0	0	0	-0.0841728	0.09237178	0	3	100	0	4	-7.716782	-1.083711	-86.31535	
13:08:40	0	0	0	-0.0841728	0.09237178	0	3	100	0	4	-7.715217	-1.076566	-86.326	
13:08:40	0	0	0	-0.1870778	-4.251518	0	3	100	0	4	-7.718488	-1.063018	-86.33584	
13:08:41	0	0	0	-0.1870778	-4.251518	0	3	100	0	4	-7.717253	-1.061545	-86.34093	
13:08:41	0	0	0	-0.1870778	-4.251518	0	3	100	0	4	-7.720387	-1.06073	-86.34449	
13:08:41	0	0	0	-0.1870778	-4.251518	0	3	100	0	4	-7.713801	-1.069498	-86.36255	
13:08:41	0	0	0	-0.1870778	-4.251518	0	3	100	0	4	-7.706462	-1.052508	-86.35921	
13:08:41	0	0	0	-0.165592	-1.763851	0	3	100	0	4	-7.703682	-1.051345	-86.35794	
13:08:42	0	0	0	-0.165592	-1.763851	0	3	100	0	4	-7.690379	-1.070867	-86.3437	
13:08:42	0	0	0	-0.165592	-1.763851	0	3	100	0	4	-7.681557	-1.074109	-86.34801	
13:08:42	0	0	0	-0.165592	-1.763851	0	3	100	0	4	-7.688046	-1.094805	-86.33759	
13:08:42	0	0	0	-0.165592	-1.763851	0	3	100	0	4	-7.680745	-1.094595	-86.34475	
13:08:42	0	0	0	0.02636995	9.285456	0	3	100	0	4	-7.685554	-1.084488	-86.35356	
13:08:43	0	0	0	0.02636995	9.285456	0	3	100	0	4	-7.690562	-1.055623	-86.36618	
13:08:43	0	0	0	0.02636995	9.285456	0	3	100	0	4	-7.691852	-1.052499	-86.36006	
13:08:43	0	0	0	0.02636995	9.285456	0	3	100	0	4	-7.684365	-1.054854	-86.36178	
13:08:43	0	0	0	0.02636995	9.285456	0	3	100	0	4	-7.680424	-1.061094	-86.36379	
13:08:43	0	0	0	0.5029601	26.86075	0	3	100	0	4	-7.680475	-1.053664	-86.36322	
13:08:44	0	0	0	0.5029601	26.86075	0	3	100	0	4	-7.690698	-1.06541	-86.36677	
13:08:44	0	0	0	0.5029601	26.86075	0	3	100	0	4	-7.698806	-1.062535	-86.3702	
13:08:44	0	0	0	0.5029601	26.86075	0	3	100	0	4	-7.697467	-1.071256	-86.38431	
13:08:44	0	0	0	0.5029601	26.86075	0	3	100	0	4	-7.691735	-1.087948	-86.39565	
13:08:44	0	0	0	0.6571828	21.02209	0	3	100	0	4	-7.705203	-1.081161	-86.40168	
13:08:45	0	0	0	0.6571828	21.02209	0	3	100	0	4	-7.709075	-1.078071	-86.39877	
13:08:45	0	0	0	0.6571828	21.02209	0	3	100	0	4	-7.715104	-1.075423	-86.39363	
13:08:45	0	0	0	0.6571828	21.02209	0	3	100	0	4	-7.71303	-1.073391	-86.37855	
13:08:45	0	0	0	0.6571828	21.02209	0	3	100	0	4	-7.713798	-1.053994	-86.37791	
13:08:45	0	0	0	0.6503172	11.93481	0	3	100	0	4	-7.706722	-1.034894	-86.38659	
13:08:46	0	0	0	0.6503172	11.93481	0	3	100	0	4	-7.71124	-1.043359	-86.38206	
13:08:46	0	0	0	0.6503172	11.93481	0	3	100	0	4	-7.718181	-1.047976	-86.38343	
13:08:46	0	0	0	0.6503172	11.93481	0	3	100	0	4	-7.716397	-1.060207	-86.38631	
13:08:46	0	0	0	0.6503172	11.93481	0	3	100	0	4	-7.706435	-1.058112	-86.39255	
13:08:46	0	0	0	0.3983519	-2.670614	0	3	100	0	4	-7.698862	-1.060298	-86.40315	
13:08:47	0	0	0	0.3983519	-2.670614	0	3	100	0	4	-7.704349	-1.047307	-86.40916	
13:08:47	0	0	0	0.3983519	-2.670614	0	3	100	0	4	-7.706799	-1.07579	-86.40806	
13:08:47	0	0	0	0.3983519	-2.670614	0	3	100	0	4	-7.716521	-1.06414	-86.41409	
13:08:47	0	0	0	0.3983519	-2.670614	0	3	100	0	4	-7.703461	-1.046627	-86.40681	
13:08:48	0	0	0	0.4681799	1.97073	0	3	100	0	4	-7.690749	-1.046847	-86.40344	
13:08:48	0	0	0	0.4681799	1.97073	0	3	100	0	4	-7.693438	-1.050767	-86.40665	
13:08:48	0	0	0	0.4681799	1.97073	0	3	100	0	4	-7.682668	-1.062764	-86.40614	
13:08:48	0	0	0	0.4681799	1.97073	0	3	100	0	4	-7.681179	-1.060709	-86.41727	
13:08:48	0	0	0	0.4681799	1.97073	0	3	100	0	4	-7.671847	-1.062619	-86.42052	
13:08:49	0	0	0	0.3463999	-3.853757	0	3	100	0	4	-7.675121	-1.073645	-86.43269	
13:08:49	0	0	0	0.3463999	-3.853757	0	3	100	0	4	-7.675106	-1.073679	-86.43034	
13:08:49	0	0	0	0.3463999	-3.853757	0	3	100	0	4	-7.680123	-1.096543	-86.44973	
13:08:49	0	0	0	0.3463999	-3.853757	0	3	100	0	4	-7.673671	-1.114037	-86.43629	
13:08:49	0	0	0	0.3463999	-3.853757	0	3	100	0	4	-7.676253	-1.111932	-86.42796	
13:08:50	0	0	0	0.2993385	-6.27663	0	3	100	0	4	-7.68435	-1.119541	-86.42802	
13:08:50	0	0	0	0.2993385	-6.27663	0	3	100	0	4	-7.682533	-1.119488	-86.43453	
13:08:50	0	0	0	0.2993385	-6.27663	0	3	100	0	4	-7.675173	-1.107072	-86.45638	
13:08:50	0	0	0	0.2993385	-6.27663	0	3	100	0	4	-7.67134	-1.11822	-86.45699	
13:08:50	0	0	0	0.2993385	-6.27663	0	3	100	0	4	-7.660562	-1.118434	-86.45621	
13:08:51	0	0	0	0.3019275	-3.88924	0	3	100	0	4	-7.670722	-1.098213	-86.45794	
13:08:51	0	0	0	0.3019275	-3.88924	0	3	100	0	4	-7.676016	-1.083193	-86.44154	
13:08:51	0	0	0	0.3019275	-3.88924	0	3	100	0	4	-7.667502	-1.068577	-86.43362	
13:08:51	0	0	0	0.3019275	-3.88924	0	3	100	0	4	-7.665845	-1.075165	-86.44542	
13:08:51	0	0	0	0.3019275	-3.88924	0	3	100	0	4	-7.659343	-1.079125	-86.45126	
13:08:52	0	0	0	0.2860035	-2.825124	0	3	100	0	5	-7.665656	-1.098558	-86.45076	
13:08:52	0	0	0	0.2860035	-2.825124	0	3	100	0	5	-7.660608	-1.08602	-86.45467	
13:08:52	0	0	0	0.2860035	-2.825124	0	3	100	0	5	-7.662843	-1.078296	-86.46447	
13:08:52	0	0	0	0.2860035	-2.825124	0	3	100	0	5	-7.668888	-1.072997	-86.45277	
13:08:52	0	0	0	0.2860035	-2.825124	0	3	100	0	5	-7.671123	-1.078084	-86.46078	
13:08:53	0	0	0	0.2106731	-4.712787	0	3	100	0	4	-7.682146	-1.097387	-86.45453	
13:08:53	0	0	0	0.2106731	-4.712787	0	3	100	0	4	-7.690387	-1.109249	-86.4579	
13:08:53	0	0	0	0.2106731	-4.712787	0	3	100	0	4	-7.694639	-1.077644	-86.45872	
13:08:53	0	0	0	0.2106731	-4.712787	0	3	100	0	4	-7.695227	-1.081728	-86.46426	
13:08:53	0	0	0	0.2106731	-4.712787	0	3	100	0	4	-7.699395	-1.079896	-86.47022	
13:08:54	0	0	0	0.2899983	2.037369	0	3	100	0	4	-7.710582	-1.069489	-86.46847	
13:08:54	0	0	0	0.2899983	2.037369	0	3	100	0	4	-7.708995	-1.083653	-86.46251	
13:08:54	0	0	0	0.2899983	2.037369	0	3	100	0	4	-7.710829	-1.093008	-86.4591	
13:08:54	0	0	0	0.2899983	2.037369	0	3	100	0	4	-7.716133	-1.093853	-86.45242	
13:08:54	0	0	0	0.2899983	2.037369	0	3	100	0	4	-7.71877	-1.103251	-86.44404	
13:08:55	0	0	0	0.4861099	9.05505	0	3	100	0	4	-7.718314	-1.105783	-86.44166	
13:08:55	0	0	0	0.4861099	9.05505	0	3	100	0	4	-7.720429	-1.116072	-86.42637	
13:08:55	0	0	0	0.4861099	9.05505	0	3	100	0	4	-7.709975	-1.110742	-86.41998	
13:08:55	0	0	0	0.4861099	9.05505	0	3	100	0	4	-7.708779	-1.125616	-86.41603	
13:08:55	0	0	0	0.4861099	9.05505	0	3	100	0	4	-7.710762	-1.122109	-86.41585	
13:08:56	0	0	0	0.3947468	1.133802	0	3	100	0	4	-7.710506	-1.12877	-86.41628	
13:08:56	0	0	0	0.3947468	1.133802	0	3	100	0	4	-7.715714	-1.11642	-86.41733	
13:08:56	0	0	0	0.3947468	1.133802	0	3	100	0	4	-7.71676	-1.11147	-86.42296	
13:08:56	0	0	0	0.3947468	1.133802	0	3	100	0	4	-7.721207	-1.113927	-86.41629	
13:08:56	0	0	0	0.3947468	1.133802	0	3	100	0	4	-7.724512	-1.117722	-86.41894	
13:08:57	0	0	0	0.3220602	-1.332633	0	3	100	0	4	-7.724362	-1.125729	-86.40935	
13:08:57	0	0	0	0.3220602	-1.332633	0	3	100	0	4	-7.719028	-1.124898	-86.39374	
13:08:57	0	0	0	0.3220602	-1.332633	0	3	100	0	4	-7.722965	-1.130726	-86.39682	
13:08:57	0	0	0	0.3220602	-1.332633	0	3	100	0	4	-7.728208	-1.144098	-86.39475	
13:08:57	0	0	0	0.3220602	-1.332633	0	3	100	0	4	-7.715446	-1.136439	-86.39795	
13:08:58	0	0	0	0.4889277	5.891237	0	3	100	0	3	-7.709497	-1.147907	-86.3918	
13:08:58	0	0	0	0.4889277	5.891237	0	3	100	0	3	-7.712082	-1.144948	-86.38803	
13:08:58	0	0	0	0.4889277	5.891237	0	3	100	0	3	-7.716859	-1.133356	-86.37926	
13:08:58	0	0	0	0.4889277	5.891237	0	3	100	0	3	-7.71997	-1.125317	-86.38861	
13:08:58	0	0	0	0.4889277	5.891237	0	3	100	0	3	-7.732265	-1.109627	-86.38028	
13:08:59	0	0	0	0.5278953	4.950835	0	3	100	0	4	-7.731431	-1.105781	-86.37087	
13:08:59	0	0	0	0.5278953	4.950835	0	3	100	0	4	-7.741807	-1.090175	-86.36762	
13:08:59	0	0	0	0.5278953	4.950835	0	3	100	0	4	-7.753144	-1.115094	-86.35868	
13:08:59	0	0	0	0.5278953	4.950835	0	3	100	0	4	-7.739957	-1.115863	-86.34979	
13:08:59	0	0	0	0.5278953	4.950835	0	3	100	0	4	-7.733599	-1.117606	-86.34644	
13:09:00	0	0	0	0.5147476	2.529544	0	3	100	0	4	-7.714478	-1.082187	-86.34758	
13:09:00	0	0	0	0.5147476	2.529544	0	3	100	0	4	-7.698497	-1.06987	-86.35349	
13:09:00	0	0	0	0.5147476	2.529544	0	3	100	0	4	-7.690641	-1.060672	-86.36102	
13:09:00	0	0	0	0.5147476	2.529544	0	3	100	0	4	-7.690852	-1.054859	-86.37432	
13:09:00	0	0	0	0.5147476	2.529544	0	3	100	0	4	-7.692508	-1.05614	-86.38922	
13:09:01	0	0	0	0.3077306	-7.193326	0	3	100	0	4	-7.703689	-1.054613	-86.3942	
13:09:01	0	0	0	0.3077306	-7.193326	0	3	100	0	4	-7.698008	-1.038108	-86.39924	
13:09:01	0	0	0	0.3077306	-7.193326	0	3	100	0	4	-7.698099	-1.02593	-86.41025	
13:09:01	0	0	0	0.3077306	-7.193326	0	3	100	0	4	-7.703342	-1.013872	-86.42583	
13:09:01	0	0	0	0.3077306	-7.193326	0	3	100	0	4	-7.696787	-1.027907	-86.44144	
13:09:02	0	0	0	0.4509478	1.801949	0	3	100	0	4	-7.692044	-1.039381	-86.44749	
13:09:02	0	0	0	0.4509478	1.801949	0	3	100	0	4	-7.691195	-1.054572	-86.45701	
13:09:02	0	0	0	0.4509478	1.801949	0	3	100	0	4	-7.684865	-1.061918	-86.45604	
13:09:02	0	0	0	0.4509478	1.801949	0	3	100	0	4	-7.68299	-1.078459	-86.46004	
13:09:02	0	0	0	0.4509478	1.801949	0	3	100	0	4	-7.684836	-1.081481	-86.4663	
13:09:03	0	0	0	0.4122117	-1.075059	0	3	100	0	4	-7.689561	-1.086289	-86.46326	
13:09:03	0	0	0	0.4122117	-1.075059	0	3	100	0	4	-7.692191	-1.086302	-86.46621	
13:09:03	0	0	0	0.4122117	-1.075059	0	3	100	0	4	-7.686569	-1.090825	-86.44866	
13:09:03	0	0	0	0.4122117	-1.075059	0	3	100	0	4	-7.695859	-1.109674	-86.44092	
13:09:03	0	0	0	0.4122117	-1.075059	0	3	100	0	4	-7.703063	-1.126463	-86.44656	
13:09:04	0	0	0	0.2058406	-9.316698	0	3	100	0	4	-7.704832	-1.147014	-86.44698	
13:09:04	0	0	0	0.2058406	-9.316698	0	3	100	0	4	-7.725955	-1.155719	-86.44866	
13:09:04	0	0	0	0.2058406	-9.316698	0	3	100	0	4	-7.735588	-1.173294	-86.44182	
13:09:04	0	0	0	0.2058406	-9.316698	0	3	100	0	4	-7.746866	-1.179579	-86.435	
13:09:04	0	0	0	0.2058406	-9.316698	0	3	100	0	4	-7.741798	-1.180622	-86.4263	
13:09:05	0	0	0	0.2552777	-2.414045	0	3	100	0	4	-7.752979	-1.201407	-86.41549	
13:09:05	0	0	0	0.2552777	-2.414045	0	3	100	0	4	-7.7566	-1.206959	-86.4007	
13:09:05	0	0	0	0.2552777	-2.414045	0	3	100	0	4	-7.759031	-1.189686	-86.40113	
13:09:05	0	0	0	0.2552777	-2.414045	0	3	100	0	4	-7.755988	-1.180853	-86.38284	
13:09:05	0	0	0	0.2552777	-2.414045	0	3	100	0	4	-7.751376	-1.170126	-86.36706	
13:09:06	0	0	0	0.1786184	-6.336925	0	3	100	0	4	-7.74995	-1.162086	-86.35888	
13:09:06	0	0	0	0.1786184	-6.336925	0	3	100	0	4	-7.744621	-1.155976	-86.36906	
13:09:06	0	0	0	0.1786184	-6.336925	0	3	100	0	4	-7.743623	-1.129471	-86.36931	
13:09:06	0	0	0	0.1786184	-6.336925	0	3	100	0	4	-7.749009	-1.13428	-86.35039	
13:09:06	0	0	0	0.1786184	-6.336925	0	3	100	0	4	-7.738377	-1.116457	-86.3373	
13:09:07	0	0	0	0.1362162	-6.580863	0	3	100	0	3	-7.733519	-1.102677	-86.32176	
13:09:07	0	0	0	0.1362162	-6.580863	0	3	100	0	3	-7.733762	-1.087827	-86.32817	
13:09:07	0	0	0	0.1362162	-6.580863	0	3	100	0	3	-7.739751	-1.07795	-86.32852	
13:09:07	0	0	0	0.1362162	-6.580863	0	3	100	0	3	-7.73901	-1.080679	-86.33502	
13:09:07	0	0	0	0.1362162	-6.580863	0	3	100	0	3	-7.726329	-1.0738	-86.3421	
13:09:08	0	0	0	0.1549949	-3.83476	0	3	100	0	4	-7.7243	-1.054941	-86.3544	
13:09:08	0	0	0	0.1549949	-3.83476	0	3	100	0	4	-7.706074	-1.046763	-86.35643	
13:09:08	0	0	0	0.1549949	-3.83476	0	3	100	0	4	-7.711513	-1.055177	-86.36311	
13:09:08	0	0	0	0.1549949	-3.83476	0	3	100	0	4	-7.705634	-1.075177	-86.36324	
13:09:08	0	0	0	0.1549949	-3.83476	0	3	100	0	4	-7.708474	-1.071256	-86.35621	
13:09:09	0	0	0	0.1043893	-5.109511	0	3	100	0	4	-7.707158	-1.082115	-86.35387	
13:09:09	0	0	0	0.1043893	-5.109511	0	3	100	0	4	-7.69577	-1.091455	-86.3438	
13:09:09	0	0	0	0.1043893	-5.109511	0	3	100	0	4	-7.688136	-1.091449	-86.35883	
13:09:09	0	0	0	0.1043893	-5.109511	0	3	100	0	4	-7.696991	-1.069958	-86.35822	
13:09:09	0	0	0	0.1043893	-5.109511	0	3	100	0	4	-7.689905	-1.076371	-86.37013	
13:09:10	0	0	0	-0.01772293	-8.023114	0	3	100	0	4	-7.693853	-1.087651	-86.36587	
13:09:10	0	0	0	-0.01772293	-8.023114	0	3	100	0	4	-7.690946	-1.077939	-86.37325	
13:09:10	0	0	0	-0.01772293	-8.023114	0	3	100	0	4	-7.696741	-1.062561	-86.37067	
13:09:10	0	0	0	-0.01772293	-8.023114	0	3	100	0	4	-7.696617	-1.091377	-86.37341	
13:09:10	0	0	0	-0.01772293	-8.023114	0	3	100	0	4	-7.707662	-1.108848	-86.37621	
13:09:11	0	0	0	-0.05928952	-7.301173	0	3	100	0	4	-7.718045	-1.12483	-86.38255	
13:09:11	0	0	0	-0.05928952	-7.301173	0	3	100	0	4	-7.719196	-1.131573	-86.38838	
13:09:11	0	0	0	-0.05928952	-7.301173	0	3	100	0	4	-7.723794	-1.146341	-86.38569	
13:09:11	0	0	0	-0.05928952	-7.301173	0	3	100	0	4	-7.727575	-1.139671	-86.37981	
13:09:11	0	0	0	-0.05928952	-7.301173	0	3	100	0	4	-7.724406	-1.118134	-86.38072	
13:09:12	0	0	0	0.03639374	-0.4795905	0	3	100	0	4	-7.717979	-1.091011	-86.37318	
13:09:12	0	0	0	0.03639374	-0.4795905	0	3	100	0	4	-7.720088	-1.093081	-86.3693	
13:09:12	0	0	0	0.03639374	-0.4795905	0	3	100	0	4	-7.719929	-1.092671	-86.36304	
13:09:12	0	0	0	0.03639374	-0.4795905	0	3	100	0	4	-7.716441	-1.085587	-86.36867	
13:09:12	0	0	0	0.03639374	-0.4795905	0	3	100	0	4	-7.712395	-1.096188	-86.37619	
13:09:13	0	0	0	0.06993108	0.6665213	0	3	100	0	4	-7.69212	-1.104488	-86.38175	
13:09:13	0	0	0	0.06993108	0.6665213	0	3	100	0	4	-7.698347	-1.091109	-86.38378	
13:09:13	0	0	0	0.06993108	0.6665213	0	3	100	0	4	-7.683719	-1.075693	-86.37854	
13:09:13	0	0	0	0.06993108	0.6665213	0	3	100	0	4	-7.682229	-1.064357	-86.38805	
13:09:13	0	0	0	0.06993108	0.6665213	0	3	100	0	4	-7.674194	-1.064926	-86.37336	
13:09:14	0	0	0	0.2571345	9.195927	0	3	100	0	4	-7.685575	-1.039323	-86.3714	
13:09:14	0	0	0	0.2571345	9.195927	0	3	100	0	4	-7.685583	-1.037628	-86.38914	
13:09:14	0	0	0	0.2571345	9.195927	0	3	100	0	4	-7.69418	-1.046352	-86.39671	
13:09:14	0	0	0	0.2571345	9.195927	0	3	100	0	4	-7.697783	-1.032574	-86.39861	
13:09:14	0	0	0	0.2571345	9.195927	0	3	100	0	4	-7.711991	-1.051677	-86.38319	
13:09:15	0	0	0	0.3314469	9.554503	0	3	100	0	4	-7.711108	-1.047008	-86.38294	
13:09:15	0	0	0	0.3314469	9.554503	0	3	100	0	4	-7.715806	-1.031016	-86.40403	
13:09:15	0	0	0	0.3314469	9.554503	0	3	100	0	4	-7.728063	-1.022362	-86.40648	
13:09:15	0	0	0	0.3314469	9.554503	0	3	100	0	4	-7.725084	-1.02398	-86.41667	
13:09:16	0	0	0	0.3314469	9.554503	0	3	100	0	4	-7.719671	-1.022991	-86.41652	
13:09:16	0	0	0	0.4756987	12.53565	0	3	100	0	4	-7.710505	-1.018013	-86.41936	
13:09:16	0	0	0	0.4756987	12.53565	0	3	100	0	4	-7.704293	-1.022574	-86.42913	
13:09:16	0	0	0	0.4756987	12.53565	0	3	100	0	4	-7.700151	-1.018021	-86.43919	
13:09:16	0	0	0	0.4756987	12.53565	0	3	100	0	4	-7.707396	-1.03829	-86.42885	
13:09:17	0	0	0	0.4756987	12.53565	0	3	100	0	4	-7.70148	-1.044697	-86.42611	
13:09:17	0	0	0	0.1677541	-7.280604	0	3	100	0	4	-7.699254	-1.059654	-86.43084	
13:09:17	0	0	0	0.1677541	-7.280604	0	3	100	0	4	-7.693078	-1.072498	-86.43856	
13:09:17	0	0	0	0.1677541	-7.280604	0	3	100	0	4	-7.694656	-1.058783	-86.42876	
13:09:17	0	0	0	0.1677541	-7.280604	0	3	100	0	4	-7.69028	-1.056981	-86.41734	
13:09:18	0	0	0	0.1677541	-7.280604	0	3	100	0	4	-7.691964	-1.045322	-86.41827	
13:09:18	0	0	0	0.002592332	-10.53066	0	3	100	0	4	-7.695976	-1.063015	-86.43205	
13:09:18	0	0	0	0.002592332	-10.53066	0	3	100	0	4	-7.689404	-1.06516	-86.41679	
13:09:18	0	0	0	0.002592332	-10.53066	0	3	100	0	4	-7.680592	-1.046996	-86.42145	
13:09:18	0	0	0	0.002592332	-10.53066	0	3	100	0	4	-7.682321	-1.060996	-86.42669	
13:09:19	0	0	0	0.002592332	-10.53066	0	3	100	0	4	-7.681426	-1.070254	-86.42661	
13:09:19	0	0	0	-0.002242297	-6.941227	0	3	100	0	4	-7.682506	-1.066819	-86.42236	
13:09:19	0	0	0	-0.002242297	-6.941227	0	3	100	0	4	-7.686059	-1.101881	-86.42662	
13:09:19	0	0	0	-0.002242297	-6.941227	0	3	100	0	4	-7.681276	-1.107695	-86.41454	
13:09:19	0	0	0	-0.002242297	-6.941227	0	3	100	0	4	-7.691886	-1.141275	-86.41123	
13:09:20	0	0	0	-0.002242297	-6.941227	0	3	100	0	4	-7.69288	-1.147874	-86.42213	
13:09:20	0	0	0	0.2206148	6.068762	0	3	100	0	4	-7.694259	-1.155257	-86.40588	
13:09:20	0	0	0	0.2206148	6.068762	0	3	100	0	4	-7.704705	-1.148542	-86.40639	
13:09:20	0	0	0	0.2206148	6.068762	0	3	100	0	4	-7.705738	-1.126459	-86.41155	
13:09:20	0	0	0	0.2206148	6.068762	0	3	100	0	4	-7.702192	-1.133051	-86.41864	
13:09:21	0	0	0	0.2206148	6.068762	0	3	100	0	4	-7.693668	-1.125762	-86.43044	
13:09:21	0	0	0	0.2293663	3.720527	0	3	100	0	4	-7.70411	-1.124694	-86.4277	
13:09:21	0	0	0	0.2293663	3.720527	0	3	100	0	4	-7.719088	-1.13188	-86.42239	
13:09:21	0	0	0	0.2293663	3.720527	0	3	100	0	4	-7.728542	-1.120105	-86.43348	
13:09:21	0	0	0	0.2293663	3.720527	0	3	100	0	4	-7.727984	-1.118735	-86.43478	
13:09:22	0	0	0	0.2293663	3.720527	0	3	100	0	4	-7.732493	-1.140391	-86.4201	
13:09:22	0	0	0	0.069712	-5.924356	0	3	100	0	4	-7.732659	-1.132395	-86.40573	
13:09:22	0	0	0	0.069712	-5.924356	0	3	100	0	4	-7.736482	-1.117581	-86.39233	
13:09:22	0	0	0	0.069712	-5.924356	0	3	100	0	4	-7.737125	-1.134014	-86.38895	
13:09:22	0	0	0	0.069712	-5.924356	0	3	100	0	4	-7.737157	-1.154559	-86.38459	
13:09:23	0	0	0	0.069712	-5.924356	0	3	100	0	4	-7.745955	-1.165664	-86.36689	
13:09:23	0	0	0	0.2172188	2.567051	0	3	100	0	4	-7.754661	-1.172394	-86.37083	
13:09:23	0	0	0	0.2172188	2.567051	0	3	100	0	4	-7.748524	-1.171121	-86.35907	
13:09:23	0	0	0	0.2172188	2.567051	0	3	100	0	4	-7.749967	-1.165646	-86.35836	
13:09:23	0	0	0	0.2172188	2.567051	0	3	100	0	4	-7.744165	-1.153987	-86.36208	
13:09:24	0	0	0	0.2172188	2.567051	0	3	100	0	4	-7.739371	-1.148059	-86.35568	
13:09:24	0	0	0	0.1749913	-0.1565621	0	3	100	0	4	-7.744991	-1.140138	-86.35469	
13:09:24	0	0	0	0.1749913	-0.1565621	0	3	100	0	4	-7.753648	-1.125163	-86.34368	
13:09:24	0	0	0	0.1749913	-0.1565621	0	3	100	0	4	-7.768028	-1.12163	-86.33526	
13:09:24	0	0	0	0.1749913	-0.1565621	0	3	100	0	4	-7.771339	-1.123222	-86.33024	
13:09:25	0	0	0	0.1749913	-0.1565621	0	3	100	0	4	-7.764349	-1.116657	-86.32684	
13:09:25	0	0	0	0.3127774	5.824345	0	3	100	0	4	-7.755226	-1.114765	-86.30872	
13:09:25	0	0	0	0.3127774	5.824345	0	3	100	0	4	-7.749736	-1.096558	-86.30905	
13:09:25	0	0	0	0.3127774	5.824345	0	3	100	0	4	-7.743945	-1.094259	-86.30293	
13:09:25	0	0	0	0.3127774	5.824345	0	3	100	0	4	-7.748775	-1.091575	-86.29743	
13:09:26	0	0	0	0.3127774	5.824345	0	3	100	0	4	-7.747292	-1.086914	-86.30029	
13:09:26	0	0	0	0.4162431	7.733325	0	3	100	0	4	-7.74721	-1.102457	-86.29567	
13:09:26	0	0	0	0.4162431	7.733325	0	3	100	0	4	-7.747982	-1.110207	-86.27779	
13:09:26	0	0	0	0.4162431	7.733325	0	3	100	0	4	-7.755117	-1.131024	-86.27979	
13:09:26	0	0	0	0.4162431	7.733325	0	3	100	0	4	-7.745518	-1.124291	-86.27879	
13:09:27	0	0	0	0.4162431	7.733325	0	3	100	0	4	-7.739564	-1.116695	-86.27968	
13:09:27	0	0	0	0.4489061	6.501411	0	3	100	0	4	-7.733757	-1.089032	-86.28947	
13:09:27	0	0	0	0.4489061	6.501411	0	3	100	0	4	-7.73026	-1.098854	-86.29116	
13:09:27	0	0	0	0.4489061	6.501411	0	3	100	0	4	-7.717454	-1.089675	-86.29945	
13:09:27	0	0	0	0.4489061	6.501411	0	3	100	0	4	-7.721354	-1.072249	-86.30388	
13:09:28	0	0	0	0.4489061	6.501411	0	3	100	0	4	-7.715552	-1.068705	-86.31499	
13:09:28	0	0	0	0.4002109	2.582871	0	3	100	0	4	-7.709642	-1.059227	-86.29893	
13:09:28	0	0	0	0.4002109	2.582871	0	3	100	0	4	-7.707475	-1.067827	-86.30534	
13:09:28	0	0	0	0.4002109	2.582871	0	3	100	0	4	-7.700425	-1.047922	-86.31897	
13:09:28	0	0	0	0.4002109	2.582871	0	3	100	0	4	-7.705531	-1.048017	-86.30947	
13:09:29	0	0	0	0.4002109	2.582871	0	3	100	0	4	-7.692749	-1.030244	-86.30877	
13:09:29	0	0	0	0.4193079	2.34651	0	3	100	0	3	-7.687972	-1.042812	-86.31711	
13:09:29	0	0	0	0.4193079	2.34651	0	3	100	0	3	-7.675683	-1.049955	-86.31615	
13:09:29	0	0	0	0.4193079	2.34651	0	3	100	0	3	-7.672713	-1.043846	-86.31399	
13:09:29	0	0	0	0.4193079	2.34651	0	3	100	0	3	-7.663517	-1.056478	-86.32599	
13:09:30	0	0	0	0.4193079	2.34651	0	3	100	0	3	-7.663459	-1.067773	-86.33553	
13:09:30	0	0	0	0.5934298	9.947413	0	3	100	0	4	-7.671833	-1.066931	-86.3395	
13:09:30	0	0	0	0.5934298	9.947413	0	3	100	0	4	-7.674815	-1.080438	-86.33243	
13:09:30	0	0	0	0.5934298	9.947413	0	3	100	0	4	-7.669146	-1.072799	-86.33833	
13:09:30	0	0	0	0.5934298	9.947413	0	3	100	0	4	-7.65579	-1.061409	-86.34492	
13:09:31	0	0	0	0.5934298	9.947413	0	3	100	0	4	-7.656548	-1.062996	-86.34375	
13:09:31	0	0	0	0.4407955	0.1578348	0	3	100	0	4	-7.652877	-1.078246	-86.35275	
13:09:31	0	0	0	0.4407955	0.1578348	0	3	100	0	4	-7.644169	-1.088124	-86.35728	
13:09:31	0	0	0	0.4407955	0.1578348	0	3	100	0	4	-7.651069	-1.108761	-86.35618	
13:09:31	0	0	0	0.4407955	0.1578348	0	3	100	0	4	-7.65232	-1.09992	-86.37591	
13:09:32	0	0	0	0.4407955	0.1578348	0	3	100	0	4	-7.649658	-1.089839	-86.37273	
13:09:32	0	0	0	0.1242454	-14.2366	0	3	100	0	4	-7.644035	-1.060287	-86.3708	
13:09:32	0	0	0	0.1242454	-14.2366	0	3	100	0	4	-7.649276	-1.061731	-86.35245	
13:09:32	0	0	0	0.1242454	-14.2366	0	3	100	0	4	-7.63815	-1.044335	-86.36206	
13:09:32	0	0	0	0.1242454	-14.2366	0	3	100	0	4	-7.644344	-1.049322	-86.36353	
13:09:33	0	0	0	0.1242454	-14.2366	0	3	100	0	4	-7.648478	-1.037958	-86.3708	
13:09:33	0	0	0	0.0289316	-11.6299	0	3	100	0	4	-7.639972	-1.026755	-86.38206	
13:09:33	0	0	0	0.0289316	-11.6299	0	3	100	0	4	-7.632368	-1.007783	-86.39763	
13:09:33	0	0	0	0.0289316	-11.6299	0	3	100	0	4	-7.641613	-0.9919925	-86.40627	
13:09:33	0	0	0	0.0289316	-11.6299	0	3	100	0	4	-7.645231	-0.982605	-86.41338	
13:09:34	0	0	0	0.0289316	-11.6299	0	3	100	0	4	-7.648162	-0.9750707	-86.41496	
13:09:34	0	0	0	0.261308	2.829449	0	3	100	0	4	-7.648648	-0.9873942	-86.42085	
13:09:34	0	0	0	0.261308	2.829449	0	3	100	0	4	-7.634221	-0.9749851	-86.42783	
13:09:34	0	0	0	0.261308	2.829449	0	3	100	0	4	-7.631656	-0.9862712	-86.45322	
13:09:34	0	0	0	0.261308	2.829449	0	3	100	0	4	-7.628676	-1.002003	-86.45204	
13:09:35	0	0	0	0.261308	2.829449	0	3	100	0	4	-7.63801	-1.001013	-86.45676	
13:09:35	0	0	0	0.5248619	13.88019	0	3	100	0	4	-7.641019	-1.010569	-86.46382	
13:09:35	0	0	0	0.5248619	13.88019	0	3	100	0	4	-7.647694	-1.007486	-86.46382	
13:09:35	0	0	0	0.5248619	13.88019	0	3	100	0	4	-7.653735	-1.009891	-86.46685	
13:09:35	0	0	0	0.5248619	13.88019	0	3	100	0	4	-7.666927	-1.021956	-86.46553	
13:09:36	0	0	0	0.5248619	13.88019	0	3	100	0	4	-7.692416	-1.028849	-86.47233	
13:09:36	0	0	0	0.3733335	2.237612	0	3	100	0	4	-7.70331	-1.030508	-86.47752	
13:09:36	0	0	0	0.3733335	2.237612	0	3	100	0	4	-7.706782	-1.021731	-86.4793	
13:09:36	0	0	0	0.3733335	2.237612	0	3	100	0	4	-7.711346	-1.025863	-86.47958	
13:09:36	0	0	0	0.3733335	2.237612	0	3	100	0	4	-7.714803	-1.033899	-86.47507	
13:09:37	0	0	0	0.3733335	2.237612	0	3	100	0	4	-7.721383	-1.037676	-86.47624	
13:09:37	0	0	0	0.242514	-5.276622	0	3	100	0	4	-7.729986	-1.043085	-86.48107	
13:09:37	0	0	0	0.242514	-5.276622	0	3	100	0	4	-7.729344	-1.049736	-86.48406	
13:09:37	0	0	0	0.242514	-5.276622	0	3	100	0	4	-7.732342	-1.054	-86.48592	
13:09:37	0	0	0	0.242514	-5.276622	0	3	100	0	4	-7.727655	-1.041641	-86.47092	
13:09:38	0	0	0	0.242514	-5.276622	0	3	100	0	4	-7.720852	-1.037768	-86.46603	
13:09:38	0	0	0	0.2084671	-4.703072	0	3	100	0	12	-7.728951	-1.038445	-86.45461	
13:09:38	0	0	0	0.2084671	-4.703072	0	3	100	0	12	-7.734606	-1.047451	-86.45577	
13:09:38	0	0	0	0.2084671	-4.703072	0	3	100	0	12	-7.743636	-1.046826	-86.44843	
13:09:38	0	0	0	0.2084671	-4.703072	0	3	100	0	12	-7.747159	-1.052775	-86.45673	
13:09:39	0	0	0	0.2084671	-4.703072	0	3	100	0	12	-7.75593	-1.032115	-86.45741	
13:09:39	0	0	0	0.1350464	-6.370856	0	3	100	0	12	-7.753948	-1.01805	-86.47084	
13:09:39	0	0	0	0.1350464	-6.370856	0	3	100	0	12	-7.74323	-1.02411	-86.48281	
13:09:39	0	0	0	0.1350464	-6.370856	0	3	100	0	12	-7.752398	-1.024338	-86.4888	
13:09:39	0	0	0	0.1350464	-6.370856	0	3	100	0	12	-7.745444	-1.035851	-86.50504	
13:09:40	0	0	0	0.1350464	-6.370856	0	3	100	0	12	-7.750589	-1.044628	-86.5209	
13:09:40	0	0	0	0.1131576	-5.974159	0	3	100	0	12	-7.755354	-1.059243	-86.53036	
13:09:40	0	0	0	0.1131576	-5.974159	0	3	100	0	12	-7.737245	-1.071519	-86.51766	
13:09:40	0	0	0	0.1131576	-5.974159	0	3	100	0	12	-7.732432	-1.068752	-86.52608	
13:09:40	0	0	0	0.1131576	-5.974159	0	3	100	0	12	-7.72926	-1.074818	-86.52417	
13:09:41	0	0	0	0.1131576	-5.974159	0	3	100	0	12	-7.737589	-1.06605	-86.51749	
13:09:41	0	0	0	-0.08179838	-11.57453	0	3	100	0	12	-7.744117	-1.061199	-86.50512	
13:09:41	0	0	0	-0.08179838	-11.57453	0	3	100	0	12	-7.74394	-1.043825	-86.5067	
13:09:41	0	0	0	-0.08179838	-11.57453	0	3	100	0	12	-7.751233	-1.029726	-86.5076	
13:09:41	0	0	0	-0.08179838	-11.57453	0	3	100	0	12	-7.75543	-1.015806	-86.51401	
13:09:42	0	0	0	-0.08179838	-11.57453	0	3	100	0	12	-7.746655	-1.001442	-86.51463	
13:09:42	0	0	0	0.009595372	-2.415066	0	3	100	0	12	-7.746025	-1.01624	-86.50551	
13:09:42	0	0	0	0.009595372	-2.415066	0	3	100	0	12	-7.759307	-1.025426	-86.51595	
13:09:42	0	0	0	0.009595372	-2.415066	0	3	100	0	12	-7.760969	-1.032112	-86.54401	
13:09:42	0	0	0	0.009595372	-2.415066	0	3	100	0	12	-7.761842	-1.042369	-86.55143	
13:09:43	0	0	0	0.009595372	-2.415066	0	3	100	0	12	-7.760605	-1.01762	-86.53996	
13:09:43	0	0	0	0.1442704	4.413847	0	3	100	0	12	-7.766045	-1.005232	-86.53797	
13:09:43	0	0	0	0.1442704	4.413847	0	3	100	0	12	-7.765261	-1.022588	-86.54429	
13:09:43	0	0	0	0.1442704	4.413847	0	3	100	0	12	-7.768271	-1.02624	-86.55811	
13:09:43	0	0	0	0.1442704	4.413847	0	3	100	0	12	-7.763625	-1.02542	-86.56679	
13:09:44	0	0	0	0.1442704	4.413847	0	3	100	0	12	-7.758408	-1.047471	-86.57513	
13:09:44	0	0	0	0.09696586	0.5759808	0	3	100	0	12	-7.756686	-1.031939	-86.56422	
13:09:44	0	0	0	0.09696586	0.5759808	0	3	100	0	12	-7.765305	-1.029937	-86.55238	
13:09:44	0	0	0	0.09696586	0.5759808	0	3	100	0	12	-7.776377	-1.041296	-86.5567	
13:09:44	0	0	0	0.09696586	0.5759808	0	3	100	0	12	-7.776367	-1.042933	-86.56501	
13:09:45	0	0	0	0.09696586	0.5759808	0	3	100	0	12	-7.771231	-1.050832	-86.5582	
13:09:45	0	0	0	0.06489196	-0.8400886	0	3	100	0	12	-7.775745	-1.061979	-86.55097	
13:09:45	0	0	0	0.06489196	-0.8400886	0	3	100	0	12	-7.777448	-1.054065	-86.55162	
13:09:45	0	0	0	0.06489196	-0.8400886	0	3	100	0	12	-7.772297	-1.050688	-86.55441	
13:09:45	0	0	0	0.06489196	-0.8400886	0	3	100	0	12	-7.781044	-1.059881	-86.54697	
13:09:46	0	0	0	0.06489196	-0.8400886	0	3	100	0	12	-7.796758	-1.05429	-86.54942	
13:09:46	0	0	0	0.1213185	2.379078	0	3	100	0	12	-7.79699	-1.058585	-86.56615	
13:09:46	0	0	0	0.1213185	2.379078	0	3	100	0	12	-7.808172	-1.088888	-86.57283	
13:09:46	0	0	0	0.1213185	2.379078	0	3	100	0	12	-7.804878	-1.117463	-86.57012	
13:09:46	0	0	0	0.1213185	2.379078	0	3	100	0	12	-7.810281	-1.122523	-86.56525	
13:09:47	0	0	0	0.1213185	2.379078	0	3	100	0	12	-7.807312	-1.138395	-86.56572	
13:09:47	0	0	0	0.4759929	16.97795	0	3	100	0	12	-7.801389	-1.107569	-86.55772	
13:09:47	0	0	0	0.4759929	16.97795	0	3	100	0	12	-7.797077	-1.095859	-86.55852	
13:09:47	0	0	0	0.4759929	16.97795	0	3	100	0	12	-7.80301	-1.096165	-86.56196	
13:09:48	0	0	0	0.4759929	16.97795	0	3	100	0	12	-7.809251	-1.097134	-86.5641	
13:09:48	0	0	0	0.4759929	16.97795	0	3	100	0	12	-7.826201	-1.102701	-86.56459	
13:09:48	0	0	0	0.5824456	13.58216	0	3	100	0	12	-7.828879	-1.108935	-86.56977	
13:09:48	0	0	0	0.5824456	13.58216	0	3	100	0	12	-7.82609	-1.115916	-86.5609	
13:09:48	0	0	0	0.5824456	13.58216	0	3	100	0	12	-7.815164	-1.09657	-86.55912	
13:09:49	0	0	0	0.5824456	13.58216	0	3	100	0	12	-7.819451	-1.088152	-86.56295	
13:09:49	0	0	0	0.5824456	13.58216	0	3	100	0	12	-7.816321	-1.07752	-86.54923	
13:09:49	0	0	0	0.5912972	8.949559	0	3	100	0	12	-7.807786	-1.064491	-86.54162	
13:09:49	0	0	0	0.5912972	8.949559	0	3	100	0	12	-7.805286	-1.06836	-86.54126	
13:09:49	0	0	0	0.5912972	8.949559	0	3	100	0	12	-7.803827	-1.063691	-86.54255	
13:09:50	0	0	0	0.5912972	8.949559	0	3	100	0	12	-7.79704	-1.0615	-86.52764	
13:09:50	0	0	0	0.5912972	8.949559	0	3	100	0	12	-7.788353	-1.07187	-86.52453	
13:09:50	0	0	0	0.6877837	9.688897	0	3	100	0	12	-7.7809	-1.069596	-86.52261	
13:09:50	0	0	0	0.6877837	9.688897	0	3	100	0	12	-7.781408	-1.05369	-86.51472	
13:09:50	0	0	0	0.6877837	9.688897	0	3	100	0	12	-7.78194	-1.049528	-86.51073	
13:09:51	0	0	0	0.6877837	9.688897	0	3	100	0	12	-7.791255	-1.055469	-86.51585	
13:09:51	0	0	0	0.6877837	9.688897	0	3	100	0	12	-7.797765	-1.078246	-86.50734	
13:09:51	0	0	0	0.5657957	0.801303	0	3	100	0	12	-7.797254	-1.087287	-86.50006	
13:09:51	0	0	0	0.5657957	0.801303	0	3	100	0	12	-7.787113	-1.076549	-86.49832	
13:09:51	0	0	0	0.5657957	0.801303	0	3	100	0	12	-7.787813	-1.065122	-86.49448	
13:09:52	0	0	0	0.5657957	0.801303	0	3	100	0	12	-7.793807	-1.0615	-86.48261	
13:09:52	0	0	0	0.5657957	0.801303	0	3	100	0	12	-7.779511	-1.054985	-86.48306	
13:09:52	0	0	0	0.528214	-1.507752	0	3	100	0	12	-7.768382	-1.065644	-86.48983	
13:09:52	0	0	0	0.528214	-1.507752	0	3	100	0	12	-7.76542	-1.053309	-86.49488	
13:09:52	0	0	0	0.528214	-1.507752	0	3	100	0	12	-7.762578	-1.048797	-86.4958	
13:09:53	0	0	0	0.528214	-1.507752	0	3	100	0	12	-7.764002	-1.065578	-86.49933	
13:09:53	0	0	0	0.528214	-1.507752	0	3	100	0	12	-7.767938	-1.065022	-86.49662	
13:09:53	0	0	0	0.7327209	6.610033	0	3	100	0	12	-7.755166	-1.070401	-86.48702	
13:09:53	0	0	0	0.7327209	6.610033	0	3	100	0	12	-7.749318	-1.082741	-86.48786	
13:09:53	0	0	0	0.7327209	6.610033	0	3	100	0	12	-7.737257	-1.072488	-86.48666	
13:09:54	0	0	0	0.7327209	6.610033	0	3	100	0	12	-7.736584	-1.057096	-86.48359	
13:09:54	0	0	0	0.7327209	6.610033	0	3	100	0	12	-7.744714	-1.080605	-86.47943	
13:09:54	0	0	0	0.6740953	1.401822	0	3	100	0	12	-7.746752	-1.068945	-86.4761	
13:09:54	0	0	0	0.6740953	1.401822	0	3	100	0	12	-7.741798	-1.064655	-86.48871	
13:09:54	0	0	0	0.6740953	1.401822	0	3	100	0	12	-7.739583	-1.070067	-86.48948	
13:09:55	0	0	0	0.6740953	1.401822	0	3	100	0	12	-7.736215	-1.042368	-86.48714	
13:09:55	0	0	0	0.6740953	1.401822	0	3	100	0	12	-7.731905	-1.037827	-86.48804	
13:09:55	0	0	0	0.4784932	-8.459049	0	3	100	0	12	-7.723938	-1.037799	-86.488	
13:09:55	0	0	0	0.4784932	-8.459049	0	3	100	0	12	-7.725846	-1.051033	-86.48445	
13:09:55	0	0	0	0.4784932	-8.459049	0	3	100	0	12	-7.722594	-1.051527	-86.49625	
13:09:56	0	0	0	0.4784932	-8.459049	0	3	100	0	12	-7.726286	-1.062023	-86.50082	
13:09:56	0	0	0	0.4784932	-8.459049	0	3	100	0	12	-7.741036	-1.079546	-86.48897	
13:09:56	0	0	0	0.2864536	-12.83226	0	3	100	0	12	-7.74654	-1.102995	-86.48297	
13:09:56	0	0	0	0.2864536	-12.83226	0	3	100	0	12	-7.757876	-1.112081	-86.48007	
13:09:56	0	0	0	0.2864536	-12.83226	0	3	100	0	12	-7.750888	-1.122234	-86.47016	
13:09:57	0	0	0	0.2864536	-12.83226	0	3	100	0	12	-7.745176	-1.127529	-86.46816	
13:09:57	0	0	0	0.2864536	-12.83226	0	3	100	0	12	-7.736953	-1.128425	-86.46612	
13:09:57	0	0	0	0.1883422	-12.17534	0	3	100	0	12	-7.737499	-1.123509	-86.46808	
13:09:57	0	0	0	0.1883422	-12.17534	0	3	100	0	12	-7.732708	-1.113847	-86.46275	
13:09:57	0	0	0	0.1883422	-12.17534	0	3	100	0	12	-7.73002	-1.10672	-86.46575	
13:09:58	0	0	0	0.1883422	-12.17534	0	3	100	0	12	-7.730854	-1.12897	-86.46245	
13:09:58	0	0	0	0.1883422	-12.17534	0	3	100	0	12	-7.725892	-1.12757	-86.45358	
13:09:58	0	0	0	0.3591819	0.942311	0	3	100	0	12	-7.734483	-1.118935	-86.44524	
13:09:58	0	0	0	0.3591819	0.942311	0	3	100	0	12	-7.738653	-1.108176	-86.43757	
13:09:58	0	0	0	0.3591819	0.942311	0	3	100	0	12	-7.740934	-1.099985	-86.43616	
13:09:59	0	0	0	0.3591819	0.942311	0	3	100	0	12	-7.734162	-1.121989	-86.45042	
13:09:59	0	0	0	0.3591819	0.942311	0	3	100	0	12	-7.747015	-1.143462	-86.44968	
13:09:59	0	0	0	0.4175955	1.653301	0	3	100	0	12	-7.737932	-1.161512	-86.43121	
13:09:59	0	0	0	0.4175955	1.653301	0	3	100	0	12	-7.740437	-1.17467	-86.42927	
13:09:59	0	0	0	0.4175955	1.653301	0	3	100	0	12	-7.74571	-1.195504	-86.41802	
13:10:00	0	0	0	0.4175955	1.653301	0	3	100	0	12	-7.752617	-1.19801	-86.4137	
13:10:00	0	0	0	0.4175955	1.653301	0	3	100	0	12	-7.746109	-1.211695	-86.40492	
13:10:00	0	0	0	0.4160557	0.9180022	0	3	100	0	12	-7.741145	-1.201017	-86.40087	
13:10:00	0	0	0	0.4160557	0.9180022	0	3	100	0	12	-7.741156	-1.203927	-86.38398	
13:10:00	0	0	0	0.4160557	0.9180022	0	3	100	0	12	-7.744251	-1.194079	-86.37268	
13:10:01	0	0	0	0.4160557	0.9180022	0	3	100	0	12	-7.742694	-1.200341	-86.37123	
13:10:01	0	0	0	0.4160557	0.9180022	0	3	100	0	12	-7.756093	-1.205819	-86.36257	
13:10:01	0	0	0	0.3480327	-2.610503	0	3	100	0	12	-7.761428	-1.19517	-86.34894	
13:10:01	0	0	0	0.3480327	-2.610503	0	3	100	0	12	-7.760241	-1.178796	-86.3504	
13:10:01	0	0	0	0.3480327	-2.610503	0	3	100	0	12	-7.757219	-1.159926	-86.34732	
13:10:02	0	0	0	0.3480327	-2.610503	0	3	100	0	12	-7.75733	-1.143363	-86.33951	
13:10:02	0	0	0	0.3480327	-2.610503	0	3	100	0	12	-7.772386	-1.145982	-86.33378	
13:10:02	0	0	0	0.07571605	-13.1335	0	3	100	0	12	-7.768967	-1.15628	-86.32477	
13:10:02	0	0	0	0.07571605	-13.1335	0	3	100	0	12	-7.768075	-1.140195	-86.3298	
13:10:02	0	0	0	0.07571605	-13.1335	0	3	100	0	12	-7.767308	-1.13207	-86.32816	
13:10:03	0	0	0	0.07571605	-13.1335	0	3	100	0	12	-7.748875	-1.12263	-86.33773	
13:10:03	0	0	0	0.07571605	-13.1335	0	3	100	0	12	-7.753435	-1.115768	-86.33255	
13:10:03	0	0	0	0.01789641	-9.740704	0	3	100	0	12	-7.760417	-1.085983	-86.31844	
13:10:03	0	0	0	0.01789641	-9.740704	0	3	100	0	12	-7.764349	-1.087466	-86.30659	
13:10:03	0	0	0	0.01789641	-9.740704	0	3	100	0	12	-7.765855	-1.095143	-86.30437	
13:10:04	0	0	0	0.01789641	-9.740704	0	3	100	0	12	-7.764547	-1.102233	-86.31384	
13:10:04	0	0	0	0.01789641	-9.740704	0	3	100	0	12	-7.756184	-1.105931	-86.31705	
13:10:04	0	0	0	0.01492422	-4.936496	0	3	100	0	11	-7.742972	-1.084555	-86.32417	
13:10:04	0	0	0	0.01492422	-4.936496	0	3	100	0	11	-7.741777	-1.090405	-86.32967	
13:10:04	0	0	0	0.01492422	-4.936496	0	3	100	0	11	-7.741725	-1.089772	-86.32497	
13:10:05	0	0	0	0.01492422	-4.936496	0	3	100	0	11	-7.748309	-1.104743	-86.33002	
13:10:05	0	0	0	0.01492422	-4.936496	0	3	100	0	11	-7.752379	-1.090467	-86.33333	
13:10:05	0	0	0	0.2202562	6.528579	0	3	100	0	12	-7.760841	-1.101999	-86.33916	
13:10:05	0	0	0	0.2202562	6.528579	0	3	100	0	12	-7.755961	-1.083303	-86.33471	
13:10:05	0	0	0	0.2202562	6.528579	0	3	100	0	12	-7.753617	-1.083894	-86.33158	
13:10:06	0	0	0	0.2202562	6.528579	0	3	100	0	12	-7.759639	-1.096026	-86.33929	
13:10:06	0	0	0	0.2202562	6.528579	0	3	100	0	12	-7.7632	-1.0843	-86.34311	
13:10:06	0	0	0	0.2950672	7.246384	0	3	100	0	12	-7.764081	-1.097055	-86.34122	
13:10:06	0	0	0	0.2950672	7.246384	0	3	100	0	12	-7.758597	-1.089058	-86.32477	
13:10:06	0	0	0	0.2950672	7.246384	0	3	100	0	12	-7.76785	-1.098567	-86.31872	
13:10:07	0	0	0	0.2950672	7.246384	0	3	100	0	12	-7.766177	-1.08517	-86.3309	
13:10:07	0	0	0	0.2950672	7.246384	0	3	100	0	12	-7.765644	-1.08452	-86.33852	
13:10:07	0	0	0	0.0913228	-4.24814	0	3	100	0	12	-7.756237	-1.085337	-86.33547	
13:10:07	0	0	0	0.0913228	-4.24814	0	3	100	0	12	-7.765221	-1.085398	-86.342	
13:10:07	0	0	0	0.0913228	-4.24814	0	3	100	0	12	-7.765121	-1.07417	-86.34097	
13:10:08	0	0	0	0.0913228	-4.24814	0	3	100	0	12	-7.758439	-1.073907	-86.32834	
13:10:08	0	0	0	0.0913228	-4.24814	0	3	100	0	12	-7.749303	-1.071344	-86.3204	
13:10:08	0	0	0	0.1534256	0.1510481	0	3	100	0	12	-7.737923	-1.067813	-86.32632	
13:10:08	0	0	0	0.1534256	0.1510481	0	3	100	0	12	-7.736724	-1.064602	-86.33334	
13:10:08	0	0	0	0.1534256	0.1510481	0	3	100	0	12	-7.738794	-1.07802	-86.33906	
13:10:09	0	0	0	0.1534256	0.1510481	0	3	100	0	12	-7.728929	-1.072325	-86.3411	
13:10:09	0	0	0	0.1534256	0.1510481	0	3	100	0	12	-7.73535	-1.076262	-86.33368	
13:10:09	0	0	0	0.427166	10.93417	0	3	100	0	12	-7.734918	-1.071915	-86.3426	
13:10:09	0	0	0	0.427166	10.93417	0	3	100	0	12	-7.735262	-1.073689	-86.34715	
13:10:09	0	0	0	0.427166	10.93417	0	3	100	0	12	-7.739009	-1.070634	-86.34126	
13:10:10	0	0	0	0.427166	10.93417	0	3	100	0	12	-7.748517	-1.073672	-86.34113	
13:10:10	0	0	0	0.427166	10.93417	0	3	100	0	12	-7.743083	-1.060977	-86.33632	
13:10:10	0	0	0	0.3959537	6.089962	0	3	100	0	12	-7.75169	-1.075318	-86.33311	
13:10:10	0	0	0	0.3959537	6.089962	0	3	100	0	12	-7.739321	-1.071842	-86.34554	
13:10:10	0	0	0	0.3959537	6.089962	0	3	100	0	12	-7.753139	-1.091803	-86.36255	
13:10:11	0	0	0	0.3959537	6.089962	0	3	100	0	12	-7.754888	-1.092359	-86.36242	
13:10:11	0	0	0	0.3959537	6.089962	0	3	100	0	12	-7.75492	-1.093633	-86.3717	
13:10:11	0	0	0	0.4135769	4.649512	0	3	100	0	12	-7.752755	-1.083233	-86.38853	
13:10:11	0	0	0	0.4135769	4.649512	0	3	100	0	12	-7.756007	-1.078481	-86.39727	
13:10:11	0	0	0	0.4135769	4.649512	0	3	100	0	12	-7.762039	-1.073011	-86.38516	
