Date	Latitude(deg) 	Longitude(deg)	hamsl(m)	hafl(m)	climbrate(cm/s)	GroundSpeed(m/s)	Airspeed(m/s)	Mav_Link(%)	Rssi_Link(%)	Throttle	Roll(deg)	Pitch(deg)	Yaw(deg)
16:57:05	0	0	0	0	0	0	0	100	0	0	-0.9332175	1.090158	133.5144	
16:57:05	0	0	0	0	0	0	0	100	0	0	-0.9777131	1.068717	133.6598	
16:57:06	0	0	0	0	0	0	0	100	0	0	-0.9915346	1.067303	133.8106	
16:57:06	0	0	0	0	0	0	0	100	0	0	-0.9930021	1.078173	133.9596	
16:57:06	0	0	0	0.2127505	22.46994	0	3	100	0	50	-0.9934173	1.093615	134.0881	
16:57:06	0	0	0	0.2127505	22.46994	0	3	100	0	50	-0.9984345	1.108587	134.2128	
16:57:06	0	0	0	0.2127505	22.46994	0	3	100	0	50	-0.9918731	1.121005	134.353	
16:57:07	0	0	0	0.2127505	22.46994	0	3	100	0	50	-0.9968591	1.130593	134.4782	
16:57:07	0	0	0	0.2127505	22.46994	0	3	100	0	50	-1.004077	1.14014	134.5927	
16:57:07	0	0	0	0.794467	32.79939	0	3	100	0	50	-1.012039	1.135043	134.7029	
16:57:07	0	0	0	0.794467	32.79939	0	3	100	0	50	-1.01068	1.171705	134.8231	
16:57:07	0	0	0	0.794467	32.79939	0	3	100	0	50	-1.005143	1.175011	134.9218	
16:57:08	0	0	0	0.794467	32.79939	0	3	100	0	50	-1.005333	1.183506	135.0236	
16:57:08	0	0	0	0.794467	32.79939	0	3	100	0	50	-0.9993169	1.179243	135.1075	
16:57:08	0	0	0	0.5113188	7.169781	0	3	100	0	50	-1.001173	1.177427	135.2189	
16:57:08	0	0	0	0.5113188	7.169781	0	3	100	0	50	-1.004065	1.193225	135.328	
16:57:08	0	0	0	0.5113188	7.169781	0	3	100	0	50	-1.004915	1.188047	135.4235	
16:57:09	0	0	0	0.5113188	7.169781	0	3	100	0	50	-1.008017	1.196525	135.5079	
16:57:09	0	0	0	0.5113188	7.169781	0	3	100	0	50	-0.9884156	1.201634	135.5874	
16:57:09	0	0	0	0.01266587	-16.86595	0	3	100	0	50	-0.9827905	1.211691	135.6619	
16:57:09	0	0	0	0.01266587	-16.86595	0	3	100	0	50	-0.9856635	1.200147	135.743	
16:57:09	0	0	0	0.01266587	-16.86595	0	3	100	0	50	-0.9874522	1.205988	135.8059	
16:57:10	0	0	0	0.01266587	-16.86595	0	3	100	0	50	-0.9967371	1.201504	135.8846	
16:57:10	0	0	0	0.01266587	-16.86595	0	3	100	0	50	-1.008956	1.225883	135.9564	
16:57:10	0	0	0	-0.03238119	-12.0744	0	3	100	0	50	-1.00871	1.241492	136.0213	
16:57:10	0	0	0	-0.03238119	-12.0744	0	3	100	0	50	-1.017895	1.243232	136.0898	
16:57:10	0	0	0	-0.03238119	-12.0744	0	3	100	0	50	-1.016899	1.261365	136.1536	
16:57:11	0	0	0	-0.03238119	-12.0744	0	3	100	0	50	-1.010105	1.258589	136.2042	
16:57:11	0	0	0	-0.03238119	-12.0744	0	3	100	0	50	-1.014297	1.273436	136.2414	
16:57:11	0	0	0	0.1625928	0.951759	0	3	100	0	50	-1.017302	1.29812	136.2852	
16:57:11	0	0	0	0.1625928	0.951759	0	3	100	0	50	-1.010785	1.324167	136.3251	
16:57:11	0	0	0	0.1625928	0.951759	0	3	100	0	50	-1.00886	1.312285	136.361	
16:57:12	0	0	0	0.1625928	0.951759	0	3	100	0	50	-1.00995	1.300081	136.3998	
16:57:12	0	0	0	0.1625928	0.951759	0	3	100	0	50	-1.022163	1.296915	136.4124	
16:57:12	0	0	0	0.04495423	-5.740671	0	3	100	0	50	-1.035105	1.286525	136.4296	
16:57:12	0	0	0	0.04495423	-5.740671	0	3	100	0	50	-1.045925	1.277773	136.4462	
16:57:12	0	0	0	0.04495423	-5.740671	0	3	100	0	50	-1.043831	1.264114	136.4796	
16:57:13	0	0	0	0.04495423	-5.740671	0	3	100	0	50	-1.047431	1.244635	136.4961	
16:57:13	0	0	0	0.04495423	-5.740671	0	3	100	0	50	-1.040186	1.238102	136.5258	
16:57:13	0	0	0	0.1902135	2.057837	0	3	100	0	50	-1.02721	1.233863	136.5617	
16:57:13	0	0	0	0.1902135	2.057837	0	3	100	0	50	-1.033683	1.239735	136.5803	
16:57:13	0	0	0	0.1902135	2.057837	0	3	100	0	50	-1.03406	1.225585	136.6098	
16:57:14	0	0	0	0.1902135	2.057837	0	3	100	0	50	-1.024829	1.229756	136.6283	
16:57:14	0	0	0	0.1902135	2.057837	0	3	100	0	50	-1.022587	1.250018	136.6335	
16:57:14	0	0	0	0.0240118	-2.800739	0	3	100	0	50	-4.358795	4.776254	142.9739	
16:57:14	0	0	0	0.0240118	-2.800739	0	3	100	0	50	2.290178	4.116764	144.2565	
16:57:14	0	0	0	0.0240118	-2.800739	0	3	100	0	50	-5.013107	-9.811264	144.8174	
16:57:15	0	0	0	0.0240118	-2.800739	0	3	100	0	50	-7.508194	-9.412144	147.4729	
16:57:15	0	0	0	0.0240118	-2.800739	0	3	100	0	50	-4.537395	-2.157435	150.2482	
16:57:15	0	0	0	-0.1639356	-48.3276	0	3	100	0	50	-2.362158	2.112146	154.5628	
16:57:15	0	0	0	-0.1639356	-48.3276	0	3	100	0	50	-2.944734	6.333383	157.6878	
16:57:15	0	0	0	-0.1639356	-48.3276	0	3	100	0	50	-2.150651	1.979256	158.3121	
16:57:16	0	0	0	-0.1639356	-48.3276	0	3	100	0	50	-1.330981	2.072349	158.3247	
16:57:16	0	0	0	-0.1639356	-48.3276	0	3	100	0	50	-1.405188	2.158799	158.3689	
16:57:16	0	0	0	-0.2315759	-7.431008	0	3	100	0	50	-1.330228	2.152206	158.4289	
16:57:16	0	0	0	-0.2315759	-7.431008	0	3	100	0	50	-1.340618	2.097251	158.4664	
16:57:16	0	0	0	-0.2315759	-7.431008	0	3	100	0	50	-1.360729	2.051489	158.5091	
16:57:17	0	0	0	-0.2315759	-7.431008	0	3	100	0	50	-1.303825	2.012423	158.5346	
16:57:17	0	0	0	-0.2315759	-7.431008	0	3	100	0	50	-1.275594	1.968719	158.5807	
16:57:17	0	0	0	-0.3774029	-11.76558	0	3	100	0	50	-1.24435	1.923084	158.5974	
16:57:17	0	0	0	-0.3774029	-11.76558	0	3	100	0	50	-1.237284	1.868966	158.6102	
16:57:17	0	0	0	-0.3774029	-11.76558	0	3	100	0	50	-1.222801	1.799953	158.6112	
16:57:18	0	0	0	-0.3774029	-11.76558	0	3	100	0	50	-9.408063	0.9077737	158.9328	
16:57:18	0	0	0	-0.3774029	-11.76558	0	3	100	0	50	-59.69819	8.941642	163.1719	
16:57:18	0	0	0	-0.6337425	-13.66937	0	3	100	0	50	-67.28276	7.464871	162.1532	
16:57:18	0	0	0	-0.6337425	-13.66937	0	3	100	0	50	-67.44136	-1.978713	157.6761	
16:57:18	0	0	0	-0.6337425	-13.66937	0	3	100	0	50	-41.42994	-21.68874	153.2897	
16:57:19	0	0	0	-0.6337425	-13.66937	0	3	100	0	50	-21.37358	-13.04494	144.8719	
16:57:19	0	0	0	-0.6337425	-13.66937	0	3	100	0	50	-4.765452	-3.628341	138.5661	
16:57:19	0	0	0	-0.9075029	-54.75214	0	3	100	0	50	6.079725	1.365266	136.7632	
16:57:19	0	0	0	-0.9075029	-54.75214	0	3	100	0	50	0.8480597	2.911697	135.283	
16:57:19	0	0	0	-0.9075029	-54.75214	0	3	100	0	50	0.3914992	1.427198	135.6346	
16:57:20	0	0	0	-0.9075029	-54.75214	0	3	100	0	50	-0.3171681	0.435299	135.6098	
16:57:20	0	0	0	-0.9075029	-54.75214	0	3	100	0	50	-0.1258888	0.5482519	135.6282	
16:57:20	0	0	0	-0.5262314	80.88633	0	3	100	0	50	7.158833	-2.294315	135.6617	
16:57:20	0	0	0	-0.5262314	80.88633	0	3	100	0	50	-7.140951	-24.99367	134.5491	
16:57:20	0	0	0	-0.5262314	80.88633	0	3	100	0	50	-9.339936	-22.9439	136.1612	
16:57:21	0	0	0	-0.5262314	80.88633	0	3	100	0	50	-0.8906264	-9.930564	134.3056	
16:57:21	0	0	0	-0.5262314	80.88633	0	3	100	0	50	5.97576	-1.140496	135.6623	
16:57:21	0	0	0	-0.525405	-5.816222	0	3	100	0	50	4.445622	-0.5028959	135.2276	
16:57:21	0	0	0	-0.525405	-5.816222	0	3	100	0	50	0.0743616	-0.9751881	135.2637	
16:57:21	0	0	0	-0.525405	-5.816222	0	3	100	0	50	0.2858587	-0.7755165	135.2256	
16:57:22	0	0	0	-0.525405	-5.816222	0	3	100	0	50	0.3774192	-0.6475372	135.2167	
16:57:22	0	0	0	-0.525405	-5.816222	0	3	100	0	50	0.2443223	4.501491	135.5182	
16:57:22	0	0	0	0.007057607	160.219	0	3	100	0	50	-6.968866	-22.09022	133.8132	
16:57:22	0	0	0	0.007057607	160.219	0	3	100	0	50	-13.02184	-26.82815	136.6911	
16:57:22	0	0	0	0.007057607	160.219	0	3	100	0	50	-5.483651	-16.19692	132.5832	
16:57:23	0	0	0	0.007057607	160.219	0	3	100	0	50	2.019804	-3.769365	132.9238	
16:57:23	0	0	0	0.007057607	160.219	0	3	100	0	50	3.933095	2.174574	134.0322	
16:57:23	0	0	0	-0.124424	-4.481256	0	3	100	0	50	0.7633954	-0.6563488	133.5666	
16:57:23	0	0	0	-0.124424	-4.481256	0	3	100	0	50	0.6926428	-0.5782561	133.4886	
16:57:24	0	0	0	-0.124424	-4.481256	0	3	100	0	50	0.7191383	-0.5216913	133.4569	
16:57:24	0	0	0	-0.124424	-4.481256	0	3	100	0	50	0.7417966	-0.398982	133.4044	
16:57:24	0	0	0	-0.124424	-4.481256	0	3	100	0	50	3.543087	2.625146	134.6205	
16:57:24	0	0	0	-0.2843729	66.38763	0	3	100	0	50	3.400514	-2.933097	135.3344	
16:57:24	0	0	0	-0.2843729	66.38763	0	3	100	0	50	-3.640176	-12.81716	134.9408	
16:57:25	0	0	0	-0.2843729	66.38763	0	3	100	0	50	-8.333372	-19.94491	135.1507	
16:57:25	0	0	0	-0.2843729	66.38763	0	3	100	0	50	-7.335011	-15.2754	133.9241	
16:57:25	0	0	0	-0.2843729	66.38763	0	3	100	0	50	-2.727149	-6.974903	134.2355	
16:57:25	0	0	0	-0.1443478	-52.48448	0	3	100	0	50	1.330851	0.5485997	136.2692	
16:57:25	0	0	0	-0.1443478	-52.48448	0	3	100	0	50	0.4299873	2.476969	137.5759	
16:57:26	0	0	0	-0.1443478	-52.48448	0	3	100	0	50	-0.114284	-0.3665466	138.7071	
16:57:26	0	0	0	-0.1443478	-52.48448	0	3	100	0	50	-0.3912609	-0.2678081	139.2479	
16:57:26	0	0	0	-0.1443478	-52.48448	0	3	100	0	50	-0.5323942	-0.1077107	139.2626	
16:57:26	0	0	0	-0.1974897	-21.76398	0	3	100	0	50	-0.5844563	-0.02520233	139.2683	
16:57:26	0	0	0	-0.1974897	-21.76398	0	3	100	0	50	-0.6189472	0.01016932	139.293	
16:57:27	0	0	0	-0.1974897	-21.76398	0	3	100	0	50	-0.6453642	0.05031069	139.3095	
16:57:27	0	0	0	-0.1974897	-21.76398	0	3	100	0	50	-0.6578934	0.09334788	139.3302	
16:57:27	0	0	0	-0.1974897	-21.76398	0	3	100	0	50	-0.6731826	0.1173918	139.3525	
16:57:27	0	0	0	-0.2744794	-14.28344	0	3	100	0	50	-0.6887705	0.1519242	139.3712	
16:57:27	0	0	0	-0.2744794	-14.28344	0	3	100	0	50	-0.6963508	0.1961425	139.3841	
16:57:28	0	0	0	-0.2744794	-14.28344	0	3	100	0	50	-0.7112237	0.2450449	139.3923	
16:57:28	0	0	0	-0.2744794	-14.28344	0	3	100	0	50	-0.7269905	0.2899244	139.3658	
16:57:28	0	0	0	-0.2744794	-14.28344	0	3	100	0	50	-0.7418174	0.3253986	139.363	
16:57:28	0	0	0	-0.1435252	-0.8662981	0	3	100	0	50	-0.7625939	0.3674455	139.3342	
16:57:28	0	0	0	-0.1435252	-0.8662981	0	3	100	0	50	-0.7772576	0.4107099	139.3223	
16:57:29	0	0	0	-0.1435252	-0.8662981	0	3	100	0	50	-0.7898825	0.4541473	139.3	
16:57:29	0	0	0	-0.1435252	-0.8662981	0	3	100	0	50	-0.8053687	0.4926993	139.2959	
16:57:29	0	0	0	-0.1435252	-0.8662981	0	3	100	0	50	-0.8177242	0.5153818	139.2808	
16:57:29	0	0	0	-0.04249193	5.406708	0	3	100	0	50	-0.828791	0.5325363	139.2807	
16:57:29	0	0	0	-0.04249193	5.406708	0	3	100	0	50	-0.8424991	0.551841	139.2559	
16:57:30	0	0	0	-0.04249193	5.406708	0	3	100	0	50	-0.8468245	0.5809966	139.2577	
16:57:30	0	0	0	-0.04249193	5.406708	0	3	100	0	50	-0.8521531	0.5864105	139.2581	
16:57:30	0	0	0	-0.04249193	5.406708	0	3	100	0	50	-0.857228	0.632604	139.2603	
16:57:30	0	0	0	-0.1513637	0.1731884	0	3	100	0	50	-0.8628018	0.6530601	139.2603	
16:57:30	0	0	0	-0.1513637	0.1731884	0	3	100	0	50	-0.8642347	0.6680843	139.2539	
16:57:31	0	0	0	-0.1513637	0.1731884	0	3	100	0	50	-0.8627943	0.7153863	139.2437	
16:57:31	0	0	0	-0.1513637	0.1731884	0	3	100	0	50	-0.8769773	0.7610185	139.2478	
16:57:31	0	0	0	-0.1513637	0.1731884	0	3	100	0	50	-0.8787979	0.802482	139.2428	
