Date	Latitude(deg) 	Longitude(deg)	hamsl(m)	hafl(m)	climbrate(cm/s)	GroundSpeed(m/s)	Airspeed(m/s)	Mav_Link(%)	Rssi_Link(%)	Throttle	Roll(deg)	Pitch(deg)	Yaw(deg)
11:04:06	0	0	0	0	0	0	0	100	0	0	-0.54415	-0.00425889	-148.8515	
11:04:06	0	0	0	0	0	0	0	100	0	0	-0.5378629	0.008816307	-148.8459	
11:04:06	0	0	0	0	0	0	0	100	0	0	-0.5230216	-0.0008768788	-148.8408	
11:04:07	0	0	0	0	0	0	0	100	0	0	-0.5300243	-0.00752001	-148.8177	
11:04:07	0	0	0	-0.7783549	-45.04831	0	3	100	0	4	-0.5342877	-0.01518399	-148.8171	
11:04:07	0	0	0	-0.7783549	-45.04831	0	3	100	0	4	-0.5385056	-0.02781714	-148.7947	
11:04:07	0	0	0	-0.7783549	-45.04831	0	3	100	0	4	-0.5385266	-0.03033986	-148.7866	
11:04:07	0	0	0	-0.7783549	-45.04831	0	3	100	0	4	-0.5469092	-0.02461192	-148.7662	
11:04:08	0	0	0	-0.7783549	-45.04831	0	3	100	0	4	-0.5514838	-0.002654355	-148.7522	
11:04:08	0	0	0	-0.2511156	-6.02623	0	3	100	0	4	-0.5605934	-0.003350261	-148.6979	
11:04:08	0	0	0	-0.2511156	-6.02623	0	3	100	0	4	-0.5617465	-0.006771598	-148.6565	
11:04:08	0	0	0	-0.2511156	-6.02623	0	3	100	0	4	-0.5658773	0.0006721333	-148.619	
11:04:08	0	0	0	-0.2511156	-6.02623	0	3	100	0	4	-0.5704659	-0.00903063	-148.5864	
11:04:09	0	0	0	-0.2511156	-6.02623	0	3	100	0	4	-0.574734	-0.01574663	-148.5446	
11:04:09	0	0	0	-0.06817887	-0.6409468	0	3	100	0	4	-0.5755109	-0.01528266	-148.5155	
11:04:09	0	0	0	-0.06817887	-0.6409468	0	3	100	0	4	-0.570115	-0.005743335	-148.481	
11:04:09	0	0	0	-0.06817887	-0.6409468	0	3	100	0	4	-0.5711259	-0.01832025	-148.4462	
11:04:09	0	0	0	-0.06817887	-0.6409468	0	3	100	0	4	-0.5732425	-0.04668695	-148.4372	
11:04:10	0	0	0	-0.06817887	-0.6409468	0	3	100	0	4	-0.5793439	-0.05100199	-148.4051	
11:04:10	0	0	0	0.1163353	3.611585	0	3	100	0	4	-0.5764279	-0.05548887	-148.3707	
11:04:10	0	0	0	0.1163353	3.611585	0	3	100	0	4	-0.5776908	-0.03333768	-148.3465	
11:04:10	0	0	0	0.1163353	3.611585	0	3	100	0	4	-0.5724898	-0.02957439	-148.3226	
11:04:10	0	0	0	0.1163353	3.611585	0	3	100	0	4	-0.5739731	-0.01518391	-148.2929	
11:04:11	0	0	0	0.1163353	3.611585	0	3	100	0	4	-0.5832551	-0.02002723	-148.2746	
11:04:11	0	0	0	0.06709559	-4.254601	0	3	100	0	4	-0.580918	-0.004860773	-148.2407	
11:04:11	0	0	0	0.06709559	-4.254601	0	3	100	0	4	-0.5911985	-0.00332118	-148.2273	
11:04:11	0	0	0	0.06709559	-4.254601	0	3	100	0	4	-0.5743909	0.01411101	-148.1991	
11:04:11	0	0	0	0.06709559	-4.254601	0	3	100	0	4	-0.5699467	0.004398828	-148.1978	
11:04:12	0	0	0	0.06709559	-4.254601	0	3	100	0	4	-0.5764555	-0.006038634	-148.176	
11:04:12	0	0	0	0.05334	-7.771987	0	3	100	0	4	-0.5821724	-0.01032362	-148.1516	
11:04:12	0	0	0	0.05334	-7.771987	0	3	100	0	4	-0.5853989	-0.01764222	-148.1502	
11:04:12	0	0	0	0.05334	-7.771987	0	3	100	0	4	-0.1115601	1.73945	-148.3713	
11:04:12	47.4341	-122.308	171.501	0.05334	-7.771987	32.3	3	100	0	4	1.341091	7.514654	-149.4442	
11:04:13	47.4341	-122.308	171.501	0.05334	-7.771987	32.3	3	100	0	4	2.097078	11.3463	-150.7135	
11:04:13	47.4341	-122.308	171.501	54.17968	3594.493	32.3	32.30108	100	0	4	3.280469	17.0875	-152.0483	
11:04:13	47.4341	-122.308	171.501	54.17968	3594.493	32.3	32.30108	100	0	4	4.28457	22.90111	-153.6033	
11:04:13	47.4341	-122.308	171.501	54.17968	3594.493	32.3	32.30108	100	0	4	5.1037	28.55972	-155.2085	
11:04:13	47.4341	-122.308	171.501	54.17968	3594.493	32.3	32.30108	100	0	4	5.981793	33.95633	-156.3851	
11:04:14	47.4341	-122.308	171.501	54.17968	3594.493	32.3	32.30108	100	0	4	7.059727	39.10204	-157.0427	
11:04:14	47.4341	-122.308	171.501	171.3318	8130.565	32.3	32.30108	100	0	4	8.360732	44.07965	-157.2657	
11:04:14	47.4341	-122.308	171.501	171.3318	8130.565	32.3	32.30108	100	0	4	9.961285	49.0303	-157.0578	
11:04:14	47.4341	-122.308	171.501	171.3318	8130.565	32.3	32.30108	100	0	4	11.94542	53.84915	-156.375	
11:04:14	47.4341	-122.308	171.501	171.3318	8130.565	32.3	32.30108	100	0	4	14.44174	58.52663	-155.1168	
11:04:15	47.4341	-122.308	171.501	171.3318	8130.565	32.3	32.30108	100	0	4	17.45831	62.84353	-153.2548	
11:04:15	47.4341	-122.308	171.501	222.9112	7287.591	32.3	32.30108	100	0	4	21.29095	66.92064	-150.5223	
11:04:15	47.4341	-122.308	171.501	222.9112	7287.591	32.3	32.30108	100	0	4	26.41655	70.77519	-146.4594	
11:04:15	47.4341	-122.308	171.501	222.9112	7287.591	32.3	32.30108	100	0	4	33.67544	74.34443	-140.2356	
11:04:15	47.4341	-122.308	171.501	222.9112	7287.591	32.3	32.30108	100	0	4	44.29806	77.47569	-130.6221	
11:04:16	47.4341	-122.308	171.501	222.9112	7287.591	32.3	32.30108	100	0	4	60.48501	79.94907	-115.4349	
11:04:16	47.4341	-122.308	171.501	225.1337	4038.101	32.3	32.30108	100	0	4	83.4554	81.2632	-93.45696	
11:04:16	47.4341	-122.308	171.501	225.1337	4038.101	32.3	32.30108	100	0	4	109.0817	80.95619	-68.8272	
11:04:16	47.4341	-122.308	171.501	225.1337	4038.101	32.3	32.30108	100	0	4	129.4809	79.1716	-49.42958	
11:04:16	47.4341	-122.308	171.501	225.1337	4038.101	32.3	32.30108	100	0	4	142.9986	76.52608	-36.91312	
11:04:17	47.4341	-122.308	171.501	225.1337	4038.101	32.3	32.30108	100	0	4	152.0061	73.3802	-28.93207	
11:04:17	47.4341	-122.308	171.501	201.7602	181.3215	32.3	32.30108	100	0	4	158.1436	69.99921	-23.83335	
11:04:17	47.4341	-122.308	171.501	201.7602	181.3215	32.3	32.30108	100	0	4	162.5922	66.44649	-20.45374	
11:04:17	47.4341	-122.308	171.501	201.7602	181.3215	32.3	32.30108	100	0	4	165.976	62.77032	-18.17433	
11:04:17	47.4341	-122.308	171.501	201.7602	181.3215	32.3	32.30108	100	0	4	168.6242	58.95243	-16.69031	
11:04:18	47.4341	-122.308	171.501	201.7602	181.3215	32.3	32.30108	100	0	4	170.6328	55.04872	-15.92018	
11:04:18	47.4341	-122.308	171.501	171.1991	-3018.524	32.3	32.30108	100	0	4	172.1563	51.03963	-15.73453	
11:04:18	47.4341	-122.308	171.501	171.1991	-3018.524	32.3	32.30108	100	0	4	173.5293	46.96106	-15.75047	
11:04:18	47.4341	-122.308	171.501	171.1991	-3018.524	32.3	32.30108	100	0	4	174.8107	42.80653	-15.9181	
11:04:18	47.4341	-122.308	171.501	171.1991	-3018.524	32.3	32.30108	100	0	4	175.9805	38.5435	-16.30048	
11:04:19	47.4341	-122.308	171.501	171.1991	-3018.524	32.3	32.30108	100	0	4	177.1424	34.192	-16.76706	
11:04:19	47.4341	-122.308	171.501	142.9976	-5329.471	32.3	32.30108	100	0	5	178.2678	29.72812	-17.40099	
11:04:19	47.4341	-122.308	171.501	142.9976	-5329.471	32.3	32.30108	100	0	5	179.4022	25.08395	-18.21328	
11:04:19	47.4341	-122.308	171.501	142.9976	-5329.471	32.3	32.30108	100	0	5	-179.4189	20.31292	-19.15558	
11:04:19	47.4341	-122.308	171.501	142.9976	-5329.471	32.3	32.30108	100	0	5	-178.1654	15.38998	-20.24791	
11:04:20	47.4341	-122.308	171.501	142.9976	-5329.471	32.3	32.30108	100	0	5	-176.8278	10.4026	-21.47107	
11:04:20	47.4341	-122.308	171.501	121.4499	-6712.693	32.3	32.30108	100	0	4	-175.3584	5.272715	-22.87362	
11:04:20	47.4341	-122.308	171.501	121.4499	-6712.693	32.3	32.30108	100	0	4	-173.6872	-0.08215007	-24.49343	
11:04:20	47.4341	-122.308	171.501	121.4499	-6712.693	32.3	32.30108	100	0	4	-171.806	-5.526264	-26.33465	
11:04:20	47.4341	-122.308	171.501	121.4499	-6712.693	32.3	32.30108	100	0	4	-169.6411	-11.0961	-28.45612	
11:04:21	47.4341	-122.308	171.501	121.4499	-6712.693	32.3	32.30108	100	0	4	-167.1366	-16.7616	-30.87803	
11:04:21	47.4341	-122.308	171.501	108.5605	-7071.716	32.3	32.30108	100	0	4	-164.18	-22.47427	-33.75901	
11:04:21	47.4341	-122.308	171.501	108.5605	-7071.716	32.3	32.30108	100	0	4	-160.5737	-28.27721	-37.27159	
11:04:21	47.4341	-122.308	171.501	108.5605	-7071.716	32.3	32.30108	100	0	4	-156.1732	-34.06024	-41.52433	
11:04:21	47.4341	-122.308	171.501	108.5605	-7071.716	32.3	32.30108	100	0	4	-150.7092	-39.74664	-46.77843	
11:04:22	47.4341	-122.308	171.501	108.5605	-7071.716	32.3	32.30108	100	0	4	-143.9154	-45.13913	-53.29504	
11:04:22	47.4341	-122.308	171.501	106.3363	-6125.014	32.3	32.30108	100	0	4	-135.4467	-50.07213	-61.41254	
11:04:22	47.4341	-122.308	171.501	106.3363	-6125.014	32.3	32.30108	100	0	4	-124.8261	-54.20848	-71.6246	
11:04:22	47.4341	-122.308	171.501	106.3363	-6125.014	32.3	32.30108	100	0	4	-111.797	-57.25325	-84.16968	
11:04:22	47.4341	-122.308	171.501	106.3363	-6125.014	32.3	32.30108	100	0	4	-96.84921	-58.76958	-98.58161	
11:04:23	47.4341	-122.308	171.501	106.3363	-6125.014	32.3	32.30108	100	0	4	-81.18373	-58.46567	-113.684	
11:04:23	47.4341	-122.308	171.501	116.8665	-3736.232	32.3	32.30108	100	0	4	-66.47085	-56.26493	-127.83	
11:04:23	47.4341	-122.308	171.501	116.8665	-3736.232	32.3	32.30108	100	0	4	-54.19426	-52.17501	-139.5178	
11:04:23	47.4341	-122.308	171.501	116.8665	-3736.232	32.3	32.30108	100	0	4	-44.55243	-46.80328	-148.537	
11:04:23	47.4341	-122.308	171.501	116.8665	-3736.232	32.3	32.30108	100	0	4	-37.08731	-40.56701	-155.3226	
11:04:24	47.4341	-122.308	171.501	116.8665	-3736.232	32.3	32.30108	100	0	4	-31.3154	-33.82943	-160.3297	
11:04:24	47.4341	-122.308	171.501	140.5839	-274.9786	32.3	32.30108	100	0	4	-26.75343	-26.83958	-164.0153	
11:04:24	47.4341	-122.308	171.501	140.5839	-274.9786	32.3	32.30108	100	0	4	-23.03897	-19.73489	-166.7051	
11:04:24	47.4341	-122.308	171.501	140.5839	-274.9786	32.3	32.30108	100	0	4	-19.93097	-12.72555	-168.6382	
11:04:24	47.4341	-122.308	171.501	140.5839	-274.9786	32.3	32.30108	100	0	4	-17.21249	-5.821088	-170.0004	
11:04:25	47.4341	-122.308	171.501	140.5839	-274.9786	32.3	32.30108	100	0	4	-14.77319	0.8577994	-170.8818	
11:04:25	47.4341	-122.308	171.501	171.5371	2918.774	32.3	32.30108	100	0	4	-12.47707	7.373843	-171.4054	
11:04:25	47.4341	-122.308	171.501	171.5371	2918.774	32.3	32.30108	100	0	4	-10.27901	13.64413	-171.6447	
11:04:25	47.4341	-122.308	171.501	171.5371	2918.774	32.3	32.30108	100	0	4	-8.136169	19.60989	-171.582	
11:04:25	47.4341	-122.308	171.501	171.5371	2918.774	32.3	32.30108	100	0	4	-5.928797	25.33234	-171.1258	
11:04:26	47.4341	-122.308	171.501	171.5371	2918.774	32.3	32.30108	100	0	4	-4.276797	30.70942	-171.6847	
11:04:26	47.4341	-122.308	171.501	196.9658	4469.741	32.3	32.30108	100	0	4	-3.085874	35.81112	-172.8595	
11:04:26	47.4341	-122.308	171.501	196.9658	4469.741	32.3	32.30108	100	0	4	-1.959046	40.75719	-173.9179	
11:04:26	47.4341	-122.308	171.501	196.9658	4469.741	32.3	32.30108	100	0	4	-0.8578393	45.54928	-174.8538	
11:04:26	47.4341	-122.308	171.501	196.9658	4469.741	32.3	32.30108	100	0	4	0.2461792	50.16296	-175.646	
11:04:27	47.4341	-122.308	171.501	196.9658	4469.741	32.3	32.30108	100	0	4	1.406883	54.64069	-176.2765	
11:04:27	47.4341	-122.308	171.501	209.2411	4247.968	32.3	32.30108	100	0	4	2.694645	59.00995	-176.6912	
11:04:27	47.4341	-122.308	171.501	209.2411	4247.968	32.3	32.30108	100	0	4	4.186161	63.26978	-176.8262	
11:04:27	47.4341	-122.308	171.501	209.2411	4247.968	32.3	32.30108	100	0	4	6.004791	67.42213	-176.5703	
11:04:27	47.4341	-122.308	171.501	209.2411	4247.968	32.3	32.30108	100	0	4	8.351406	71.45758	-175.7317	
11:04:28	47.4341	-122.308	171.501	209.2411	4247.968	32.3	32.30108	100	0	4	11.60713	75.36118	-173.9342	
11:04:28	47.4341	-122.308	171.501	207.3844	2805.456	32.3	32.30108	100	0	4	16.72895	79.14754	-170.2403	
11:04:28	47.4341	-122.308	171.501	207.3844	2805.456	32.3	32.30108	100	0	4	29.8212	82.92033	-157.5707	
11:04:28	47.43408	-122.308	171.571	207.3844	2805.456	32.23	32.30108	100	0	4	59.66228	85.07046	-129.3563	
11:04:28	47.43408	-122.308	171.571	207.3844	2805.456	32.23	32.30108	100	0	4	96.72186	85.83215	-94.39763	
11:04:29	47.43403	-122.3081	172.233	207.3844	2805.456	31.13	32.30108	100	0	4	125.3786	85.15006	-67.02333	
11:04:29	47.43398	-122.3081	173.405	194.1127	451.2855	29.4	29.40522	100	0	4	138.1069	83.43798	-55.38922	
11:04:29	47.4339	-122.3081	176.294	194.1127	451.2855	26.06	29.40522	100	0	4	142.0782	81.6357	-51.5431	
11:04:29	47.43388	-122.3081	177.299	194.1127	451.2855	25.07	29.40522	100	0	4	143.787	80.21234	-50.68258	
11:04:29	47.43378	-122.3081	183.619	194.1127	451.2855	19.74	29.40522	100	0	4	145.5543	79.34388	-50.20029	
11:04:30	47.43375	-122.3082	185.931	194.1127	451.2855	18.09	29.40522	100	0	4	147.2389	78.31316	-49.23748	
11:04:30	47.43372	-122.3082	188.494	183.3919	-859.423	16.47	18.09221	100	0	59	144.623	77.832	-52.13888	
11:04:30	47.43368	-122.3082	192.209	183.3919	-859.423	14.56	18.09221	100	0	59	139.8589	76.98264	-56.85566	
11:04:30	47.43368	-122.3082	192.209	183.3919	-859.423	14.56	18.09221	100	0	59	135.6442	75.64465	-60.96351	
11:04:30	47.43365	-122.3082	194.59	183.3919	-859.423	13.53	18.09221	100	0	59	131.6055	74.04275	-64.94208	
11:04:31	47.43365	-122.3082	194.59	183.3919	-859.423	13.53	18.09221	100	0	59	128.223	72.55824	-68.20945	
11:04:31	47.43364	-122.3082	196.564	184.19	-805.0914	12.75	12.75031	100	0	65	121.3158	71.9638	-74.93508	
11:04:31	47.43361	-122.3083	199.757	184.19	-805.0914	11.56	12.75031	100	0	65	111.5094	71.49591	-84.62423	
11:04:31	47.43359	-122.3083	202.005	184.19	-805.0914	10.79	12.75031	100	0	65	97.35838	70.6561	-98.8	
11:04:31	47.43356	-122.3083	206.91	184.19	-805.0914	10.29	12.75031	100	0	65	80.34537	68.34195	-115.6706	
11:04:32	47.43354	-122.3083	208.543	184.19	-805.0914	10.61	12.75031	100	0	65	66.26886	64.0737	-128.8375	
11:04:32	47.43353	-122.3083	210.3	194.4139	-165.063	11.22	9.970766	100	0	64	55.09358	58.53576	-137.7279	
11:04:32	47.43353	-122.3083	210.3	194.4139	-165.063	11.22	9.970766	100	0	64	46.26446	53.18605	-141.5357	
11:04:32	47.43351	-122.3084	211.438	194.4139	-165.063	11.78	9.970766	100	0	64	37.81251	48.8294	-142.3771	
11:04:32	47.43349	-122.3084	212.298	194.4139	-165.063	12.31	9.970766	100	0	64	27.359	46.64914	-141.1174	
11:04:33	47.43347	-122.3084	213.147	194.4139	-165.063	12.96	9.970766	100	0	64	16.30986	45.93705	-139.7493	
11:04:33	47.43345	-122.3085	213.612	206.8231	529.9238	13.27	11.98766	100	0	64	3.413237	45.74935	-141.3333	
11:04:33	47.43343	-122.3085	214.146	206.8231	529.9238	13.55	11.98766	100	0	64	-11.33535	43.03449	-146.8542	
11:04:33	47.43341	-122.3085	214.639	206.8231	529.9238	13.92	11.98766	100	0	64	-25.30123	37.1076	-154.5956	
11:04:33	47.43341	-122.3085	214.639	206.8231	529.9238	13.92	11.98766	100	0	64	-35.42892	30.27259	-162.0444	
11:04:34	47.43339	-122.3085	214.892	206.8231	529.9238	14.39	11.98766	100	0	64	-40.4031	25.64353	-170.2095	
11:04:34	47.43336	-122.3086	214.803	216.5929	847.7148	15.07	13.52764	100	0	99	-43.93278	23.04457	-177.7798	
11:04:34	47.43333	-122.3086	214.361	216.5929	847.7148	16.21	13.52764	100	0	99	-46.64268	21.26103	175.8525	
11:04:34	47.43331	-122.3086	213.88	216.5929	847.7148	16.96	13.52764	100	0	99	-48.57845	19.79841	170.252	
11:04:34	47.43328	-122.3086	213.266	216.5929	847.7148	17.94	13.52764	100	0	99	-49.81248	18.54517	164.785	
11:04:35	47.43325	-122.3086	212.582	216.5929	847.7148	18.99	13.52764	100	0	99	-50.93259	16.98174	158.9794	
11:04:35	47.43321	-122.3087	211.772	220.9483	1063.495	20.2	18.48287	100	0	98	-51.90134	15.13373	152.7761	
11:04:35	47.43317	-122.3087	211.041	220.9483	1063.495	21.29	18.48287	100	0	98	-52.4254	13.21935	146.4204	
11:04:35	47.43314	-122.3087	210.315	220.9483	1063.495	22.18	18.48287	100	0	98	-35.32625	14.5762	139.8875	
11:04:35	47.43309	-122.3086	209.735	220.9483	1063.495	23.18	18.48287	100	0	98	-19.19424	17.21926	137.8212	
11:04:36	47.43305	-122.3086	209.451	220.9483	1063.495	23.81	18.48287	100	0	98	-19.65538	21.18332	137.8139	
11:04:36	47.433	-122.3086	209.572	222.1985	1484.104	24.19	22.22722	100	0	99	-17.60469	25.48534	139.6513	
11:04:36	47.433	-122.3086	209.572	222.1985	1484.104	24.19	22.22722	100	0	99	-15.62677	29.19953	139.1003	
11:04:36	47.43295	-122.3086	210.29	222.1985	1484.104	24.14	22.22722	100	0	99	-14.84428	32.47026	136.2825	
11:04:36	47.4329	-122.3086	211.46	222.1985	1484.104	23.64	22.22722	100	0	99	-4.697217	35.93098	134.0003	
11:04:37	47.43284	-122.3085	213.975	222.1985	1484.104	22.42	22.22722	100	0	99	5.503421	38.59554	135.3	
11:04:37	47.4328	-122.3085	216.246	226.6005	1797.456	21.33	20.89476	100	0	99	9.346974	33.3699	138.9775	
11:04:37	47.43276	-122.3085	218.435	226.6005	1797.456	21.25	20.89476	100	0	99	8.931624	22.36175	141.4371	
11:04:37	47.43272	-122.3085	220.23	226.6005	1797.456	22.28	20.89476	100	0	99	6.184509	9.358962	142.2494	
11:04:38	47.43272	-122.3085	220.23	226.6005	1797.456	22.28	20.89476	100	0	99	1.539079	0.9379891	142.7583	
11:04:38	47.43269	-122.3085	221.136	226.6005	1797.456	23.2	20.89476	100	0	99	-0.01746652	2.995182	143.9467	
11:04:38	47.43262	-122.3084	220.788	226.4569	368.9566	23.78	20.4712	100	0	99	0.2982435	9.162312	145.6653	
11:04:38	47.43259	-122.3084	220.007	226.4569	368.9566	24.59	20.4712	100	0	99	2.229873	15.04335	146.3871	
11:04:38	47.43253	-122.3083	219.216	226.4569	368.9566	25.77	20.4712	100	0	99	-1.710703	19.36944	146.5451	
11:04:39	47.43249	-122.3083	219.119	226.4569	368.9566	26.18	20.4712	100	0	99	-6.067183	20.37862	146.8826	
11:04:39	47.43244	-122.3083	219.485	226.4569	368.9566	26.38	20.4712	100	0	99	-8.142319	22.97375	146.1184	
11:04:39	47.43238	-122.3083	220.359	227.9259	1223.758	26.43	22.99997	100	0	99	-7.435972	27.07701	144.4944	
11:04:39	47.43233	-122.3083	221.37	227.9259	1223.758	26.01	22.99997	100	0	99	-7.415263	31.42605	143.0011	
11:04:39	47.4323	-122.3082	222.629	227.9259	1223.758	25.33	22.99997	100	0	99	-7.167701	36.12636	142.3277	
11:04:40	47.43225	-122.3082	224.719	227.9259	1223.758	24.1	22.99997	100	0	99	-3.931875	36.67999	142.5419	
11:04:40	47.43225	-122.3082	224.719	227.9259	1223.758	24.1	22.99997	100	0	99	0.5765635	30.02198	142.9223	
11:04:40	47.43221	-122.3082	226.926	234.3825	1239.084	23.4	19.22286	100	0	99	3.600532	21.43816	142.6729	
11:04:40	47.43216	-122.3082	229.163	234.3825	1239.084	24.19	19.22286	100	0	99	3.95725	13.65369	142.0141	
11:04:40	47.4321	-122.3081	230.839	234.3825	1239.084	25.33	19.22286	100	0	99	2.758138	9.533883	141.7047	
11:04:41	47.43205	-122.3081	231.037	234.3825	1239.084	25.78	19.22286	100	0	99	1.904058	9.287951	141.889	
11:04:41	47.43205	-122.3081	231.037	234.3825	1239.084	25.78	19.22286	100	0	99	1.85984	10.08477	141.9952	
11:04:41	47.43201	-122.3081	230.756	235.1638	390.8584	26.22	20.65586	100	0	98	1.889487	10.30759	141.5335	
11:04:41	47.43196	-122.3081	230.135	235.1638	390.8584	26.93	20.65586	100	0	98	1.842971	9.542304	140.9096	
11:04:41	47.4319	-122.308	229.447	235.1638	390.8584	27.63	20.65586	100	0	98	2.149479	8.104808	140.7469	
11:04:42	47.43185	-122.308	228.771	235.1638	390.8584	28.21	20.65586	100	0	98	2.626962	6.862527	140.6257	
11:04:42	47.4318	-122.308	227.943	235.1638	390.8584	28.77	20.65586	100	0	98	2.667179	6.221841	140.4258	
11:04:42	47.4318	-122.308	227.943	233.2864	301.6337	28.77	23.6091	100	0	99	2.381687	6.057278	140.3682	
11:04:42	47.43175	-122.308	227.105	233.2864	301.6337	29.25	23.6091	100	0	99	2.107958	6.026252	140.4645	
11:04:42	47.43169	-122.308	226.074	233.2864	301.6337	29.81	23.6091	100	0	99	2.156574	5.898449	140.5895	
11:04:43	47.43161	-122.3079	224.553	233.2864	301.6337	30.63	23.6091	100	0	99	2.387144	5.535064	140.7232	
11:04:43	47.43155	-122.3079	223.446	233.2864	301.6337	31.17	23.6091	100	0	99	2.519027	5.049821	140.9673	
11:04:43	47.4315	-122.3079	222.622	229.6343	290.8144	31.53	26.0344	100	0	99	2.538632	4.6598	141.252	
11:04:43	47.43145	-122.3079	221.673	229.6343	290.8144	31.92	26.0344	100	0	99	2.200709	4.476714	141.5446	
11:04:43	47.43139	-122.3078	220.651	229.6343	290.8144	32.31	26.0344	100	0	99	2.007894	4.271961	141.8949	
11:04:44	47.4313	-122.3078	219.372	229.6343	290.8144	32.77	26.0344	100	0	99	1.869563	3.94757	142.1776	
11:04:44	47.43122	-122.3078	218.117	229.6343	290.8144	33.16	26.0344	100	0	99	1.976536	3.510445	142.2787	
11:04:44	47.43116	-122.3078	217.094	224.9409	239.1331	33.46	28.06977	100	0	99	1.947049	3.121918	142.6063	
11:04:44	47.43116	-122.3078	217.094	224.9409	239.1331	33.46	28.06977	100	0	99	1.983365	2.888003	143.349	
11:04:44	47.43109	-122.3077	216.165	224.9409	239.1331	33.73	28.06977	100	0	99	1.848106	2.809543	143.7131	
11:04:45	47.43103	-122.3077	215.377	224.9409	239.1331	33.93	28.06977	100	0	99	1.539209	2.80629	143.9448	
11:04:45	47.43097	-122.3077	214.656	224.9409	239.1331	34.11	28.06977	100	0	99	1.267768	2.760849	144.535	
11:04:45	47.43088	-122.3077	213.672	220.4169	254.4517	34.35	29.04024	100	0	99	1.220949	2.753072	145.1208	
11:04:45	47.43088	-122.3077	213.672	220.4169	254.4517	34.35	29.04024	100	0	99	1.178434	2.679951	145.4771	
11:04:45	47.43082	-122.3077	213.096	220.4169	254.4517	34.46	29.04024	100	0	99	1.183559	2.507829	145.9229	
11:04:46	47.43077	-122.3077	212.635	220.4169	254.4517	34.54	29.04024	100	0	99	1.559759	2.325817	146.6221	
11:04:46	47.43071	-122.3076	212.195	220.4169	254.4517	34.62	29.04024	100	0	99	1.798525	2.199466	147.1801	
11:04:46	47.43061	-122.3076	211.555	216.9817	280.1017	34.69	29.65301	100	0	99	1.208264	2.152502	147.6161	
11:04:46	47.43056	-122.3076	211.206	216.9817	280.1017	34.71	29.65301	100	0	99	0.6422198	2.104473	148.2633	
11:04:46	47.43048	-122.3076	210.814	216.9817	280.1017	34.73	29.65301	100	0	99	0.5242452	2.029792	148.8688	
11:04:47	47.43043	-122.3076	210.515	216.9817	280.1017	34.74	29.65301	100	0	99	0.6886796	1.948555	149.3608	
11:04:47	47.43036	-122.3076	210.368	216.9817	280.1017	34.72	29.65301	100	0	99	0.6296737	1.831882	149.8631	
11:04:47	47.43027	-122.3075	210.104	214.8165	321.7516	34.68	29.70238	100	0	99	0.5881376	1.765519	150.481	
11:04:47	47.43027	-122.3075	210.104	214.8165	321.7516	34.68	29.70238	100	0	99	0.5144078	1.738822	151.0282	
11:04:47	47.43013	-122.3075	209.806	214.8165	321.7516	34.6	29.70238	100	0	99	1.169261	1.721433	151.619	
11:04:48	47.43008	-122.3075	209.824	214.8165	321.7516	34.56	29.70238	100	0	99	0.8900286	1.666373	152.2481	
11:04:48	47.43002	-122.3075	209.767	214.8165	321.7516	34.5	29.70238	100	0	99	0.4929662	1.558375	152.9952	
11:04:48	47.42995	-122.3075	209.898	213.8946	369.9449	34.44	29.14218	100	0	99	0.3639947	1.452455	153.8762	
11:04:48	47.42992	-122.3075	209.815	213.8946	369.9449	34.4	29.14218	100	0	99	0.2721633	1.379355	154.3332	
11:04:48	47.42982	-122.3075	209.99	213.8946	369.9449	34.27	29.14218	100	0	99	-0.02197644	1.267282	155.0006	
11:04:49	47.42972	-122.3074	210.212	213.8946	369.9449	34.18	29.14218	100	0	99	0.1910979	1.265032	155.8104	
11:04:49	47.42966	-122.3074	210.324	213.8946	369.9449	34.11	29.14218	100	0	99	0.3448936	1.268446	156.6437	
11:04:49	47.4296	-122.3074	210.577	213.9961	425.3292	34.02	28.82162	100	0	99	0.2249072	1.209082	157.3999	
11:04:49	47.42953	-122.3074	211.286	213.9961	425.3292	33.93	28.82162	100	0	99	0.2030917	1.101169	158.1326	
11:04:49	47.42947	-122.3074	211.848	213.9961	425.3292	33.86	28.82162	100	0	99	0.2233126	1.03582	158.8429	
11:04:50	47.42947	-122.3074	211.848	213.9961	425.3292	33.86	28.82162	100	0	99	0.2958986	0.9944981	159.5594	
11:04:50	47.42942	-122.3074	212.428	213.9961	425.3292	33.79	28.82162	100	0	99	0.2002669	0.9437534	160.2379	
11:04:50	47.42935	-122.3074	213.143	215.5997	505.4219	33.7	28.42707	100	0	99	0.2291039	0.9185625	161.0093	
11:04:50	47.42927	-122.3074	214.146	215.5997	505.4219	33.59	28.42707	100	0	99	0.3758776	0.9275628	161.7952	
11:04:50	47.42922	-122.3074	214.855	215.5997	505.4219	33.5	28.42707	100	0	99	0.2430206	0.9593877	162.4227	
11:04:51	47.42915	-122.3074	215.718	215.5997	505.4219	33.4	28.42707	100	0	99	-0.02931217	1.04786	163.097	
11:04:51	47.42908	-122.3074	216.478	215.5997	505.4219	33.31	28.42707	100	0	99	-0.3622039	1.078832	163.7768	
11:04:51	47.429	-122.3073	217.532	219.0752	627.0987	33.17	28.04587	100	0	99	-0.2071222	0.9615324	164.4893	
11:04:51	47.42893	-122.3073	218.303	219.0752	627.0987	33.06	28.04587	100	0	99	-0.05182454	0.8857005	165.0049	
11:04:51	47.42887	-122.3073	218.935	219.0752	627.0987	32.97	28.04587	100	0	99	-0.04392992	0.8070721	165.673	
11:04:52	47.42887	-122.3073	218.935	219.0752	627.0987	32.97	28.04587	100	0	99	0.1633931	0.829824	166.397	
11:04:52	47.42881	-122.3073	219.584	219.0752	627.0987	32.89	28.04587	100	0	99	0.1573013	0.8516631	166.9567	
11:04:52	47.42875	-122.3073	220.366	223.1987	695.4314	32.78	26.83903	100	0	99	-0.1760942	0.8569477	167.4821	
11:04:52	47.42868	-122.3073	221.181	223.1987	695.4314	32.69	26.83903	100	0	99	-5.397466	0.8245321	167.9468	
11:04:52	47.42861	-122.3073	221.993	223.1987	695.4314	32.6	26.83903	100	0	99	-23.19507	0.7238534	167.836	
11:04:53	47.42855	-122.3073	222.705	223.1987	695.4314	32.53	26.83903	100	0	99	-39.2502	0.7314066	166.9044	
11:04:53	47.42849	-122.3073	223.454	223.1987	695.4314	32.49	26.83903	100	0	99	-46.14428	0.7017004	164.6984	
11:04:53	47.42841	-122.3073	224.379	226.8534	609.4464	32.47	26.5297	100	0	99	-46.35749	1.127954	161.0104	
11:04:53	47.42835	-122.3073	224.893	226.8534	609.4464	32.44	26.5297	100	0	99	-45.01352	1.86457	156.5473	
11:04:53	47.4283	-122.3072	225.375	226.8534	609.4464	32.39	26.5297	100	0	99	-44.20388	2.815634	152.4738	
11:04:54	47.42825	-122.3072	225.96	226.8534	609.4464	32.29	26.5297	100	0	99	-44.11312	3.475038	148.9383	
11:04:54	47.42817	-122.3072	226.863	226.8534	609.4464	32.12	26.5297	100	0	99	-44.3392	3.495923	145.6569	
11:04:54	47.42817	-122.3072	226.863	230.6715	780.2587	32.12	26.52947	100	0	99	-44.85689	3.27493	142.4612	
11:04:54	47.42812	-122.3071	227.442	230.6715	780.2587	32.03	26.52947	100	0	99	-44.98014	3.191557	139.3833	
11:04:54	47.42807	-122.3071	227.99	230.6715	780.2587	31.95	26.52947	100	0	99	-44.69339	3.210958	136.2966	
11:04:55	47.42803	-122.307	228.532	230.6715	780.2587	31.88	26.52947	100	0	99	-44.26865	3.178823	133.1214	
11:04:55	47.42797	-122.307	229.16	230.6715	780.2587	31.8	26.52947	100	0	99	-44.35733	3.064786	130.0591	
11:04:55	47.42791	-122.3069	229.926	233.812	705.3585	31.71	27.48492	100	0	99	-44.78521	2.993507	127.0857	
11:04:55	47.42787	-122.3068	230.549	233.812	705.3585	31.66	27.48492	100	0	99	-45.116	2.867967	124.1021	
11:04:55	47.42783	-122.3068	231.128	233.812	705.3585	31.62	27.48492	100	0	99	-41.03333	2.83726	121.0568	
11:04:56	47.4278	-122.3067	231.588	233.812	705.3585	31.6	27.48492	100	0	99	-24.00392	3.29655	119.0665	
11:04:56	47.42777	-122.3066	232.04	233.812	705.3585	31.52	27.48492	100	0	99	-7.796708	3.380491	118.0475	
11:04:56	47.42774	-122.3065	232.567	236.4359	674.0754	31.39	28.66116	100	0	99	1.052967	2.204456	117.8888	
11:04:56	47.42774	-122.3065	232.567	236.4359	674.0754	31.39	28.66116	100	0	99	3.124642	0.6610301	118.1308	
11:04:56	47.42771	-122.3064	233.028	236.4359	674.0754	31.34	28.66116	100	0	99	1.533908	-0.6543898	118.4445	
11:04:57	47.42771	-122.3064	233.028	236.4359	674.0754	31.34	28.66116	100	0	99	-0.9996266	-1.096081	118.8651	
11:04:57	47.42768	-122.3064	233.381	236.4359	674.0754	31.35	28.66116	100	0	99	-1.91073	-0.7970914	119.2872	
11:04:57	47.42764	-122.3063	233.761	237.3729	414.5361	31.43	28.67249	100	0	99	-1.406964	-0.4646052	119.498	
11:04:57	47.42761	-122.3062	233.913	237.3729	414.5361	31.47	28.67249	100	0	99	-1.029525	-0.1700084	119.6959	
11:04:57	47.42754	-122.306	234.522	237.3729	414.5361	31.47	28.67249	100	0	99	-1.012948	0.02754827	119.9944	
11:04:58	47.42754	-122.306	234.522	237.3729	414.5361	31.47	28.67249	100	0	99	-1.18738	0.1755199	120.3076	
11:04:58	47.42752	-122.3059	234.77	237.3729	414.5361	31.45	28.67249	100	0	99	-1.391193	0.2581797	120.5497	
11:04:58	47.42752	-122.3059	234.77	238.2145	412.8522	31.45	28.71896	100	0	99	-1.308611	0.2250276	120.7508	
11:04:58	47.42747	-122.3058	235.222	238.2145	412.8522	31.4	28.71896	100	0	99	-1.216614	0.2155585	121.0447	
11:04:58	47.42745	-122.3058	235.622	238.2145	412.8522	31.36	28.71896	100	0	99	-1.17915	0.2615565	121.4219	
11:04:59	47.42739	-122.3056	236.545	238.2145	412.8522	31.28	28.71896	100	0	99	-1.193178	0.3068327	121.6806	
11:04:59	47.42736	-122.3055	236.997	238.2145	412.8522	31.23	28.71896	100	0	99	-1.10338	0.3221385	121.9696	
11:04:59	47.42733	-122.3054	237.387	239.4423	379.6708	31.19	28.5248	100	0	99	-1.129517	0.3116811	122.3034	
11:04:59	47.42731	-122.3054	237.8	239.4423	379.6708	31.16	28.5248	100	0	99	-1.104592	0.3015306	122.5812	
11:04:59	47.42727	-122.3053	238.334	239.4423	379.6708	31.12	28.5248	100	0	99	-1.063742	0.322274	122.9025	
11:05:00	47.42727	-122.3053	238.334	239.4423	379.6708	31.12	28.5248	100	0	99	-1.030026	0.3325873	123.2231	
11:05:00	47.42727	-122.3053	238.334	239.4423	379.6708	31.12	28.5248	100	0	99	-1.055033	0.3870266	123.0888	
11:05:00	47.42727	-122.3053	238.334	240.9267	357.5522	31.12	28.41587	100	0	99	-1.080727	0.4411661	122.9109	
11:05:00	47.42727	-122.3053	238.334	240.9267	357.5522	31.12	28.41587	100	0	99	-1.106712	0.4943642	122.7028	
11:05:00	47.42725	-122.3052	238.792	240.9267	357.5522	31.08	28.41587	100	0	99	-1.127874	0.5409259	122.4992	
11:05:01	47.42725	-122.3052	238.792	240.9267	357.5522	31.08	28.41587	100	0	99	-1.093241	0.494957	122.7086	
11:05:01	47.42725	-122.3052	238.792	240.9267	357.5522	31.08	28.41587	100	0	99	-1.051307	0.4391102	123.1303	
11:05:01	47.42709	-122.3048	241.556	241.7757	313.4543	30.86	28.15602	100	0	99	-0.8871498	0.5457006	123.5889	
11:05:01	47.42706	-122.3047	242.059	241.7757	313.4543	30.82	28.15602	100	0	99	-0.6868533	0.6221078	123.9702	
11:05:01	47.42704	-122.3046	242.638	241.7757	313.4543	30.78	28.15602	100	0	99	-0.6585043	0.6185449	124.2253	
11:05:02	47.42704	-122.3046	242.638	241.7757	313.4543	30.78	28.15602	100	0	99	-1.036996	0.5363135	124.4481	
11:05:02	47.42698	-122.3045	243.65	241.7757	313.4543	30.75	28.15602	100	0	99	-1.260467	0.4651001	125.075	
11:05:02	47.42694	-122.3044	244.349	244.4823	345.4247	30.72	28.03214	100	0	99	-1.242578	0.3999012	125.9572	
11:05:02	47.42694	-122.3044	244.349	244.4823	345.4247	30.72	28.03214	100	0	99	-0.8569759	0.3564453	126.0733	
11:05:02	47.42691	-122.3043	245.09	244.4823	345.4247	30.67	28.03214	100	0	99	-1.229102	0.3655875	126.2544	
11:05:03	47.42686	-122.3042	245.791	244.4823	345.4247	30.66	28.03214	100	0	99	-2.458754	0.463128	126.7786	
11:05:03	47.42686	-122.3042	245.791	244.4823	345.4247	30.66	28.03214	100	0	99	-10.07219	0.5719341	126.8468	
11:05:03	47.42683	-122.3041	246.574	247.3214	373.5332	30.63	27.92318	100	0	99	-26.55778	1.000592	125.8477	
11:05:03	47.42683	-122.3041	246.574	247.3214	373.5332	30.63	27.92318	100	0	99	-43.75482	1.559679	124.2244	
11:05:03	47.42683	-122.3041	246.574	247.3214	373.5332	30.63	27.92318	100	0	99	-61.04869	1.610383	122.4931	
11:05:04	47.42679	-122.304	247.348	247.3214	373.5332	30.57	27.92318	100	0	99	-76.67009	0.1767824	120.1685	
11:05:04	47.42672	-122.3037	248.762	247.3214	373.5332	30.62	27.92318	100	0	99	-79.56453	-1.891994	115.6551	
11:05:04	47.4267	-122.3037	248.89	248.8297	21.50965	30.76	28.87474	100	0	99	-63.7322	0.3927712	99.9579	
11:05:04	47.42669	-122.3036	248.837	248.8297	21.50965	30.75	28.87474	100	0	99	-49.9509	8.47341	81.69302	
11:05:05	47.42669	-122.3035	249.715	248.8297	21.50965	28.41	28.87474	100	0	99	-43.27246	16.22583	72.94987	
11:05:05	47.4267	-122.3034	251.424	248.8297	21.50965	26.29	28.87474	100	0	99	-38.72534	18.95066	72.95612	
11:05:05	47.4267	-122.3034	251.424	248.8297	21.50965	26.29	28.87474	100	0	99	-37.52888	14.95115	72.49183	
11:05:05	47.42672	-122.3033	253.82	254.7106	659.686	25.11	26.8667	100	0	99	-32.31404	8.637057	72.04469	
11:05:05	47.42675	-122.3033	256.335	254.7106	659.686	25.05	26.8667	100	0	99	-16.89632	4.675974	72.85304	
11:05:06	47.42677	-122.3032	258.098	254.7106	659.686	25.6	26.8667	100	0	99	-3.596505	3.055501	72.18034	
11:05:06	47.4268	-122.3031	259.839	254.7106	659.686	26.17	26.8667	100	0	99	4.427739	2.248386	71.01757	
11:05:06	47.42682	-122.3031	260.567	254.7106	659.686	26.3	26.8667	100	0	99	4.562162	1.441913	70.68044	
11:05:06	47.42685	-122.3029	261.595	258.8244	210.0953	26.61	27.90358	100	0	99	2.449656	0.8576023	72.06606	
11:05:06	47.42686	-122.3029	262.085	258.8244	210.0953	26.81	27.90358	100	0	99	1.518558	0.5157089	73.46936	
11:05:07	47.42686	-122.3029	262.085	258.8244	210.0953	26.81	27.90358	100	0	99	1.310404	0.5015997	74.0238	
11:05:07	47.42688	-122.3028	261.937	258.8244	210.0953	26.99	27.90358	100	0	99	1.433284	0.6161645	74.28764	
11:05:07	47.42688	-122.3028	261.937	258.8244	210.0953	26.99	27.90358	100	0	99	1.073595	0.8639663	74.88158	
11:05:07	47.4269	-122.3027	261.805	262.4107	292.4604	27.15	28.51549	100	0	99	1.081731	1.009392	75.65796	
11:05:07	47.42693	-122.3027	261.665	262.4107	292.4604	27.36	28.51549	100	0	99	1.565428	0.895868	76.35178	
11:05:08	47.42695	-122.3026	261.414	262.4107	292.4604	27.56	28.51549	100	0	99	2.024629	0.6527941	77.01734	
11:05:08	47.42698	-122.3025	261.211	262.4107	292.4604	27.69	28.51549	100	0	99	2.016539	0.5250213	77.66022	
11:05:08	47.42699	-122.3024	261.071	262.4107	292.4604	27.83	28.51549	100	0	99	0.04618437	0.579087	78.38548	
11:05:08	47.427	-122.3023	260.906	263.3898	248.8926	27.96	28.92208	100	0	99	-11.10617	1.165192	79.14806	
11:05:08	47.42702	-122.3023	260.958	263.3898	248.8926	28.08	28.92208	100	0	99	-25.28063	1.964404	78.94634	
11:05:09	47.42704	-122.3022	261.13	263.3898	248.8926	28.19	28.92208	100	0	99	-37.15793	2.286317	77.72627	
11:05:09	47.42705	-122.3021	261.344	263.3898	248.8926	28.24	28.92208	100	0	99	-42.77724	2.238562	75.78883	
11:05:09	47.42707	-122.302	261.501	263.3898	248.8926	28.32	28.92208	100	0	99	-43.50151	2.428057	72.94031	
11:05:09	47.42707	-122.302	261.501	263.3306	150.3369	28.32	29.58457	100	0	99	-43.15184	2.815156	69.48902	
11:05:09	47.42709	-122.3019	261.59	263.3306	150.3369	28.43	29.58457	100	0	99	-42.71475	3.349735	65.96223	
11:05:10	47.42711	-122.3019	261.723	263.3306	150.3369	28.5	29.58457	100	0	99	-42.6917	3.705994	62.74238	
11:05:10	47.42714	-122.3018	261.892	263.3306	150.3369	28.56	29.58457	100	0	99	-43.14919	3.741459	59.58897	
11:05:10	47.42717	-122.3017	261.976	263.3306	150.3369	28.61	29.58457	100	0	99	-43.66487	3.548775	56.39006	
11:05:10	47.4272	-122.3017	262.033	263.3169	111.3019	28.67	30.38724	100	0	99	-43.80305	3.57742	53.07526	
11:05:10	47.42727	-122.3016	262.174	263.3169	111.3019	28.87	30.38724	100	0	99	-43.93927	3.633787	49.72376	
11:05:11	47.4273	-122.3015	262.231	263.3169	111.3019	28.96	30.38724	100	0	99	-44.35429	3.679281	46.19451	
11:05:11	47.42736	-122.3014	262.273	263.3169	111.3019	29.09	30.38724	100	0	99	-44.00596	3.807292	42.66602	
11:05:11	47.4274	-122.3014	262.27	263.3169	111.3019	29.19	30.38724	100	0	99	-44.20798	3.891575	39.12318	
11:05:11	47.42744	-122.3014	262.381	263.1606	74.1759	29.28	31.83381	100	0	99	-44.02658	3.742979	35.58899	
11:05:11	47.42744	-122.3014	262.381	263.1606	74.1759	29.28	31.83381	100	0	99	-43.94891	3.848673	32.33807	
11:05:12	47.42751	-122.3013	262.787	263.1606	74.1759	29.45	31.83381	100	0	99	-44.03979	4.063986	29.09234	
11:05:12	47.42755	-122.3013	263.027	263.1606	74.1759	29.55	31.83381	100	0	99	-44.03192	4.094895	25.60622	
11:05:12	47.4276	-122.3012	263.22	263.1606	74.1759	29.65	31.83381	100	0	99	-43.81197	4.0635	22.10393	
11:05:12	47.42765	-122.3012	263.391	263.4206	67.13153	29.76	32.75243	100	0	99	-43.74216	4.091416	18.80511	
11:05:12	47.42765	-122.3012	263.391	263.4206	67.13153	29.76	32.75243	100	0	99	-43.07561	4.133752	15.59599	
11:05:13	47.42779	-122.3012	264.065	263.4206	67.13153	30.06	32.75243	100	0	99	-42.81628	4.06376	12.47629	
11:05:13	47.42785	-122.3012	264.322	263.4206	67.13153	30.2	32.75243	100	0	99	-44.27132	3.827455	9.190439	
11:05:13	47.4279	-122.3012	264.605	263.4206	67.13153	30.33	32.75243	100	0	99	-44.64555	3.764618	5.94174	
11:05:13	47.42796	-122.3012	264.809	264.3029	74.32624	30.47	33.01601	100	0	99	-44.46014	3.809331	2.517841	
11:05:13	47.42802	-122.3012	264.989	264.3029	74.32624	30.62	33.01601	100	0	99	-44.01178	3.790338	-0.8828142	
11:05:14	47.42802	-122.3012	264.989	264.3029	74.32624	30.62	33.01601	100	0	99	-44.0993	3.79261	-4.157946	
11:05:14	47.42809	-122.3012	265.289	264.3029	74.32624	30.81	33.01601	100	0	99	-44.31269	3.791249	-7.390773	
11:05:14	47.42815	-122.3012	265.435	264.3029	74.32624	30.94	33.01601	100	0	99	-44.12406	3.752086	-10.6011	
11:05:14	47.4282	-122.3013	265.553	265.4408	101.1871	31.1	33.88084	100	0	99	-41.58418	3.346529	-13.41285	
11:05:14	47.42826	-122.3013	265.719	265.4408	101.1871	31.23	33.88084	100	0	99	-28.93107	2.856807	-15.65137	
11:05:15	47.42832	-122.3013	265.844	265.4408	101.1871	31.39	33.88084	100	0	99	-11.65357	2.573124	-17.30425	
11:05:15	47.42837	-122.3014	265.877	265.4408	101.1871	31.51	33.88084	100	0	99	1.90414	1.775351	-18.25269	
11:05:15	47.42841	-122.3014	265.949	265.4408	101.1871	31.61	33.88084	100	0	99	2.791793	0.4486049	-18.49543	
11:05:15	47.42841	-122.3014	265.949	266.2109	13.17358	31.61	34.17789	100	0	99	0.2282197	-0.5986046	-18.03122	
11:05:15	47.42849	-122.3015	266.253	266.2109	13.17358	31.78	34.17789	100	0	99	-1.617565	-1.120013	-17.64893	
11:05:16	47.42856	-122.3015	266.45	266.2109	13.17358	32	34.17789	100	0	99	-2.038397	-1.185854	-17.70499	
11:05:16	47.42861	-122.3016	266.534	266.2109	13.17358	32.17	34.17789	100	0	99	-1.408821	-0.911644	-17.88877	
11:05:16	47.42867	-122.3016	266.61	266.2109	13.17358	32.39	34.17789	100	0	99	-0.603337	-0.6925772	-17.91493	
11:05:16	47.42873	-122.3017	266.744	266.5007	87.89759	32.57	34.9447	100	0	99	7.173161	-0.5849335	-17.7902	
11:05:16	47.42873	-122.3017	266.744	266.5007	87.89759	32.57	34.9447	100	0	99	24.06835	-0.9304478	-16.87691	
11:05:17	47.42879	-122.3017	266.975	266.5007	87.89759	32.72	34.9447	100	0	99	40.93415	-1.564464	-15.93263	
11:05:17	47.42879	-122.3017	266.975	266.5007	87.89759	32.72	34.9447	100	0	99	45.77851	-1.908701	-13.70931	
11:05:17	47.42886	-122.3018	267.396	266.5007	87.89759	32.83	34.9447	100	0	99	42.88346	-1.36604	-9.878904	
11:05:17	47.42892	-122.3018	267.713	267.7143	171.9391	32.9	35.51757	100	0	99	40.27501	-0.5080682	-5.655438	
11:05:17	47.429	-122.3019	268.001	267.7143	171.9391	33.1	35.51757	100	0	99	39.90477	0.1544894	-2.316296	
11:05:18	47.42905	-122.3019	268.26	267.7143	171.9391	33.19	35.51757	100	0	99	40.67798	0.2780049	0.3998729	
11:05:18	47.42911	-122.3019	268.749	267.7143	171.9391	33.22	35.51757	100	0	99	41.29843	0.01846643	3.260614	
11:05:18	47.42919	-122.3019	269.516	267.7143	171.9391	33.22	35.51757	100	0	99	41.75947	-0.2449722	6.179357	
11:05:18	47.42924	-122.3019	270.08	270.3955	351.0019	33.2	34.80559	100	0	99	38.39067	-0.2130151	9.161316	
11:05:18	47.42931	-122.3019	270.599	270.3955	351.0019	33.18	34.80559	100	0	99	21.92649	0.2349619	12.08245	
11:05:19	47.42936	-122.3019	271.084	270.3955	351.0019	33.14	34.80559	100	0	99	4.94413	0.7867435	14.19008	
11:05:19	47.42942	-122.3019	271.693	270.3955	351.0019	33.08	34.80559	100	0	99	-5.989618	0.8151546	14.91989	
11:05:19	47.42951	-122.3019	272.831	270.3955	351.0019	32.84	34.80559	100	0	99	-5.2952	-0.05659708	14.4243	
11:05:19	47.42957	-122.3019	273.676	274.3072	488.753	32.7	34.5812	100	0	99	-1.14712	-0.7091253	14.01679	
11:05:19	47.42957	-122.3019	273.676	274.3072	488.753	32.7	34.5812	100	0	99	-15.70002	-0.8847589	13.27442	
11:05:20	47.42962	-122.3019	274.383	274.3072	488.753	32.62	34.5812	100	0	99	-33.2156	-1.379226	12.49765	
11:05:20	47.4297	-122.3019	275.451	274.3072	488.753	32.51	34.5812	100	0	99	-43.88283	-1.147869	11.19442	
11:05:20	47.42976	-122.3019	276.124	274.3072	488.753	32.48	34.5812	100	0	99	-46.7556	-0.6111126	8.357765	
11:05:20	47.42982	-122.3019	276.803	277.515	346.0458	32.48	34.22361	100	0	99	-45.07426	-0.2543624	4.07276	
11:05:20	47.42988	-122.3019	277.233	277.515	346.0458	32.47	34.22361	100	0	99	-43.38612	0.436629	-0.155164	
11:05:21	47.42996	-122.3019	277.98	277.515	346.0458	32.45	34.22361	100	0	99	-42.85118	1.29042	-3.60118	
11:05:21	47.43002	-122.3019	278.63	277.515	346.0458	32.45	34.22361	100	0	99	-43.91155	1.441849	-6.81296	
11:05:21	47.43007	-122.302	279.295	277.515	346.0458	32.43	34.22361	100	0	99	-44.38937	1.014318	-9.966076	
11:05:21	47.43007	-122.302	279.295	280.8299	393.2286	32.43	34.17951	100	0	99	-44.48214	0.7191638	-13.05084	
11:05:21	47.43015	-122.302	280.283	280.8299	393.2286	32.4	34.17951	100	0	99	-44.38111	0.6247594	-16.15072	
11:05:22	47.43023	-122.302	281.142	280.8299	393.2286	32.43	34.17951	100	0	99	-44.29313	0.4823935	-19.28506	
11:05:22	47.43027	-122.3021	281.681	280.8299	393.2286	32.45	34.17951	100	0	99	-44.10085	0.2246068	-22.36124	
11:05:22	47.43033	-122.3021	282.418	280.8299	393.2286	32.49	34.17951	100	0	99	-43.80049	-0.09374625	-25.28205	
11:05:22	47.43038	-122.3022	283.097	283.506	297.9356	32.54	34.37852	100	0	99	-43.77503	-0.4061234	-28.13097	
11:05:22	47.43043	-122.3022	283.749	283.506	297.9356	32.6	34.37852	100	0	99	-43.83337	-0.7685423	-30.89459	
11:05:23	47.43049	-122.3023	284.679	283.506	297.9356	32.7	34.37852	100	0	99	-43.77391	-1.071915	-33.78895	
11:05:23	47.43052	-122.3023	284.985	283.506	297.9356	32.74	34.37852	100	0	99	-44.22043	-1.238266	-36.79664	
11:05:23	47.43059	-122.3024	285.854	283.506	297.9356	32.9	34.37852	100	0	99	-43.39439	-1.173521	-39.79021	
11:05:23	47.43063	-122.3025	285.744	285.9977	243.0506	33.02	34.40871	100	0	99	-43.45179	-1.148236	-42.90865	
11:05:23	47.43063	-122.3025	285.744	285.9977	243.0506	33.02	34.40871	100	0	99	-43.53466	-1.200867	-45.9869	
11:05:24	47.43067	-122.3026	285.553	285.9977	243.0506	33.13	34.40871	100	0	99	-43.69997	-1.184131	-49.0359	
11:05:24	47.43071	-122.3026	285.387	285.9977	243.0506	33.24	34.40871	100	0	99	-43.80058	-1.165364	-52.0023	
11:05:24	47.43074	-122.3027	285.121	285.9977	243.0506	33.35	34.40871	100	0	99	-43.67727	-1.39739	-54.96267	
11:05:24	47.43077	-122.3028	284.802	286.9139	163.084	33.3	34.29445	100	0	69	-43.68908	-1.889448	-58.03373	
11:05:24	47.43081	-122.3029	284.259	286.9139	163.084	32.95	34.29445	100	0	69	-44.08298	-2.068497	-60.89406	
11:05:25	47.43083	-122.303	283.753	286.9139	163.084	32.74	34.29445	100	0	69	-43.94547	-1.939343	-63.81993	
11:05:25	47.43085	-122.3031	283.318	286.9139	163.084	32.58	34.29445	100	0	69	-43.42624	-1.983167	-66.95527	
11:05:25	47.43087	-122.3032	282.427	286.9139	163.084	32.35	34.29445	100	0	69	-43.06755	-2.134406	-70.11208	
11:05:25	47.43087	-122.3032	282.427	285.114	1.654351	32.35	32.89818	100	0	69	-43.85384	-2.131594	-73.15061	
11:05:25	47.43088	-122.3033	281.876	285.114	1.654351	32.26	32.89818	100	0	69	-44.16018	-2.148256	-76.14433	
11:05:26	47.43089	-122.3034	281.067	285.114	1.654351	32.15	32.89818	100	0	69	-44.14381	-2.221755	-79.28267	
11:05:26	47.43089	-122.3035	280.406	285.114	1.654351	32.08	32.89818	100	0	69	-44.14051	-2.288873	-82.32885	
11:05:26	47.43089	-122.3036	279.607	285.114	1.654351	32.03	32.89818	100	0	69	-43.91991	-2.220508	-85.44319	
11:05:26	47.43089	-122.3037	278.823	281.5516	-156.7264	31.99	32.35875	100	0	69	-43.64042	-2.060313	-88.64459	
11:05:26	47.43088	-122.3038	278.035	281.5516	-156.7264	31.97	32.35875	100	0	69	-43.76182	-1.88702	-91.76733	
11:05:27	47.43087	-122.3039	276.763	281.5516	-156.7264	31.94	32.35875	100	0	69	-43.90367	-1.880755	-95.00285	
11:05:27	47.43085	-122.304	276.026	281.5516	-156.7264	31.93	32.35875	100	0	69	-44.4794	-1.874355	-98.12711	
11:05:27	47.43085	-122.304	276.026	281.5516	-156.7264	31.93	32.35875	100	0	69	-44.59199	-1.771179	-101.1577	
11:05:27	47.43083	-122.3041	275.11	276.8556	-281.113	31.91	31.82355	100	0	69	-44.29266	-1.604616	-104.2336	
11:05:27	47.43081	-122.3041	274.291	276.8556	-281.113	31.9	31.82355	100	0	69	-43.8476	-1.352156	-107.4729	
11:05:28	47.43079	-122.3042	273.386	276.8556	-281.113	31.89	31.82355	100	0	69	-43.86043	-1.169881	-110.7891	
11:05:28	47.43076	-122.3043	272.481	276.8556	-281.113	31.89	31.82355	100	0	69	-44.21592	-1.15624	-113.7206	
11:05:28	47.43073	-122.3044	271.688	276.8556	-281.113	31.88	31.82355	100	0	69	-44.30508	-1.269964	-116.5663	
11:05:28	47.43073	-122.3044	271.688	271.9539	-365.528	31.88	31.40955	100	0	69	-44.21618	-1.330122	-119.4454	
11:05:28	47.43065	-122.3045	270.354	271.9539	-365.528	31.83	31.40955	100	0	69	-44.39852	-1.303002	-122.4731	
11:05:29	47.43061	-122.3046	269.686	271.9539	-365.528	31.81	31.40955	100	0	69	-44.40836	-1.281578	-125.5111	
11:05:29	47.43057	-122.3046	268.965	271.9539	-365.528	31.79	31.40955	100	0	69	-44.24984	-1.178162	-128.4682	
11:05:29	47.43051	-122.3047	267.87	271.9539	-365.528	31.76	31.40955	100	0	69	-44.16492	-0.8884974	-131.5809	
11:05:29	47.43047	-122.3048	267.218	267.7514	-384.6151	31.74	31.06675	100	0	69	-44.14714	-0.5884477	-134.6409	
11:05:29	47.43042	-122.3048	266.567	267.7514	-384.6151	31.71	31.06675	100	0	69	-44.13972	-0.5356159	-137.8646	
11:05:30	47.43036	-122.3049	265.847	267.7514	-384.6151	31.69	31.06675	100	0	69	-44.21798	-0.4211454	-140.9358	
11:05:30	47.43031	-122.3049	265.157	267.7514	-384.6151	31.66	31.06675	100	0	69	-44.20698	-0.0828143	-143.9888	
11:05:30	47.43026	-122.305	264.502	267.7514	-384.6151	31.62	31.06675	100	0	69	-44.26959	0.2581909	-147.2446	
11:05:30	47.43026	-122.305	264.502	264.1357	-344.6346	31.62	30.78849	100	0	69	-44.29282	0.4161585	-150.5294	
11:05:30	47.43019	-122.305	263.732	264.1357	-344.6346	31.55	30.78849	100	0	69	-44.55137	0.5705172	-153.7436	
11:05:31	47.43014	-122.305	263.229	264.1357	-344.6346	31.49	30.78849	100	0	69	-44.6516	0.8222776	-156.8162	
11:05:31	47.43008	-122.305	262.641	264.1357	-344.6346	31.42	30.78849	100	0	69	-44.33056	1.02431	-159.8343	
11:05:31	47.42997	-122.3051	261.768	264.1357	-344.6346	31.26	30.78849	100	0	69	-44.10766	1.058003	-162.9728	
11:05:31	47.42994	-122.3051	261.514	261.2249	-306.1112	31.23	30.2756	100	0	69	-44.66735	0.9685347	-165.9847	
11:05:31	47.4299	-122.3051	261.128	261.2249	-306.1112	31.15	30.2756	100	0	69	-43.97319	0.8098567	-168.765	
11:05:32	47.42983	-122.3051	260.622	261.2249	-306.1112	31.05	30.2756	100	0	69	-43.70867	0.8302453	-171.7028	
11:05:32	47.42983	-122.3051	260.622	261.2249	-306.1112	31.05	30.2756	100	0	69	-43.96428	0.6371376	-174.6579	
11:05:32	47.42974	-122.3051	259.812	261.2249	-306.1112	30.91	30.2756	100	0	69	-44.61619	0.4203179	-177.6029	
11:05:32	47.42968	-122.3051	259.381	258.8576	-315.1428	30.83	29.80249	100	0	69	-44.70776	0.3226047	179.3624	
11:05:32	47.42963	-122.305	258.938	258.8576	-315.1428	30.75	29.80249	100	0	69	-44.27617	0.2702165	176.2607	
11:05:33	47.42957	-122.305	258.344	258.8576	-315.1428	30.66	29.80249	100	0	69	-36.87327	0.5908093	173.1545	
11:05:33	47.42952	-122.305	257.833	258.8576	-315.1428	30.59	29.80249	100	0	69	-20.29116	1.536912	170.7755	
11:05:33	47.42946	-122.305	257.429	258.8576	-315.1428	30.51	29.80249	100	0	69	-6.068687	2.00529	170.0334	
11:05:33	47.42939	-122.3049	257.013	256.9518	-159.3067	30.35	29.591	100	0	69	2.245583	1.402746	170.3088	
11:05:34	47.42933	-122.3049	257.007	256.9518	-159.3067	30.2	29.591	100	0	69	3.219511	0.2838295	170.6314	
11:05:34	47.42933	-122.3049	257.007	256.9518	-159.3067	30.2	29.591	100	0	69	0.9549344	-0.8237247	170.764	
11:05:34	47.42928	-122.3049	257.072	256.9518	-159.3067	30.1	29.591	100	0	69	-0.9518982	-1.461346	171.0157	
11:05:34	47.4292	-122.3048	256.878	256.9518	-159.3067	30.01	29.591	100	0	69	-1.75186	-1.640547	171.2761	
11:05:34	47.42916	-122.3048	256.652	255.3493	-258.2206	29.99	29.07097	100	0	69	-1.547704	-1.573039	171.356	
11:05:35	47.4291	-122.3048	256.448	255.3493	-258.2206	29.97	29.07097	100	0	69	-1.205143	-1.424077	171.3435	
11:05:35	47.42905	-122.3048	256.258	255.3493	-258.2206	29.96	29.07097	100	0	69	-0.9862816	-1.258002	171.4273	
11:05:35	47.429	-122.3047	256.037	255.3493	-258.2206	29.95	29.07097	100	0	69	-0.8633515	-1.149799	171.5806	
11:05:35	47.42892	-122.3047	255.866	255.3493	-258.2206	29.9	29.07097	100	0	69	-0.8435196	-1.084607	171.6909	
11:05:35	47.42887	-122.3046	255.835	254.8607	-100.8401	29.86	28.97823	100	0	69	-0.7681009	-1.025684	171.7385	
11:05:36	47.42881	-122.3046	255.756	254.8607	-100.8401	29.8	28.97823	100	0	69	-0.8848684	-1.02449	171.7715	
11:05:36	47.42876	-122.3046	255.735	254.8607	-100.8401	29.75	28.97823	100	0	69	-1.073485	-1.021802	171.904	
11:05:36	47.42876	-122.3046	255.735	254.8607	-100.8401	29.75	28.97823	100	0	69	-0.9706784	-0.9165086	171.9852	
11:05:36	47.4287	-122.3046	255.786	254.8607	-100.8401	29.7	28.97823	100	0	69	6.56935	-0.9254273	172.1308	
11:05:36	47.42865	-122.3046	255.781	255.1963	2.494692	29.64	28.77205	100	0	69	22.30844	-1.551723	172.5503	
11:05:37	47.42865	-122.3046	255.781	255.1963	2.494692	29.64	28.77205	100	0	69	36.27758	-2.25422	173.5411	
11:05:37	47.4286	-122.3045	255.757	255.1963	2.494692	29.56	28.77205	100	0	69	41.88744	-2.468962	176.0823	
11:05:37	47.42855	-122.3045	255.797	255.1963	2.494692	29.5	28.77205	100	0	69	42.04569	-2.09	179.9	
11:05:37	47.42847	-122.3045	255.685	255.1963	2.494692	29.46	28.77205	100	0	69	40.95118	-1.500639	-175.5959	
11:05:37	47.42841	-122.3045	255.506	255.3546	36.1721	29.49	28.56342	100	0	69	40.74312	-0.9267802	-171.4408	
11:05:38	47.42836	-122.3045	255.471	255.3546	36.1721	29.49	28.56342	100	0	69	40.89406	-0.4618473	-167.6678	
11:05:38	47.42831	-122.3045	255.541	255.3546	36.1721	29.46	28.56342	100	0	69	41.18711	-0.3808615	-164.0777	
11:05:38	47.42826	-122.3045	255.626	255.3546	36.1721	29.4	28.56342	100	0	69	41.41486	-0.5562523	-160.4185	
11:05:38	47.42818	-122.3045	255.945	255.3546	36.1721	29.33	28.56342	100	0	69	41.18882	-0.6773476	-156.8472	
11:05:38	47.42818	-122.3045	255.945	256.3086	139.5864	29.33	28.13611	100	0	69	41.20728	-0.8693309	-153.3874	
11:05:39	47.42812	-122.3045	256.215	256.3086	139.5864	29.28	28.13611	100	0	69	41.39638	-1.109188	-149.9858	
11:05:39	47.42808	-122.3045	256.429	256.3086	139.5864	29.24	28.13611	100	0	69	41.1431	-1.309523	-146.4573	
11:05:39	47.42802	-122.3045	256.713	256.3086	139.5864	29.18	28.13611	100	0	69	41.00549	-1.418232	-142.9102	
11:05:39	47.42798	-122.3046	257.017	256.3086	139.5864	29.15	28.13611	100	0	69	40.88862	-1.459529	-139.2802	
11:05:39	47.4279	-122.3046	257.481	257.6705	176.4711	29.1	28.32513	100	0	69	41.24472	-1.270686	-135.4295	
11:05:40	47.42785	-122.3047	257.728	257.6705	176.4711	29.06	28.32513	100	0	69	41.68584	-0.9670295	-131.6433	
11:05:40	47.42781	-122.3047	258.055	257.6705	176.4711	29.02	28.32513	100	0	69	41.61592	-0.7198366	-127.8103	
11:05:40	47.42777	-122.3048	258.44	257.6705	176.4711	28.97	28.32513	100	0	69	40.71577	-0.6089256	-123.9131	
11:05:40	47.42777	-122.3048	258.44	257.6705	176.4711	28.97	28.32513	100	0	69	40.96586	-0.4900017	-120.1758	
11:05:40	47.42768	-122.3049	259.414	259.667	274.1594	28.82	28.69377	100	0	70	41.70958	-0.3849359	-116.5627	
11:05:41	47.42766	-122.3049	259.77	259.667	274.1594	28.75	28.69377	100	0	70	41.7544	-0.3016102	-112.9321	
11:05:41	47.42763	-122.305	260.221	259.667	274.1594	28.69	28.69377	100	0	70	40.27962	-0.2193648	-109.2107	
11:05:41	47.42761	-122.3051	260.785	259.667	274.1594	28.63	28.69377	100	0	70	37.31667	-0.02916539	-105.5107	
11:05:41	47.42758	-122.3052	261.363	259.667	274.1594	28.56	28.69377	100	0	70	34.1114	0.1999447	-102.301	
11:05:41	47.42757	-122.3052	261.796	262.1566	323.2408	28.49	28.86167	100	0	70	31.40168	0.3936037	-99.49577	
11:05:42	47.42755	-122.3053	262.368	262.1566	323.2408	28.41	28.86167	100	0	70	27.86206	0.4515788	-97.04559	
11:05:42	47.42754	-122.3054	262.967	262.1566	323.2408	28.34	28.86167	100	0	70	21.1053	0.3464777	-95.02504	
11:05:42	47.42752	-122.3055	263.471	262.1566	323.2408	28.27	28.86167	100	0	70	10.61775	0.325942	-93.73655	
11:05:42	47.42752	-122.3055	263.993	262.1566	323.2408	28.21	28.86167	100	0	70	1.217425	0.2295641	-92.89401	
11:05:42	47.42752	-122.3055	263.993	264.7309	316.7216	28.21	28.84106	100	0	69	-1.427329	-0.1212415	-92.59904	
11:05:43	47.42751	-122.3056	264.771	264.7309	316.7216	28.12	28.84106	100	0	69	-1.75189	-0.5594336	-92.57229	
11:05:43	47.4275	-122.3057	265.309	264.7309	316.7216	28.05	28.84106	100	0	69	-1.088801	-0.9030322	-92.69386	
11:05:43	47.42749	-122.3058	265.918	264.7309	316.7216	27.99	28.84106	100	0	69	-0.4449003	-1.044304	-92.68964	
11:05:43	47.42749	-122.3059	266.164	264.7309	316.7216	27.99	28.84106	100	0	69	-0.3770013	-0.9528871	-92.5591	
11:05:43	47.42748	-122.306	266.843	266.8934	255.5334	27.95	28.64512	100	0	69	-0.3238918	-0.8363334	-92.47768	
11:05:44	47.42747	-122.3061	267.165	266.8934	255.5334	27.92	28.64512	100	0	69	-0.2497046	-0.7384706	-92.41186	
11:05:44	47.42747	-122.3062	267.565	266.8934	255.5334	27.89	28.64512	100	0	69	-0.30387	-0.6933746	-92.39941	
11:05:44	47.42746	-122.3062	268.202	266.8934	255.5334	27.84	28.64512	100	0	69	-4.231615	-0.619195	-92.57572	
11:05:44	47.42746	-122.3063	268.611	266.8934	255.5334	27.8	28.64512	100	0	69	-18.86616	-0.5786077	-93.33062	
11:05:44	47.42746	-122.3064	269.015	269.1381	243.9624	27.79	28.47269	100	0	69	-33.5029	-0.8514145	-94.57989	
11:05:45	47.42745	-122.3065	269.502	269.1381	243.9624	27.77	28.47269	100	0	69	-42.28355	-1.136787	-96.63119	
11:05:45	47.42744	-122.3065	269.807	269.1381	243.9624	27.75	28.47269	100	0	69	-45.41513	-1.360531	-99.96525	
11:05:45	47.42744	-122.3065	269.807	269.1381	243.9624	27.75	28.47269	100	0	69	-45.02568	-1.271513	-104.3089	
11:05:45	47.42743	-122.3066	269.903	269.1381	243.9624	27.73	28.47269	100	0	69	-44.23989	-0.7657248	-108.9972	
11:05:45	47.42741	-122.3067	270.07	270.615	209.8614	27.71	28.19513	100	0	69	-44.18299	-0.1474404	-113.4222	
11:05:46	47.4274	-122.3068	270.32	270.615	209.8614	27.66	28.19513	100	0	69	-44.30772	0.3812615	-117.5127	
11:05:46	47.42738	-122.3068	270.678	270.615	209.8614	27.59	28.19513	100	0	69	-44.22496	0.5419772	-121.7069	
11:05:46	47.42738	-122.3068	270.678	270.615	209.8614	27.59	28.19513	100	0	69	-43.66282	0.5427954	-125.8172	
11:05:46	47.42732	-122.307	271.586	270.615	209.8614	27.4	28.19513	100	0	69	-41.49856	0.7130508	-129.7542	
11:05:46	47.42727	-122.307	272.376	272.4054	265.0942	27.29	26.51338	100	0	69	-30.9464	0.9970327	-133.5305	
11:05:47	47.42724	-122.3071	272.884	272.4054	265.0942	27.2	26.51338	100	0	69	-17.11214	1.482602	-136.4811	
11:05:47	47.4272	-122.3072	273.504	272.4054	265.0942	27.07	26.51338	100	0	69	-4.695287	1.73658	-138.2163	
11:05:47	47.4272	-122.3072	273.504	272.4054	265.0942	27.07	26.51338	100	0	69	0.3777528	1.252641	-138.9237	
11:05:47	47.42716	-122.3072	274.265	272.4054	265.0942	26.94	26.51338	100	0	69	1.247013	0.4502683	-139.0194	
11:05:47	47.42712	-122.3073	274.893	275.0272	266.8116	26.87	26.37714	100	0	69	0.2693047	-0.243313	-139.272	
11:05:48	47.42709	-122.3073	275.464	275.0272	266.8116	26.84	26.37714	100	0	69	-0.6385937	-0.5931648	-139.7273	
11:05:48	47.42704	-122.3074	276.282	275.0272	266.8116	26.82	26.37714	100	0	69	-1.108973	-0.66896	-140.1691	
11:05:48	47.42698	-122.3074	276.943	275.0272	266.8116	26.82	26.37714	100	0	69	-1.202834	-0.5297366	-140.5563	
11:05:48	47.42694	-122.3075	277.418	275.0272	266.8116	26.81	26.37714	100	0	69	-1.108389	-0.3937417	-140.9513	
11:05:48	47.42694	-122.3075	277.418	277.4415	245.7027	26.81	26.31277	100	0	69	-0.9896253	-0.3125103	-141.3409	
11:05:49	47.42691	-122.3075	277.835	277.4415	245.7027	26.8	26.31277	100	0	69	-0.9899199	-0.2497814	-141.6842	
11:05:49	47.42685	-122.3076	278.676	277.4415	245.7027	26.77	26.31277	100	0	69	-1.050326	-0.1844997	-142.0052	
11:05:49	47.42681	-122.3077	279.172	277.4415	245.7027	26.75	26.31277	100	0	69	-1.042746	-0.1227062	-142.1054	
11:05:49	47.4268	-122.3077	279.4	277.4415	245.7027	26.75	26.31277	100	0	69	-0.9069272	-0.1281613	-142.3866	
11:05:49	47.42674	-122.3077	279.984	279.8538	251.3941	26.71	26.25036	100	0	69	-0.8769433	-0.1659806	-142.7729	
11:05:50	47.42674	-122.3077	279.984	279.8538	251.3941	26.71	26.25036	100	0	69	-0.9710314	-0.1776479	-143.0887	
11:05:50	47.4267	-122.3078	280.482	279.8538	251.3941	26.7	26.25036	100	0	69	-1.034107	-0.1475774	-143.3219	
11:05:50	47.42666	-122.3078	281.053	279.8538	251.3941	26.68	26.25036	100	0	69	-0.9917592	-0.1083974	-143.5626	
11:05:50	47.42662	-122.3079	281.283	279.8538	251.3941	26.68	26.25036	100	0	69	-0.9077693	-0.03898319	-143.759	
11:05:50	47.42658	-122.3079	281.419	281.998	239.5799	26.67	26.17307	100	0	69	-0.906044	0.01069161	-144.0713	
11:05:51	47.42652	-122.308	281.629	281.998	239.5799	26.63	26.17307	100	0	69	-0.9668664	-0.03234433	-144.3677	
11:05:51	47.42649	-122.308	281.769	281.998	239.5799	26.62	26.17307	100	0	69	-1.062146	-0.04517838	-144.5956	
11:05:51	47.42646	-122.3081	281.987	281.998	239.5799	26.61	26.17307	100	0	69	-1.027452	-0.02796263	-144.7923	
11:05:51	47.4264	-122.3081	282.268	281.998	239.5799	26.59	26.17307	100	0	69	-0.9594157	0.02828055	-144.998	
11:05:51	47.42636	-122.3082	282.4	283.2015	186.2818	26.59	26.08847	100	0	69	-1.014341	0.0825118	-145.2152	
11:05:52	47.42633	-122.3082	282.544	283.2015	186.2818	26.57	26.08847	100	0	69	-0.9630181	0.1061063	-145.4019	
11:05:52	47.42633	-122.3082	282.544	283.2015	186.2818	26.57	26.08847	100	0	69	-0.9056028	0.1172021	-145.577	
11:05:52	47.42629	-122.3083	282.725	283.2015	186.2818	26.57	26.08847	100	0	69	-0.9127856	0.08824643	-145.7627	
11:05:52	47.42625	-122.3083	282.93	283.2015	186.2818	26.55	26.08847	100	0	69	-0.9873477	0.03012371	-145.9969	
11:05:52	47.42619	-122.3084	283.189	283.8665	124.7735	26.55	26.03964	100	0	69	-1.022394	-0.01207172	-146.1156	
11:05:53	47.42616	-122.3084	283.355	283.8665	124.7735	26.55	26.03964	100	0	69	-0.8716848	-0.0006492146	-146.0473	
11:05:53	47.42612	-122.3085	283.551	283.8665	124.7735	26.53	26.03964	100	0	69	-0.7346399	0.05599309	-146.3391	
11:05:53	47.42607	-122.3085	283.758	283.8665	124.7735	26.51	26.03964	100	0	69	-0.8568844	0.1294341	-146.7269	
11:05:53	47.42602	-122.3086	283.952	283.8665	124.7735	26.51	26.03964	100	0	69	-1.111532	0.1744514	-146.7165	
11:05:53	47.42598	-122.3086	284.082	284.3442	90.23502	26.52	26.00426	100	0	69	-1.20041	0.2154484	-146.5598	
11:05:54	47.42595	-122.3087	284.293	284.3442	90.23502	26.51	26.00426	100	0	69	-0.9303007	0.2261964	-146.6475	
11:05:54	47.42595	-122.3087	284.293	284.3442	90.23502	26.51	26.00426	100	0	69	-0.7435789	0.2095931	-146.8432	
11:05:54	47.4259	-122.3087	284.576	284.3442	90.23502	26.49	26.00426	100	0	69	-0.7752213	0.1923299	-147.0113	
11:05:54	47.42585	-122.3088	284.788	284.3442	90.23502	26.48	26.00426	100	0	69	-0.9567248	0.1741552	-147.0322	
11:05:54	47.42581	-122.3088	284.924	284.9206	66.67927	26.48	25.97294	100	0	69	-0.9580448	0.1322296	-147.0425	
11:05:55	47.42577	-122.3089	285.057	284.9206	66.67927	26.48	25.97294	100	0	69	-0.8556262	0.1060527	-147.0723	
11:05:55	47.42574	-122.3089	285.231	284.9206	66.67927	26.48	25.97294	100	0	69	-0.768073	0.09551211	-147.2114	
11:05:55	47.42569	-122.309	285.489	284.9206	66.67927	26.48	25.97294	100	0	69	-0.8113341	0.1047078	-147.2906	
11:05:55	47.42564	-122.309	285.73	284.9206	66.67927	26.49	25.97294	100	0	69	1.494035	-0.03658543	-147.2261	
11:05:55	47.42562	-122.309	285.796	285.5415	41.67515	26.49	25.97561	100	0	69	14.52378	-1.817803	-146.3703	
11:05:56	47.42556	-122.3091	285.921	285.5415	41.67515	26.51	25.97561	100	0	69	22.96736	-6.528495	-146.1198	
11:05:56	47.42552	-122.3092	285.738	285.5415	41.67515	26.54	25.97561	100	0	69	24.61831	-11.39801	-146.4805	
11:05:56	47.42552	-122.3092	285.738	285.5415	41.67515	26.54	25.97561	100	0	69	26.30196	-14.50819	-145.6105	
11:05:56	47.42549	-122.3092	285.136	285.5415	41.67515	26.52	25.97561	100	0	69	28.78029	-16.42594	-143.8065	
11:05:57	47.42543	-122.3093	283.322	282.7374	-672.5683	26.77	25.56946	100	0	69	30.96866	-16.25087	-140.5072	
11:05:57	47.42539	-122.3093	282.005	282.7374	-672.5683	27.12	25.56946	100	0	69	31.4865	-15.28637	-136.9541	
11:05:57	47.42534	-122.3094	279.921	282.7374	-672.5683	27.8	25.56946	100	0	69	32.94228	-14.52348	-133.3435	
11:05:57	47.42532	-122.3094	279.165	282.7374	-672.5683	28.04	25.56946	100	0	69	37.40041	-15.40346	-130.2394	
11:05:57	47.42527	-122.3095	276.929	282.7374	-672.5683	28.55	25.56946	100	0	69	39.7562	-16.3296	-127.2487	
11:05:58	47.42524	-122.3096	275.27	277.0472	-683.5345	28.79	26.93152	100	0	69	41.21206	-17.12425	-124.1107	
11:05:58	47.42524	-122.3096	275.27	277.0472	-683.5345	28.79	26.93152	100	0	69	40.29021	-16.97916	-120.0597	
11:05:58	47.42522	-122.3096	274.345	277.0472	-683.5345	28.92	26.93152	100	0	69	32.14947	-14.40067	-114.4587	
11:05:58	47.42519	-122.3097	272.376	277.0472	-683.5345	29.28	26.93152	100	0	69	15.89938	-7.983602	-108.5437	
11:05:58	47.42516	-122.3098	269.788	277.0472	-683.5345	30.13	26.93152	100	0	69	3.609111	-2.213643	-106.1426	
11:05:59	47.42514	-122.3099	268.869	271.9129	125.7674	30.46	28.52962	100	0	69	-3.621771	1.251906	-106.8358	
11:05:59	47.42514	-122.3099	268.869	271.9129	125.7674	30.46	28.52962	100	0	69	-4.646128	2.580218	-107.8831	
11:05:59	47.42513	-122.3099	268.413	271.9129	125.7674	30.39	28.52962	100	0	69	-3.388911	2.635126	-107.7501	
11:05:59	47.4251	-122.3101	268.431	271.9129	125.7674	29.98	28.52962	100	0	69	-0.8705748	1.751866	-106.6177	
11:05:59	47.42508	-122.3102	268.572	271.9129	125.7674	29.72	28.52962	100	0	69	0.567574	0.809959	-106.2174	
11:06:00	47.42506	-122.3103	268.494	270.9646	43.5017	29.56	27.68491	100	0	69	0.5232152	0.03749391	-106.0135	
11:06:00	47.42505	-122.3104	268.394	270.9646	43.5017	29.46	27.68491	100	0	69	-0.005139812	-0.4584859	-105.2786	
11:06:00	47.42504	-122.3104	268.173	270.9646	43.5017	29.4	27.68491	100	0	69	-0.3934055	-0.6266813	-104.443	
11:06:00	47.42503	-122.3105	267.906	270.9646	43.5017	29.34	27.68491	100	0	69	-0.6080132	-0.6267534	-103.8819	
11:06:00	47.42501	-122.3106	267.648	270.9646	43.5017	29.3	27.68491	100	0	69	-0.2426022	-0.5219067	-103.4752	
