Date	Latitude(deg) 	Longitude(deg)	hamsl(m)	hafl(m)	climbrate(cm/s)	GroundSpeed(m/s)	Airspeed(m/s)	Mav_Link(%)	Rssi_Link(%)	Throttle	Roll(deg)	Pitch(deg)	Yaw(deg)
14:31:14	0	0	0	0	0	0	0	100	0	0	-1.112821	1.527922	-66.37949	
14:31:14	0	0	0	0	0	0	0	100	0	0	-1.110008	1.316804	-66.41799	
14:31:14	0	0	0	0	0	0	0	100	0	0	-1.108901	-0.7366461	-66.27995	
14:31:14	0	0	0	0	0	0	0	100	0	0	-1.108761	1.342206	-66.07013	
14:31:14	0	0	0	-0.7770422	-15.9231	0	0	100	0	50	-1.113888	1.343216	-66.05363	
14:31:14	0	0	0	-0.7770422	-15.9231	0	0	100	0	50	-1.126186	-0.2873764	-65.90486	
14:31:15	0	0	0	-0.7770422	-15.9231	0	0	100	0	50	-1.117728	1.35806	-65.7541	
14:31:15	0	0	0	-0.7770422	-15.9231	0	0	100	0	50	-1.120246	1.517428	-65.64561	
14:31:15	0	0	0	-0.7770422	-15.9231	0	0	100	0	50	-1.116336	1.506568	-65.55786	
14:31:15	0	0	0	0.0562865	37.71287	0	0	100	0	50	-1.117808	-0.3510432	-65.45908	
14:31:15	0	0	0	0.0562865	37.71287	0	0	100	0	50	-1.108608	-0.4862069	-65.29895	
14:31:16	0	0	0	0.0562865	37.71287	0	0	100	0	50	-1.104116	1.235859	-65.11884	
14:31:16	0	0	0	0.0562865	37.71287	0	0	100	0	50	-1.10454	1.907905	-65.16318	
14:31:16	0	0	0	0.0562865	37.71287	0	0	100	0	50	-1.096337	1.899779	-65.106	
14:31:16	0	0	0	0.4380584	47.22957	0	0	100	0	50	-1.090577	0.7220486	-64.89536	
14:31:17	0	0	0	0.4380584	47.22957	0	0	100	0	50	-1.095509	-1.004679	-64.79854	
14:31:17	0	0	0	0.4380584	47.22957	0	0	100	0	50	-1.085665	-0.07846407	-64.78462	
14:31:17	0	0	0	0.4380584	47.22957	0	0	100	0	50	-1.094747	-0.9806066	-64.62393	
14:31:17	0	0	0	0.4380584	47.22957	0	0	100	0	50	-1.074013	-1.000602	-64.24178	
14:31:17	0	0	0	0.2214559	25.58855	0	0	100	0	50	-1.045086	-0.05839211	-64.05468	
14:31:17	0	0	0	0.2214559	25.58855	0	0	100	0	50	-1.017363	0.1022924	-63.94445	
14:31:18	0	0	0	0.2214559	25.58855	0	0	100	0	50	-1.00877	1.236983	-63.85268	
14:31:18	0	0	0	0.2214559	25.58855	0	0	100	0	50	-1.008979	0.8553643	-63.80027	
14:31:18	0	0	0	0.2214559	25.58855	0	0	100	0	50	-1.014358	-0.3272778	-63.71946	
14:31:18	0	0	0	0.2051276	23.17161	0	0	100	0	50	-1.013821	-0.9194895	-63.6307	
14:31:19	0	0	0	0.2051276	23.17161	0	0	100	0	50	-1.01597	-0.4325804	-63.58691	
14:31:19	0	0	0	0.2051276	23.17161	0	0	100	0	50	-1.003453	0.8698928	-63.65356	
14:31:19	0	0	0	0.2051276	23.17161	0	0	100	0	50	-0.9993859	0.03051291	-63.46415	
14:31:19	0	0	0	0.2051276	23.17161	0	0	100	0	50	-1.000362	-1.389283	-63.36361	
14:31:19	0	0	0	0.1933176	20.70705	0	0	100	0	50	-1.008509	-1.890565	-63.14965	
14:31:20	0	0	0	0.1933176	20.70705	0	0	100	0	50	-1.005041	-0.9000358	-63.03263	
14:31:20	0	0	0	0.1933176	20.70705	0	0	100	0	50	-1.01152	-1.485638	-62.95649	
14:31:20	0	0	0	0.1933176	20.70705	0	0	100	0	50	-1.013617	-0.623601	-62.94378	
14:31:20	0	0	0	0.1933176	20.70705	0	0	100	0	50	-1.014561	-2.296101	-62.68047	
14:31:20	0	0	0	-0.04398626	8.301144	0	0	100	0	50	-0.9997611	-2.155062	-62.51641	
14:31:21	0	0	0	-0.04398626	8.301144	0	0	100	0	50	-1.004062	-0.4766028	-62.53593	
14:31:21	0	0	0	-0.04398626	8.301144	0	0	100	0	50	-1.006002	-1.88293	-62.48593	
14:31:21	0	0	0	-0.04398626	8.301144	0	0	100	0	50	-1.008836	-0.4017418	-62.54157	
14:31:21	0	0	0	-0.04398626	8.301144	0	0	100	0	50	-1.024692	-2.314413	-62.37067	
14:31:21	0	0	0	-0.2013343	4.437366	0	0	100	0	50	-1.030919	-4.201764	-62.10598	
14:31:22	0	0	0	-0.2013343	4.437366	0	0	100	0	50	-1.018382	-2.671788	-61.98623	
14:31:22	0	0	0	-0.2013343	4.437366	0	0	100	0	50	-1.017498	-0.585048	-62.01474	
14:31:22	0	0	0	-0.2013343	4.437366	0	0	100	0	50	-1.023571	-0.4482413	-61.87523	
14:31:22	0	0	0	-0.2013343	4.437366	0	0	100	0	50	-1.014616	-2.552909	-61.95728	
14:31:22	0	0	0	-0.1059518	12.48926	0	0	100	0	50	-1.029483	-0.4645447	-61.74968	
14:31:22	0	0	0	-0.1059518	12.48926	0	0	100	0	50	-1.024437	-0.4160185	-61.66769	
14:31:23	0	0	0	-0.1059518	12.48926	0	0	100	0	50	-1.024493	-2.220864	-61.53842	
14:31:23	0	0	0	-0.1059518	12.48926	0	0	100	0	50	-1.022885	-3.087624	-61.44202	
14:31:23	0	0	0	-0.1059518	12.48926	0	0	100	0	50	-1.012411	-1.454801	-61.3103	
14:31:23	0	0	0	-0.1234046	11.8451	0	0	100	0	50	-1.018842	0.1843531	-61.26991	
14:31:23	0	0	0	-0.1234046	11.8451	0	0	100	0	50	-1.019764	0.4465947	-61.37122	
14:31:24	0	0	0	-0.1234046	11.8451	0	0	100	0	50	-1.030281	0.4733215	-61.33096	
14:31:24	0	0	0	-0.1234046	11.8451	0	0	100	0	50	-1.035044	-1.395262	-61.15791	
14:31:24	0	0	0	-0.1234046	11.8451	0	0	100	0	50	-1.037366	-0.1819218	-61.19801	
14:31:24	0	0	0	-0.4829699	-3.290606	0	0	100	0	50	-1.036398	-1.096459	-61.12296	
14:31:24	0	0	0	-0.4829699	-3.290606	0	0	100	0	50	-1.04144	-0.1887234	-60.96835	
14:31:25	0	0	0	-0.4829699	-3.290606	0	0	100	0	50	-1.043188	-0.663579	-60.94453	
14:31:25	0	0	0	-0.4829699	-3.290606	0	0	100	0	50	-1.047499	0.0003532474	-60.90811	
14:31:25	0	0	0	-0.4829699	-3.290606	0	0	100	0	50	-1.047899	0.6639848	-60.89955	
14:31:25	0	0	0	-0.5901763	-0.9913573	0	0	100	0	50	-1.066718	-0.5836733	-60.91772	
14:31:26	0	0	0	-0.5901763	-0.9913573	0	0	100	0	50	-1.081042	-1.505196	-60.73051	
14:31:26	0	0	0	-0.5901763	-0.9913573	0	0	100	0	50	-1.079804	-0.3103336	-60.67894	
14:31:26	0	0	0	-0.5901763	-0.9913573	0	0	100	0	50	-1.065492	-0.290519	-60.69698	
14:31:26	0	0	0	-0.5901763	-0.9913573	0	0	100	0	50	-1.070911	-1.973456	-60.7603	
14:31:26	0	0	0	-0.4037234	11.64064	0	0	100	0	50	-1.064262	-2.068917	-60.69154	
14:31:27	0	0	0	-0.4037234	11.64064	0	0	100	0	50	-1.062883	-1.576253	-60.50058	
14:31:27	0	0	0	-0.4037234	11.64064	0	0	100	0	50	-1.052403	-2.109022	-60.54609	
14:31:27	0	0	0	-0.4037234	11.64064	0	0	100	0	50	-1.052105	-0.1290181	-60.47879	
14:31:27	0	0	0	-0.4037234	11.64064	0	0	100	0	50	-1.050887	0.8807844	-60.65381	
14:31:27	0	0	0	-0.3646358	12.17849	0	0	100	0	50	-1.061803	-0.02269055	-60.69181	
14:31:28	0	0	0	-0.3646358	12.17849	0	0	100	0	50	-1.065641	1.28712	-60.70369	
14:31:28	0	0	0	-0.3646358	12.17849	0	0	100	0	50	-1.078279	1.267184	-60.84496	
14:31:28	0	0	0	-0.3646358	12.17849	0	0	100	0	50	-1.080184	1.222192	-60.91404	
14:31:28	0	0	0	-0.3646358	12.17849	0	0	100	0	50	-1.088527	1.009622	-60.81703	
14:31:28	0	0	0	-0.4288897	7.621506	0	0	100	0	50	-1.090119	-0.4497262	-60.68071	
14:31:29	0	0	0	-0.4288897	7.621506	0	0	100	0	50	-1.094032	-0.3060322	-60.52477	
14:31:29	0	0	0	-0.4288897	7.621506	0	0	100	0	50	-1.089411	1.273674	-60.47068	
14:31:29	0	0	0	-0.4288897	7.621506	0	0	100	0	50	-1.088568	-0.7516443	-60.48485	
14:31:29	0	0	0	-0.4288897	7.621506	0	0	100	0	50	-1.091379	-2.438881	-60.53942	
14:31:29	0	0	0	-0.301419	14.74882	0	0	100	0	50	-1.097023	-0.2434045	-60.48695	
14:31:30	0	0	0	-0.301419	14.74882	0	0	100	0	50	-1.09575	-2.417168	-60.37489	
14:31:30	0	0	0	-0.301419	14.74882	0	0	100	0	50	-1.083945	-0.4601383	-60.32626	
14:31:30	0	0	0	-0.301419	14.74882	0	0	100	0	50	-1.0844	1.615211	-60.44425	
14:31:30	0	0	0	-0.301419	14.74882	0	0	100	0	50	-1.094989	1.645343	-60.45996	
14:31:30	0	0	0	-0.4196391	6.388955	0	0	100	0	50	-1.110886	-0.1915444	-60.51117	
14:31:31	0	0	0	-0.4196391	6.388955	0	0	100	0	50	-1.120242	1.445328	-60.53885	
14:31:31	0	0	0	-0.4196391	6.388955	0	0	100	0	50	-1.131634	1.614828	-60.74482	
14:31:31	0	0	0	-0.4196391	6.388955	0	0	100	0	50	-1.138382	-0.2195391	-60.77822	
14:31:31	0	0	0	-0.4196391	6.388955	0	0	100	0	50	-1.137383	0.6619132	-60.61816	
14:31:31	0	0	0	-0.5458597	2.536334	0	0	100	0	50	-1.13173	2.146426	-60.53017	
14:31:32	0	0	0	-0.5458597	2.536334	0	0	100	0	50	-1.139738	2.414149	-60.72458	
14:31:32	0	0	0	-0.5458597	2.536334	0	0	100	0	50	-1.148215	2.350394	-60.79603	
14:31:32	0	0	0	-0.5458597	2.536334	0	0	100	0	50	-1.151799	2.265283	-60.84916	
14:31:32	0	0	0	-0.5458597	2.536334	0	0	100	0	50	-1.144919	0.9205286	-61.01181	
14:31:32	0	0	0	-0.3065569	13.93751	0	0	100	0	50	-1.153624	0.961806	-61.00472	
14:31:33	0	0	0	-0.3065569	13.93751	0	0	100	0	50	-1.165684	2.813984	-60.93539	
14:31:33	0	0	0	-0.3065569	13.93751	0	0	100	0	50	-1.175446	3.802999	-61.03109	
14:31:33	0	0	0	-0.3065569	13.93751	0	0	100	0	50	-1.19004	3.696901	-61.24519	
14:31:33	0	0	0	-0.3065569	13.93751	0	0	100	0	50	-1.205713	2.580986	-61.39184	
14:31:33	0	0	0	-0.1697252	16.06	0	0	100	0	50	-1.205614	1.656072	-61.57592	
14:31:34	0	0	0	-0.1697252	16.06	0	0	100	0	50	-1.220543	2.803556	-61.55672	
14:31:34	0	0	0	-0.1697252	16.06	0	0	100	0	50	-1.228619	3.042923	-61.72524	
14:31:34	0	0	0	-0.1697252	16.06	0	0	100	0	50	-1.229901	2.216784	-61.87445	
14:31:34	0	0	0	-0.1697252	16.06	0	0	100	0	50	-1.244075	2.709249	-61.93837	
14:31:34	0	0	0	-0.03691974	15.52382	0	0	100	0	50	-1.246623	1.475033	-62.00736	
14:31:35	0	0	0	-0.03691974	15.52382	0	0	100	0	50	-1.253163	1.992007	-62.04686	
14:31:35	0	0	0	-0.03691974	15.52382	0	0	100	0	50	-1.253533	2.974733	-62.05579	
14:31:35	0	0	0	-0.03691974	15.52382	0	0	100	0	50	-1.267956	4.613133	-62.1058	
14:31:35	0	0	0	-0.03691974	15.52382	0	0	100	0	50	-1.278053	4.113976	-62.19257	
14:31:35	0	0	0	0.14867	18.85221	0	0	100	0	50	-1.2724	2.871905	-62.28351	
14:31:35	0	0	0	0.14867	18.85221	0	0	100	0	50	-1.281936	4.434918	-62.28201	
14:31:36	0	0	0	0.14867	18.85221	0	0	100	0	50	-1.293635	3.872662	-62.42473	
14:31:36	0	0	0	0.14867	18.85221	0	0	100	0	50	-1.312739	2.618814	-62.60333	
14:31:36	0	0	0	0.14867	18.85221	0	0	100	0	50	-1.323202	4.395824	-62.58778	
14:31:36	0	0	0	0.08908173	9.999932	0	0	100	0	50	-1.332045	4.231533	-62.67635	
14:31:37	0	0	0	0.08908173	9.999932	0	0	100	0	50	-1.331198	3.802799	-62.69138	
14:31:37	0	0	0	0.08908173	9.999932	0	0	100	0	50	-1.323947	2.148122	-62.8401	
14:31:37	0	0	0	0.08908173	9.999932	0	0	100	0	50	-1.316922	4.121277	-62.84491	
14:31:37	0	0	0	0.08908173	9.999932	0	0	100	0	50	-1.320048	2.859934	-63.07029	
14:31:37	0	0	0	-0.1241523	-2.350046	0	0	100	0	50	-1.308181	1.000421	-63.03936	
14:31:37	0	0	0	-0.1241523	-2.350046	0	0	100	0	50	-1.294919	0.3136913	-62.82688	
14:31:38	0	0	0	-0.1241523	-2.350046	0	0	100	0	50	-1.26913	0.2172455	-62.86042	
14:31:38	0	0	0	-0.1241523	-2.350046	0	0	100	0	50	-1.265653	2.307649	-62.79839	
14:31:38	0	0	0	-0.1241523	-2.350046	0	0	100	0	50	-1.262121	2.273305	-62.72379	
14:31:38	0	0	0	-0.09972659	1.131022	0	0	100	0	50	-1.273235	2.220884	-62.90975	
14:31:39	0	0	0	-0.09972659	1.131022	0	0	100	0	50	-1.277288	0.6537729	-62.92405	
14:31:39	0	0	0	-0.09972659	1.131022	0	0	100	0	50	-1.265871	-0.372543	-62.94378	
14:31:39	0	0	0	-0.09972659	1.131022	0	0	100	0	50	-1.261839	-2.283173	-62.8488	
14:31:39	0	0	0	-0.09972659	1.131022	0	0	100	0	50	-1.250847	-0.5516068	-62.85405	
14:31:39	0	0	0	-0.01990911	6.253706	0	0	100	0	50	-1.240371	-0.07593516	-62.62124	
14:31:39	0	0	0	-0.01990911	6.253706	0	0	100	0	50	-1.249169	-0.04133091	-62.45214	
14:31:40	0	0	0	-0.01990911	6.253706	0	0	100	0	50	-1.25394	-1.227115	-62.38404	
14:31:40	0	0	0	-0.01990911	6.253706	0	0	100	0	50	-1.255867	-2.479323	-62.29894	
14:31:40	0	0	0	-0.01990911	6.253706	0	0	100	0	50	-1.242669	-3.050014	-62.33366	
14:31:41	0	0	0	0.05790501	9.270647	0	0	100	0	50	-1.255622	-2.534111	-62.26957	
14:31:41	0	0	0	0.05790501	9.270647	0	0	100	0	50	-1.253109	-0.7916019	-62.08179	
14:31:41	0	0	0	0.05790501	9.270647	0	0	100	0	50	-1.257214	-0.5366468	-62.13132	
14:31:41	0	0	0	0.05790501	9.270647	0	0	100	0	50	-1.2493	-0.3860492	-62.07706	
14:31:41	0	0	0	0.05790501	9.270647	0	0	100	0	50	-1.240056	-0.5717013	-62.00184	
14:31:42	0	0	0	0.09619091	10.57719	0	0	100	0	50	-1.236473	-1.375369	-61.90818	
14:31:42	0	0	0	0.09619091	10.57719	0	0	100	0	50	-1.229513	-1.035615	-61.82004	
14:31:42	0	0	0	0.09619091	10.57719	0	0	100	0	50	-1.210812	-0.6350317	-61.92159	
14:31:42	0	0	0	0.09619091	10.57719	0	0	100	0	50	-1.210255	-0.2113673	-61.93615	
14:31:42	0	0	0	0.09619091	10.57719	0	0	100	0	50	-1.219532	-0.9546611	-61.89691	
14:31:42	0	0	0	0.1745657	10.68917	0	0	100	0	50	-1.208723	0.387942	-61.82951	
14:31:43	0	0	0	0.1745657	10.68917	0	0	100	0	50	-1.205607	-0.2148558	-61.89885	
14:31:43	0	0	0	0.1745657	10.68917	0	0	100	0	50	-1.207265	-1.099133	-61.79018	
14:31:43	0	0	0	0.1745657	10.68917	0	0	100	0	50	-1.190076	0.5631489	-61.70872	
14:31:43	0	0	0	0.1745657	10.68917	0	0	100	0	50	-1.185861	0.1099444	-61.68395	
14:31:44	0	0	0	-0.03670198	-1.546801	0	0	100	0	50	-1.180577	-1.192474	-61.66479	
14:31:44	0	0	0	-0.03670198	-1.546801	0	0	100	0	50	-1.182851	0.5453218	-61.74844	
14:31:44	0	0	0	-0.03670198	-1.546801	0	0	100	0	50	-1.181559	0.5586506	-61.6748	
14:31:44	0	0	0	-0.03670198	-1.546801	0	0	100	0	50	-1.195038	0.5390657	-61.68492	
14:31:44	0	0	0	-0.03670198	-1.546801	0	0	100	0	50	-1.197343	0.4779395	-61.68909	
14:31:45	0	0	0	-0.02135551	1.380248	0	0	100	0	50	-1.186502	-1.670594	-61.72985	
14:31:45	0	0	0	-0.02135551	1.380248	0	0	100	0	50	-1.182015	0.4849163	-61.72709	
14:31:45	0	0	0	-0.02135551	1.380248	0	0	100	0	50	-1.178157	0.7035578	-61.69562	
14:31:45	0	0	0	-0.02135551	1.380248	0	0	100	0	50	-1.166762	0.7029603	-61.69588	
14:31:45	0	0	0	-0.02135551	1.380248	0	0	100	0	50	-1.166741	-0.6553838	-61.71669	
14:31:46	0	0	0	0.3141795	17.45877	0	0	100	0	50	-1.158728	-1.888677	-61.70066	
14:31:46	0	0	0	0.3141795	17.45877	0	0	100	0	50	-1.153352	-3.410178	-61.60077	
14:31:46	0	0	0	0.3141795	17.45877	0	0	100	0	50	-1.13878	-2.418379	-61.64371	
14:31:46	0	0	0	0.3141795	17.45877	0	0	100	0	50	-1.14185	-1.734685	-61.53513	
14:31:46	0	0	0	0.3141795	17.45877	0	0	100	0	50	-1.142516	-3.181159	-61.44603	
14:31:46	0	0	0	0.5116895	19.16226	0	0	100	0	50	-1.13122	-2.743402	-61.45071	
14:31:47	0	0	0	0.5116895	19.16226	0	0	100	0	50	-1.133639	-0.9373352	-61.24808	
14:31:47	0	0	0	0.5116895	19.16226	0	0	100	0	50	-1.136837	-0.2624321	-61.33453	
14:31:47	0	0	0	0.5116895	19.16226	0	0	100	0	50	-1.133069	-0.2222783	-61.36721	
14:31:47	0	0	0	0.5116895	19.16226	0	0	100	0	50	-1.124322	-1.716591	-61.30768	
14:31:47	0	0	0	0.09270237	-6.30887	0	0	100	0	50	-1.124858	-0.8854824	-61.10914	
14:31:48	0	0	0	0.09270237	-6.30887	0	0	100	0	50	-1.138413	-0.2312297	-61.11754	
14:31:48	0	0	0	0.09270237	-6.30887	0	0	100	0	50	-1.136711	-0.2179127	-61.07838	
14:31:48	0	0	0	0.09270237	-6.30887	0	0	100	0	50	-1.134561	-1.165478	-61.11814	
14:31:48	0	0	0	0.09270237	-6.30887	0	0	100	0	50	-1.135182	-2.563035	-61.10904	
14:31:48	0	0	0	-0.2860835	-18.17766	0	0	100	0	50	-1.126808	-2.001089	-61.1048	
14:31:49	0	0	0	-0.2860835	-18.17766	0	0	100	0	50	-1.123657	-0.9373423	-61.07932	
14:31:49	0	0	0	-0.2860835	-18.17766	0	0	100	0	50	-1.122735	-1.897212	-61.19034	
14:31:49	0	0	0	-0.2860835	-18.17766	0	0	100	0	50	-1.128599	-2.463134	-61.01183	
14:31:49	0	0	0	-0.2860835	-18.17766	0	0	100	0	50	-1.122731	-0.8409659	-60.94459	
14:31:49	0	0	0	-0.3836712	-14.95371	0	0	100	0	50	-1.135929	0.18715	-60.9999	
14:31:50	0	0	0	-0.3836712	-14.95371	0	0	100	0	50	-1.134564	0.2189939	-61.18817	
14:31:50	0	0	0	-0.3836712	-14.95371	0	0	100	0	50	-1.137703	0.2031677	-61.32548	
14:31:50	0	0	0	-0.3836712	-14.95371	0	0	100	0	50	-1.128972	-0.03925519	-61.36938	
14:31:50	0	0	0	-0.3836712	-14.95371	0	0	100	0	50	-1.134127	-1.739996	-61.44189	
14:31:50	0	0	0	-0.2135263	1.797243	0	0	100	0	50	-1.135737	-0.03465026	-61.33887	
14:31:51	0	0	0	-0.2135263	1.797243	0	0	100	0	50	-1.147359	-2.053989	-61.34585	
14:31:51	0	0	0	-0.2135263	1.797243	0	0	100	0	50	-1.161214	-0.5973964	-61.22148	
14:31:51	0	0	0	-0.2135263	1.797243	0	0	100	0	50	-1.154592	1.031107	-61.36909	
14:31:51	0	0	0	-0.2135263	1.797243	0	0	100	0	50	-1.152229	-0.6093681	-61.28786	
14:31:51	0	0	0	-0.06070511	7.941406	0	0	100	0	50	-1.150871	1.021752	-61.38928	
14:31:52	0	0	0	-0.06070511	7.941406	0	0	100	0	50	-1.164423	-0.6414449	-61.37397	
14:31:52	0	0	0	-0.06070511	7.941406	0	0	100	0	50	-1.169157	-1.034291	-61.32381	
14:31:52	0	0	0	-0.06070511	7.941406	0	0	100	0	50	-1.173978	-0.6082599	-61.2532	
14:31:52	0	0	0	-0.06070511	7.941406	0	0	100	0	50	-1.175304	-2.285077	-61.2107	
14:31:52	0	0	0	0.2082084	17.91996	0	0	100	0	50	-1.168792	-1.627683	-61.14932	
14:31:53	0	0	0	0.2082084	17.91996	0	0	100	0	50	-1.160643	0.2765071	-61.14447	
14:31:53	0	0	0	0.2082084	17.91996	0	0	100	0	50	-1.15835	0.714135	-61.1019	
14:31:53	0	0	0	0.2082084	17.91996	0	0	100	0	50	-1.155534	-1.026823	-61.11417	
14:31:53	0	0	0	0.2082084	17.91996	0	0	100	0	50	-1.16012	0.1615649	-61.22714	
14:31:54	0	0	0	0.2095058	11.03398	0	0	100	0	50	-1.159855	-0.3520733	-61.31366	
14:31:54	0	0	0	0.2095058	11.03398	0	0	100	0	50	-1.161365	-0.4341631	-61.43475	
14:31:54	0	0	0	0.2095058	11.03398	0	0	100	0	50	-1.164557	0.9769661	-61.53914	
14:31:54	0	0	0	0.2095058	11.03398	0	0	100	0	50	-1.171291	1.742007	-61.74348	
14:31:54	0	0	0	0.2095058	11.03398	0	0	100	0	50	-1.166118	0.9385521	-61.81538	
14:31:55	0	0	0	0.1850864	6.905368	0	0	100	0	50	-1.160854	-0.8874372	-61.6827	
14:31:55	0	0	0	0.1850864	6.905368	0	0	100	0	50	-1.144061	-1.245573	-61.57645	
14:31:55	0	0	0	0.1850864	6.905368	0	0	100	0	50	-1.127282	0.4775477	-61.5027	
14:31:55	0	0	0	0.1850864	6.905368	0	0	100	0	50	-1.137508	1.564486	-61.49723	
14:31:55	0	0	0	0.1850864	6.905368	0	0	100	0	50	-1.138568	0.5768546	-61.59325	
14:31:55	0	0	0	-0.1092005	-9.017208	0	0	100	0	50	-1.134773	-1.346099	-61.58735	
14:31:56	0	0	0	-0.1092005	-9.017208	0	0	100	0	50	-1.130372	-1.883779	-61.50377	
14:31:56	0	0	0	-0.1092005	-9.017208	0	0	100	0	50	-1.131075	-0.3158785	-61.48269	
14:31:56	0	0	0	-0.1092005	-9.017208	0	0	100	0	50	-1.123635	1.11192	-61.55468	
14:31:56	0	0	0	-0.1092005	-9.017208	0	0	100	0	50	-1.128463	0.3411087	-61.60932	
14:31:56	0	0	0	0.01542806	2.845641	0	0	100	0	50	-1.134023	-0.5888809	-61.62909	
14:31:57	0	0	0	0.01542806	2.845641	0	0	100	0	50	-1.146089	1.050337	-61.57671	
14:31:57	0	0	0	0.01542806	2.845641	0	0	100	0	50	-1.147136	1.583219	-61.46585	
14:31:57	0	0	0	0.01542806	2.845641	0	0	100	0	50	-1.157088	0.7600163	-61.50347	
14:31:57	0	0	0	0.01542806	2.845641	0	0	100	0	50	-1.155111	1.608003	-61.46577	
14:31:58	0	0	0	0.2176397	9.790516	0	0	100	0	50	-1.153068	-0.05103352	-61.52126	
14:31:58	0	0	0	0.2176397	9.790516	0	0	100	0	50	-1.163125	0.3260179	-61.57142	
14:31:58	0	0	0	0.2176397	9.790516	0	0	100	0	50	-1.163616	1.975148	-61.73916	
14:31:58	0	0	0	0.2176397	9.790516	0	0	100	0	50	-1.181569	1.760186	-61.80275	
14:31:58	0	0	0	0.2176397	9.790516	0	0	100	0	50	-1.19013	-0.005079044	-61.82919	
14:31:58	0	0	0	0.11344	0.195142	0	0	100	0	50	-1.186633	0.5510278	-61.74939	
14:31:59	0	0	0	0.11344	0.195142	0	0	100	0	50	-1.167903	2.079643	-61.63499	
14:31:59	0	0	0	0.11344	0.195142	0	0	100	0	50	-1.158454	3.394479	-61.79054	
14:31:59	0	0	0	0.11344	0.195142	0	0	100	0	50	-1.151304	1.340598	-61.79189	
14:31:59	0	0	0	0.11344	0.195142	0	0	100	0	50	-1.143059	3.405667	-61.79703	
14:31:59	0	0	0	-0.225918	-15.67713	0	0	100	0	50	-1.143782	3.286775	-61.78196	
14:32:00	0	0	0	-0.225918	-15.67713	0	0	100	0	50	-1.13976	3.113744	-61.87317	
14:32:00	0	0	0	-0.225918	-15.67713	0	0	100	0	50	-1.141909	2.759435	-61.86621	
14:32:00	0	0	0	-0.225918	-15.67713	0	0	100	0	50	-1.155875	2.909447	-62.10706	
14:32:00	0	0	0	-0.225918	-15.67713	0	0	100	0	50	-1.156626	1.31906	-61.99974	
14:32:00	0	0	0	-0.3426444	-13.93595	0	0	100	0	50	-1.145329	-0.4955794	-62.10432	
14:32:01	0	0	0	-0.3426444	-13.93595	0	0	100	0	50	-1.140471	0.8019093	-61.94571	
14:32:01	0	0	0	-0.3426444	-13.93595	0	0	100	0	50	-1.145039	1.204138	-62.13286	
14:32:01	0	0	0	-0.3426444	-13.93595	0	0	100	0	50	-1.131755	-0.4311194	-61.99717	
14:32:01	0	0	0	-0.3426444	-13.93595	0	0	100	0	50	-1.110702	-0.9204989	-61.94507	
14:32:01	0	0	0	-0.2026929	-0.7573114	0	0	100	0	50	-1.107183	0.6805505	-62.08438	
14:32:02	0	0	0	-0.2026929	-0.7573114	0	0	100	0	50	-1.11023	1.299099	-62.09852	
14:32:02	0	0	0	-0.2026929	-0.7573114	0	0	100	0	50	-1.109926	-0.0633215	-62.02632	
14:32:02	0	0	0	-0.2026929	-0.7573114	0	0	100	0	50	-1.10642	-1.533339	-61.85239	
14:32:02	0	0	0	-0.2026929	-0.7573114	0	0	100	0	50	-1.105457	-2.402288	-61.76308	
14:32:03	0	0	0	-0.1111889	4.818129	0	0	100	0	50	-1.096776	-1.123433	-61.68204	
14:32:03	0	0	0	-0.1111889	4.818129	0	0	100	0	50	-1.092185	-0.4148715	-61.78872	
14:32:03	0	0	0	-0.1111889	4.818129	0	0	100	0	50	-1.08445	-1.635031	-61.81841	
14:32:03	0	0	0	-0.1111889	4.818129	0	0	100	0	50	-1.097387	-2.462839	-61.69712	
14:32:03	0	0	0	-0.1111889	4.818129	0	0	100	0	50	-1.091643	-1.337965	-61.59768	
14:32:03	0	0	0	-0.1456068	0.5590563	0	0	100	0	50	-1.084902	-1.707509	-61.60726	
14:32:04	0	0	0	-0.1456068	0.5590563	0	0	100	0	50	-1.080737	-1.165967	-61.58228	
14:32:04	0	0	0	-0.1456068	0.5590563	0	0	100	0	50	-1.066659	-0.1217834	-61.7156	
14:32:04	0	0	0	-0.1456068	0.5590563	0	0	100	0	50	-1.065007	-1.220262	-61.64122	
14:32:04	0	0	0	-0.1456068	0.5590563	0	0	100	0	50	-1.064495	-1.802156	-61.56052	
14:32:05	0	0	0	0.03286953	8.726619	0	0	100	0	50	-1.065187	-0.3251607	-61.60972	
14:32:05	0	0	0	0.03286953	8.726619	0	0	100	0	50	-1.073882	0.9102937	-61.75399	
14:32:05	0	0	0	0.03286953	8.726619	0	0	100	0	50	-1.071399	0.2557701	-61.79827	
14:32:05	0	0	0	0.03286953	8.726619	0	0	100	0	50	-1.072995	-0.1114889	-61.83213	
14:32:05	0	0	0	0.03286953	8.726619	0	0	100	0	50	-1.073395	0.848423	-61.78936	
14:32:05	0	0	0	-0.02725443	3.162563	0	0	100	0	50	-1.08485	0.7916229	-61.71203	
14:32:06	0	0	0	-0.02725443	3.162563	0	0	100	0	50	-1.086195	0.2235484	-61.72038	
14:32:06	0	0	0	-0.02725443	3.162563	0	0	100	0	50	-1.081275	-1.557891	-61.7169	
14:32:06	0	0	0	-0.02725443	3.162563	0	0	100	0	50	-1.080592	-2.714606	-61.72339	
14:32:06	0	0	0	-0.02725443	3.162563	0	0	100	0	50	-1.090429	-1.037942	-61.47592	
14:32:07	0	0	0	0.03314354	6.121728	0	0	100	0	50	-1.084888	-3.091553	-61.41732	
14:32:07	0	0	0	0.03314354	6.121728	0	0	100	0	50	-1.075659	-1.458238	-61.31634	
14:32:07	0	0	0	0.03314354	6.121728	0	0	100	0	50	-1.07017	-1.287202	-61.30728	
14:32:07	0	0	0	0.03314354	6.121728	0	0	100	0	50	-1.07523	-3.174089	-61.22625	
14:32:07	0	0	0	0.03314354	6.121728	0	0	100	0	50	-1.065442	-2.465955	-61.1479	
14:32:07	0	0	0	0.01379491	1.890226	0	0	100	0	50	-1.059206	-0.4093018	-61.08495	
14:32:08	0	0	0	0.01379491	1.890226	0	0	100	0	50	-1.062388	-0.3508988	-61.07019	
14:32:08	0	0	0	0.01379491	1.890226	0	0	100	0	50	-1.064921	-0.3412139	-61.09296	
14:32:08	0	0	0	0.01379491	1.890226	0	0	100	0	50	-1.070764	-2.020801	-61.12848	
14:32:08	0	0	0	0.01379491	1.890226	0	0	100	0	50	-1.070682	-0.7970704	-60.97515	
14:32:09	0	0	0	-0.1411873	-3.76563	0	0	100	0	50	-1.059842	-0.4414593	-61.00895	
14:32:09	0	0	0	-0.1411873	-3.76563	0	0	100	0	50	-1.058417	-0.4010558	-61.19584	
14:32:09	0	0	0	-0.1411873	-3.76563	0	0	100	0	50	-1.060969	-1.946217	-61.09404	
14:32:09	0	0	0	-0.1411873	-3.76563	0	0	100	0	50	-1.049992	-0.7818371	-60.91967	
14:32:09	0	0	0	-0.1411873	-3.76563	0	0	100	0	50	-1.040481	-1.659553	-60.94317	
14:32:09	0	0	0	-0.192808	-5.060993	0	0	100	0	50	-1.030478	-3.521314	-61.03323	
14:32:10	0	0	0	-0.192808	-5.060993	0	0	100	0	50	-1.049024	-2.397175	-60.81049	
14:32:10	0	0	0	-0.192808	-5.060993	0	0	100	0	50	-1.065289	-2.815055	-60.59815	
14:32:10	0	0	0	-0.192808	-5.060993	0	0	100	0	50	-1.063136	-3.568303	-60.70314	
14:32:10	0	0	0	-0.192808	-5.060993	0	0	100	0	50	-1.080924	-2.289968	-60.48908	
14:32:10	0	0	0	-0.07779377	2.446038	0	0	100	0	50	-1.083034	-2.649714	-60.38589	
14:32:11	0	0	0	-0.07779377	2.446038	0	0	100	0	50	-1.084484	-3.79676	-60.45737	
14:32:11	0	0	0	-0.07779377	2.446038	0	0	100	0	50	-1.09173	-4.018894	-60.45131	
14:32:11	0	0	0	-0.07779377	2.446038	0	0	100	0	50	-1.095425	-2.916229	-60.28674	
14:32:11	0	0	0	-0.07779377	2.446038	0	0	100	0	50	-1.101987	-2.857343	-60.21727	
14:32:12	0	0	0	0.06218863	6.630315	0	0	100	0	50	-1.099411	-2.139961	-60.12212	
14:32:12	0	0	0	0.06218863	6.630315	0	0	100	0	50	-1.087188	-2.507106	-60.28743	
14:32:12	0	0	0	0.06218863	6.630315	0	0	100	0	50	-1.10726	-2.96729	-60.108	
14:32:12	0	0	0	0.06218863	6.630315	0	0	100	0	50	-1.115374	-1.662048	-60.1958	
14:32:12	0	0	0	0.06218863	6.630315	0	0	100	0	50	-1.117373	-1.745125	-60.21651	
14:32:13	0	0	0	0.0174882	2.373448	0	0	100	0	50	-1.130581	-1.759852	-60.21052	
14:32:13	0	0	0	0.0174882	2.373448	0	0	100	0	50	-1.126228	-1.853999	-60.33532	
14:32:13	0	0	0	0.0174882	2.373448	0	0	100	0	50	-1.122965	-2.373194	-60.19719	
14:32:13	0	0	0	0.0174882	2.373448	0	0	100	0	50	-1.106547	-1.39223	-60.33921	
14:32:14	0	0	0	0.0174882	2.373448	0	0	100	0	50	-1.100918	-0.710656	-60.35088	
14:32:14	0	0	0	-0.01919021	0.2023794	0	0	100	0	50	-1.092381	0.3704738	-60.3443	
14:32:14	0	0	0	-0.01919021	0.2023794	0	0	100	0	50	-1.103452	1.727103	-60.44054	
14:32:14	0	0	0	-0.01919021	0.2023794	0	0	100	0	50	-1.109102	1.17411	-60.67578	
14:32:14	0	0	0	-0.01919021	0.2023794	0	0	100	0	50	-1.113001	-0.306658	-60.71606	
14:32:14	0	0	0	-0.01919021	0.2023794	0	0	100	0	50	-1.125871	-0.9934174	-60.71537	
14:32:14	0	0	0	-0.1338228	-4.990257	0	0	100	0	50	-1.128397	0.2089286	-60.58382	
14:32:15	0	0	0	-0.1338228	-4.990257	0	0	100	0	50	-1.126638	-1.219144	-60.60416	
14:32:15	0	0	0	-0.1338228	-4.990257	0	0	100	0	50	-1.126271	-0.1723709	-60.46847	
14:32:15	0	0	0	-0.1338228	-4.990257	0	0	100	0	50	-1.127441	0.9359996	-60.50132	
14:32:15	0	0	0	-0.1338228	-4.990257	0	0	100	0	50	-1.133585	-0.3154668	-60.60793	
14:32:15	0	0	0	-0.02502898	2.503918	0	0	100	0	50	-1.143814	1.541672	-60.67036	
14:32:16	0	0	0	-0.02502898	2.503918	0	0	100	0	50	-1.141075	1.498916	-60.69897	
14:32:16	0	0	0	-0.02502898	2.503918	0	0	100	0	50	-1.14123	-0.09068324	-60.77779	
14:32:16	0	0	0	-0.02502898	2.503918	0	0	100	0	50	-1.14761	-0.7993534	-60.75777	
14:32:16	0	0	0	-0.02502898	2.503918	0	0	100	0	50	-1.13848	0.9935798	-60.7802	
14:32:17	0	0	0	0.04922265	4.722489	0	0	100	0	50	-1.139531	0.9918977	-60.83533	
14:32:17	0	0	0	0.04922265	4.722489	0	0	100	0	50	-1.130108	-1.054745	-61.02193	
14:32:17	0	0	0	0.04922265	4.722489	0	0	100	0	50	-1.128594	0.9819259	-61.06013	
14:32:17	0	0	0	0.04922265	4.722489	0	0	100	0	50	-1.118951	0.9698362	-60.98343	
14:32:17	0	0	0	0.04922265	4.722489	0	0	100	0	50	-1.124886	0.9439358	-61.13848	
14:32:17	0	0	0	0.01408959	2.829628	0	0	100	0	50	-1.117045	0.8844621	-61.19169	
14:32:18	0	0	0	0.01408959	2.829628	0	0	100	0	50	-1.119258	-0.2374147	-61.13151	
14:32:18	0	0	0	0.01408959	2.829628	0	0	100	0	50	-1.126392	0.8056617	-61.14723	
14:32:18	0	0	0	0.01408959	2.829628	0	0	100	0	50	-1.133238	-1.299974	-61.2345	
14:32:18	0	0	0	0.01408959	2.829628	0	0	100	0	50	-1.14112	-0.1971699	-61.3391	
14:32:19	0	0	0	-0.06357139	-1.728855	0	0	100	0	50	-1.145026	1.837597	-61.39939	
14:32:19	0	0	0	-0.06357139	-1.728855	0	0	100	0	50	-1.146189	1.860715	-61.39882	
14:32:19	0	0	0	-0.06357139	-1.728855	0	0	100	0	50	-1.137105	-0.3119461	-61.46445	
14:32:19	0	0	0	-0.06357139	-1.728855	0	0	100	0	50	-1.135441	1.878782	-61.50673	
14:32:19	0	0	0	-0.06357139	-1.728855	0	0	100	0	50	-1.151164	0.4319072	-61.68442	
14:32:19	0	0	0	-0.1934437	-6.964061	0	0	100	0	50	-1.145869	1.990901	-61.71679	
14:32:20	0	0	0	-0.1934437	-6.964061	0	0	100	0	50	-1.151549	0.3085877	-61.74622	
14:32:20	0	0	0	-0.1934437	-6.964061	0	0	100	0	50	-1.159098	0.9732817	-61.69392	
14:32:20	0	0	0	-0.1934437	-6.964061	0	0	100	0	50	-1.165239	1.378001	-61.75037	
14:32:20	0	0	0	-0.1934437	-6.964061	0	0	100	0	50	-1.16188	0.3259106	-61.76126	
14:32:21	0	0	0	-0.2871271	-8.776378	0	0	100	0	50	-1.173591	0.01273131	-61.70681	
14:32:21	0	0	0	-0.2871271	-8.776378	0	0	100	0	50	-1.198161	1.195277	-61.69935	
14:32:21	0	0	0	-0.2871271	-8.776378	0	0	100	0	50	-1.202923	2.837311	-61.71616	
14:32:21	0	0	0	-0.2871271	-8.776378	0	0	100	0	50	-1.207597	2.2958	-61.98241	
14:32:21	0	0	0	-0.2871271	-8.776378	0	0	100	0	50	-1.21103	2.40812	-62.06805	
14:32:21	0	0	0	-0.3685928	-9.188788	0	0	100	0	50	-1.238784	3.993304	-62.28968	
14:32:22	0	0	0	-0.3685928	-9.188788	0	0	100	0	50	-1.225739	3.377748	-62.2212	
14:32:22	0	0	0	-0.3685928	-9.188788	0	0	100	0	50	-1.229802	2.474608	-62.4035	
14:32:22	0	0	0	-0.3685928	-9.188788	0	0	100	0	50	-1.227054	3.241564	-62.29173	
14:32:22	0	0	0	-0.3685928	-9.188788	0	0	100	0	50	-1.228731	4.001396	-62.35055	
14:32:23	0	0	0	-0.5045389	-12.93281	0	0	100	0	50	-1.248992	4.504557	-62.53389	
14:32:23	0	0	0	-0.5045389	-12.93281	0	0	100	0	50	-1.252808	4.909465	-62.54479	
14:32:23	0	0	0	-0.5045389	-12.93281	0	0	100	0	50	-1.281751	4.53461	-62.81686	
14:32:24	0	0	0	-0.5045389	-12.93281	0	0	100	0	50	-1.287705	4.796799	-62.973	
14:32:24	0	0	0	-0.5045389	-12.93281	0	0	100	0	50	-1.306954	3.991764	-63.2352	
14:32:24	0	0	0	-0.1650229	4.722626	0	0	100	0	50	-1.304965	5.412836	-63.27263	
14:32:24	0	0	0	-0.1650229	4.722626	0	0	100	0	50	-1.336586	4.784799	-63.58458	
14:32:24	0	0	0	-0.1650229	4.722626	0	0	100	0	50	-1.331439	3.234314	-63.63068	
14:32:24	0	0	0	-0.1650229	4.722626	0	0	100	0	50	-1.332202	2.636271	-63.82595	
14:32:25	0	0	0	-0.1650229	4.722626	0	0	100	0	50	-1.323179	4.128113	-63.73759	
14:32:25	0	0	0	-0.2575317	-3.83513	0	0	100	0	50	-1.318889	3.765618	-63.91293	
14:32:25	0	0	0	-0.2575317	-3.83513	0	0	100	0	50	-1.328982	2.538445	-63.9615	
14:32:25	0	0	0	-0.2575317	-3.83513	0	0	100	0	50	-1.333102	3.78217	-64.01144	
14:32:25	0	0	0	-0.2575317	-3.83513	0	0	100	0	50	-1.350149	2.108116	-64.21664	
14:32:25	0	0	0	-0.2575317	-3.83513	0	0	100	0	50	-1.365317	4.028461	-64.22193	
14:32:26	0	0	0	-0.2658404	-1.872621	0	0	100	0	50	-1.338744	3.926713	-64.14258	
14:32:26	0	0	0	-0.2658404	-1.872621	0	0	100	0	50	-1.322528	3.619449	-64.0777	
14:32:26	0	0	0	-0.2658404	-1.872621	0	0	100	0	50	-1.31621	1.894548	-64.0495	
14:32:26	0	0	0	-0.2658404	-1.872621	0	0	100	0	50	-1.319539	3.856166	-64.16889	
14:32:26	0	0	0	-0.2658404	-1.872621	0	0	100	0	50	-1.311225	5.349455	-64.14906	
14:32:27	0	0	0	0.001632695	7.385888	0	0	100	0	50	-1.307923	5.256425	-64.16747	
14:32:27	0	0	0	0.001632695	7.385888	0	0	100	0	50	-1.296612	5.094482	-64.15685	
14:32:27	0	0	0	0.001632695	7.385888	0	0	100	0	50	-1.317414	4.897447	-64.26723	
14:32:27	0	0	0	0.001632695	7.385888	0	0	100	0	50	-1.305995	4.692974	-64.24115	
14:32:27	0	0	0	0.001632695	7.385888	0	0	100	0	50	-1.306139	4.517753	-64.29137	
14:32:28	0	0	0	-0.006373556	1.760458	0	0	100	0	50	-1.313694	4.345543	-64.49901	
14:32:28	0	0	0	-0.006373556	1.760458	0	0	100	0	50	-1.314113	2.496536	-64.55578	
14:32:28	0	0	0	-0.006373556	1.760458	0	0	100	0	50	-1.318682	1.906917	-64.57709	
14:32:28	0	0	0	-0.006373556	1.760458	0	0	100	0	50	-1.324906	3.730731	-64.5829	
14:32:28	0	0	0	-0.006373556	1.760458	0	0	100	0	50	-1.325616	3.775501	-64.79131	
14:32:29	0	0	0	-0.2006487	-8.444263	0	0	100	0	50	-1.324715	3.727906	-64.85876	
14:32:29	0	0	0	-0.2006487	-8.444263	0	0	100	0	50	-1.331944	3.603254	-64.91715	
14:32:29	0	0	0	-0.2006487	-8.444263	0	0	100	0	50	-1.316238	3.452379	-64.92609	
14:32:29	0	0	0	-0.2006487	-8.444263	0	0	100	0	50	-1.322244	3.291277	-65.08539	
14:32:30	0	0	0	-0.2006487	-8.444263	0	0	100	0	50	-1.320632	2.041072	-65.24759	
14:32:30	0	0	0	-0.2377855	-7.401026	0	0	100	0	50	-1.31838	1.659715	-65.21702	
14:32:30	0	0	0	-0.2377855	-7.401026	0	0	100	0	50	-1.314908	1.670059	-65.21661	
14:32:30	0	0	0	-0.2377855	-7.401026	0	0	100	0	50	-1.314554	1.045498	-65.20798	
14:32:30	0	0	0	-0.2377855	-7.401026	0	0	100	0	50	-1.304454	2.418594	-65.12909	
14:32:30	0	0	0	-0.2377855	-7.401026	0	0	100	0	50	-1.290626	1.485443	-65.04363	
14:32:31	0	0	0	-0.1296804	1.012053	0	0	100	0	50	-1.28022	2.387299	-65.08857	
14:32:31	0	0	0	-0.1296804	1.012053	0	0	100	0	50	-1.277744	0.8682855	-65.21246	
14:32:31	0	0	0	-0.1296804	1.012053	0	0	100	0	50	-1.301256	2.077352	-65.21413	
14:32:31	0	0	0	-0.1296804	1.012053	0	0	100	0	50	-1.300327	3.223765	-65.14526	
14:32:31	0	0	0	-0.1296804	1.012053	0	0	100	0	50	-1.298018	1.948024	-65.24459	
14:32:32	0	0	0	0.0180361	6.531723	0	0	100	0	50	-1.295251	3.947295	-65.16302	
14:32:32	0	0	0	0.0180361	6.531723	0	0	100	0	50	-1.279202	5.163737	-65.05812	
14:32:32	0	0	0	0.0180361	6.531723	0	0	100	0	50	-1.290738	5.066919	-65.25906	
14:32:32	0	0	0	0.0180361	6.531723	0	0	100	0	50	-1.284377	3.064126	-65.24036	
14:32:32	0	0	0	0.0180361	6.531723	0	0	100	0	50	-1.291325	5.08398	-65.40152	
14:32:33	0	0	0	0.0824654	4.051898	0	0	100	0	50	-1.29885	2.999314	-65.54354	
14:32:33	0	0	0	0.0824654	4.051898	0	0	100	0	50	-1.300854	5.109555	-65.65283	
14:32:33	0	0	0	0.0824654	4.051898	0	0	100	0	50	-1.294706	4.923856	-65.62732	
14:32:33	0	0	0	0.0824654	4.051898	0	0	100	0	50	-1.298185	2.973204	-65.68734	
14:32:34	0	0	0	0.0824654	4.051898	0	0	100	0	50	-1.292317	3.907344	-65.54305	
14:32:34	0	0	0	0.2097002	6.987295	0	0	100	0	50	-1.280481	2.316933	-65.54531	
14:32:34	0	0	0	0.2097002	6.987295	0	0	100	0	50	-1.290151	4.057448	-65.60896	
14:32:34	0	0	0	0.2097002	6.987295	0	0	100	0	50	-1.293041	2.756668	-65.65865	
14:32:34	0	0	0	0.2097002	6.987295	0	0	100	0	50	-1.262653	2.306528	-65.60548	
14:32:34	0	0	0	0.2097002	6.987295	0	0	100	0	50	-1.250161	0.8339151	-65.44022	
14:32:35	0	0	0	0.3238312	8.296596	0	0	100	0	50	-1.225015	0.03933864	-65.38759	
14:32:35	0	0	0	0.3238312	8.296596	0	0	100	0	50	-1.209213	-0.3163289	-65.25185	
14:32:35	0	0	0	0.3238312	8.296596	0	0	100	0	50	-1.200105	0.9244764	-65.16615	
14:32:35	0	0	0	0.3238312	8.296596	0	0	100	0	50	-1.192362	2.768423	-65.07401	
14:32:36	0	0	0	0.3238312	8.296596	0	0	100	0	50	-1.188591	3.132416	-64.94897	
14:32:36	0	0	0	0.2460508	1.393156	0	0	100	0	50	-1.180151	3.045695	-64.97253	
14:32:36	0	0	0	0.2460508	1.393156	0	0	100	0	50	-1.188188	1.562423	-65.12356	
14:32:36	0	0	0	0.2460508	1.393156	0	0	100	0	50	-1.188886	2.338899	-65.01859	
14:32:36	0	0	0	0.2460508	1.393156	0	0	100	0	50	-1.197455	1.485626	-65.16566	
14:32:37	0	0	0	0.2460508	1.393156	0	0	100	0	50	-1.196366	0.05140266	-65.06711	
14:32:37	0	0	0	0.2183898	-0.7743427	0	0	100	0	50	-1.19933	0.6170107	-64.92298	
14:32:37	0	0	0	0.2183898	-0.7743427	0	0	100	0	50	-1.192312	2.523331	-64.8597	
14:32:37	0	0	0	0.2183898	-0.7743427	0	0	100	0	50	-1.181381	3.309616	-64.90787	
14:32:37	0	0	0	0.2183898	-0.7743427	0	0	100	0	50	-1.19078	3.214683	-64.94077	
14:32:37	0	0	0	0.2183898	-0.7743427	0	0	100	0	50	-1.18221	2.163457	-64.89787	
14:32:38	0	0	0	0.1945925	-1.714851	0	0	100	0	50	-1.181765	0.4914493	-64.96856	
14:32:38	0	0	0	0.1945925	-1.714851	0	0	100	0	50	-1.16945	0.4334574	-64.83434	
14:32:38	0	0	0	0.1945925	-1.714851	0	0	100	0	50	-1.166955	0.7320182	-64.77512	
14:32:38	0	0	0	0.1945925	-1.714851	0	0	100	0	50	-1.159619	-0.03211481	-64.69023	
14:32:39	0	0	0	0.1945925	-1.714851	0	0	100	0	50	-1.160234	1.109796	-64.60474	
14:32:39	0	0	0	0.2855392	3.91295	0	0	100	0	50	-1.159427	1.667166	-64.56645	
14:32:39	0	0	0	0.2855392	3.91295	0	0	100	0	50	-1.164277	0.05906945	-64.57197	
14:32:39	0	0	0	0.2855392	3.91295	0	0	100	0	50	-1.157456	-1.335919	-64.46614	
14:32:39	0	0	0	0.2855392	3.91295	0	0	100	0	50	-1.14398	-1.186595	-64.32581	
14:32:39	0	0	0	0.2855392	3.91295	0	0	100	0	50	-1.1343	-0.4096726	-64.29988	
14:32:40	0	0	0	0.339009	6.338856	0	0	100	0	50	-1.134565	-1.635095	-64.21832	
14:32:40	0	0	0	0.339009	6.338856	0	0	100	0	50	-1.132004	-0.3655615	-63.9607	
14:32:40	0	0	0	0.339009	6.338856	0	0	100	0	50	-1.132391	1.054558	-63.90609	
14:32:40	0	0	0	0.339009	6.338856	0	0	100	0	50	-1.134302	1.065069	-63.83516	
14:32:40	0	0	0	0.339009	6.338856	0	0	100	0	50	-1.130094	0.9965114	-63.76365	
14:32:41	0	0	0	0.2021582	-3.076784	0	0	100	0	50	-1.123949	0.9013842	-63.71989	
14:32:41	0	0	0	0.2021582	-3.076784	0	0	100	0	50	-1.11384	0.7949098	-63.63893	
14:32:41	0	0	0	0.2021582	-3.076784	0	0	100	0	50	-1.112122	0.7059451	-63.58971	
14:32:41	0	0	0	0.2021582	-3.076784	0	0	100	0	50	-1.098726	0.6180423	-63.72295	
14:32:41	0	0	0	0.2021582	-3.076784	0	0	100	0	50	-1.085829	0.3681172	-63.72963	
14:32:42	0	0	0	0.06867195	-6.65132	0	0	100	0	50	-1.085258	-1.058195	-63.66513	
14:32:42	0	0	0	0.06867195	-6.65132	0	0	100	0	50	-1.077364	0.5357606	-63.53127	
14:32:42	0	0	0	0.06867195	-6.65132	0	0	100	0	50	-1.078637	0.3764005	-63.58428	
14:32:42	0	0	0	0.06867195	-6.65132	0	0	100	0	50	-1.06876	0.4712375	-63.59976	
14:32:42	0	0	0	0.06867195	-6.65132	0	0	100	0	50	-1.069673	-1.04416	-63.56287	
14:32:43	0	0	0	0.03646165	-4.556394	0	0	100	0	50	-1.075505	0.343752	-63.48341	
14:32:43	0	0	0	0.03646165	-4.556394	0	0	100	0	50	-1.086915	-1.328053	-63.27279	
14:32:43	0	0	0	0.03646165	-4.556394	0	0	100	0	50	-1.083092	-0.07287611	-63.12716	
14:32:43	0	0	0	0.03646165	-4.556394	0	0	100	0	50	-1.079433	0.05021662	-63.04829	
14:32:43	0	0	0	0.03646165	-4.556394	0	0	100	0	50	-1.071678	-1.479068	-63.13899	
14:32:44	0	0	0	0.2591968	7.793232	0	0	100	0	50	-1.080248	-0.1950207	-63.10624	
14:32:44	0	0	0	0.2591968	7.793232	0	0	100	0	50	-1.078946	-1.881993	-63.00985	
14:32:44	0	0	0	0.2591968	7.793232	0	0	100	0	50	-1.085771	-0.713954	-62.9025	
14:32:44	0	0	0	0.2591968	7.793232	0	0	100	0	50	-1.07143	-2.005687	-62.82567	
14:32:44	0	0	0	0.2591968	7.793232	0	0	100	0	50	-1.080434	-1.425612	-62.58771	
14:32:45	0	0	0	0.1597172	-0.1809732	0	0	100	0	50	-1.069422	-2.080111	-62.39106	
14:32:45	0	0	0	0.1597172	-0.1809732	0	0	100	0	50	-1.041032	-2.567213	-62.27883	
14:32:45	0	0	0	0.1597172	-0.1809732	0	0	100	0	50	-1.023951	-1.445919	-62.30276	
14:32:45	0	0	0	0.1597172	-0.1809732	0	0	100	0	50	-1.03893	-0.4295932	-62.38706	
14:32:45	0	0	0	0.1597172	-0.1809732	0	0	100	0	50	-1.040794	-1.495804	-62.33237	
14:32:46	0	0	0	-0.008633164	-8.138995	0	0	100	0	50	-1.04684	-2.62245	-62.20203	
14:32:46	0	0	0	-0.008633164	-8.138995	0	0	100	0	50	-1.052346	-1.585529	-62.05383	
14:32:46	0	0	0	-0.008633164	-8.138995	0	0	100	0	50	-1.048864	-1.356402	-62.08	
14:32:46	0	0	0	-0.008633164	-8.138995	0	0	100	0	50	-1.037746	-1.687811	-61.99643	
14:32:47	0	0	0	-0.008633164	-8.138995	0	0	100	0	50	-1.030427	-1.584914	-62.06321	
14:32:47	0	0	0	-0.04978061	-6.356095	0	0	100	0	50	-1.044756	-2.489941	-61.90576	
14:32:47	0	0	0	-0.04978061	-6.356095	0	0	100	0	50	-1.038824	-2.344272	-61.81996	
14:32:47	0	0	0	-0.04978061	-6.356095	0	0	100	0	50	-1.049483	-2.950689	-61.79947	
14:32:47	0	0	0	-0.04978061	-6.356095	0	0	100	0	50	-1.059784	-1.522556	-61.57889	
14:32:47	0	0	0	-0.04978061	-6.356095	0	0	100	0	50	-1.055642	-1.002196	-61.53466	
14:32:48	0	0	0	0.1640636	5.864046	0	0	100	0	50	-1.059293	-0.4659639	-61.4574	
14:32:48	0	0	0	0.1640636	5.864046	0	0	100	0	50	-1.060418	-1.953691	-61.54906	
14:32:48	0	0	0	0.1640636	5.864046	0	0	100	0	50	-1.07478	-0.8372688	-61.59365	
14:32:48	0	0	0	0.1640636	5.864046	0	0	100	0	50	-1.082858	-0.968562	-61.44684	
14:32:48	0	0	0	0.1640636	5.864046	0	0	100	0	50	-1.07286	-1.046361	-61.55061	
14:32:49	0	0	0	0.2759174	8.071564	0	0	100	0	50	-1.067741	0.3314346	-61.5751	
14:32:49	0	0	0	0.2759174	8.071564	0	0	100	0	50	-1.066883	-0.6110733	-61.56091	
14:32:49	0	0	0	0.2759174	8.071564	0	0	100	0	50	-1.069171	0.2155504	-61.42589	
14:32:49	0	0	0	0.2759174	8.071564	0	0	100	0	50	-1.079777	-1.403362	-61.31878	
14:32:49	0	0	0	0.2759174	8.071564	0	0	100	0	50	-1.072768	0.371563	-61.31726	
14:32:50	0	0	0	0.4783843	14.53153	0	0	100	0	50	-1.077546	0.16385	-61.43382	
14:32:50	0	0	0	0.4783843	14.53153	0	0	100	0	50	-1.080077	-1.86737	-61.41236	
14:32:50	0	0	0	0.4783843	14.53153	0	0	100	0	50	-1.08103	0.1400966	-61.46852	
14:32:50	0	0	0	0.4783843	14.53153	0	0	100	0	50	-1.070554	-1.463804	-61.45062	
14:32:51	0	0	0	0.4783843	14.53153	0	0	100	0	50	-1.08406	-2.512359	-61.39734	
14:32:51	0	0	0	0.5188438	10.53973	0	0	100	0	50	-1.092561	-2.333372	-61.31182	
14:32:51	0	0	0	0.5188438	10.53973	0	0	100	0	50	-1.096902	-0.4482689	-61.39699	
14:32:51	0	0	0	0.5188438	10.53973	0	0	100	0	50	-1.098487	-1.477199	-61.38111	
14:32:51	0	0	0	0.5188438	10.53973	0	0	100	0	50	-1.102964	-2.964616	-61.43777	
14:32:51	0	0	0	0.5188438	10.53973	0	0	100	0	50	-1.106721	-1.340743	-61.25426	
14:32:52	0	0	0	0.343627	-1.143164	0	0	100	0	50	-1.1176	-0.9054133	-61.19149	
14:32:52	0	0	0	0.343627	-1.143164	0	0	100	0	50	-1.119666	-0.8190821	-61.01769	
14:32:52	0	0	0	0.343627	-1.143164	0	0	100	0	50	-1.125331	-0.8000714	-61.10309	
14:32:52	0	0	0	0.343627	-1.143164	0	0	100	0	50	-1.139017	-2.296753	-60.90972	
14:32:53	0	0	0	0.343627	-1.143164	0	0	100	0	50	-1.123974	-3.947714	-60.93916	
14:32:53	0	0	0	0.302299	-2.580432	0	0	100	0	50	-1.115016	-2.551499	-60.96927	
14:32:53	0	0	0	0.302299	-2.580432	0	0	100	0	50	-1.126479	-3.771646	-60.95636	
14:32:53	0	0	0	0.302299	-2.580432	0	0	100	0	50	-1.122899	-2.941306	-60.94467	
14:32:53	0	0	0	0.302299	-2.580432	0	0	100	0	50	-1.12224	-2.020973	-60.87304	
14:32:53	0	0	0	0.302299	-2.580432	0	0	100	0	50	-1.114459	-2.971166	-60.8097	
14:32:54	0	0	0	0.5515661	9.400603	0	0	100	0	50	-1.105847	-3.924711	-60.6286	
14:32:54	0	0	0	0.5515661	9.400603	0	0	100	0	50	-1.09946	-3.13567	-60.51934	
14:32:54	0	0	0	0.5515661	9.400603	0	0	100	0	50	-1.09718	-1.518201	-60.42768	
14:32:54	0	0	0	0.5515661	9.400603	0	0	100	0	50	-1.094547	-1.251417	-60.58636	
14:32:55	0	0	0	0.5515661	9.400603	0	0	100	0	50	-1.104856	-1.673773	-60.45621	
14:32:55	0	0	0	0.7729975	16.35801	0	0	100	0	50	-1.110744	-0.4641209	-60.5311	
14:32:55	0	0	0	0.7729975	16.35801	0	0	100	0	50	-1.117228	-0.1168855	-60.42121	
14:32:55	0	0	0	0.7729975	16.35801	0	0	100	0	50	-1.120216	0.2317636	-60.55092	
14:32:55	0	0	0	0.7729975	16.35801	0	0	100	0	50	-1.1237	-1.156495	-60.68649	
14:32:56	0	0	0	0.7729975	16.35801	0	0	100	0	50	-1.121586	-1.448743	-60.52184	
14:32:56	0	0	0	0.6593021	5.563588	0	0	100	0	50	-1.115498	-1.134324	-60.59657	
14:32:56	0	0	0	0.6593021	5.563588	0	0	100	0	50	-1.114741	-1.581862	-60.44641	
14:32:56	0	0	0	0.6593021	5.563588	0	0	100	0	50	-1.106337	0.05682827	-60.55832	
14:32:56	0	0	0	0.6593021	5.563588	0	0	100	0	50	-1.111986	-0.1026964	-60.45506	
14:32:56	0	0	0	0.6593021	5.563588	0	0	100	0	50	-1.110661	-2.104211	-60.44391	
14:32:57	0	0	0	0.3098473	-11.28736	0	0	100	0	50	-1.109943	-0.1119458	-60.41025	
14:32:57	0	0	0	0.3098473	-11.28736	0	0	100	0	50	-1.109942	-0.6018066	-60.55947	
14:32:57	0	0	0	0.3098473	-11.28736	0	0	100	0	50	-1.104319	-0.07332452	-60.59372	
14:32:57	0	0	0	0.3098473	-11.28736	0	0	100	0	50	-1.105276	-0.09909506	-60.78471	
14:32:58	0	0	0	0.3098473	-11.28736	0	0	100	0	50	-1.102627	-1.74965	-60.66648	
14:32:58	0	0	0	0.03245634	-18.79834	0	0	100	0	50	-1.097364	-0.1191368	-60.8308	
14:32:58	0	0	0	0.03245634	-18.79834	0	0	100	0	50	-1.097218	-1.792962	-60.82852	
14:32:58	0	0	0	0.03245634	-18.79834	0	0	100	0	50	-1.088403	-0.1280846	-60.82464	
14:32:58	0	0	0	0.03245634	-18.79834	0	0	100	0	50	-1.096446	-0.1194931	-61.00518	
14:32:58	0	0	0	0.03245634	-18.79834	0	0	100	0	50	-1.102959	-0.1150033	-61.06204	
14:32:59	0	0	0	0.2059837	-2.822202	0	0	100	0	50	-1.092967	-0.1313943	-60.90726	
14:32:59	0	0	0	0.2059837	-2.822202	0	0	100	0	50	-1.095133	-1.785487	-60.80533	
14:32:59	0	0	0	0.2059837	-2.822202	0	0	100	0	50	-1.086095	-1.795525	-60.85693	
14:32:59	0	0	0	0.2059837	-2.822202	0	0	100	0	50	-1.092619	-0.1521343	-60.78699	
14:32:59	0	0	0	0.2059837	-2.822202	0	0	100	0	50	-1.085492	-2.302139	-60.68294	
14:33:00	0	0	0	0.3336168	3.920267	0	0	100	0	50	-1.070884	-1.107304	-60.49752	
14:33:00	0	0	0	0.3336168	3.920267	0	0	100	0	50	-1.049837	-1.08451	-60.48623	
14:33:00	0	0	0	0.3336168	3.920267	0	0	100	0	50	-1.052559	0.9935262	-60.3949	
14:33:00	0	0	0	0.3336168	3.920267	0	0	100	0	50	-1.046328	1.025142	-60.54157	
14:33:01	0	0	0	0.3336168	3.920267	0	0	100	0	50	-1.040299	-1.114854	-60.56664	
14:33:01	0	0	0	0.4238008	6.340254	0	0	100	0	50	-1.041394	0.4288561	-60.74033	
14:33:01	0	0	0	0.4238008	6.340254	0	0	100	0	50	-1.05025	2.236751	-60.89758	
14:33:01	0	0	0	0.4238008	6.340254	0	0	100	0	50	-1.057658	0.530433	-61.01684	
14:33:01	0	0	0	0.4238008	6.340254	0	0	100	0	50	-1.059182	2.180054	-60.99091	
14:33:02	0	0	0	0.4238008	6.340254	0	0	100	0	50	-1.07154	2.352123	-61.08868	
14:33:02	0	0	0	0.3733095	-0.329192	0	0	100	0	50	-1.076793	2.255779	-61.14706	
14:33:02	0	0	0	0.3733095	-0.329192	0	0	100	0	50	-1.069294	0.5689761	-61.08608	
14:33:02	0	0	0	0.3733095	-0.329192	0	0	100	0	50	-1.068725	1.435885	-61.11089	
14:33:02	0	0	0	0.3733095	-0.329192	0	0	100	0	50	-1.060969	2.980428	-61.10115	
14:33:02	0	0	0	0.3733095	-0.329192	0	0	100	0	50	-1.058145	1.560824	-61.21442	
14:33:03	0	0	0	0.5090039	6.331101	0	0	100	0	50	-1.064	0.3460776	-61.12845	
14:33:03	0	0	0	0.5090039	6.331101	0	0	100	0	50	-1.051856	0.7345366	-61.17741	
14:33:03	0	0	0	0.5090039	6.331101	0	0	100	0	50	-1.055955	2.024806	-61.22476	
14:33:03	0	0	0	0.5090039	6.331101	0	0	100	0	50	-1.056273	3.839287	-61.18906	
14:33:04	0	0	0	0.5090039	6.331101	0	0	100	0	50	-1.084501	4.385613	-61.31275	
14:33:04	0	0	0	0.2658575	-8.073577	0	0	100	0	50	-1.098736	4.215153	-61.47598	
14:33:04	0	0	0	0.2658575	-8.073577	0	0	100	0	50	-1.119068	4.022274	-61.68958	
14:33:04	0	0	0	0.2658575	-8.073577	0	0	100	0	50	-1.122503	3.802994	-61.81329	
14:33:05	0	0	0	0.2658575	-8.073577	0	0	100	0	50	-1.119748	3.604761	-61.8874	
14:33:05	0	0	0	0.2658575	-8.073577	0	0	100	0	50	-1.131944	3.417221	-62.14824	
14:33:05	0	0	0	0.2932745	-5.118772	0	0	100	0	50	-1.134753	2.205266	-62.29285	
14:33:05	0	0	0	0.2932745	-5.118772	0	0	100	0	50	-1.127012	2.065047	-62.29247	
14:33:05	0	0	0	0.2932745	-5.118772	0	0	100	0	50	-1.145929	2.790155	-62.51682	
14:33:05	0	0	0	0.2932745	-5.118772	0	0	100	0	50	-1.162646	1.791166	-62.57062	
14:33:06	0	0	0	0.2932745	-5.118772	0	0	100	0	50	-1.164647	1.7741	-62.56165	
14:33:06	0	0	0	0.2324822	-5.577642	0	0	100	0	50	-1.146542	3.638057	-62.45102	
14:33:06	0	0	0	0.2324822	-5.577642	0	0	100	0	50	-1.147226	4.64846	-62.50159	
14:33:06	0	0	0	0.2324822	-5.577642	0	0	100	0	50	-1.159734	4.50912	-62.72578	
14:33:06	0	0	0	0.2324822	-5.577642	0	0	100	0	50	-1.17048	3.592406	-63.01191	
14:33:07	0	0	0	0.2324822	-5.577642	0	0	100	0	50	-1.170929	2.606288	-62.96369	
14:33:07	0	0	0	0.1782808	-6.978671	0	0	100	0	50	-1.174764	3.05225	-62.98344	
14:33:07	0	0	0	0.1782808	-6.978671	0	0	100	0	50	-1.1727	1.83361	-63.13811	
14:33:07	0	0	0	0.1782808	-6.978671	0	0	100	0	50	-1.190217	2.165066	-63.14472	
14:33:07	0	0	0	0.1782808	-6.978671	0	0	100	0	50	-1.183487	3.974464	-63.10867	
14:33:08	0	0	0	0.1782808	-6.978671	0	0	100	0	50	-1.196418	3.880159	-63.17853	
14:33:08	0	0	0	0.07612383	-9.266998	0	0	100	0	50	-1.203467	1.76725	-63.26847	
14:33:08	0	0	0	0.07612383	-9.266998	0	0	100	0	50	-1.207167	3.866724	-63.21117	
14:33:08	0	0	0	0.07612383	-9.266998	0	0	100	0	50	-1.213378	2.172837	-63.26294	
14:33:08	0	0	0	0.07612383	-9.266998	0	0	100	0	50	-1.207325	3.791361	-63.22442	
14:33:09	0	0	0	0.07612383	-9.266998	0	0	100	0	50	-1.219123	3.853848	-63.44207	
14:33:09	0	0	0	0.2821804	4.212244	0	0	100	0	50	-1.221431	1.959796	-63.48463	
14:33:09	0	0	0	0.2821804	4.212244	0	0	100	0	50	-1.218776	3.308533	-63.48965	
14:33:09	0	0	0	0.2821804	4.212244	0	0	100	0	50	-1.221737	1.578755	-63.48601	
14:33:09	0	0	0	0.2821804	4.212244	0	0	100	0	50	-1.214576	3.329578	-63.52295	
14:33:10	0	0	0	0.2821804	4.212244	0	0	100	0	50	-1.21934	2.129394	-63.52275	
14:33:10	0	0	0	0.3676135	5.125148	0	0	100	0	50	-1.214504	3.425808	-63.52007	
14:33:10	0	0	0	0.3676135	5.125148	0	0	100	0	50	-1.220309	3.539443	-63.6001	
14:33:10	0	0	0	0.3676135	5.125148	0	0	100	0	50	-1.220319	3.576357	-63.61625	
14:33:10	0	0	0	0.3676135	5.125148	0	0	100	0	50	-1.218818	2.05767	-63.62846	
14:33:11	0	0	0	0.3676135	5.125148	0	0	100	0	50	-1.230363	0.009630017	-63.66377	
14:33:11	0	0	0	0.04717828	-12.03395	0	0	100	0	50	-1.208457	0.6951928	-63.51284	
14:33:11	0	0	0	0.04717828	-12.03395	0	0	100	0	50	-1.192128	2.444288	-63.36858	
14:33:11	0	0	0	0.04717828	-12.03395	0	0	100	0	50	-1.198713	3.941429	-63.49479	
14:33:11	0	0	0	0.04717828	-12.03395	0	0	100	0	50	-1.208345	4.340573	-63.62207	
14:33:12	0	0	0	0.04717828	-12.03395	0	0	100	0	50	-1.215032	4.223432	-63.8879	
14:33:12	0	0	0	-0.2350402	-20.99699	0	0	100	0	50	-1.195431	4.067997	-63.8618	
14:33:12	0	0	0	-0.2350402	-20.99699	0	0	100	0	50	-1.199428	3.90741	-63.96902	
14:33:12	0	0	0	-0.2350402	-20.99699	0	0	100	0	50	-1.205887	3.738257	-63.96342	
14:33:12	0	0	0	-0.2350402	-20.99699	0	0	100	0	50	-1.205515	3.523745	-64.05688	
14:33:13	0	0	0	-0.2350402	-20.99699	0	0	100	0	50	-1.194561	3.412504	-64.16132	
14:33:13	0	0	0	-0.3971559	-20.4558	0	0	100	0	50	-1.190591	2.132078	-64.16096	
14:33:13	0	0	0	-0.3971559	-20.4558	0	0	100	0	50	-1.192768	2.542143	-64.00717	
14:33:13	0	0	0	-0.3971559	-20.4558	0	0	100	0	50	-1.193106	2.560164	-64.03645	
14:33:13	0	0	0	-0.3971559	-20.4558	0	0	100	0	50	-1.199125	2.603845	-63.92702	
14:33:14	0	0	0	-0.3971559	-20.4558	0	0	100	0	50	-1.209468	2.758449	-63.98382	
14:33:14	0	0	0	-0.4485054	-15.44271	0	0	100	0	50	-1.215166	2.363987	-63.95463	
14:33:14	0	0	0	-0.4485054	-15.44271	0	0	100	0	50	-1.202299	2.694052	-63.99281	
14:33:14	0	0	0	-0.4485054	-15.44271	0	0	100	0	50	-1.20348	2.190428	-64.03144	
14:33:14	0	0	0	-0.4485054	-15.44271	0	0	100	0	50	-1.20396	3.999758	-64.0013	
14:33:15	0	0	0	-0.4485054	-15.44271	0	0	100	0	50	-1.20411	4.500215	-64.049	
14:33:15	0	0	0	-0.4445601	-7.918362	0	0	100	0	50	-1.20531	3.733625	-64.13986	
14:33:15	0	0	0	-0.4445601	-7.918362	0	0	100	0	50	-1.213575	5.250222	-64.30349	
14:33:15	0	0	0	-0.4445601	-7.918362	0	0	100	0	50	-1.21064	5.531464	-64.44067	
14:33:15	0	0	0	-0.4445601	-7.918362	0	0	100	0	50	-1.219832	5.216283	-64.57669	
14:33:16	0	0	0	-0.4445601	-7.918362	0	0	100	0	50	-1.217964	3.825204	-64.63792	
14:33:16	0	0	0	-0.1951795	2.476727	0	0	100	0	50	-1.225822	5.450127	-64.7178	
14:33:16	0	0	0	-0.1951795	2.476727	0	0	100	0	50	-1.22784	3.835175	-64.8008	
14:33:16	0	0	0	-0.1951795	2.476727	0	0	100	0	50	-1.237652	5.485557	-64.99436	
14:33:16	0	0	0	-0.1951795	2.476727	0	0	100	0	50	-1.244974	5.316473	-65.09496	
14:33:17	0	0	0	-0.1951795	2.476727	0	0	100	0	50	-1.251387	3.147468	-65.12185	
14:33:17	0	0	0	0.0896521	11.24918	0	0	100	0	50	-1.257181	4.483592	-65.12938	
14:33:17	0	0	0	0.0896521	11.24918	0	0	100	0	50	-1.262639	5.615939	-65.30743	
14:33:17	0	0	0	0.0896521	11.24918	0	0	100	0	50	-1.274177	4.201877	-65.36007	
14:33:17	0	0	0	0.0896521	11.24918	0	0	100	0	50	-1.278106	5.825817	-65.38079	
14:33:18	0	0	0	0.0896521	11.24918	0	0	100	0	50	-1.293136	7.476623	-65.53005	
14:33:18	0	0	0	0.2558999	10.93045	0	0	100	0	50	-1.288927	6.139707	-65.5786	
14:33:18	0	0	0	0.2558999	10.93045	0	0	100	0	50	-1.29349	7.468873	-65.66998	
14:33:18	0	0	0	0.2558999	10.93045	0	0	100	0	50	-1.306452	6.208186	-65.86995	
14:33:19	0	0	0	0.2558999	10.93045	0	0	100	0	50	-1.306459	7.491859	-65.94432	
14:33:19	0	0	0	0.2558999	10.93045	0	0	100	0	50	-1.309533	6.682204	-65.97752	
14:33:19	0	0	0	0.1971958	-1.278785	0	0	100	0	50	-1.32599	5.196312	-66.06049	
14:33:19	0	0	0	0.1971958	-1.278785	0	0	100	0	50	-1.346929	6.307352	-66.20423	
14:33:19	0	0	0	0.1971958	-1.278785	0	0	100	0	50	-1.328263	5.550433	-66.16135	
14:33:20	0	0	0	0.1971958	-1.278785	0	0	100	0	50	-1.330762	5.972691	-66.17361	
14:33:20	0	0	0	0.1971958	-1.278785	0	0	100	0	50	-1.33172	7.491231	-66.23824	
14:33:20	0	0	0	0.09903994	-8.114871	0	0	100	0	50	-1.343812	7.937615	-66.34891	
14:33:20	0	0	0	0.09903994	-8.114871	0	0	100	0	50	-1.357854	7.685463	-66.49882	
14:33:20	0	0	0	0.09903994	-8.114871	0	0	100	0	50	-1.383835	6.297864	-66.71645	
14:33:20	0	0	0	0.09903994	-8.114871	0	0	100	0	50	-1.387303	4.952422	-66.76577	
14:33:21	0	0	0	0.09903994	-8.114871	0	0	100	0	50	-1.39712	5.558372	-66.79405	
14:33:21	0	0	0	0.2433899	-2.047997	0	0	100	0	50	-1.405085	6.212356	-66.78116	
14:33:21	0	0	0	0.2433899	-2.047997	0	0	100	0	50	-1.429204	6.028878	-66.96944	
14:33:21	0	0	0	0.2433899	-2.047997	0	0	100	0	50	-1.424742	5.216712	-66.89809	
14:33:21	0	0	0	0.2433899	-2.047997	0	0	100	0	50	-1.423892	3.246821	-66.93169	
14:33:22	0	0	0	0.2433899	-2.047997	0	0	100	0	50	-1.398867	2.628501	-66.70599	
14:33:22	0	0	0	0.1881507	-5.514881	0	0	100	0	50	-1.391788	3.384015	-66.81171	
14:33:22	0	0	0	0.1881507	-5.514881	0	0	100	0	50	-1.369209	3.144291	-66.61562	
14:33:22	0	0	0	0.1881507	-5.514881	0	0	100	0	50	-1.352231	3.39833	-66.54774	
14:33:23	0	0	0	0.1881507	-5.514881	0	0	100	0	50	-1.342734	3.831684	-66.61481	
14:33:23	0	0	0	0.1881507	-5.514881	0	0	100	0	50	-1.345665	3.836572	-66.53322	
14:33:23	0	0	0	0.2098657	-2.417783	0	0	100	0	50	-1.344803	4.640902	-66.65083	
14:33:23	0	0	0	0.2098657	-2.417783	0	0	100	0	50	-1.334051	3.817305	-66.50803	
14:33:23	0	0	0	0.2098657	-2.417783	0	0	100	0	50	-1.348161	5.35853	-66.58235	
14:33:23	0	0	0	0.2098657	-2.417783	0	0	100	0	50	-1.345847	4.462287	-66.72228	
14:33:24	0	0	0	0.2098657	-2.417783	0	0	100	0	50	-1.350781	3.14938	-66.85514	
14:33:24	0	0	0	0.2085041	-3.384052	0	0	100	0	50	-1.343061	3.943349	-66.7813	
14:33:24	0	0	0	0.2085041	-3.384052	0	0	100	0	50	-1.348375	2.765657	-66.75967	
14:33:24	0	0	0	0.2085041	-3.384052	0	0	100	0	50	-1.341724	4.131169	-66.67189	
14:33:24	0	0	0	0.2085041	-3.384052	0	0	100	0	50	-1.334437	2.982945	-66.6675	
14:33:25	0	0	0	0.2085041	-3.384052	0	0	100	0	50	-1.34118	4.490412	-66.63082	
14:33:25	0	0	0	0.142244	-5.258515	0	0	100	0	50	-1.332056	4.099997	-66.58714	
14:33:25	0	0	0	0.142244	-5.258515	0	0	100	0	50	-1.328096	2.716491	-66.63033	
14:33:25	0	0	0	0.142244	-5.258515	0	0	100	0	50	-1.341876	4.271346	-66.72889	
14:33:25	0	0	0	0.142244	-5.258515	0	0	100	0	50	-1.321799	4.177853	-66.53944	
14:33:26	0	0	0	0.142244	-5.258515	0	0	100	0	50	-1.320331	4.016203	-66.52447	
14:33:26	0	0	0	0.1919987	-0.4551463	0	0	100	0	50	-1.326519	1.839277	-66.49258	
14:33:26	0	0	0	0.1919987	-0.4551463	0	0	100	0	50	-1.327242	4.035492	-66.54801	
14:33:26	0	0	0	0.1919987	-0.4551463	0	0	100	0	50	-1.329824	3.893212	-66.58559	
14:33:26	0	0	0	0.1919987	-0.4551463	0	0	100	0	50	-1.323834	3.749262	-66.65927	
14:33:27	0	0	0	0.1919987	-0.4551463	0	0	100	0	50	-1.314527	3.592314	-66.52952	
14:33:27	0	0	0	0.2573039	2.430274	0	0	100	0	50	-1.297012	3.416974	-66.46925	
14:33:27	0	0	0	0.2573039	2.430274	0	0	100	0	50	-1.27253	1.917087	-66.32397	
14:33:27	0	0	0	0.2573039	2.430274	0	0	100	0	50	-1.249758	3.124715	-66.13348	
14:33:28	0	0	0	0.2573039	2.430274	0	0	100	0	50	-1.23833	3.213088	-66.06414	
14:33:28	0	0	0	0.2573039	2.430274	0	0	100	0	50	-1.228364	3.107625	-66.12092	
14:33:28	0	0	0	0.03572372	-8.427921	0	0	100	0	50	-1.218018	2.971805	-66.0595	
14:33:28	0	0	0	0.03572372	-8.427921	0	0	100	0	50	-1.217235	1.375999	-66.14774	
14:33:28	0	0	0	0.03572372	-8.427921	0	0	100	0	50	-1.208673	-0.6931391	-66.07915	
14:33:28	0	0	0	0.03572372	-8.427921	0	0	100	0	50	-1.206748	0.5846941	-65.93297	
14:33:29	0	0	0	0.03572372	-8.427921	0	0	100	0	50	-1.194782	2.307873	-65.80752	
14:33:29	0	0	0	-0.004761822	-3.352369	0	0	100	0	50	-1.183256	2.737206	-65.86682	
14:33:29	0	0	0	-0.004761822	-3.352369	0	0	100	0	50	-1.180985	1.540041	-65.86636	
14:33:29	0	0	0	-0.004761822	-3.352369	0	0	100	0	50	-1.176076	2.121298	-65.68597	
14:33:29	0	0	0	-0.004761822	-3.352369	0	0	100	0	50	-1.183579	1.22164	-65.76649	
14:33:30	0	0	0	-0.004761822	-3.352369	0	0	100	0	50	-1.181416	1.242911	-65.70798	
14:33:30	0	0	0	0.08771679	2.359965	0	0	100	0	50	-1.185329	0.7746427	-65.63581	
14:33:30	0	0	0	0.08771679	2.359965	0	0	100	0	50	-1.172819	0.2013143	-65.56235	
14:33:30	0	0	0	0.08771679	2.359965	0	0	100	0	50	-1.158436	1.265941	-65.46046	
14:33:31	0	0	0	0.08771679	2.359965	0	0	100	0	50	-1.165899	1.303747	-65.42554	
14:33:31	0	0	0	0.08771679	2.359965	0	0	100	0	50	-1.152068	1.046461	-65.44363	
14:33:31	0	0	0	0.2812775	10.47944	0	0	100	0	50	-1.145209	1.353608	-65.32768	
14:33:31	0	0	0	0.2812775	10.47944	0	0	100	0	50	-1.137018	1.804583	-65.21696	
14:33:31	0	0	0	0.2812775	10.47944	0	0	100	0	50	-1.146885	2.671794	-65.22015	
14:33:31	0	0	0	0.2812775	10.47944	0	0	100	0	50	-1.134308	2.276811	-65.12458	
14:33:32	0	0	0	0.2812775	10.47944	0	0	100	0	50	-1.117084	1.071753	-64.89847	
14:33:32	0	0	0	0.3428512	8.966217	0	0	100	0	50	-1.105093	0.06668229	-64.76576	
14:33:32	0	0	0	0.3428512	8.966217	0	0	100	0	50	-1.086912	0.4749041	-64.61465	
14:33:32	0	0	0	0.3428512	8.966217	0	0	100	0	50	-1.074154	0.9332789	-64.64865	
14:33:32	0	0	0	0.3428512	8.966217	0	0	100	0	50	-1.05521	1.732015	-64.42527	
14:33:33	0	0	0	0.3428512	8.966217	0	0	100	0	50	-1.061018	2.184823	-64.55054	
14:33:33	0	0	0	0.4366785	11.3999	0	0	100	0	50	-1.065457	3.309223	-64.54183	
14:33:33	0	0	0	0.4366785	11.3999	0	0	100	0	50	-1.073756	2.616778	-64.68076	
14:33:33	0	0	0	0.4366785	11.3999	0	0	100	0	50	-1.058981	1.72507	-64.69017	
14:33:33	0	0	0	0.4366785	11.3999	0	0	100	0	50	-1.066983	2.653696	-64.80704	
14:33:34	0	0	0	0.4366785	11.3999	0	0	100	0	50	-1.058633	1.894162	-64.759	
14:33:34	0	0	0	0.23133	-3.122796	0	0	100	0	50	-1.051682	3.163158	-64.8707	
14:33:34	0	0	0	0.23133	-3.122796	0	0	100	0	50	-1.056604	2.673548	-64.98961	
14:33:35	0	0	0	0.23133	-3.122796	0	0	100	0	50	-1.040143	1.11521	-64.97909	
14:33:35	0	0	0	0.23133	-3.122796	0	0	100	0	50	-1.029179	2.753621	-64.8604	
14:33:35	0	0	0	0.23133	-3.122796	0	0	100	0	50	-1.033399	2.420456	-64.84101	
14:33:35	0	0	0	0.1679564	-3.43877	0	0	100	0	50	-1.031603	0.6722622	-64.93758	
14:33:35	0	0	0	0.1679564	-3.43877	0	0	100	0	50	-1.03817	2.779249	-64.68632	
14:33:35	0	0	0	0.1679564	-3.43877	0	0	100	0	50	-1.047073	1.506858	-64.79145	
14:33:36	0	0	0	0.1679564	-3.43877	0	0	100	0	50	-1.051218	0.7276167	-64.62634	
14:33:36	0	0	0	0.1679564	-3.43877	0	0	100	0	50	-1.039192	-0.9315219	-64.58218	
14:33:36	0	0	0	0.08564848	-3.605675	0	0	100	0	50	-1.032381	0.3085743	-64.3908	
14:33:36	0	0	0	0.08564848	-3.605675	0	0	100	0	50	-1.016175	-0.4203558	-64.28494	
14:33:36	0	0	0	0.08564848	-3.605675	0	0	100	0	50	-0.9985034	0.406921	-64.25259	
14:33:36	0	0	0	0.08564848	-3.605675	0	0	100	0	50	-1.005202	0.9100977	-64.19984	
14:33:37	0	0	0	0.08564848	-3.605675	0	0	100	0	50	-0.9988556	0.8530668	-64.10004	
14:33:37	0	0	0	0.01731561	-4.698449	0	0	100	0	50	-1.00108	0.762624	-64.02287	
14:33:37	0	0	0	0.01731561	-4.698449	0	0	100	0	50	-1.022123	0.6900986	-64.0883	
14:33:37	0	0	0	0.01731561	-4.698449	0	0	100	0	50	-1.025452	0.6096598	-64.04791	
14:33:38	0	0	0	0.01731561	-4.698449	0	0	100	0	50	-1.029337	0.5558496	-64.06148	
14:33:38	0	0	0	0.01731561	-4.698449	0	0	100	0	50	-1.0326	0.4615562	-63.98812	
14:33:38	0	0	0	0.1782591	5.855996	0	0	100	0	50	-1.040565	-0.653413	-63.96618	
14:33:38	0	0	0	0.1782591	5.855996	0	0	100	0	50	-1.049332	-0.8821366	-63.81652	
14:33:39	0	0	0	0.1782591	5.855996	0	0	100	0	50	-1.047692	-0.5745945	-63.83793	
14:33:39	0	0	0	0.1782591	5.855996	0	0	100	0	50	-1.044555	-1.396959	-63.75674	
14:33:39	0	0	0	0.1782591	5.855996	0	0	100	0	50	-1.048838	-0.8876844	-63.70397	
14:33:39	0	0	0	0.2542693	8.239108	0	0	100	0	50	-1.05028	0.09015872	-63.57051	
14:33:39	0	0	0	0.2542693	8.239108	0	0	100	0	50	-1.055984	-0.8788299	-63.37464	
14:33:40	0	0	0	0.2542693	8.239108	0	0	100	0	50	-1.053346	0.342542	-63.30888	
14:33:40	0	0	0	0.2542693	8.239108	0	0	100	0	50	-1.048774	0.03978232	-63.42509	
14:33:40	0	0	0	0.2542693	8.239108	0	0	100	0	50	-1.046035	-1.279042	-63.36092	
14:33:40	0	0	0	-0.06762137	-6.424288	0	0	100	0	50	-1.050671	-1.246645	-63.26811	
14:33:40	0	0	0	-0.06762137	-6.424288	0	0	100	0	50	-1.058941	-0.09313819	-63.18274	
14:33:40	0	0	0	-0.06762137	-6.424288	0	0	100	0	50	-1.066046	-1.807486	-63.01106	
14:33:41	0	0	0	-0.06762137	-6.424288	0	0	100	0	50	-1.073739	0.09360383	-62.88211	
14:33:41	0	0	0	-0.06762137	-6.424288	0	0	100	0	50	-1.075644	0.4544215	-62.97868	
14:33:41	0	0	0	0.01296091	2.256215	0	0	100	0	50	-1.084215	0.4544098	-63.04976	
14:33:41	0	0	0	0.01296091	2.256215	0	0	100	0	50	-1.090791	-1.625833	-62.87525	
14:33:41	0	0	0	0.01296091	2.256215	0	0	100	0	50	-1.077589	-1.649176	-62.92638	
14:33:41	0	0	0	0.01296091	2.256215	0	0	100	0	50	-1.07878	0.3950599	-62.71872	
14:33:42	0	0	0	0.01296091	2.256215	0	0	100	0	50	-1.081006	-1.713326	-62.45234	
14:33:42	0	0	0	-0.06542117	-1.835932	0	0	100	0	50	-1.079204	0.2188922	-62.26041	
14:33:42	0	0	0	-0.06542117	-1.835932	0	0	100	0	50	-1.071653	-1.877406	-62.36196	
14:33:42	0	0	0	-0.06542117	-1.835932	0	0	100	0	50	-1.074667	-0.2303381	-62.3205	
14:33:42	0	0	0	-0.06542117	-1.835932	0	0	100	0	50	-1.077078	1.782528	-62.4032	
14:33:43	0	0	0	-0.06542117	-1.835932	0	0	100	0	50	-1.075857	-0.05654883	-62.23981	
14:33:43	0	0	0	-0.079636	-0.6419225	0	0	100	0	50	-1.067345	-1.904027	-62.20783	
14:33:43	0	0	0	-0.079636	-0.6419225	0	0	100	0	50	-1.070065	-0.2005324	-62.13233	
14:33:43	0	0	0	-0.079636	-0.6419225	0	0	100	0	50	-1.072605	-1.472371	-62.10712	
14:33:43	0	0	0	-0.079636	-0.6419225	0	0	100	0	50	-1.070958	-1.638969	-62.04907	
14:33:44	0	0	0	-0.079636	-0.6419225	0	0	100	0	50	-1.072462	-3.343554	-61.99615	
14:33:44	0	0	0	-0.01024558	3.737826	0	0	100	0	50	-1.058981	-1.621961	-62.01952	
14:33:44	0	0	0	-0.01024558	3.737826	0	0	100	0	50	-1.053727	-2.86126	-62.08805	
14:33:44	0	0	0	-0.01024558	3.737826	0	0	100	0	50	-1.050378	-1.538707	-61.97523	
14:33:45	0	0	0	-0.01024558	3.737826	0	0	100	0	50	-1.052368	-2.423493	-61.86539	
14:33:45	0	0	0	-0.01024558	3.737826	0	0	100	0	50	-1.042019	-4.225253	-61.74718	
14:33:45	0	0	0	0.08564957	6.348483	0	0	100	0	50	-1.036267	-2.94951	-61.72817	
14:33:45	0	0	0	0.08564957	6.348483	0	0	100	0	50	-1.032504	-3.667361	-61.65203	
14:33:45	0	0	0	0.08564957	6.348483	0	0	100	0	50	-1.034988	-3.24725	-61.60318	
14:33:46	0	0	0	0.08564957	6.348483	0	0	100	0	50	-1.030174	-3.780439	-61.49888	
14:33:46	0	0	0	0.08564957	6.348483	0	0	100	0	50	-1.027775	-3.544804	-61.3236	
14:33:46	0	0	0	-0.1451251	-5.715988	0	0	100	0	50	-1.01044	-3.074259	-61.38771	
14:33:46	0	0	0	-0.1451251	-5.715988	0	0	100	0	50	-1.010826	-2.455991	-61.26998	
14:33:46	0	0	0	-0.1451251	-5.715988	0	0	100	0	50	-1.006962	-1.366983	-61.20976	
