Date	Latitude(deg) 	Longitude(deg)	hamsl(m)	hafl(m)	climbrate(cm/s)	GroundSpeed(m/s)	Airspeed(m/s)	Mav_Link(%)	Rssi_Link(%)	Throttle	Roll(deg)	Pitch(deg)	Yaw(deg)
15:16:38	-6.728625	38.94615	129.851	0	0	0.04	0	100	0	0	7.531611	15.55187	-81.31005	
15:16:38	-6.728621	38.94616	130.099	-0.4175943	-0.06214574	0.06	3	100	0	6545	7.859251	15.57662	-81.18332	
15:16:39	-6.728621	38.94616	130.066	-0.4179198	-0.7267488	0.14	3	100	0	6546	7.819287	15.55582	-81.14957	
15:16:39	-6.728621	38.94616	130.059	-0.6853661	-14.63027	0.09	3	100	0	6546	7.782568	15.60723	-81.09273	
15:16:39	-6.728621	38.94616	130.027	-0.900941	-24.18956	0.11	3	100	0	6546	8.103292	15.67518	-81.02871	
15:16:39	-6.728621	38.94616	129.92	-0.8156055	-16.8427	0.11	3	100	0	6546	8.273326	15.68564	-81.01796	
15:16:40	-6.728622	38.94616	129.884	-0.7342994	-11.00627	0.14	3	100	0	6546	7.763044	15.67457	-81.00731	
15:16:40	-6.728622	38.94616	129.815	-0.5043681	1.262306	0.08	3	100	0	6546	7.780582	15.77207	-80.98901	
15:16:40	-6.728622	38.94616	129.866	-0.3170609	10.83665	0.22	3	100	0	6546	8.067532	16.00512	-81.00459	
15:16:40	-6.728622	38.94616	129.843	-0.14632	18.37726	0.26	3	100	0	6546	7.466544	16.02459	-81.04816	
15:16:40	-6.728622	38.94616	129.811	-0.01841755	22.96332	0.19	3	100	0	6546	7.559969	15.91896	-81.04599	
15:16:40	-6.728622	38.94616	129.752	0.05182792	24.15642	0.14	3	100	0	6546	7.498779	15.8842	-81.02061	
15:16:41	-6.728622	38.94616	129.705	0.05122524	21.78954	0.09	3	100	0	6546	7.402544	15.88883	-80.98331	
15:16:41	-6.728623	38.94616	129.632	0.06706433	20.51165	0.13	3	100	0	6546	7.447127	15.88152	-80.96186	
15:16:41	-6.728623	38.94616	129.587	0.09776592	20.36661	0.12	3	100	0	6546	7.390258	15.85986	-80.94848	
15:16:41	-6.728623	38.94616	129.574	0.08041953	17.32921	0.04	3	100	0	6546	7.324297	15.88213	-80.93162	
15:16:41	-6.728624	38.94616	129.562	0.02180943	12.4999	0.13	3	100	0	6546	7.298275	15.87027	-80.92564	
15:16:42	-6.728624	38.94616	129.562	-0.004313764	10.45688	0.07	3	100	0	6546	7.321014	15.80687	-80.92593	
15:16:42	-6.728624	38.94616	129.548	-0.01064208	9.462607	0.19	3	100	0	6546	7.469066	15.81854	-80.86813	
15:16:42	-6.728624	38.94616	129.512	-0.004505957	8.730771	0.07	3	100	0	6546	7.450816	15.86101	-80.84715	
15:16:43	-6.728624	38.94616	129.429	0.01744495	8.185494	0.14	3	100	0	6546	7.17862	15.85266	-80.90337	
15:16:43	-6.728624	38.94616	129.344	0.03103207	7.579055	0.08	3	100	0	6546	7.067573	15.81524	-80.93009	
15:16:43	-6.728625	38.94616	129.289	0.03754367	7.673182	0.04	3	100	0	6546	7.107255	15.80289	-80.89103	
15:16:43	-6.728625	38.94616	129.276	0.06373643	8.289669	0.25	3	100	0	6546	7.303272	15.82902	-80.81406	
15:16:44	-6.728625	38.94616	129.202	0.09931268	9.318705	0.11	3	100	0	6546	7.312939	15.78757	-80.8143	
15:16:44	-6.728625	38.94616	129.167	0.1086074	8.681438	0.07	3	100	0	6545	7.176564	15.80774	-80.83253	
15:16:44	-6.728625	38.94616	129.062	0.09529544	7.019852	0.12	3	100	0	6546	7.174809	15.94941	-80.82835	
15:16:44	-6.728625	38.94616	128.996	0.0844092	5.875595	0.02	3	100	0	6546	7.094101	15.97159	-80.86115	
15:16:44	-6.728625	38.94616	128.938	0.07491311	4.950564	0.01	3	100	0	6546	7.031421	15.89536	-80.85202	
15:16:44	-6.728625	38.94616	128.944	0.04818019	3.33471	0.11	3	100	0	6546	7.05985	15.87818	-80.81053	
15:16:45	-6.728625	38.94616	128.87	-0.001593554	0.3474815	0.24	3	100	0	6546	7.187816	15.95032	-80.75799	
15:16:45	-6.728624	38.94616	128.834	-0.03241902	-1.588429	0.09	3	100	0	6546	7.180093	16.01058	-80.75057	
15:16:45	-6.728624	38.94616	128.759	-0.03974529	-1.762263	0.12	3	100	0	6546	6.988931	15.88247	-80.78243	
15:16:45	-6.728624	38.94616	128.739	-0.04620748	-2.762781	0.09	3	100	0	6546	6.928522	15.87588	-80.79697	
15:16:45	-6.728624	38.94616	128.732	-0.05539959	-2.626815	0.02	3	100	0	6546	6.966236	15.95815	-80.75788	
15:16:46	-6.728624	38.94616	128.701	-0.06296851	-2.72746	0.26	3	100	0	6546	7.052917	16.04627	-80.71794	
15:16:46	-6.728624	38.94616	128.642	-0.06521416	-2.794108	0.08	3	100	0	6546	6.994419	16.07275	-80.74664	
15:16:46	-6.728624	38.94616	128.566	-0.06756618	-3.427873	0.11	3	100	0	6546	6.856434	16.05223	-80.78445	
15:16:46	-6.728624	38.94616	128.472	-0.02350051	-0.9986767	0.18	3	100	0	6546	6.971144	16.12233	-80.7648	
15:16:46	-6.728624	38.94616	128.404	0.01668206	1.079322	0.08	3	100	0	6546	6.853826	16.04854	-80.77542	
15:16:46	-6.728625	38.94616	128.355	0.04869305	2.641464	0.09	3	100	0	6546	6.799402	15.9388	-80.77376	
15:16:47	-6.728625	38.94616	128.345	0.07716893	3.631479	0.14	3	100	0	6546	6.705974	15.98047	-80.78422	
15:16:47	-6.728625	38.94616	128.293	0.1084588	5.156732	0.08	3	100	0	6546	6.677218	16.02725	-80.77427	
15:16:47	-6.728625	38.94616	128.239	0.1337366	6.199542	0.06	3	100	0	6546	6.804272	15.98029	-80.7404	
15:16:47	-6.728625	38.94616	128.193	0.136615	5.443942	0.04	3	100	0	6546	6.844317	15.99787	-80.74297	
15:16:47	-6.728625	38.94616	128.123	0.1381699	5.120851	0.07	3	100	0	6546	6.865459	16.03199	-80.7243	
15:16:48	-6.728625	38.94616	128.101	0.1775774	6.58039	0.03	3	100	0	6546	6.850218	15.95321	-80.74033	
15:16:48	-6.728625	38.94616	128.101	0.2093095	7.772888	0.14	3	100	0	6546	6.874093	16.03299	-80.70633	
15:16:48	-6.728625	38.94616	128.089	0.2041062	6.49189	0.04	3	100	0	6546	6.797132	15.98435	-80.74561	
15:16:48	-6.728624	38.94616	128.043	0.1984219	5.889005	0.17	3	100	0	6546	6.953365	15.94874	-80.70031	
15:16:49	-6.728624	38.94616	127.994	0.1253611	1.486687	0.08	3	100	0	6546	6.921042	16.00188	-80.69598	
15:16:49	-6.728624	38.94616	127.927	0.05831159	-2.146562	0.17	3	100	0	6546	6.711712	15.99756	-80.74908	
15:16:49	-6.728624	38.94616	127.844	0.04335379	-2.589927	0.03	3	100	0	6546	6.717729	15.9468	-80.72475	
15:16:49	-6.728625	38.94616	127.832	0.03141674	-3.208507	0.11	3	100	0	6546	6.718141	15.97378	-80.70934	
15:16:49	-6.728624	38.94616	127.83	0.04830877	-1.724166	0.09	3	100	0	6546	6.777858	15.9188	-80.68413	
15:16:49	-6.728624	38.94616	127.821	0.06488252	-0.2428737	0.09	3	100	0	6546	6.810039	15.98616	-80.65387	
15:16:49	-6.728624	38.94616	127.765	0.07427038	0.6488299	0.24	3	100	0	6546	6.886834	16.1087	-80.62679	
15:16:50	-6.728624	38.94616	127.736	0.08263735	1.241059	0.09	3	100	0	6546	6.838398	16.04687	-80.65845	
15:16:50	-6.728624	38.94616	127.701	0.08938701	1.794708	0.16	3	100	0	6546	6.804578	16.00457	-80.65664	
15:16:50	-6.728623	38.94616	127.654	0.09211018	1.597546	0.11	3	100	0	6547	6.665663	15.88649	-80.6944	
15:16:50	-6.728623	38.94616	127.654	0.0900674	1.693609	0.04	3	100	0	6546	6.61697	15.88117	-80.6927	
15:16:50	-6.728623	38.94616	127.597	0.08265967	0.6293247	0.12	3	100	0	6546	6.615252	15.8298	-80.69751	
15:16:51	-6.728623	38.94616	127.553	0.07448391	0.4084392	0.07	3	100	0	6546	6.626479	15.9495	-80.67149	
15:16:51	-6.728623	38.94616	127.489	0.067825	-0.04106299	0.11	3	100	0	6546	6.541094	15.96327	-80.69759	
15:16:51	-6.728623	38.94616	127.538	0.03803784	-1.970478	0.07	3	100	0	6546	6.539823	16.00172	-80.68513	
15:16:51	-6.728623	38.94616	127.502	-0.00391749	-3.918727	0.07	3	100	0	6546	6.64724	16.01237	-80.65257	
15:16:51	-6.728622	38.94616	127.454	-0.04325849	-5.658628	0.14	3	100	0	6546	6.732215	16.04083	-80.60317	
15:16:52	-6.728622	38.94616	127.415	-0.07577655	-6.726088	0.11	3	100	0	6546	6.546311	15.88854	-80.64855	
15:16:52	-6.728622	38.94616	127.435	-0.113402	-8.137677	0.09	3	100	0	6546	6.558451	15.9548	-80.63504	
15:16:52	-6.728622	38.94616	127.387	-0.1544906	-9.120067	0.17	3	100	0	6546	6.591772	16.05044	-80.63239	
15:16:52	-6.728622	38.94616	127.326	-0.173686	-9.030096	0.07	3	100	0	6546	6.497115	15.9467	-80.6693	
15:16:52	-6.728622	38.94616	127.314	-0.1674826	-8.248434	0.08	3	100	0	6546	6.457061	15.91144	-80.67872	
15:16:53	-6.728621	38.94616	127.321	-0.1456719	-6.922998	0.09	3	100	0	6546	6.476235	15.82434	-80.644	
15:16:53	-6.728621	38.94616	127.281	-0.1167435	-4.908939	0.14	3	100	0	6546	6.361583	15.84691	-80.66092	
15:16:53	-6.728621	38.94616	127.253	-0.09391125	-2.944176	0.09	3	100	0	6546	6.408826	15.90245	-80.64413	
15:16:53	-6.728621	38.94616	127.21	-0.07504429	-1.283035	0.19	3	100	0	6546	6.396224	15.96791	-80.63799	
15:16:54	-6.728621	38.94616	127.193	-0.02411788	1.900308	0.09	3	100	0	6546	6.427001	15.93871	-80.63435	
15:16:54	-6.728621	38.94616	127.15	0.03714386	5.057404	0.24	3	100	0	6546	6.571026	16.0248	-80.59898	
15:16:54	-6.728621	38.94616	127.118	0.08895335	7.309422	0.09	3	100	0	6546	6.484963	15.91595	-80.62709	
15:16:54	-6.728621	38.94616	127.119	0.1220414	9.10788	0.14	3	100	0	6546	6.389518	15.83977	-80.64277	
15:16:54	-6.728621	38.94616	127.074	0.1787243	11.2295	0.02	3	100	0	6546	6.474593	15.77115	-80.61327	
15:16:55	-6.728621	38.94616	127.017	0.2746058	15.15249	0.07	3	100	0	6546	6.471998	15.77383	-80.59142	
15:16:55	-6.728621	38.94616	126.995	0.3521623	17.9834	0.17	3	100	0	6546	6.600003	15.78519	-80.54707	
15:16:55	-6.72862	38.94616	127.025	0.387157	17.74114	0.01	3	100	0	6546	6.54581	15.75005	-80.54639	
15:16:55	-6.72862	38.94616	127.024	0.4153297	17.21929	0.07	3	100	0	6546	6.456417	15.79101	-80.55097	
15:16:55	-6.72862	38.94616	127.028	0.4513702	17.10242	0.07	3	100	0	6546	6.49698	15.809	-80.51148	
15:16:55	-6.72862	38.94616	126.988	0.47771	16.54853	0.14	3	100	0	6546	6.401209	15.72373	-80.51878	
15:16:56	-6.72862	38.94616	126.963	0.5321231	17.20758	0.06	3	100	0	6546	6.4468	15.85172	-80.47083	
15:16:56	-6.72862	38.94616	126.963	0.5724586	17.86202	0.19	3	100	0	6546	6.454162	15.73913	-80.47335	
15:16:56	-6.72862	38.94616	126.884	0.5743621	16.69654	0.19	3	100	0	6546	6.558003	15.90793	-80.42642	
15:16:56	-6.72862	38.94616	126.884	0.5737275	15.33691	0.19	3	100	0	6546	6.674764	15.9142	-80.40285	
15:16:56	-6.728619	38.94616	126.776	0.5289987	11.64791	0.08	3	100	0	6546	6.536109	15.74036	-80.43355	
15:16:57	-6.728619	38.94616	126.724	0.4856847	8.432441	0.08	3	100	0	6546	6.590048	15.86382	-80.43161	
15:16:57	-6.728619	38.94616	126.746	0.3944648	2.883394	0.03	3	100	0	6546	6.555103	15.88839	-80.44122	
15:16:57	-6.728619	38.94616	126.733	0.3110287	-1.394822	0.07	3	100	0	6546	6.600833	15.84746	-80.43201	
15:16:57	-6.728619	38.94616	126.733	0.2409942	-4.638266	0.07	3	100	0	6546	6.615517	15.86751	-80.43237	
15:16:57	-6.728619	38.94616	126.634	0.184938	-7.145627	0.09	3	100	0	6544	6.75515	15.82902	-80.39046	
15:16:58	-6.728619	38.94616	126.602	0.1181457	-9.977214	0.16	3	100	0	6546	6.4212	15.82743	-80.48035	
15:16:58	-6.728619	38.94616	126.593	0.06448658	-12.45687	0.02	3	100	0	6546	6.298764	15.7186	-80.49635	
15:16:58	-6.728619	38.94616	126.586	-0.03081854	-16.49839	0.22	3	100	0	6546	6.416048	15.75629	-80.44476	
15:16:58	-6.728619	38.94616	126.586	-0.1145072	-18.74248	0.22	3	100	0	6546	6.338343	15.598	-80.45126	
15:16:58	-6.728619	38.94616	126.589	-0.1663688	-19.35056	0.04	3	100	0	6546	6.388159	15.71233	-80.4099	
15:16:59	-6.728619	38.94616	126.577	-0.209879	-19.63929	0.17	3	100	0	6546	6.501312	15.77907	-80.36589	
15:16:59	-6.728619	38.94616	126.545	-0.2261644	-18.69569	0.16	3	100	0	6546	6.294083	15.63005	-80.41164	
15:16:59	-6.728619	38.94616	126.545	-0.2375739	-17.50867	0.16	3	100	0	6546	6.367665	15.94424	-80.37689	
15:16:59	-6.728619	38.94616	126.49	-0.2115869	-14.59332	0.16	3	100	0	6546	6.278247	15.87147	-80.40508	
15:16:59	-6.72862	38.94616	126.458	-0.1848662	-11.41807	0.06	3	100	0	6546	6.303111	15.89533	-80.38811	
15:17:00	-6.728619	38.94616	126.611	-0.1716252	-9.609	0.14	3	100	0	6546	6.396605	16.07586	-80.34799	
15:17:00	-6.728619	38.94616	126.627	-0.1708812	-8.167885	0.19	3	100	0	6546	6.372385	16.0637	-80.36856	
15:17:00	-6.728619	38.94616	126.653	-0.1550391	-6.586541	0.19	3	100	0	6546	6.171541	15.95224	-80.45908	
15:17:00	-6.728619	38.94616	126.692	-0.1274536	-4.450001	0.21	3	100	0	6546	6.214722	16.00558	-80.45847	
15:17:00	-6.728619	38.94616	126.663	-0.07012769	-0.9217647	0.14	3	100	0	6546	6.12272	15.90879	-80.48445	
15:17:01	-6.728619	38.94616	126.7	0.008698635	3.017438	0.07	3	100	0	6546	6.272962	15.97356	-80.43589	
15:17:01	-6.728619	38.94616	126.72	0.04735123	4.77847	0.08	3	100	0	6546	6.400039	15.87332	-80.41595	
15:17:01	-6.728619	38.94616	126.699	0.06183106	5.040807	0.06	3	100	0	6546	6.417578	15.90027	-80.40136	
15:17:02	-6.728619	38.94616	126.711	0.09041739	5.725119	0.06	3	100	0	6546	6.422171	15.89074	-80.38363	
15:17:02	-6.72862	38.94616	126.671	0.1249666	7.342391	0.08	3	100	0	6546	6.318675	15.88238	-80.40897	
15:17:02	-6.72862	38.94616	126.675	0.1482441	8.556519	0.09	3	100	0	6546	6.309164	15.81702	-80.40956	
15:17:02	-6.72862	38.94616	126.731	0.161622	9.145526	0.04	3	100	0	6546	6.247644	15.84589	-80.41616	
15:17:02	-6.72862	38.94616	126.693	0.1621465	8.697546	0.14	3	100	0	6546	6.336963	15.83355	-80.39435	
15:17:03	-6.728621	38.94616	126.703	0.1518992	7.864935	0.03	3	100	0	6546	6.162095	15.81314	-80.43761	
15:17:03	-6.72862	38.94616	126.735	0.1507863	7.45552	0.03	3	100	0	6546	6.2438	15.81731	-80.42081	
15:17:03	-6.72862	38.94616	126.764	0.1541187	6.881629	0.17	3	100	0	6546	6.290244	15.8742	-80.38493	
15:17:03	-6.728621	38.94616	126.739	0.1491163	5.921789	0.24	3	100	0	6546	6.240396	16.04073	-80.40568	
15:17:03	-6.728621	38.94616	126.728	0.1394725	5.029007	0.09	3	100	0	6546	6.028396	15.8281	-80.45337	
15:17:04	-6.728621	38.94616	126.758	0.1446243	5.024401	0.14	3	100	0	6546	6.108511	15.81794	-80.42582	
15:17:04	-6.728621	38.94616	126.771	0.1575483	5.22764	0.09	3	100	0	6546	6.269599	15.9885	-80.36563	
15:17:04	-6.728621	38.94616	126.758	0.161586	5.349443	0.29	3	100	0	6546	6.230502	15.95846	-80.39727	
15:17:04	-6.728621	38.94616	126.753	0.157881	4.49786	0.19	3	100	0	6546	6.462928	16.09087	-80.3123	
15:17:04	-6.728621	38.94616	126.716	0.1506339	3.605729	0.02	3	100	0	6546	6.179848	15.91002	-80.38256	
15:17:04	-6.728621	38.94616	126.756	0.1395001	2.485327	0.19	3	100	0	6546	6.307771	15.86895	-80.34505	
15:17:04	-6.728621	38.94616	126.842	0.1287983	1.579377	0.09	3	100	0	6546	6.193377	15.84179	-80.36884	
15:17:05	-6.728621	38.94616	126.91	0.07706404	-1.16114	0.04	3	100	0	6546	6.44921	15.88452	-80.30029	
15:17:05	-6.72862	38.94616	126.941	0.0303423	-3.367627	0.33	3	100	0	6546	6.450361	15.9157	-80.30882	
15:17:05	-6.72862	38.94616	126.941	-0.04593084	-7.282166	0.33	3	100	0	6546	6.679178	16.0409	-80.24598	
15:17:05	-6.72862	38.94616	127.064	-0.1072179	-9.892712	0.07	3	100	0	6546	6.522398	15.91099	-80.30778	
15:17:06	-6.72862	38.94616	127.129	-0.222523	-14.80751	0.14	3	100	0	6546	6.560441	16.01631	-80.31097	
15:17:06	-6.72862	38.94616	127.164	-0.3147403	-18.61575	0.04	3	100	0	6546	6.574479	16.15893	-80.31827	
15:17:06	-6.72862	38.94616	127.131	-0.2688706	-14.62787	0.06	3	100	0	6546	6.441961	16.08699	-80.36724	
15:17:06	-6.72862	38.94616	127.131	-0.2238511	-10.56224	0.06	3	100	0	6546	6.410317	15.98412	-80.37037	
15:17:06	-6.728621	38.94616	127.124	-0.1721418	-6.708389	0.02	3	100	0	6546	6.444078	15.94692	-80.38491	
15:17:07	-6.72862	38.94616	127.178	-0.1226609	-3.286148	0.33	3	100	0	6546	6.395147	15.97816	-80.39366	
15:17:07	-6.72862	38.94616	127.209	-0.1234158	-3.794758	0.08	3	100	0	6546	6.723684	16.03376	-80.32607	
15:17:07	-6.72862	38.94616	127.222	-0.124592	-4.10272	0.07	3	100	0	6546	6.56445	15.95616	-80.36787	
15:17:07	-6.728621	38.94616	127.218	-0.1575596	-5.504708	0.08	3	100	0	6546	6.511722	16.03491	-80.40343	
15:17:07	-6.728621	38.94616	127.218	-0.1861027	-5.992906	0.08	3	100	0	6546	6.306578	16.04904	-80.4469	
15:17:08	-6.728621	38.94616	127.272	-0.1855243	-5.069139	0.03	3	100	0	6546	6.24323	15.93863	-80.49514	
15:17:08	-6.728621	38.94616	127.253	-0.1834935	-4.359772	0.14	3	100	0	6546	6.413752	16.01862	-80.45317	
15:17:08	-6.728621	38.94616	127.243	-0.1683944	-3.278091	0.08	3	100	0	6546	6.233973	16.07411	-80.47813	
15:17:08	-6.728621	38.94616	127.238	-0.1543319	-2.434585	0.03	3	100	0	6546	6.407569	16.03296	-80.44023	
15:17:09	-6.728621	38.94616	127.213	-0.1163353	0.2294268	0.16	3	100	0	6546	6.459142	16.02777	-80.44788	
15:17:09	-6.728621	38.94616	127.167	-0.0824493	1.266039	0.04	3	100	0	6546	6.234526	16.08979	-80.50059	
15:17:09	-6.728621	38.94616	127.186	-0.09250641	0.7939655	0.04	3	100	0	6546	6.288346	16.02009	-80.50447	
15:17:09	-6.728621	38.94616	127.172	-0.1020672	0.1997297	0.13	3	100	0	6546	6.304457	16.05362	-80.48576	
15:17:10	-6.728621	38.94616	127.199	-0.08341001	1.396603	0.13	3	100	0	6546	6.503562	16.11614	-80.47971	
15:17:10	-6.728621	38.94616	127.199	-0.06679594	2.027719	0.13	3	100	0	6546	6.464895	16.02045	-80.47255	
15:17:10	-6.728621	38.94616	127.216	-0.05925785	2.438471	0.18	3	100	0	6544	6.456949	15.99203	-80.50407	
15:17:10	-6.728621	38.94616	127.248	-0.05939788	2.458333	0.19	3	100	0	6546	6.217479	15.89442	-80.58135	
15:17:10	-6.728621	38.94616	127.332	-0.08008286	0.9694871	0.09	3	100	0	6546	6.117841	15.82771	-80.59326	
15:17:11	-6.728621	38.94616	127.361	-0.1182759	-0.7880291	0.11	3	100	0	6546	6.30067	15.96145	-80.49894	
15:17:11	-6.728621	38.94616	127.375	-0.143165	-2.04577	0.26	3	100	0	6546	6.207643	15.94572	-80.53668	
15:17:11	-6.728621	38.94616	127.337	-0.1589266	-2.482192	0.11	3	100	0	6546	5.977398	15.94067	-80.61401	
15:17:11	-6.728621	38.94616	127.36	-0.178545	-3.414945	0.11	3	100	0	6546	6.167687	16.04441	-80.55392	
15:17:11	-6.728621	38.94616	127.376	-0.1997401	-4.405636	0.08	3	100	0	6546	6.133678	16.05273	-80.55087	
15:17:12	-6.728621	38.94616	127.376	-0.1922811	-3.470375	0.08	3	100	0	6546	6.106868	16.00871	-80.54813	
15:17:12	-6.728622	38.94616	127.319	-0.1712876	-2.490039	0.09	3	100	0	6546	6.333488	15.96234	-80.53656	
15:17:12	-6.728622	38.94616	127.324	-0.1638771	-1.951781	0.14	3	100	0	6544	6.195772	16.05039	-80.52385	
15:17:12	-6.728622	38.94615	127.326	-0.1729607	-1.702335	0.12	3	100	0	6546	6.066956	15.93165	-80.57475	
15:17:12	-6.728622	38.94615	127.328	-0.1792673	-2.057639	0.09	3	100	0	6546	6.016754	15.90713	-80.57884	
15:17:12	-6.728622	38.94615	127.303	-0.1833225	-2.211103	0.17	3	100	0	6546	6.287566	15.97633	-80.52298	
15:17:13	-6.728622	38.94615	127.232	-0.1725622	-1.076188	0.09	3	100	0	6546	6.385688	15.95128	-80.49085	
15:17:13	-6.728623	38.94615	127.23	-0.1528181	0.2754889	0.14	3	100	0	6546	6.317274	15.86416	-80.53127	
15:17:13	-6.728623	38.94615	127.275	-0.1229121	1.734468	0.13	3	100	0	6546	6.213166	15.79237	-80.55856	
15:17:13	-6.728623	38.94615	127.226	-0.08814212	3.583002	0.17	3	100	0	6546	6.348824	15.81913	-80.50531	
15:17:14	-6.728623	38.94615	127.226	-0.05340607	5.575643	0.17	3	100	0	6546	6.432061	15.90896	-80.45901	
15:17:14	-6.728623	38.94615	127.252	-0.02453594	6.170634	0.09	3	100	0	6546	6.332869	15.87859	-80.4793	
15:17:14	-6.728623	38.94615	127.247	-0.00777882	5.769006	0.09	3	100	0	6546	6.18205	15.87762	-80.50771	
15:17:14	-6.728624	38.94615	127.216	-0.00915285	5.006708	0.13	3	100	0	6546	6.239226	15.99756	-80.49682	
15:17:14	-6.728624	38.94615	127.201	-0.003771444	4.714482	0.07	3	100	0	6546	6.379293	15.96538	-80.4734	
15:17:15	-6.728624	38.94615	127.144	0.006194118	4.427709	0.08	3	100	0	6546	6.285479	15.9811	-80.49397	
15:17:15	-6.728624	38.94615	127.142	0.01468823	4.033631	0.07	3	100	0	6546	6.194391	15.90005	-80.52032	
15:17:15	-6.728624	38.94615	127.117	0.0287852	4.510661	0.11	3	100	0	6546	6.105026	15.90351	-80.52964	
15:17:15	-6.728624	38.94615	127.099	0.04066913	4.394128	0.19	3	100	0	6546	6.301581	15.88014	-80.47906	
15:17:15	-6.728623	38.94615	127.094	0.07987504	5.839967	0.14	3	100	0	6546	6.381342	15.98129	-80.43257	
15:17:16	-6.728623	38.94615	127.133	0.114213	7.02426	0.06	3	100	0	6546	6.360963	15.95652	-80.4445	
15:17:16	-6.728623	38.94615	127.155	0.1417915	6.975389	0.04	3	100	0	6546	6.219465	15.93724	-80.48261	
15:17:16	-6.728623	38.94615	127.107	0.1653034	8.155388	0.09	3	100	0	6546	6.169753	15.82368	-80.50177	
15:17:16	-6.728623	38.94615	127.111	0.1225569	5.096807	0.14	3	100	0	6546	6.167283	15.76227	-80.49314	
15:17:16	-6.728623	38.94615	127.08	0.08236793	2.282268	0.04	3	100	0	6546	6.315512	15.94358	-80.44887	
15:17:17	-6.728623	38.94615	127.08	0.05698131	0.4071083	0.04	3	100	0	6546	6.143106	15.89392	-80.49245	
15:17:17	-6.728623	38.94615	127.098	0.03594235	-0.2850041	0.11	3	100	0	6546	6.06397	15.82889	-80.49816	
15:17:17	-6.728624	38.94615	127.057	0.004423462	-2.120344	0.08	3	100	0	6546	6.265075	15.77446	-80.45097	
15:17:17	-6.728624	38.94615	127.085	-0.02117211	-3.426739	0.07	3	100	0	6546	6.191426	15.97274	-80.48251	
15:17:18	-6.728624	38.94615	127.076	-0.02356802	-3.363912	0.11	3	100	0	6546	6.281543	15.90339	-80.45113	
15:17:18	-6.728624	38.94615	127.076	-0.02541823	-3.026878	0.11	3	100	0	6546	6.311117	15.81888	-80.45761	
15:17:18	-6.728624	38.94615	127.106	-0.008580766	-1.723173	0.09	3	100	0	6546	6.183562	15.7816	-80.46545	
15:17:18	-6.728624	38.94615	127.065	0.005550448	-1.081388	0.12	3	100	0	6546	6.055683	15.81142	-80.49393	
15:17:18	-6.728624	38.94615	127.07	-0.02769137	-3.015273	0.14	3	100	0	6546	6.168564	15.87665	-80.4929	
15:17:19	-6.728624	38.94615	127.133	-0.05170144	-3.638953	0.04	3	100	0	6546	5.921334	15.80306	-80.58197	
15:17:19	-6.728624	38.94615	127.178	-0.02181102	-1.871795	0	3	100	0	6546	6.073733	15.81964	-80.52959	
15:17:19	-6.728624	38.94615	127.187	0.00498438	-1.024436	0.11	3	100	0	6546	6.058484	15.80682	-80.51576	
15:17:19	-6.728624	38.94615	127.2	-0.0041732	-1.733751	0.06	3	100	0	6546	5.844565	15.76657	-80.51876	
15:17:19	-6.728624	38.94615	127.263	-0.01107522	-1.852647	0.06	3	100	0	6546	5.955163	15.8093	-80.47287	
15:17:20	-6.728624	38.94615	127.304	0.02036267	-0.1325096	0.04	3	100	0	6546	5.87258	15.7684	-80.4656	
15:17:20	-6.728624	38.94615	127.304	0.04939798	1.535849	0.04	3	100	0	6546	6.025847	15.88293	-80.42096	
15:17:20	-6.728625	38.94615	127.368	0.05923972	1.672193	0.12	3	100	0	6546	6.049484	15.79747	-80.43726	
15:17:20	-6.728624	38.94615	127.441	0.04467568	0.8190754	0.18	3	100	0	6546	6.01972	16.0563	-80.36058	
15:17:20	-6.728625	38.94615	127.494	0.02740637	-0.4082854	0.07	3	100	0	6546	6.118992	15.95985	-80.4595	
15:17:21	-6.728624	38.94615	127.57	0.007017317	-1.47212	0.04	3	100	0	6546	5.775315	15.9469	-80.43986	
15:17:21	-6.728624	38.94615	127.619	-0.01346161	-2.423706	0.08	3	100	0	6546	6.166043	16.03406	-80.41705	
15:17:21	-6.728624	38.94615	127.63	-0.03443427	-3.908136	0.08	3	100	0	6546	5.664044	15.98757	-80.45148	
15:17:21	-6.728625	38.94615	127.658	-0.05445057	-4.888049	0.06	3	100	0	6546	5.689542	16.00981	-80.43655	
15:17:21	-6.728624	38.94615	127.69	-0.06820992	-5.544057	0.09	3	100	0	6546	6.420682	15.90969	-80.45285	
15:17:21	-6.728625	38.94615	127.681	-0.06551734	-4.79942	0.12	3	100	0	6546	5.925148	15.81979	-80.44	
15:17:22	-6.728625	38.94615	127.771	-0.0465455	-3.465398	0.06	3	100	0	6546	6.18979	15.79551	-80.43466	
15:17:22	-6.728625	38.94615	127.855	-0.05129987	-3.820961	0.09	3	100	0	6546	6.009259	15.85998	-80.44741	
15:17:22	-6.728625	38.94615	127.914	-0.0854089	-4.818626	0.14	3	100	0	6545	6.213529	15.89498	-80.39845	
15:17:22	-6.728624	38.94615	127.952	-0.104349	-5.097323	0.26	3	100	0	6546	6.202075	15.98253	-80.35567	
15:17:22	-6.728624	38.94615	128.018	-0.1058127	-4.678879	0.09	3	100	0	6545	6.305249	16.05198	-80.31841	
15:17:23	-6.728624	38.94615	128.064	-0.1147825	-4.868231	0.09	3	100	0	6546	6.165778	15.99365	-80.35169	
15:17:23	-6.728624	38.94615	128.143	-0.130081	-5.082569	0.09	3	100	0	6546	6.110696	15.86312	-80.39771	
15:17:23	-6.728624	38.94615	128.214	-0.1401567	-4.736153	0.09	3	100	0	6547	6.425919	15.89739	-80.36012	
15:17:23	-6.728624	38.94615	128.248	-0.1467477	-4.160905	0.14	3	100	0	6546	6.604606	15.93136	-80.40119	
15:17:23	-6.728624	38.94615	128.296	-0.1348582	-3.036037	0.09	3	100	0	6546	7.178233	16.05898	-80.42267	
15:17:24	-6.728624	38.94615	128.339	-0.1137196	-1.366702	0.02	3	100	0	6546	6.377087	16.01051	-80.44915	
15:17:24	-6.728623	38.94615	128.457	-0.1330562	-2.018709	0.08	3	100	0	6546	5.318714	15.94383	-80.42593	
15:17:24	-6.728623	38.94614	128.484	-0.1867698	-4.891755	0.09	3	100	0	6545	6.539726	15.87698	-80.45439	
15:17:24	-6.728623	38.94615	128.551	-0.2095927	-5.528609	0.17	3	100	0	6546	5.936763	16.01	-80.55533	
15:17:24	-6.728623	38.94615	128.595	-0.2032575	-4.512187	0.19	3	100	0	6546	5.771784	16.19153	-80.49068	
15:17:24	-6.728623	38.94614	128.602	-0.1967158	-3.933611	0.17	3	100	0	6546	6.128815	16.0449	-80.56767	
15:17:25	-6.728623	38.94615	128.643	-0.2007125	-3.281997	0.22	3	100	0	6546	5.875037	16.02062	-80.59361	
15:17:25	-6.728623	38.94615	128.581	-0.2022274	-2.808918	0.12	3	100	0	6546	5.478917	16.12251	-80.46169	
15:17:25	-6.728623	38.94615	128.682	-0.1507787	0.1906556	0.22	3	100	0	6545	5.978362	16.03794	-80.49818	
15:17:25	-6.728623	38.94614	128.649	-0.1114748	2.69935	0.18	3	100	0	6546	5.788641	15.81158	-80.6312	
15:17:25	-6.728623	38.94614	128.618	-0.06816967	5.243438	0.12	3	100	0	6546	5.222911	15.85776	-80.58572	
15:17:25	-6.728624	38.94614	128.546	-0.03211549	6.561373	0.26	3	100	0	6546	5.723499	15.82091	-80.58217	
15:17:26	-6.728623	38.94615	128.553	0.0260356	8.823422	0.29	3	100	0	6546	5.714157	16.1563	-80.47565	
15:17:26	-6.728623	38.94615	128.569	0.07800905	10.98859	0.17	3	100	0	6546	5.810428	16.08889	-80.45155	
15:17:26	-6.728623	38.94615	128.609	0.1277075	12.64552	0.06	3	100	0	6546	6.51747	15.97871	-80.50924	
15:17:26	-6.728623	38.94615	128.621	0.1704347	13.79718	0.09	3	100	0	6546	6.967914	16.02708	-80.63105	
15:17:26	-6.728622	38.94615	128.681	0.1779949	12.73345	0.18	3	100	0	6546	4.875115	15.94122	-80.57452	
15:17:26	-6.728622	38.94615	128.723	0.1818731	11.54866	0.01	3	100	0	6546	6.077459	16.05435	-80.59093	
15:17:27	-6.728622	38.94614	128.755	0.1635041	9.052391	0.13	3	100	0	6547	5.208472	15.92483	-80.67714	
15:17:27	-6.728623	38.94614	128.711	0.146772	7.586645	0.07	3	100	0	6546	3.055622	16.03348	-80.75059	
15:17:27	-6.728623	38.94614	128.754	0.1364031	5.928356	0.18	3	100	0	6546	2.898993	16.02527	-80.5905	
15:17:28	-6.728623	38.94614	128.865	0.1230755	4.515736	0.41	3	100	0	6546	5.106033	15.94455	-80.67038	
15:17:28	-6.728623	38.94614	128.852	0.07887013	2.046583	0.32	3	100	0	6546	4.99412	16.55007	-80.79891	
15:17:28	-6.728624	38.94614	128.774	0.03870921	-0.1214708	0.07	3	100	0	6546	4.343559	16.28741	-80.83022	
15:17:28	-6.728624	38.94614	128.799	0.03482287	-0.5056144	0.12	3	100	0	6546	4.653722	16.25407	-80.73655	
15:17:28	-6.728624	38.94614	128.835	0.03130474	-0.4549523	0.14	3	100	0	6546	5.085447	16.09828	-80.73139	
15:17:28	-6.728624	38.94614	128.886	0.01809823	-1.129583	0.09	3	100	0	6546	5.046352	16.33169	-80.65034	
15:17:29	-6.728623	38.94614	128.883	0.006331569	-1.715732	0.28	3	100	0	6546	5.370093	16.26929	-80.77489	
15:17:29	-6.728623	38.94614	128.883	0.01159756	-1.230874	0.09	3	100	0	6546	5.484423	16.29088	-80.69065	
15:17:29	-6.728624	38.94614	128.801	0.01675172	-1.014417	0.22	3	100	0	6546	5.147197	16.07338	-80.79103	
15:17:29	-6.728624	38.94614	128.862	0.008356932	-1.462935	0.12	3	100	0	6546	5.067486	15.95605	-80.80726	
15:17:30	-6.728624	38.94614	128.805	-0.01144832	-2.552483	0.09	3	100	0	6546	5.449203	16.05106	-80.77901	
15:17:30	-6.728624	38.94614	128.806	-0.005472345	-2.011068	0.19	3	100	0	6546	5.247703	16.03895	-80.80063	
15:17:30	-6.728624	38.94614	128.801	0.02319348	-0.4097267	0.17	3	100	0	6546	5.687432	16.31579	-80.74005	
15:17:30	-6.728624	38.94614	128.838	0.05552401	1.171116	0.14	3	100	0	6546	5.42461	16.38955	-80.85862	
15:17:31	-6.728624	38.94614	128.681	0.08814365	2.739667	0.18	3	100	0	6546	5.631003	16.18076	-80.93591	
15:17:31	-6.728624	38.94614	128.661	0.08217739	2.229775	0.18	3	100	0	6546	5.782495	16.00703	-80.88332	
15:17:31	-6.728624	38.94614	128.644	0.04240556	-0.01141932	0.16	3	100	0	6546	4.974512	15.93589	-80.9319	
15:17:31	-6.728624	38.94614	128.594	0.02165885	-0.8766221	0.07	3	100	0	6546	5.930481	15.90698	-80.89954	
15:17:31	-6.728624	38.94614	128.62	0.01272208	-1.309327	0.16	3	100	0	6546	5.683134	16.04627	-80.90829	
15:17:31	-6.728624	38.94614	128.598	-0.01222303	-2.88592	0.09	3	100	0	6546	5.268514	16.14873	-80.84412	
15:17:32	-6.728624	38.94614	128.594	-0.06091723	-5.413619	0.07	3	100	0	6546	4.340282	16.07979	-80.77169	
15:17:32	-6.728624	38.94614	128.693	-0.1125821	-8.225973	0.25	3	100	0	6546	4.895217	16.05432	-80.82904	
15:17:32	-6.728624	38.94614	128.65	-0.1691455	-10.67448	0.12	3	100	0	6546	4.766889	15.76299	-81.01958	
15:17:32	-6.728624	38.94614	128.63	-0.2288657	-12.49744	0.07	3	100	0	6546	4.477882	15.76105	-80.93747	
15:17:32	-6.728624	38.94614	128.64	-0.2791204	-13.8552	0.09	3	100	0	6546	5.360386	15.91147	-80.91737	
15:17:32	-6.728624	38.94614	128.6	-0.3297824	-15.15359	0	3	100	0	6546	5.081863	15.85341	-80.84344	
15:17:33	-6.728625	38.94614	128.606	-0.3778049	-16.19827	0.19	3	100	0	6546	5.388751	15.92225	-80.85702	
15:17:33	-6.728625	38.94614	128.591	-0.3938134	-15.35303	0.13	3	100	0	6547	5.306136	15.75638	-80.89846	
15:17:33	-6.728625	38.94614	128.603	-0.3903497	-13.85472	0.11	3	100	0	6546	4.938729	15.97407	-80.77317	
15:17:33	-6.728625	38.94614	128.605	-0.3822523	-11.98232	0.12	3	100	0	6546	5.574436	15.82753	-80.82011	
15:17:33	-6.728625	38.94614	128.667	-0.3703907	-10.31224	0.22	3	100	0	6546	4.966029	15.90403	-80.77934	
15:17:33	-6.728625	38.94614	128.646	-0.3462943	-7.582484	0.13	3	100	0	6546	4.946367	16.48055	-80.7917	
15:17:34	-6.728625	38.94614	128.638	-0.3035128	-4.44628	0.11	3	100	0	6546	5.135492	16.31739	-80.77901	
15:17:34	-6.728625	38.94614	128.725	-0.267448	-2.448957	0.08	3	100	0	6546	5.34739	16.53303	-80.77898	
15:17:34	-6.728624	38.94614	128.703	-0.2649017	-1.736729	0.11	3	100	0	6546	5.394215	16.50001	-80.80336	
15:17:34	-6.728624	38.94614	128.693	-0.2620688	-1.860302	0.08	3	100	0	6546	6.241254	16.39646	-80.85653	
15:17:35	-6.728624	38.94614	128.733	-0.25138	-1.727167	0.09	3	100	0	6546	5.976418	16.3306	-80.92768	
15:17:35	-6.728624	38.94614	128.748	-0.2431194	-0.7100601	0.11	3	100	0	6546	6.270585	16.32028	-80.958	
15:17:35	-6.728624	38.94614	128.759	-0.1955144	1.766418	0.09	3	100	0	6546	6.965743	16.43531	-80.99158	
15:17:35	-6.728624	38.94614	128.725	-0.1523769	4.688299	0.01	3	100	0	6546	6.070638	16.28405	-81.07308	
15:17:35	-6.728624	38.94614	128.726	-0.1660767	4.112236	0.07	3	100	0	6546	5.526783	16.29453	-81.04567	
15:17:35	-6.728624	38.94614	128.686	-0.1785839	3.157677	0.14	3	100	0	6546	5.579256	16.36292	-81.06501	
15:17:36	-6.728624	38.94614	128.639	-0.1838846	2.236965	0.01	3	100	0	6546	5.954234	16.34806	-81.01598	
15:17:36	-6.728624	38.94614	128.647	-0.1894018	1.419532	0.09	3	100	0	6546	6.257609	16.31743	-81.1254	
15:17:36	-6.728624	38.94614	128.612	-0.2470001	-1.861299	0.06	3	100	0	6546	5.511364	16.30145	-81.06123	
15:17:36	-6.728624	38.94614	128.547	-0.2987858	-4.40015	0.06	3	100	0	6546	6.187582	16.36665	-81.13926	
15:17:36	-6.728624	38.94614	128.503	-0.3984621	-9.126195	0.04	3	100	0	6546	5.409154	16.35699	-81.14882	
15:17:37	-6.728623	38.94614	128.464	-0.4782104	-12.27557	0.13	3	100	0	6546	5.497309	16.30366	-81.14314	
15:17:37	-6.728623	38.94614	128.431	-0.533322	-14.1798	0.11	3	100	0	6546	5.51	16.33661	-81.0838	
15:17:37	-6.728623	38.94614	128.412	-0.5810661	-15.09015	0.08	3	100	0	6546	6.281828	16.33687	-81.18145	
15:17:37	-6.728623	38.94614	128.432	-0.6087562	-15.21306	0.04	3	100	0	6546	5.79515	16.25394	-81.18015	
15:17:38	-6.728624	38.94614	128.396	-0.6315169	-14.71141	0.03	3	100	0	6546	4.581502	16.35156	-81.12938	
15:17:38	-6.728623	38.94614	128.445	-0.6506133	-14.38817	0.12	3	100	0	6546	5.43854	16.28539	-81.1034	
15:17:38	-6.728623	38.94614	128.331	-0.6638476	-13.69041	0.11	3	100	0	6546	6.004248	16.25373	-81.10872	
15:17:39	-6.728623	38.94614	128.288	-0.661772	-12.39245	0.19	3	100	0	6546	4.920516	16.3244	-81.06028	
15:17:39	-6.728623	38.94614	128.255	-0.6573835	-10.62947	0.13	3	100	0	6546	5.854977	16.4185	-81.21357	
15:17:39	-6.728623	38.94614	128.205	-0.6343228	-8.41188	0.11	3	100	0	6546	5.619931	16.31919	-81.21032	
15:17:39	-6.728624	38.94614	128.14	-0.6146265	-7.020175	0.07	3	100	0	6546	4.710875	16.29276	-81.17345	
15:17:39	-6.728623	38.94614	128.139	-0.6029161	-5.789165	0.26	3	100	0	6546	5.371769	16.36914	-81.20425	
15:17:39	-6.728623	38.94614	128.125	-0.6060968	-5.919666	0.18	3	100	0	6546	5.52172	16.24195	-81.15625	
15:17:40	-6.728623	38.94614	128.138	-0.6194687	-5.931766	0.19	3	100	0	6546	5.032299	16.196	-81.18574	
15:17:40	-6.728623	38.94614	128.113	-0.6396403	-6.496927	0.19	3	100	0	6546	5.355567	16.11244	-81.17545	
15:17:40	-6.728623	38.94614	128.101	-0.6504746	-6.376034	0.06	3	100	0	6546	5.544928	16.32019	-81.14639	
15:17:40	-6.728623	38.94614	128.089	-0.647673	-5.696022	0.17	3	100	0	6546	5.369696	16.28401	-81.20409	
15:17:41	-6.728623	38.94614	128.027	-0.6225396	-3.861684	0.07	3	100	0	6546	5.543613	16.34845	-81.20473	
15:17:41	-6.728623	38.94614	128.011	-0.5850146	-1.596353	0.09	3	100	0	6546	5.346786	16.21999	-81.25908	
15:17:41	-6.728624	38.94614	127.984	-0.5509532	0.2642421	0.11	3	100	0	6546	5.46183	16.19243	-81.28784	
15:17:41	-6.728624	38.94614	127.951	-0.5237523	1.006295	0.22	3	100	0	6546	5.330551	16.2246	-81.26694	
15:17:41	-6.728624	38.94614	127.94	-0.4956805	2.084862	0.13	3	100	0	6546	5.832313	16.20387	-81.20453	
15:17:42	-6.728624	38.94614	127.959	-0.4688966	2.848071	0.07	3	100	0	6546	5.523429	16.32653	-81.22256	
15:17:42	-6.728624	38.94614	127.933	-0.4444956	3.737103	0.04	3	100	0	6546	5.581469	16.2701	-81.25262	
15:17:42	-6.728624	38.94614	127.917	-0.4220767	4.703364	0.07	3	100	0	6546	5.427065	16.17655	-81.29356	
15:17:42	-6.728624	38.94614	127.926	-0.409884	4.909126	0.19	3	100	0	6546	5.473053	16.23132	-81.29273	
15:17:42	-6.728624	38.94614	127.893	-0.4075214	4.605725	0.02	3	100	0	6546	5.620677	16.28933	-81.2577	
15:17:43	-6.728624	38.94614	127.856	-0.4130576	3.730871	0.08	3	100	0	6546	5.463716	16.2107	-81.32368	
15:17:43	-6.728624	38.94614	127.822	-0.4237278	2.936778	0.12	3	100	0	6546	5.510095	16.26847	-81.33363	
15:17:43	-6.728624	38.94614	127.839	-0.4405384	1.026165	0.06	3	100	0	6546	5.483459	16.25481	-81.37634	
15:17:43	-6.728624	38.94614	127.817	-0.4652465	-0.2978558	0.07	3	100	0	6546	5.602664	16.14988	-81.36947	
15:17:44	-6.728625	38.94614	127.768	-0.4837382	-1.265546	0.09	3	100	0	6546	5.544981	16.12699	-81.35595	
15:17:44	-6.728624	38.94614	127.735	-0.4946534	-1.894955	0.13	3	100	0	6546	5.494646	16.14107	-81.28687	
15:17:44	-6.728624	38.94614	127.745	-0.4962859	-1.930068	0.03	3	100	0	6546	5.74722	16.08175	-81.2727	
15:17:44	-6.728624	38.94614	127.714	-0.4881902	-1.699706	0.17	3	100	0	6546	5.497566	16.02967	-81.30731	
15:17:44	-6.728625	38.94614	127.668	-0.4802626	-0.5789434	0.04	3	100	0	6546	5.307461	15.93902	-81.32634	
15:17:44	-6.728625	38.94614	127.635	-0.4614842	0.6547561	0.04	3	100	0	6546	5.631127	16.02609	-81.28232	
15:17:45	-6.728625	38.94614	127.591	-0.4445645	1.495008	0.06	3	100	0	6546	5.571902	15.9907	-81.24053	
15:17:45	-6.728625	38.94614	127.572	-0.3810057	4.803456	0.06	3	100	0	6546	5.83744	15.98856	-81.20155	
15:17:45	-6.728625	38.94614	127.558	-0.3299005	7.258754	0.07	3	100	0	6546	5.873768	15.95636	-81.19105	
15:17:45	-6.728625	38.94614	127.523	-0.2578852	10.11974	0.08	3	100	0	6546	5.839798	15.91192	-81.18661	
15:17:46	-6.728625	38.94614	127.483	-0.1955165	12.09802	0.04	3	100	0	6546	5.891553	15.94131	-81.15354	
15:17:46	-6.728625	38.94614	127.458	-0.2108515	10.58208	0.04	3	100	0	6546	5.79816	16.01338	-81.1652	
15:17:46	-6.728625	38.94614	127.42	-0.2260197	9.217516	0.04	3	100	0	6546	5.968807	15.9854	-81.15502	
15:17:46	-6.728625	38.94614	127.394	-0.2532218	6.513645	0.02	3	100	0	6546	6.042436	16.02808	-81.12798	
15:17:46	-6.728625	38.94614	127.408	-0.2774977	4.546374	0.02	3	100	0	6546	6.05864	15.98043	-81.09927	
15:17:47	-6.728625	38.94614	127.35	-0.2674424	4.759449	0.02	3	100	0	6546	5.986364	15.97598	-81.0929	
15:17:47	-6.728625	38.94614	127.317	-0.2595622	4.620902	0.14	3	100	0	6546	6.149384	15.98516	-81.06232	
15:17:47	-6.728624	38.94614	127.267	-0.2519461	4.520841	0.14	3	100	0	6546	6.129144	15.94497	-81.04992	
15:17:47	-6.728625	38.94614	127.235	-0.2464843	4.425463	0.03	3	100	0	6546	5.835364	15.89087	-81.08969	
15:17:47	-6.728625	38.94614	127.181	-0.2344573	4.549962	0.17	3	100	0	6546	5.89323	15.93967	-81.04926	
15:17:48	-6.728625	38.94615	127.17	-0.225242	4.059791	0.12	3	100	0	6546	5.783588	15.91825	-81.05591	
15:17:48	-6.728626	38.94615	127.109	-0.1587784	6.892057	0.09	3	100	0	6546	6.012367	15.98008	-81.01869	
15:17:48	-6.728626	38.94615	127.083	-0.110785	8.999818	0.07	3	100	0	6546	6.028459	15.97529	-80.99931	
15:17:48	-6.728626	38.94615	127.061	-0.06214369	11.06525	0.16	3	100	0	6546	6.210869	16.05385	-80.94745	
15:17:49	-6.728626	38.94615	126.999	-0.02443866	11.71015	0.04	3	100	0	6546	6.33748	16.02427	-80.93188	
15:17:49	-6.728625	38.94615	127.025	-0.04114696	9.666838	0.04	3	100	0	6546	6.230769	15.9173	-80.95401	
15:17:49	-6.728625	38.94615	127.06	-0.05928348	7.242165	0.03	3	100	0	6546	6.24802	15.92283	-80.9521	
15:17:49	-6.728625	38.94615	127.036	-0.0492162	6.784423	0.04	3	100	0	6546	6.253109	15.92504	-80.92958	
15:17:49	-6.728625	38.94615	126.966	-0.04173135	6.267545	0.08	3	100	0	6546	6.250085	15.95556	-80.91208	
15:17:50	-6.728625	38.94615	126.943	-0.03774033	6.26737	0.04	3	100	0	6546	6.263078	15.90511	-80.92099	
15:17:50	-6.728625	38.94615	126.9	-0.03543203	5.632146	0.04	3	100	0	6546	6.277966	15.93429	-80.92492	
15:17:50	-6.728625	38.94615	126.848	-0.05290757	3.831106	0.18	3	100	0	6546	6.338195	15.92873	-80.90517	
15:17:50	-6.728625	38.94615	126.777	-0.08778308	1.923445	0.07	3	100	0	6546	6.345087	15.92078	-80.9111	
15:17:50	-6.728625	38.94615	126.754	-0.1048363	0.4767328	0.03	3	100	0	6546	6.186403	15.93572	-80.9724	
15:17:51	-6.728625	38.94615	126.752	-0.1056815	0.7434004	0.01	3	100	0	6546	6.2229	15.97253	-80.95569	
15:17:51	-6.728626	38.94615	126.735	-0.115281	-0.1403714	0.03	3	100	0	6546	6.224867	15.95443	-80.9681	
15:17:51	-6.728626	38.94615	126.759	-0.1302703	-1.101083	0.03	3	100	0	6546	6.212487	15.95518	-80.9662	
15:17:51	-6.728626	38.94615	126.734	-0.1258996	-0.471351	0.04	3	100	0	6546	6.236912	15.95076	-80.94044	
15:17:51	-6.728626	38.94615	126.734	-0.1107726	0.6312552	0.04	3	100	0	6546	6.240763	15.96375	-80.94319	
15:17:52	-6.728626	38.94615	126.726	-0.1118835	0.8157106	0.06	3	100	0	6546	6.186434	15.96927	-80.93192	
15:17:52	-6.728626	38.94615	126.756	-0.128849	-0.2933536	0.03	3	100	0	6546	6.206874	15.98527	-80.92511	
15:17:52	-6.728626	38.94615	126.732	-0.1378469	-0.8620116	0.07	3	100	0	6546	6.205698	15.91667	-80.92634	
15:17:52	-6.728626	38.94615	126.697	-0.1392467	-0.7594357	0.08	3	100	0	6546	6.247046	15.86992	-80.8955	
15:17:52	-6.728626	38.94615	126.636	-0.1242795	0.4727485	0.11	3	100	0	6546	6.343301	15.88522	-80.83966	
15:17:53	-6.728626	38.94615	126.588	-0.1001415	1.668344	0.11	3	100	0	6546	6.404915	15.89443	-80.80359	
15:17:53	-6.728626	38.94615	126.613	-0.1015176	1.345707	0.09	3	100	0	6546	6.387362	15.88499	-80.82455	
15:17:53	-6.728626	38.94615	126.664	-0.1183259	0.2182642	0.08	3	100	0	6546	6.370089	15.88898	-80.82795	
15:17:53	-6.728626	38.94615	126.694	-0.1134081	0.01299186	0.07	3	100	0	6546	6.334322	15.92762	-80.84449	
15:17:53	-6.728626	38.94615	126.719	-0.09712441	1.002474	0.09	3	100	0	6546	6.340117	15.97087	-80.83903	
15:17:53	-6.728626	38.94615	126.754	-0.1135704	0.07683942	0.04	3	100	0	6546	6.348978	15.9226	-80.81848	
15:17:54	-6.728626	38.94615	126.778	-0.1618305	-2.799518	0.06	3	100	0	6545	6.264573	15.86803	-80.82167	
15:17:54	-6.728626	38.94615	126.8	-0.2128469	-4.990949	0.14	3	100	0	6546	6.326928	15.89298	-80.7994	
15:17:54	-6.728626	38.94615	126.836	-0.257079	-6.909265	0.06	3	100	0	6546	6.348679	15.95292	-80.77797	
15:17:54	-6.728626	38.94615	126.831	-0.2963273	-8.47039	0.16	3	100	0	6546	6.372036	15.98968	-80.7726	
15:17:55	-6.728626	38.94615	126.833	-0.3411887	-9.941086	0.03	3	100	0	6546	6.35602	15.97412	-80.78771	
15:17:55	-6.728626	38.94615	126.823	-0.3804038	-10.54767	0.06	3	100	0	6546	6.333988	15.93454	-80.80794	
15:17:55	-6.728626	38.94615	126.817	-0.4091489	-11.11074	0.04	3	100	0	6547	6.296598	15.88483	-80.80191	
15:17:55	-6.728626	38.94615	126.834	-0.4307466	-11.03211	0.12	3	100	0	6546	6.227619	15.81978	-80.82239	
15:17:56	-6.728626	38.94615	126.859	-0.4578645	-11.72971	0.09	3	100	0	6546	6.228255	15.77341	-80.8028	
15:17:56	-6.728626	38.94615	126.874	-0.4808013	-11.87826	0.02	3	100	0	6546	6.359136	15.80724	-80.75558	
15:17:56	-6.728626	38.94615	126.865	-0.5353097	-13.09194	0.06	3	100	0	6546	6.375213	15.80376	-80.73533	
15:17:56	-6.728626	38.94615	126.855	-0.5855708	-14.28426	0.06	3	100	0	6546	6.426076	15.75847	-80.67656	
15:17:56	-6.728626	38.94615	126.87	-0.5770521	-12.35259	0.04	3	100	0	6546	6.387632	15.83007	-80.66632	
15:17:57	-6.728626	38.94614	126.873	-0.5669792	-10.91916	0.08	3	100	0	6546	6.426037	15.78972	-80.65064	
15:17:57	-6.728626	38.94614	126.867	-0.5632931	-9.820363	0.11	3	100	0	6546	6.395067	15.80157	-80.65238	
15:17:57	-6.728627	38.94614	126.866	-0.5585929	-9.012251	0.17	3	100	0	6546	6.26401	15.8206	-80.66278	
15:17:57	-6.728627	38.94614	126.846	-0.5272632	-7.00877	0.04	3	100	0	6546	6.319595	15.76174	-80.64292	
15:17:57	-6.728627	38.94614	126.853	-0.5013155	-5.288134	0.04	3	100	0	6546	6.355223	15.79209	-80.58146	
15:17:57	-6.728627	38.94614	126.907	-0.4444422	-1.794441	0.03	3	100	0	6546	6.462315	15.80434	-80.56387	
15:17:57	-6.728627	38.94614	126.914	-0.3970288	0.965781	0.11	3	100	0	6546	6.3965	15.77386	-80.54622	
15:17:58	-6.728627	38.94614	126.999	-0.361036	3.400481	0.09	3	100	0	6546	6.390205	15.81779	-80.5368	
15:17:58	-6.728627	38.94614	126.998	-0.3252839	4.339186	0.06	3	100	0	6546	6.211195	15.86987	-80.54774	
15:17:58	-6.728627	38.94614	126.979	-0.273436	6.42888	0.08	3	100	0	6546	6.348636	15.88671	-80.54079	
15:17:58	-6.728627	38.94614	126.999	-0.2325971	7.700758	0.03	3	100	0	6546	6.143817	15.91764	-80.50564	
15:17:58	-6.728628	38.94614	127.009	-0.1449192	11.42864	0.12	3	100	0	6546	6.346514	15.96771	-80.52155	
15:17:58	-6.728628	38.94614	126.979	-0.06820117	14.70546	0.16	3	100	0	6546	6.205302	16.01782	-80.50063	
15:17:59	-6.728628	38.94614	127.001	-0.001484254	16.75546	0.06	3	100	0	6546	6.427083	15.98299	-80.489	
15:17:59	-6.728628	38.94614	126.993	0.0632576	18.23619	0.03	3	100	0	6546	6.368544	15.89597	-80.4963	
15:17:59	-6.728628	38.94614	127.001	0.1114666	19.18317	0.09	3	100	0	6546	6.406543	15.92666	-80.4698	
15:17:59	-6.728628	38.94614	127.035	0.1424374	18.98752	0.07	3	100	0	6546	6.478355	15.92597	-80.47144	
15:17:59	-6.728628	38.94614	127.003	0.1709262	18.94022	0.04	3	100	0	6546	6.33548	15.91613	-80.49818	
15:18:00	-6.728628	38.94614	127.009	0.1981716	17.92093	0.06	3	100	0	6546	6.203489	15.90026	-80.48493	
15:18:00	-6.728627	38.94614	127.023	0.2263941	17.2623	0.08	3	100	0	6546	6.422312	15.89609	-80.47429	
15:18:00	-6.728627	38.94614	127.003	0.2523302	16.98443	0.04	3	100	0	6546	6.218795	15.87006	-80.50095	
15:18:00	-6.728627	38.94614	126.997	0.2625325	15.89496	0.06	3	100	0	6546	6.123333	15.81986	-80.47474	
15:18:00	-6.728627	38.94614	127.014	0.2616301	13.99884	0.04	3	100	0	6546	6.305744	15.80959	-80.45466	
15:18:01	-6.728628	38.94614	126.963	0.275193	13.41638	0.03	3	100	0	6546	6.339392	15.82861	-80.4774	
15:18:01	-6.728628	38.94614	126.96	0.2994836	13.36358	0.06	3	100	0	6546	6.45533	15.80912	-80.4967	
15:18:01	-6.728628	38.94614	126.961	0.2904885	11.5959	0.13	3	100	0	6546	6.614735	15.85074	-80.4847	
15:18:01	-6.728628	38.94614	126.985	0.2493253	8.245104	0.07	3	100	0	6546	6.63472	15.87212	-80.49744	
15:18:01	-6.728628	38.94614	127.018	0.1995062	4.879843	0.09	3	100	0	6546	6.565397	15.8312	-80.47076	
15:18:01	-6.728628	38.94614	127.086	0.1313283	0.09734109	0.07	3	100	0	6546	6.770959	15.86205	-80.47669	
15:18:01	-6.728628	38.94614	127.098	0.0859833	-2.903598	0.09	3	100	0	6546	6.49866	15.81318	-80.50677	
15:18:02	-6.728628	38.94614	127.12	0.05728964	-3.896856	0.08	3	100	0	6546	6.577864	15.78804	-80.47996	
15:18:02	-6.728628	38.94614	127.146	0.03491289	-4.559662	0.03	3	100	0	6546	6.495253	15.8594	-80.45211	
15:18:02	-6.728628	38.94614	127.199	0.01874527	-5.043468	0.14	3	100	0	6546	6.441255	15.84915	-80.46919	
15:18:02	-6.728628	38.94614	127.228	0.01422995	-4.822458	0.03	3	100	0	6546	6.419888	15.84284	-80.46902	
15:18:02	-6.728628	38.94614	127.29	0.02217533	-3.70673	0.25	3	100	0	6546	6.486244	15.90208	-80.4276	
15:18:03	-6.728628	38.94614	127.246	0.02005231	-3.434542	0.11	3	100	0	6546	6.529345	15.82523	-80.43884	
15:18:03	-6.728628	38.94614	127.252	0.00890051	-3.774901	0.09	3	100	0	6546	6.43914	15.7808	-80.45193	
15:18:03	-6.728628	38.94614	127.286	0.003208997	-4.002672	0.09	3	100	0	6546	6.442501	15.78668	-80.4331	
15:18:03	-6.728628	38.94614	127.303	0.006612918	-3.620288	0.14	3	100	0	6546	6.535372	15.88254	-80.41044	
15:18:03	-6.728628	38.94614	127.352	0.009701131	-3.327431	0.07	3	100	0	6546	6.470632	15.92783	-80.41234	
15:18:04	-6.728628	38.94614	127.363	-0.02366792	-4.229838	0.09	3	100	0	6546	6.477926	15.84832	-80.41759	
15:18:04	-6.728629	38.94614	127.351	-0.05270151	-5.623837	0.09	3	100	0	6546	6.488544	15.85239	-80.39073	
15:18:04	-6.728628	38.94614	127.374	-0.06497334	-5.375156	0.26	3	100	0	6546	6.604253	15.95046	-80.36472	
15:18:04	-6.728628	38.94614	127.404	-0.07401792	-5.676884	0.06	3	100	0	6546	6.627408	15.97265	-80.36494	
15:18:04	-6.728628	38.94614	127.47	-0.09102486	-5.241478	0.07	3	100	0	6546	6.480613	15.89317	-80.39448	
15:18:05	-6.728629	38.94614	127.484	-0.1041837	-5.265456	0.09	3	100	0	6546	6.39819	15.86907	-80.38424	
15:18:05	-6.728629	38.94614	127.486	-0.1234505	-5.616645	0.09	3	100	0	6546	6.399737	15.87301	-80.36373	
15:18:05	-6.728629	38.94614	127.491	-0.13912	-5.3677	0.04	3	100	0	6546	6.473081	15.90696	-80.35882	
15:18:05	-6.728629	38.94614	127.482	-0.1172169	-3.873197	0.08	3	100	0	6546	6.48924	15.97884	-80.34648	
15:18:05	-6.728629	38.94614	127.417	-0.09878812	-2.644206	0.12	3	100	0	6546	6.410343	15.95134	-80.3651	
15:18:06	-6.728629	38.94614	127.442	-0.06137296	-0.8950816	0.04	3	100	0	6546	6.472538	16.04193	-80.34498	
15:18:06	-6.728629	38.94614	127.418	-0.02793807	1.063265	0.06	3	100	0	6546	6.550026	16.08212	-80.34695	
15:18:06	-6.728629	38.94614	127.407	-0.01826056	1.29137	0.02	3	100	0	6546	6.513046	16.07162	-80.37653	
15:18:06	-6.72863	38.94614	127.432	-0.01048639	1.666328	0.19	3	100	0	6546	6.367377	15.97314	-80.41929	
15:18:07	-6.72863	38.94614	127.408	-0.006172266	1.862013	0.12	3	100	0	6546	6.408776	16.0458	-80.41839	
15:18:07	-6.72863	38.94614	127.35	-0.002478137	1.650496	0.11	3	100	0	6546	6.381064	16.06899	-80.46259	
15:18:07	-6.72863	38.94614	127.35	-0.05224214	-0.7651372	0.11	3	100	0	6546	6.162283	15.91184	-80.5194	
15:18:07	-6.72863	38.94614	127.347	-0.09067853	-2.800268	0.08	3	100	0	6546	6.095535	15.86499	-80.53887	
15:18:08	-6.728631	38.94614	127.339	-0.08750607	-2.163041	0.03	3	100	0	6546	6.175039	15.86565	-80.51883	
15:18:08	-6.728631	38.94614	127.329	-0.08417799	-2.567253	0.11	3	100	0	6546	6.174421	15.89222	-80.53349	
15:18:08	-6.728631	38.94614	127.347	-0.128427	-5.130936	0.13	3	100	0	6546	6.341684	15.94886	-80.47891	
15:18:08	-6.728631	38.94614	127.323	-0.1686015	-6.861738	0.08	3	100	0	6546	6.40138	15.94477	-80.44889	
15:18:08	-6.728631	38.94614	127.337	-0.2216828	-8.807099	0.02	3	100	0	6546	6.317645	15.84242	-80.45516	
15:18:08	-6.728631	38.94614	127.309	-0.2557856	-10.11908	0.09	3	100	0	6546	6.331756	15.94126	-80.45087	
15:18:09	-6.728631	38.94614	127.334	-0.2462799	-8.710945	0.07	3	100	0	6546	6.369375	16.02793	-80.44192	
15:18:09	-6.728631	38.94614	127.334	-0.239011	-7.535563	0.07	3	100	0	6546	6.236633	15.84846	-80.46665	
15:18:09	-6.728631	38.94614	127.261	-0.2580129	-7.649849	0.04	3	100	0	6546	6.224698	15.77727	-80.45779	
15:18:09	-6.728631	38.94614	127.267	-0.2716684	-8.129792	0.12	3	100	0	6546	6.198604	15.84398	-80.44649	
15:18:10	-6.728631	38.94614	127.254	-0.2796058	-7.734051	0.12	3	100	0	6546	6.113328	15.85824	-80.4651	
15:18:10	-6.728631	38.94614	127.225	-0.2850169	-7.595105	0.14	3	100	0	6546	6.072815	15.84295	-80.44342	
15:18:10	-6.728632	38.94614	127.193	-0.284561	-6.926721	0.04	3	100	0	6546	6.173377	15.82501	-80.43207	
15:18:10	-6.728632	38.94614	127.175	-0.2825508	-5.541521	0.09	3	100	0	6546	6.092217	15.92172	-80.3973	
15:18:11	-6.728632	38.94614	127.181	-0.2920776	-5.059288	0.11	3	100	0	6546	6.300094	15.89038	-80.37749	
15:18:11	-6.728632	38.94614	127.159	-0.2982153	-4.791129	0.01	3	100	0	6546	6.25977	15.88888	-80.40359	
15:18:11	-6.728632	38.94614	127.127	-0.2960823	-4.098973	0.09	3	100	0	6546	6.271597	16.0507	-80.40543	
15:18:11	-6.728631	38.94614	127.161	-0.2862772	-3.297602	0.14	3	100	0	6546	6.324438	16.13267	-80.38342	
15:18:11	-6.728632	38.94614	127.161	-0.2710435	-1.94082	0.14	3	100	0	6546	6.328085	16.13545	-80.41715	
15:18:11	-6.728632	38.94614	127.208	-0.2512086	-1.381864	0.12	3	100	0	6546	6.178601	16.05754	-80.47646	
15:18:12	-6.728632	38.94614	127.208	-0.2345292	-0.1548723	0.12	3	100	0	6546	6.396847	16.12704	-80.48265	
15:18:12	-6.728632	38.94614	127.21	-0.21854	1.063902	0.04	3	100	0	6546	6.598341	16.1284	-80.51533	
15:18:12	-6.728632	38.94614	127.17	-0.2131973	1.298051	0.03	3	100	0	6546	6.343862	16.09265	-80.57738	
15:18:12	-6.728632	38.94614	127.156	-0.214154	1.417885	0.04	3	100	0	6546	6.474727	16.08765	-80.60258	
15:18:12	-6.728632	38.94614	127.115	-0.198623	1.949855	0.01	3	100	0	6545	6.087492	16.09219	-80.59286	
15:18:13	-6.728632	38.94614	127.126	-0.1686831	3.472182	0.14	3	100	0	6546	5.749832	16.00616	-80.63099	
15:18:13	-6.728632	38.94614	127.095	-0.1606091	3.299479	0.11	3	100	0	6546	6.526918	16.05734	-80.63681	
15:18:13	-6.728632	38.94614	127.121	-0.1713521	2.665976	0.12	3	100	0	6546	6.498393	16.15188	-80.65632	
15:18:13	-6.728633	38.94614	127.107	-0.1917641	1.230915	0.04	3	100	0	6546	6.027503	16.09398	-80.67695	
15:18:13	-6.728633	38.94614	127.063	-0.2243751	-1.076787	0.09	3	100	0	6546	6.647489	16.14086	-80.6881	
15:18:14	-6.728633	38.94614	127.081	-0.235714	-1.52124	0.18	3	100	0	6546	6.23009	16.08688	-80.75574	
15:18:14	-6.728633	38.94614	127.046	-0.2349244	-1.516648	0.08	3	100	0	6546	5.787332	16.02022	-80.75101	
15:18:14	-6.728633	38.94614	127.027	-0.2289667	-0.6555724	0.06	3	100	0	6546	6.509792	16.08251	-80.71957	
15:18:14	-6.728633	38.94614	126.956	-0.219318	0.01084327	0.06	3	100	0	6546	6.545506	16.09949	-80.71089	
15:18:14	-6.728633	38.94614	126.903	-0.2185216	0.1440739	0.16	3	100	0	6546	6.273007	16.11979	-80.67197	
15:18:15	-6.728633	38.94614	126.861	-0.2226568	-0.3361627	0.06	3	100	0	6546	7.169488	16.15618	-80.69422	
15:18:15	-6.728633	38.94614	126.838	-0.2300867	-0.8483981	0.07	3	100	0	6546	6.754004	16.10559	-80.7433	
15:18:15	-6.728633	38.94614	126.843	-0.2389248	-0.8369495	0.24	3	100	0	6546	6.710886	16.08086	-80.74841	
15:18:15	-6.728633	38.94614	126.822	-0.2421227	-1.054167	0.09	3	100	0	6546	7.065679	16.06933	-80.74084	
15:18:16	-6.728633	38.94614	126.813	-0.2387884	-0.5346367	0.17	3	100	0	6546	5.913194	16.07758	-80.75156	
15:18:16	-6.728632	38.94614	126.799	-0.234959	0.1138359	0.12	3	100	0	6546	5.371429	16.12947	-80.72741	
15:18:16	-6.728633	38.94614	126.775	-0.2118672	1.21503	0.16	3	100	0	6546	7.007393	16.05018	-80.83098	
15:18:16	-6.728633	38.94614	126.743	-0.1908524	2.419307	0.09	3	100	0	6546	5.656075	16.00891	-80.80991	
15:18:16	-6.728633	38.94614	126.722	-0.1779395	2.912902	0.12	3	100	0	6546	5.841916	15.99379	-80.79661	
15:18:16	-6.728633	38.94614	126.748	-0.1672022	3.583376	0.08	3	100	0	6546	5.300423	15.87004	-80.77634	
15:18:16	-6.728633	38.94614	126.729	-0.1568906	3.829226	0.08	3	100	0	6546	5.496408	15.90061	-80.74299	
15:18:17	-6.728633	38.94614	126.698	-0.1481909	3.956043	0.02	3	100	0	6546	5.791342	15.95198	-80.76905	
15:18:17	-6.728633	38.94614	126.688	-0.1339605	4.189912	0.19	3	100	0	6546	5.654017	15.95986	-80.75918	
15:18:17	-6.728633	38.94614	126.625	-0.1209497	4.301164	0.22	3	100	0	6546	5.76624	15.99428	-80.81921	
15:18:17	-6.728633	38.94614	126.444	-0.1337436	2.962211	0.18	3	100	0	6546	5.569078	15.95825	-80.81145	
15:18:17	-6.728633	38.94614	126.394	-0.1465446	2.273861	0	3	100	0	6546	5.879079	15.94929	-80.79433	
15:18:18	-6.728633	38.94614	126.401	-0.1972989	-0.7780994	0.19	3	100	0	6546	5.700795	15.88404	-80.77853	
15:18:18	-6.728633	38.94614	126.53	-0.2438902	-3.423344	0.19	3	100	0	6546	5.948392	15.80756	-80.81073	
15:18:18	-6.728633	38.94614	126.567	-0.2530555	-3.456603	0.04	3	100	0	6546	5.848695	15.73997	-80.89925	
15:18:18	-6.728633	38.94614	126.533	-0.2597676	-3.329881	0.13	3	100	0	6546	5.574106	15.75935	-80.81515	
15:18:19	-6.728632	38.94614	126.59	-0.2659452	-3.444505	0.06	3	100	0	6546	5.875579	15.81819	-80.8129	
15:18:19	-6.728632	38.94614	126.588	-0.2707918	-3.361704	0.14	3	100	0	6546	5.730021	15.92784	-80.82465	
15:18:19	-6.728632	38.94614	126.619	-0.299317	-4.643601	0.07	3	100	0	6546	5.839501	15.83861	-80.81955	
15:18:19	-6.728632	38.94614	126.544	-0.3270663	-5.470505	0.18	3	100	0	6546	5.867837	15.76709	-80.79523	
15:18:19	-6.728632	38.94614	126.452	-0.321045	-5.037992	0.26	3	100	0	6546	6.061831	15.82372	-80.73737	
15:18:19	-6.728632	38.94614	126.422	-0.3151881	-4.37061	0.32	3	100	0	6546	6.131373	15.86405	-80.68404	
15:18:20	-6.728632	38.94614	126.366	-0.322757	-4.237112	0.35	3	100	0	6546	5.910657	16.004	-80.66385	
15:18:20	-6.728631	38.94614	126.353	-0.3284415	-4.070831	0.14	3	100	0	6546	5.881065	15.90099	-80.67464	
15:18:20	-6.728631	38.94614	126.377	-0.3171477	-2.979102	0.22	3	100	0	6546	5.759552	15.80864	-80.66781	
15:18:20	-6.728631	38.94614	126.363	-0.306024	-2.122942	0.31	3	100	0	6546	5.968606	16.0107	-80.63621	
15:18:20	-6.728631	38.94614	126.301	-0.2946417	-1.551065	0.21	3	100	0	6546	5.896332	16.00636	-80.65137	
15:18:21	-6.728631	38.94614	126.281	-0.2804596	-0.6564333	0.14	3	100	0	6546	6.064487	15.91932	-80.69862	
15:18:21	-6.728631	38.94614	126.321	-0.2608892	0.4253476	0.18	3	100	0	6546	5.930061	15.96242	-80.71584	
15:18:21	-6.728631	38.94614	126.297	-0.2320589	1.535804	0.22	3	100	0	6546	6.038381	15.92435	-80.67671	
15:18:21	-6.728631	38.94614	126.287	-0.2190493	2.336553	0.14	3	100	0	6546	5.88624	15.94765	-80.70566	
15:18:22	-6.728631	38.94614	126.316	-0.2167837	2.450519	0.12	3	100	0	6546	5.756824	15.99345	-80.74317	
15:18:22	-6.728631	38.94614	126.33	-0.2377055	0.9078188	0.31	3	100	0	6546	5.840836	16.0581	-80.68735	
15:18:22	-6.728631	38.94614	126.303	-0.2785209	-1.533787	0.12	3	100	0	6546	5.984272	15.99878	-80.68604	
15:18:22	-6.72863	38.94614	126.363	-0.3152686	-2.691544	0.07	3	100	0	6546	5.791496	15.98204	-80.73018	
15:18:22	-6.72863	38.94614	126.392	-0.3556139	-4.804838	0.11	3	100	0	6546	5.925326	16.01207	-80.73554	
15:18:23	-6.72863	38.94614	126.413	-0.4031644	-6.459641	0.07	3	100	0	6546	5.928576	15.94757	-80.71703	
15:18:23	-6.72863	38.94614	126.439	-0.4551198	-9.012342	0.06	3	100	0	6546	5.942672	15.95419	-80.73807	
15:18:23	-6.72863	38.94614	126.425	-0.4772887	-9.237166	0.09	3	100	0	6546	5.989016	15.95998	-80.74154	
15:18:23	-6.72863	38.94614	126.418	-0.4730912	-8.553668	0.09	3	100	0	6546	6.003926	15.99864	-80.72465	
15:18:23	-6.72863	38.94614	126.454	-0.4768296	-8.021311	0.06	3	100	0	6546	6.024411	16.01679	-80.7308	
15:18:23	-6.72863	38.94614	126.455	-0.4844163	-7.721262	0.07	3	100	0	6546	6.022137	16.03224	-80.74284	
15:18:24	-6.72863	38.94614	126.417	-0.490305	-7.144219	0.11	3	100	0	6546	5.99082	16.07053	-80.73731	
15:18:24	-6.72863	38.94614	126.413	-0.494542	-6.819395	0.12	3	100	0	6546	6.072628	16.06492	-80.73354	
15:18:24	-6.72863	38.94614	126.432	-0.4923829	-6.261745	0.06	3	100	0	6546	6.179459	15.97437	-80.73118	
15:18:24	-6.72863	38.94614	126.403	-0.4833301	-5.402271	0.04	3	100	0	6547	6.091907	15.9725	-80.73441	
15:18:25	-6.728629	38.94614	126.45	-0.4867325	-4.550366	0.08	3	100	0	6546	6.132831	15.9368	-80.73618	
15:18:25	-6.72863	38.94614	126.424	-0.5008403	-4.608574	0.02	3	100	0	6546	6.064776	15.93586	-80.74158	
15:18:25	-6.72863	38.94614	126.424	-0.4928747	-4.019859	0.09	3	100	0	6546	6.039251	15.94332	-80.74636	
15:18:25	-6.72863	38.94614	126.436	-0.4626095	-1.70741	0.22	3	100	0	6546	5.84894	15.91603	-80.80145	
15:18:25	-6.72863	38.94614	126.472	-0.4373812	-0.560563	0.18	3	100	0	6546	6.182103	16.05121	-80.71021	
15:18:26	-6.728629	38.94614	126.549	-0.4618967	-2.301503	0.04	3	100	0	6546	6.245405	16.06287	-80.6633	
15:18:26	-6.72863	38.94614	126.53	-0.482406	-3.15263	0.13	3	100	0	6546	6.151138	15.93537	-80.70277	
15:18:26	-6.72863	38.94614	126.575	-0.498154	-3.661884	0.01	3	100	0	6546	6.206327	15.94079	-80.69206	
15:18:26	-6.72863	38.94614	126.585	-0.5111752	-4.628902	0	3	100	0	6546	6.22864	15.97405	-80.69252	
15:18:26	-6.72863	38.94614	126.599	-0.5331016	-5.311672	0.11	3	100	0	6546	6.267443	16.06366	-80.69367	
15:18:27	-6.72863	38.94614	126.584	-0.5498719	-5.410658	0.06	3	100	0	6546	6.309193	16.051	-80.67051	
15:18:27	-6.72863	38.94614	126.588	-0.5449436	-4.554783	0.13	3	100	0	6546	6.301781	16.07291	-80.67746	
15:18:27	-6.72863	38.94614	126.577	-0.5388318	-3.599916	0.01	3	100	0	6546	6.21116	16.04945	-80.71835	
15:18:27	-6.72863	38.94614	126.602	-0.4963835	-0.6951638	0.12	3	100	0	6546	6.13143	15.92548	-80.74917	
15:18:27	-6.72863	38.94614	126.641	-0.4605842	1.262537	0.03	3	100	0	6546	6.152418	15.96583	-80.71833	
15:18:28	-6.72863	38.94614	126.615	-0.5077201	-1.557933	0.03	3	100	0	6546	6.284923	15.99892	-80.69005	
15:18:28	-6.72863	38.94614	126.641	-0.5504364	-3.451944	0.08	3	100	0	6546	6.319813	15.99601	-80.68319	
15:18:28	-6.72863	38.94614	126.618	-0.5677088	-3.851065	0.02	3	100	0	6546	6.278389	16.03963	-80.66866	
15:18:28	-6.72863	38.94614	126.581	-0.5809627	-3.969273	0.07	3	100	0	6546	6.159547	16.09416	-80.6967	
15:18:28	-6.72863	38.94614	126.626	-0.5786929	-3.864823	0.08	3	100	0	6546	6.276412	16.0366	-80.70649	
15:18:29	-6.728629	38.94614	126.609	-0.5758783	-3.377313	0.08	3	100	0	6546	6.281238	16.05542	-80.69797	
15:18:29	-6.728629	38.94614	126.583	-0.5689641	-3.189043	0.03	3	100	0	6546	6.171604	16.01403	-80.71944	
15:18:29	-6.728629	38.94614	126.612	-0.561321	-2.458646	0.02	3	100	0	6546	6.229402	16.02205	-80.70148	
15:18:29	-6.728629	38.94614	126.65	-0.5273467	-1.20315	0.09	3	100	0	6546	6.244564	15.94447	-80.7124	
15:18:30	-6.728629	38.94614	126.658	-0.4964203	1.122108	0.06	3	100	0	6546	6.201154	15.89618	-80.7259	
15:18:30	-6.728629	38.94614	126.672	-0.5334166	-0.5122904	0.06	3	100	0	6546	6.201897	15.90966	-80.72713	
15:18:30	-6.728629	38.94614	126.692	-0.5664982	-2.415767	0.19	3	100	0	6546	6.339115	16.09399	-80.69314	
15:18:30	-6.728629	38.94614	126.707	-0.588133	-3.284337	0.07	3	100	0	6546	6.203004	16.07019	-80.76415	
15:18:30	-6.728629	38.94614	126.652	-0.6098535	-4.465576	0.02	3	100	0	6547	6.152331	15.98383	-80.78638	
15:18:30	-6.728629	38.94614	126.64	-0.6409322	-5.583819	0.22	3	100	0	6546	6.29063	16.11019	-80.73186	
15:18:31	-6.728628	38.94614	126.672	-0.6845706	-7.559876	0.02	3	100	0	6546	6.241738	16.01903	-80.73489	
15:18:31	-6.728628	38.94614	126.696	-0.7145875	-8.630618	0.04	3	100	0	6546	6.207009	15.99216	-80.74181	
15:18:31	-6.728628	38.94614	126.76	-0.7294645	-8.426615	0.13	3	100	0	6546	6.223199	15.94334	-80.73719	
15:18:31	-6.728628	38.94614	126.78	-0.7191488	-7.057074	0.11	3	100	0	6546	6.02529	15.90016	-80.78596	
15:18:32	-6.728628	38.94614	126.78	-0.6954124	-5.323412	0.11	3	100	0	6546	5.993312	15.86498	-80.78111	
15:18:32	-6.728628	38.94614	126.842	-0.6798553	-4.24784	0.22	3	100	0	6546	5.924294	15.84285	-80.81433	
15:18:32	-6.728627	38.94614	126.848	-0.6699769	-2.885438	0.16	3	100	0	6546	5.982798	16.06988	-80.77059	
15:18:32	-6.728628	38.94614	126.857	-0.6522946	-1.674495	0.29	3	100	0	6546	6.013261	15.98368	-80.77209	
15:18:32	-6.728628	38.94614	126.849	-0.6314836	-0.489241	0.14	3	100	0	6546	5.959992	15.82443	-80.79456	
15:18:32	-6.728628	38.94614	126.849	-0.6352073	-0.4916739	0.14	3	100	0	6546	6.022312	15.88612	-80.73884	
15:18:33	-6.728627	38.94614	126.858	-0.6566667	-1.306568	0.03	3	100	0	6546	6.097114	16.03023	-80.7234	
15:18:33	-6.728628	38.94614	126.741	-0.6766247	-2.702477	0.16	3	100	0	6546	6.191062	15.96771	-80.69247	
15:18:33	-6.728627	38.94614	126.775	-0.6883835	-2.631203	0.35	3	100	0	6546	6.274198	16.03689	-80.6665	
15:18:33	-6.728627	38.94614	126.834	-0.6663989	-0.8419914	0.37	3	100	0	6546	6.501573	16.04386	-80.61998	
15:18:34	-6.728627	38.94614	126.834	-0.6267134	1.491255	0.37	3	100	0	6546	6.541419	15.86739	-80.6214	
15:18:34	-6.728627	38.94614	126.874	-0.6106452	2.119265	0.12	3	100	0	6546	6.328365	15.88596	-80.68192	
15:18:34	-6.728627	38.94614	126.844	-0.6081388	1.962546	0.44	3	100	0	6546	6.412458	16.20926	-80.66013	
15:18:34	-6.728627	38.94614	126.846	-0.5981015	2.290298	0.14	3	100	0	6546	6.254265	15.99599	-80.72569	
15:18:34	-6.728626	38.94614	126.916	-0.5771019	3.205341	0.14	3	100	0	6546	6.23517	15.91005	-80.74176	
15:18:34	-6.728627	38.94614	126.773	-0.5926874	2.177975	0.18	3	100	0	6546	6.12923	15.81729	-80.79195	
15:18:35	-6.728627	38.94614	126.77	-0.6636437	-2.133985	0.14	3	100	0	6546	6.194159	16.1219	-80.75784	
15:18:35	-6.728627	38.94614	126.748	-0.7286386	-5.132564	0.04	3	100	0	6546	6.259112	16.0512	-80.71654	
