Date	Latitude(deg) 	Longitude(deg)	hamsl(m)	hafl(m)	climbrate(cm/s)	GroundSpeed(m/s)	Airspeed(m/s)	Mav_Link(%)	Rssi_Link(%)	Throttle	Roll(deg)	Pitch(deg)	Yaw(deg)
19:05:45	-6.795912	38.98521	135.623	0	0	1.92	0	100	0	0	0	0	0	
19:05:45	-6.79591	38.98521	135.32	0	0	0.47	0	100	0	0	-2.868141	2.755936	22.37586	
19:05:45	-6.795886	38.98519	156.734	0	0	0.56	0	100	0	0	-2.824855	4.253514	22.44361	
19:05:46	-6.795886	38.98518	157.257	-0.1730563	-8.168956	0.68	3.383135	100	0	12	-2.774171	3.298777	22.58981	
19:05:46	-6.795884	38.98519	157.221	-0.1730563	-8.168956	1.19	3.383135	100	0	12	-2.731869	1.703271	22.69642	
19:05:46	-6.79588	38.98519	157.241	-0.1730563	-8.168956	2.08	3.383135	100	0	12	-2.709426	0.02210378	22.77384	
19:05:46	-6.795877	38.98519	156.94	-0.1730563	-8.168956	1.55	3.383135	100	0	12	-2.673976	0.9639235	22.80587	
19:05:46	-6.795876	38.98519	157.069	-0.1730563	-8.168956	0.47	3.383135	100	0	12	-2.616232	2.714634	22.8437	
19:05:47	-6.795877	38.98519	156.694	0.5812507	27.19175	1.5	3	100	0	12	-2.557035	2.476353	22.92433	
19:05:47	-6.795881	38.9852	154.682	0.5812507	27.19175	2.25	3	100	0	12	-2.536857	2.902854	23.0379	
19:05:47	-6.795883	38.9852	152.888	0.5812507	27.19175	2.02	3	100	0	12	-2.585719	3.508018	23.14759	
19:05:47	-6.795886	38.9852	150.519	0.5812507	27.19175	1.14	3	100	0	12	-2.516625	3.145326	23.21915	
19:05:47	-6.795888	38.98521	149.709	0.5812507	27.19175	1.54	3	100	0	12	-2.387451	2.815216	23.28164	
19:05:48	-6.795892	38.98522	146.621	0.9250916	24.27349	3.48	3.801468	100	0	12	-1.273484	2.7169	23.84912	
19:05:48	-6.795895	38.98523	143.637	0.9250916	24.27349	2.91	3.801468	100	0	12	-0.1483443	2.449224	24.36967	
19:05:48	-6.795896	38.98524	141.49	0.9250916	24.27349	3.3	3.801468	100	0	12	-0.2718929	1.770892	24.73709	
19:05:48	-6.795895	38.98526	139.254	0.9250916	24.27349	2.16	3.801468	100	0	12	-0.4622626	1.074317	25.2217	
19:05:48	-6.795895	38.98526	136.755	0.9250916	24.27349	1.95	3.801468	100	0	12	-1.266319	0.8202412	25.15502	
19:05:49	-6.795889	38.98528	135.906	0.7061399	0.7279466	4.21	6.476162	100	0	12	-1.381526	0.0375201	25.97245	
19:05:49	-6.795884	38.98529	135.507	0.7061399	0.7279466	5.6	6.476162	100	0	12	-0.6072491	-1.074671	27.77178	
19:05:49	-6.795877	38.98531	134.721	0.7061399	0.7279466	8.09	6.476162	100	0	12	0.4270133	-1.980287	28.58079	
19:05:49	-6.795869	38.98533	133.676	0.7061399	0.7279466	8.76	6.476162	100	0	12	0.5417013	-3.089713	28.34524	
19:05:49	-6.795858	38.98535	132.767	0.7061399	0.7279466	9.43	6.476162	100	0	12	0.1890078	-3.839361	28.11871	
19:05:50	-6.795848	38.98537	131.119	0.4168035	-16.65714	9.21	9.036677	100	0	12	-0.1421404	-3.81148	27.89379	
19:05:50	-6.79584	38.98539	130.236	0.4168035	-16.65714	9.32	9.036677	100	0	12	-0.01461074	-3.142062	27.68798	
19:05:50	-6.795834	38.98541	128.77	0.4168035	-16.65714	7.74	9.036677	100	0	12	0.1801423	-1.836902	27.4586	
19:05:50	-6.79583	38.98542	128.078	0.4168035	-16.65714	5.93	9.036677	100	0	12	-0.5901325	-0.2923948	27.26996	
19:05:50	-6.795825	38.98544	126.703	0.4168035	-16.65714	5.39	9.036677	100	0	12	-1.568214	0.3623258	27.17871	
19:05:51	-6.795823	38.98545	125.468	-0.1370087	-39.06872	5.65	3.768705	100	0	12	-1.929759	0.4174297	27.16046	
19:05:51	-6.795817	38.98547	124.42	-0.1370087	-39.06872	6.89	3.768705	100	0	12	-1.101946	0.3115442	27.12302	
19:05:51	-6.795811	38.98549	124.513	-0.1370087	-39.06872	6.62	3.768705	100	0	12	-1.605278	-0.5708576	27.09844	
19:05:51	-6.795801	38.9855	124.828	-0.1370087	-39.06872	6.54	3.768705	100	0	12	-3.078909	-1.367343	27.09514	
19:05:51	-6.795789	38.9855	125.789	-0.1370087	-39.06872	7.39	3.768705	100	0	12	-3.927739	-2.165106	27.12275	
19:05:52	-6.795777	38.98551	126.934	0.06747478	-19.56011	7.53	6.465813	100	0	12	-3.901032	-2.62004	27.11774	
19:05:52	-6.795762	38.98552	127.4	0.06747478	-19.56011	10.57	6.465813	100	0	12	-3.33548	-3.382936	27.08487	
19:05:52	-6.795748	38.98553	127.766	0.06747478	-19.56011	10.37	6.465813	100	0	12	-2.691831	-3.921448	27.04775	
19:05:52	-6.795738	38.98555	129.119	0.06747478	-19.56011	7.18	6.465813	100	0	12	-2.749442	-2.586854	26.9881	
19:05:52	-6.795731	38.98555	130.318	0.06747478	-19.56011	5.83	6.465813	100	0	12	-2.839845	-0.9495558	26.94095	
19:05:53	-6.795726	38.98557	130.619	0.1828334	-11.01245	5.28	3	100	0	12	-2.630377	0.1404979	26.9404	
19:05:53	-6.795724	38.98557	130.508	0.1828334	-11.01245	3.62	3	100	0	12	-2.692279	1.20525	26.92086	
19:05:53	-6.795722	38.98558	129.987	0.1828334	-11.01245	4.36	3	100	0	12	-2.66601	1.144817	26.94445	
19:05:53	-6.795722	38.98559	128.222	0.1828334	-11.01245	2.77	3	100	0	12	-3.334217	1.61638	26.93868	
19:05:53	-6.795725	38.9856	126.332	0.1828334	-11.01245	2.22	3	100	0	12	-3.772314	2.775781	26.9396	
19:05:54	-6.795729	38.98561	124.773	0.3164977	-4.609354	3.23	3	100	0	12	-2.865828	3.978621	26.97301	
19:05:54	-6.795733	38.98561	122.699	0.3164977	-4.609354	2.76	3	100	0	12	-2.5449	4.127534	26.98862	
19:05:54	-6.795733	38.98561	125.604	0.3164977	-4.609354	0.96	3	100	0	12	-3.752616	4.29093	26.93238	
19:05:54	-6.795736	38.9856	128.632	0.3164977	-4.609354	2.64	3	100	0	12	-4.201193	5.238986	26.97757	
19:05:54	-6.795738	38.98559	131.544	0.3164977	-4.609354	2.44	3	100	0	12	-4.410209	5.610248	27.05928	
19:05:55	-6.795738	38.98558	134.785	0.1800997	-13.6235	1.27	3.192668	100	0	12	-5.176946	4.584966	27.08904	
19:05:55	-6.795734	38.98557	137.87	0.1800997	-13.6235	1.93	3.192668	100	0	12	-6.302364	3.620789	27.14856	
19:05:55	-6.795733	38.98557	141.201	0.1800997	-13.6235	0.97	3.192668	100	0	12	-6.30646	3.196702	27.26385	
19:05:55	-6.795732	38.98556	144.45	0.1800997	-13.6235	1.29	3.192668	100	0	12	-5.64747	3.347904	27.43354	
19:05:56	-6.795731	38.98555	147.481	0.1800997	-13.6235	1.25	3.192668	100	0	12	-5.778489	2.943314	27.49792	
19:05:56	-6.795733	38.98554	148.615	0.2816848	-10.20968	1.93	3	100	0	12	-6.181549	3.087006	27.53186	
19:05:56	-6.795742	38.98553	147.33	0.2816848	-10.20968	4.19	3	100	0	12	-6.378309	4.379973	29.01801	
19:05:56	-6.795752	38.98552	145.96	0.2816848	-10.20968	4.25	3	100	0	12	-5.523005	5.32966	30.29063	
19:05:56	-6.795761	38.98552	144.078	0.2816848	-10.20968	3.95	3	100	0	12	-4.422446	4.174358	30.64022	
19:05:57	-6.795764	38.98551	143.654	0.2816848	-10.20968	2.04	3	100	0	12	-4.00256	3.220315	30.60991	
19:05:57	-6.795765	38.9855	142.708	0.3126224	-10.08523	1.57	3.425142	100	0	12	-3.903029	3.571124	30.48611	
19:05:57	-6.795765	38.9855	142.708	0.3126224	-10.08523	1.57	3.425142	100	0	12	-3.832827	3.125953	30.40228	
19:05:57	-6.795766	38.98549	141.838	0.3126224	-10.08523	0.85	3.425142	100	0	12	-3.788521	1.763276	30.30318	
19:05:57	-6.795765	38.98549	142.401	0.3126224	-10.08523	0.26	3.425142	100	0	12	-3.775605	2.269971	30.17106	
19:05:58	-6.795763	38.98549	142.861	0.3126224	-10.08523	1.01	3.425142	100	0	12	-3.761964	3.760543	30.0922	
19:05:58	-6.79576	38.98549	143.352	0.2479579	-12.59166	1.13	3.425142	100	0	12	-3.730841	3.447153	29.98973	
19:05:58	-6.795759	38.98549	144.052	0.2479579	-12.59166	2.56	3.425142	100	0	12	-3.688027	1.899924	29.89946	
19:05:58	-6.795755	38.98549	144.674	0.2479579	-12.59166	1.55	3.425142	100	0	12	-3.66325	2.180296	29.81003	
19:05:58	-6.795747	38.98549	144.956	0.2479579	-12.59166	3.74	3.425142	100	0	12	-3.63747	2.470263	29.7284	
19:05:59	-6.795747	38.98549	144.956	0.2479579	-12.59166	3.74	3.425142	100	0	12	-3.662344	2.371688	28.22526	
19:05:59	-6.795747	38.98549	144.956	0.2013	-12.33958	3.74	3.425142	100	0	12	-3.723161	1.935761	26.84135	
19:05:59	-6.795747	38.98549	144.956	0.2013	-12.33958	3.74	3.425142	100	0	12	-3.781896	0.2845644	25.84319	
19:05:59	-6.795747	38.98549	144.956	0.2013	-12.33958	3.74	3.425142	100	0	12	-3.836653	0.3820789	25.1276	
19:05:59	-6.795747	38.98549	144.956	0.2013	-12.33958	3.74	3.425142	100	0	12	-3.85345	1.450051	24.61891	
19:06:00	-6.795747	38.98549	144.956	0.2013	-12.33958	3.74	3.425142	100	0	12	-3.827437	0.7529762	24.26554	
19:06:00	-6.795747	38.98549	144.956	0.1283659	-13.39008	3.74	3.425142	100	0	12	-3.813318	0.03490862	24.0436	
19:06:00	-6.795747	38.98549	144.956	0.1283659	-13.39008	3.74	3.425142	100	0	12	-3.796116	1.267376	23.8872	
19:06:00	-6.795747	38.98549	144.956	0.1283659	-13.39008	3.74	3.425142	100	0	12	-3.730824	0.8704556	23.80807	
19:06:00	-6.795747	38.98549	144.956	0.1283659	-13.39008	3.74	3.425142	100	0	12	-3.679538	0.1244143	23.76828	
19:06:01	-6.795747	38.98549	144.956	0.1283659	-13.39008	3.74	3.425142	100	0	12	-3.644345	1.590201	23.74596	
19:06:01	-6.795747	38.98549	144.956	0.1742371	-9.134316	3.74	3.425142	100	0	12	-3.573879	2.862067	23.73888	
19:06:01	-6.795747	38.98549	144.956	0.1742371	-9.134316	3.74	3.425142	100	0	12	-3.497405	1.291884	23.76196	
19:06:01	-6.795747	38.98549	144.956	0.1742371	-9.134316	3.74	3.425142	100	0	12	-3.397904	1.905209	23.79938	
19:06:01	-6.795747	38.98549	144.956	0.1742371	-9.134316	3.74	3.425142	100	0	12	-3.327988	3.143303	23.82761	
19:06:02	-6.795742	38.98549	145.292	0.1742371	-9.134316	3.62	3.425142	100	0	12	-3.242042	1.88917	23.88507	
19:06:02	-6.795657	38.98551	141.887	0.3343934	0.2187398	2.27	3.425142	100	0	12	-3.189156	0.01513912	23.99245	
19:06:02	-6.795641	38.98553	135.547	0.3343934	0.2187398	1.82	3.425142	100	0	12	-3.155272	1.748347	24.11728	
19:06:02	-6.795633	38.98554	130.237	0.3343934	0.2187398	1.8	3.425142	100	0	12	-3.13108	0.161197	24.1977	
19:06:02	-6.795625	38.98555	125.61	0.3343934	0.2187398	0.7	3.425142	100	0	12	-3.088294	1.578399	24.27151	
19:06:03	-6.795617	38.98556	121.188	0.3343934	0.2187398	1.81	3.425142	100	0	12	-3.018311	1.154796	24.35286	
19:06:03	-6.795614	38.98556	116.932	0.3505295	-0.5791252	1.15	3.425142	100	0	12	-2.941021	1.532928	24.41317	
19:06:03	-6.795619	38.98557	112.677	0.3505295	-0.5791252	2.44	3.425142	100	0	12	-2.888031	2.673372	24.47903	
19:06:03	-6.795624	38.98557	108.681	0.3505295	-0.5791252	3.21	3.425142	100	0	12	-2.832454	3.916026	24.56841	
19:06:03	-6.795622	38.98558	105.732	0.3505295	-0.5791252	2.15	3.425142	100	0	12	-2.767631	3.152972	24.72765	
19:06:04	-6.795621	38.98558	102.899	0.3505295	-0.5791252	1.97	3.425142	100	0	12	-2.698703	2.789438	24.831	
19:06:04	-6.795621	38.98559	100.025	0.3436897	-3.464955	0.29	3.425142	100	0	12	-2.635255	1.658126	24.88136	
19:06:04	-6.795623	38.98559	97.126	0.3436897	-3.464955	0.72	3.425142	100	0	12	-2.582662	2.396205	24.90675	
19:06:04	-6.795628	38.98559	93.944	0.3436897	-3.464955	2.36	3.425142	100	0	12	-2.533403	1.610818	24.97265	
19:06:04	-6.795635	38.98559	90.34	0.3436897	-3.464955	1.33	3.425142	100	0	12	-2.490456	-0.04758411	25.05682	
19:06:05	-6.795637	38.9856	87.424	0.3436897	-3.464955	0.39	3.425142	100	0	12	-2.463949	0.6919605	25.13379	
19:06:05	-6.795637	38.9856	85.534	0.2600296	-5.994182	1.68	3.425142	100	0	12	-2.417814	2.181255	25.12624	
19:06:05	-6.795631	38.9856	84.58	0.2600296	-5.994182	1.38	3.425142	100	0	12	-2.377489	1.904238	25.15865	
19:06:05	-6.795633	38.9856	83.158	0.2600296	-5.994182	1	3.425142	100	0	12	-2.32679	1.342614	25.17332	
19:06:05	-6.79564	38.9856	80.584	0.2600296	-5.994182	1.75	3.425142	100	0	12	-2.28392	1.910057	25.16967	
19:06:06	-6.795645	38.9856	78.941	0.2600296	-5.994182	2.01	3.425142	100	0	12	-2.250717	3.135184	25.19443	
19:06:06	-6.795658	38.9856	75.901	0.3811771	0.2320744	2.48	3.425142	100	0	12	-2.219669	2.719818	25.23479	
19:06:06	-6.795671	38.9856	73.556	0.3811771	0.2320744	3.46	3.425142	100	0	12	-2.18601	2.089159	25.24796	
19:06:06	-6.795686	38.9856	71.044	0.3811771	0.2320744	4.02	3.425142	100	0	12	-2.126202	2.738906	25.26118	
19:06:06	-6.795693	38.98559	69.281	0.3811771	0.2320744	3.75	3.425142	100	0	12	-2.082083	2.987206	25.33309	
19:06:07	-6.7957	38.98559	68.053	0.3811771	0.2320744	2.46	3.425142	100	0	12	-2.041703	3.849046	25.36833	
19:06:07	-6.795712	38.98558	65.937	0.3233159	-4.059159	3.42	3.425142	100	0	12	-2.012539	4.132155	25.38631	
19:06:07	-6.795726	38.98558	63.703	0.3233159	-4.059159	4.41	3.425142	100	0	12	-1.994386	2.474893	25.41764	
19:06:07	-6.795733	38.98558	62.47	0.3233159	-4.059159	3.24	3.425142	100	0	12	-1.953934	2.196815	25.42914	
19:06:07	-6.79574	38.98558	61.197	0.3233159	-4.059159	3.95	3.425142	100	0	12	-1.927342	2.101196	25.44372	
19:06:08	-6.795738	38.98558	60.962	0.3233159	-4.059159	1.64	3.425142	100	0	12	-1.884628	2.252952	25.50804	
19:06:08	-6.795743	38.98558	58.733	0.2906083	-5.227499	1.93	3.425142	100	0	12	-1.923479	2.99802	25.57964	
19:06:08	-6.795754	38.98557	55.898	0.2906083	-5.227499	3.82	3.425142	100	0	12	-1.909431	2.557057	25.64409	
19:06:08	-6.795763	38.98557	53.434	0.2906083	-5.227499	2.42	3.425142	100	0	12	-1.894256	1.543107	25.63688	
19:06:08	-6.795766	38.98556	52.475	0.2906083	-5.227499	1.32	3.425142	100	0	12	-1.873712	1.35763	25.64079	
19:06:09	-6.795769	38.98556	52.114	0.2906083	-5.227499	0.62	3.425142	100	0	12	-1.849843	1.723903	25.69208	
19:06:09	-6.795772	38.98556	51.649	0.3079836	-3.388716	0.53	3.425142	100	0	12	-1.821724	1.091016	25.68973	
19:06:09	-6.795774	38.98556	50.445	0.3079836	-3.388716	0.95	3.425142	100	0	12	-1.815406	2.693664	25.70568	
19:06:09	-6.795778	38.98556	48.833	0.3079836	-3.388716	1.41	3.425142	100	0	12	-1.78173	4.251536	25.69615	
19:06:09	-6.795784	38.98556	47.214	0.3079836	-3.388716	2.29	3.425142	100	0	12	-1.749441	4.421541	25.7216	
19:06:10	-6.795784	38.98556	47.214	0.3079836	-3.388716	2.29	3.425142	100	0	12	-1.763744	3.615748	25.78879	
19:06:10	-6.795784	38.98556	47.214	0.4193911	0.3816304	2.29	3.425142	100	0	12	-1.788271	4.437836	25.76564	
19:06:10	-6.795784	38.98556	47.214	0.4193911	0.3816304	2.29	3.425142	100	0	12	-1.77662	3.57025	25.77783	
19:06:10	-6.795784	38.98556	47.214	0.4193911	0.3816304	2.29	3.425142	100	0	12	-1.755005	4.651795	25.78645	
19:06:10	-6.795784	38.98556	47.214	0.4193911	0.3816304	2.29	3.425142	100	0	12	-1.704712	4.168309	25.81148	
19:06:11	-6.795784	38.98556	47.214	0.4193911	0.3816304	2.29	3.425142	100	0	12	-1.658216	2.756334	25.8184	
19:06:11	-6.795784	38.98556	47.214	0.5947588	6.38393	2.29	3.425142	100	0	12	-1.606656	4.337052	25.77121	
19:06:11	-6.795784	38.98556	47.214	0.5947588	6.38393	2.29	3.425142	100	0	12	-1.605217	2.701835	25.76043	
19:06:11	-6.795784	38.98556	47.214	0.5947588	6.38393	2.29	3.425142	100	0	12	-1.588025	2.577053	25.74525	
19:06:11	-6.795784	38.98556	47.214	0.5947588	6.38393	2.29	3.425142	100	0	12	-1.562627	3.187763	25.70853	
19:06:12	-6.795784	38.98556	47.214	0.5947588	6.38393	2.29	3.425142	100	0	12	-1.535282	2.836492	25.7071	
19:06:12	-6.795793	38.98556	45.39	0.6388726	4.623659	1.57	3.425142	100	0	12	-1.528172	1.03007	25.72316	
19:06:12	-6.79583	38.98556	39.633	0.6388726	4.623659	1.37	3.425142	100	0	12	-1.502542	-0.6722672	25.72189	
19:06:12	-6.79584	38.98557	35.695	0.6388726	4.623659	1.93	3.425142	100	0	12	-1.492219	-2.861416	25.69249	
19:06:12	-6.795851	38.98557	31.602	0.6388726	4.623659	1.22	3.425142	100	0	12	-1.490939	-3.878049	25.64035	
19:06:13	-6.795858	38.98557	27.795	0.6388726	4.623659	0.75	3.425142	100	0	12	-1.496038	-5.205523	25.57958	
19:06:13	-6.795866	38.98557	24.024	0.5059464	-6.311167	0.72	3.425142	100	0	12	-1.50182	-6.471266	25.55994	
19:06:13	-6.795872	38.98557	20.233	0.5059464	-6.311167	0.93	3.425142	100	0	12	-1.493306	-6.363671	25.49663	
19:06:13	-6.795879	38.98557	16.509	0.5059464	-6.311167	1.39	3.425142	100	0	12	-1.488388	-6.256544	25.43518	
19:06:13	-6.795887	38.98557	12.421	0.5059464	-6.311167	1.16	3.425142	100	0	12	-1.496777	-7.165655	25.38632	
19:06:14	-6.795895	38.98558	8.327	0.5059464	-6.311167	1	3.425142	100	0	12	-1.499181	-8.223657	25.29374	
19:06:14	-6.795902	38.98558	4.398	0.3221738	-18.468	1.28	3.425142	100	0	12	-1.536205	-8.335582	25.24302	
19:06:14	-6.79591	38.98557	-0.148	0.3221738	-18.468	1.11	3.425142	100	0	12	-1.545894	-8.384475	25.16691	
19:06:14	-6.795919	38.98557	-5.537	0.3221738	-18.468	2.55	3.425142	100	0	12	-1.548922	-8.150023	25.06839	
19:06:14	-6.796014	38.98555	-28.529	0.3221738	-18.468	2.84	3.425142	100	0	12	-1.550012	-6.692676	25.00845	
19:06:15	-6.796019	38.98555	-31.683	0.3221738	-18.468	1.79	3.425142	100	0	12	-1.538179	-4.757411	24.944	
19:06:15	-6.796026	38.98555	-35.233	0.3375158	-16.60234	2.35	3.425142	100	0	12	-1.537016	-2.849015	24.94623	
19:06:15	-6.796033	38.98555	-39.162	0.3375158	-16.60234	2	3.425142	100	0	12	-1.52365	-3.315434	24.88426	
19:06:15	-6.79604	38.98555	-42.791	0.3375158	-16.60234	2.35	3.425142	100	0	12	-1.540534	-4.378994	24.81528	
19:06:15	-6.796047	38.98555	-46.265	0.3375158	-16.60234	2.65	3.425142	100	0	12	-1.548349	-3.244984	24.78475	
19:06:16	-6.796055	38.98555	-50.417	0.3375158	-16.60234	1.67	3.425142	100	0	12	-1.537505	-1.150912	24.76464	
19:06:16	-6.796063	38.98555	-54.692	0.6129843	-0.218712	2.02	3.425142	100	0	12	-1.527645	-1.604332	24.78651	
19:06:16	-6.796071	38.98555	-58.452	0.6129843	-0.218712	2.33	3.425142	100	0	12	-1.515211	-3.774923	24.78447	
19:06:16	-6.796079	38.98555	-62.195	0.6129843	-0.218712	2.06	3.425142	100	0	12	-1.500654	-5.955559	24.73888	
19:06:16	-6.796088	38.98555	-66.171	0.6129843	-0.218712	1.89	3.425142	100	0	12	-1.511024	-8.004255	24.69333	
19:06:17	-6.796098	38.98554	-67.525	0.6129843	-0.218712	1.17	3.425142	100	0	12	-1.550531	-9.681057	24.60938	
19:06:17	-6.796109	38.98554	-69.729	0.7959343	1.621443	3.06	3.425142	100	0	12	-1.605658	-10.32107	24.53762	
19:06:17	-6.79611	38.98554	-69.561	0.7959343	1.621443	3.94	3.425142	100	0	12	-1.660079	-9.611567	24.46625	
19:06:17	-6.796114	38.98553	-70.823	0.7959343	1.621443	4.42	3.425142	100	0	12	-1.66993	-9.241365	24.39924	
19:06:17	-6.796118	38.98553	-72.108	0.7959343	1.621443	4.23	3.425142	100	0	12	-1.680842	-8.219225	24.36102	
19:06:18	-6.796125	38.98553	-74.529	0.7959343	1.621443	5.48	3.425142	100	0	12	-1.684252	-8.018331	24.27472	
19:06:18	-6.796132	38.98553	-76.597	0.7014028	-14.19108	5.35	3.425142	100	0	12	-1.695264	-7.080337	24.20864	
19:06:18	-6.796155	38.98553	-89.097	0.7014028	-14.19108	6.21	3.425142	100	0	12	-1.665952	-7.003244	24.16544	
19:06:18	-6.796175	38.98553	-100.445	0.7014028	-14.19108	6.44	3.425142	100	0	12	-1.482271	-8.210698	24.08223	
19:06:18	-6.79619	38.98553	-111.135	0.7014028	-14.19108	7.3	3.425142	100	0	12	-0.8717396	-8.587817	23.94977	
19:06:19	-6.796195	38.98553	-120.076	0.7014028	-14.19108	5.3	3.425142	100	0	12	-0.7793851	-10.86368	23.87395	
19:06:19	-6.796206	38.98553	-129.501	0.3206018	-33.62134	3.8	8.569692	100	0	12	-0.7857369	-12.61482	23.78009	
19:06:19	-6.79621	38.98553	-135.549	0.3206018	-33.62134	2.07	8.569692	100	0	12	-0.63414	-12.16215	23.67442	
19:06:19	-6.796218	38.98553	-142.093	0.3206018	-33.62134	1.18	8.569692	100	0	12	0.7655587	-10.60163	23.32558	
19:06:19	-6.79619	38.98553	-139.305	0.3206018	-33.62134	2.19	8.569692	100	0	12	1.84028	-9.364858	23.03238	
19:06:20	-6.796194	38.98553	-144.53	0.3206018	-33.62134	1.25	8.569692	100	0	12	0.642141	-10.16236	23.12945	
19:06:20	-6.796159	38.98554	-134.323	0.2387895	-37.34059	1.35	4.309649	100	0	12	0.7131058	-12.42141	23.02474	
19:06:20	-6.796126	38.98555	-123.939	0.2387895	-37.34059	0.78	4.309649	100	0	12	0.4745585	-12.33986	22.97305	
19:06:20	-6.796097	38.98555	-114.238	0.2387895	-37.34059	0.07	4.309649	100	0	12	0.3806997	-13.56278	22.91995	
19:06:20	-6.796074	38.98556	-106.572	0.2387895	-37.34059	0.82	4.309649	100	0	12	0.3828022	-11.3844	22.8341	
19:06:21	-6.796054	38.98557	-99.427	0.2387895	-37.34059	1.29	4.309649	100	0	12	0.3509898	-9.431213	22.80006	
19:06:21	-6.796032	38.98557	-91.498	0.373317	-29.40962	0.26	4.309649	100	0	12	0.2685097	-8.844412	22.76302	
19:06:21	-6.796014	38.98558	-84.143	0.373317	-29.40962	0.55	4.309649	100	0	12	0.2497739	-10.45383	22.70777	
19:06:21	-6.795996	38.98558	-76.887	0.373317	-29.40962	0.42	4.309649	100	0	12	0.2158386	-10.65817	22.63936	
19:06:21	-6.795967	38.98558	-65.326	0.373317	-29.40962	0.52	4.309649	100	0	12	0.1783631	-10.36427	22.57512	
19:06:22	-6.795938	38.98558	-54.342	0.373317	-29.40962	0.62	4.309649	100	0	12	0.06497279	-10.27195	22.54103	
19:06:22	-6.79591	38.98558	-43.679	0.4484766	-25.00073	0.9	3	100	0	12	0.09210457	-10.11625	22.46467	
19:06:22	-6.795889	38.98558	-35.289	0.4484766	-25.00073	0.63	3	100	0	12	0.7142861	-9.852341	22.28973	
19:06:22	-6.795867	38.98558	-26.638	0.4484766	-25.00073	0.62	3	100	0	12	0.06753203	-9.438888	22.31208	
19:06:22	-6.795858	38.98558	-20.946	0.4484766	-25.00073	0.5	3	100	0	12	0.1536662	-8.336025	22.24116	
19:06:23	-6.795851	38.98557	-15.806	0.4484766	-25.00073	0.26	3	100	0	12	0.182968	-8.056207	22.1792	
19:06:23	-6.795842	38.98557	-10.673	0.4856289	-17.63438	0.63	3	100	0	12	0.2129681	-7.810395	22.11613	
19:06:23	-6.795835	38.98556	-6.029	0.4856289	-17.63438	0.58	3	100	0	12	0.2393833	-9.93832	22.06439	
19:06:23	-6.795827	38.98556	-1.312	0.4856289	-17.63438	0.74	3	100	0	12	0.2721679	-7.941046	22.00859	
19:06:23	-6.79582	38.98556	2.716	0.4856289	-17.63438	1.67	3	100	0	12	0.3374832	-6.653004	21.99686	
19:06:24	-6.795814	38.98555	7.002	0.4856289	-17.63438	0.47	3	100	0	12	0.3413499	-8.691597	21.96265	
19:06:24	-6.795807	38.98555	11.202	0.3428127	-20.03528	0.81	3	100	0	12	0.2122223	-8.536827	21.92082	
19:06:24	-6.795807	38.98555	11.202	0.3428127	-20.03528	0.81	3	100	0	12	0.1641522	-7.335066	21.89532	
19:06:24	-6.795807	38.98555	11.202	0.3428127	-20.03528	0.81	3	100	0	12	0.1249151	-5.567544	21.8719	
19:06:24	-6.795807	38.98555	11.202	0.3428127	-20.03528	0.81	3	100	0	12	0.1261996	-7.261073	21.87521	
19:06:25	-6.795807	38.98555	11.202	0.3428127	-20.03528	0.81	3	100	0	12	0.115985	-6.000595	21.87748	
19:06:25	-6.795807	38.98555	11.202	0.3694321	-10.7545	0.81	3	100	0	12	0.08718675	-4.226954	21.88647	
19:06:25	-6.795807	38.98555	11.202	0.3694321	-10.7545	0.81	3	100	0	12	0.0521762	-5.72212	21.89314	
19:06:25	-6.795807	38.98555	11.202	0.3694321	-10.7545	0.81	3	100	0	12	0.02285061	-5.78398	21.86692	
19:06:25	-6.795807	38.98555	11.202	0.3694321	-10.7545	0.81	3	100	0	12	0.007394256	-5.656781	21.87251	
19:06:26	-6.7958	38.98554	15.284	0.3694321	-10.7545	1.81	3	100	0	12	0.00225303	-6.14436	21.92925	
19:06:26	-6.79577	38.98555	5.182	0.5839284	3.549632	3.64	3	100	0	12	-0.03583498	-6.068567	21.9598	
19:06:26	-6.795789	38.98555	-10.487	0.5839284	3.549632	2.4	3	100	0	12	-0.06325705	-5.339994	22.0039	
19:06:26	-6.795813	38.98555	-26.406	0.5839284	3.549632	1.58	3	100	0	12	-0.08042157	-4.052126	21.9887	
19:06:26	-6.795839	38.98556	-42.462	0.5839284	3.549632	1.5	3	100	0	12	-0.1084807	-3.721114	21.97239	
19:06:27	-6.795868	38.98556	-58.402	0.5839284	3.549632	1.84	3	100	0	12	-0.1298798	-3.531272	22.01568	
19:06:27	-6.795899	38.98556	-74.585	0.7066159	9.170053	3.12	3	100	0	12	-0.1374999	-4.593106	21.98793	
19:06:27	-6.795932	38.98556	-90.906	0.7066159	9.170053	4.5	3	100	0	12	-0.1612909	-5.207552	21.96191	
19:06:27	-6.795969	38.98556	-107.528	0.7066159	9.170053	6.57	3	100	0	12	-0.1961625	-5.096521	21.94382	
19:06:27	-6.796006	38.98556	-123.99	0.7066159	9.170053	7.06	3	100	0	12	-0.1887814	-6.692405	21.92613	
19:06:28	-6.796045	38.98556	-140.748	0.7066159	9.170053	8.2	3	100	0	12	-0.2165957	-6.157989	21.9123	
19:06:28	-6.796086	38.98556	-157.629	0.6564599	3.839663	9.75	3	100	0	12	-0.2194937	-5.562639	21.89042	
19:06:28	-6.796127	38.98556	-174.464	0.6564599	3.839663	10.12	3	100	0	12	-0.2499175	-3.764276	21.89028	
19:06:28	-6.796169	38.98556	-191.292	0.6564599	3.839663	10.75	3	100	0	12	-0.2549745	-3.819498	21.88891	
19:06:28	-6.796211	38.98556	-208.053	0.6564599	3.839663	11.17	3	100	0	12	-0.2724979	-2.207824	21.90061	
19:06:29	-6.796256	38.98556	-225.259	0.6564599	3.839663	12.32	3	100	0	12	-0.283765	-2.646498	21.89112	
19:06:29	-6.796307	38.98556	-243.082	0.7649675	10.95075	13.71	3	100	0	12	-0.3104356	-1.857792	21.94605	
19:06:29	-6.796359	38.98556	-261.234	0.7649675	10.95075	14.28	3	100	0	12	-0.3413647	-3.330232	22.39752	
19:06:29	-6.796411	38.98556	-279.542	0.7649675	10.95075	14.49	3	100	0	12	-0.3707802	-2.466594	23.11997	
19:06:29	-6.796465	38.98556	-298.392	0.7649675	10.95075	15.62	3	100	0	12	-0.3990157	-3.246939	23.84982	
19:06:30	-6.796518	38.98556	-317.299	0.7649675	10.95075	15.75	3	100	0	12	-0.416025	-2.758871	24.59495	
19:06:30	-6.796576	38.98556	-336.927	0.771612	10.23594	17.14	3	100	0	12	-0.4286916	-2.633829	25.36205	
19:06:30	-6.796634	38.98555	-356.482	0.771612	10.23594	17.11	3	100	0	12	-0.4428926	-3.643652	26.15987	
19:06:30	-6.796695	38.98555	-376.681	0.771612	10.23594	18.51	3	100	0	12	-0.4450963	-3.970422	26.99147	
19:06:30	-6.796756	38.98555	-396.847	0.771612	10.23594	18.76	3	100	0	12	-0.466403	-2.708446	27.91956	
19:06:31	-6.796818	38.98555	-417.225	0.771612	10.23594	19.12	3	100	0	12	-0.4959376	-1.873073	28.86102	
19:06:31	-6.796882	38.98555	-437.998	0.9875274	19.03453	20.18	3	100	0	12	-0.5259273	-3.025467	29.86467	
19:06:31	-6.796945	38.98555	-458.772	0.9875274	19.03453	20.24	3	100	0	12	-0.5546413	-3.17268	30.90699	
19:06:31	-6.797009	38.98555	-479.579	0.9875274	19.03453	20.48	3	100	0	12	-0.5503872	-1.749511	31.97118	
19:06:31	-6.797073	38.98555	-500.693	0.9875274	19.03453	21.06	3	100	0	12	-0.5654791	-1.413595	33.12944	
19:06:32	-6.797138	38.98555	-521.689	0.9875274	19.03453	20.85	3	100	0	12	-0.5875521	-2.038355	34.35772	
19:06:32	-6.797203	38.98555	-543.615	1.08626	19.32518	20.14	3	100	0	12	-0.6019309	-2.810365	35.53817	
19:06:32	-6.797268	38.98555	-565.824	1.08626	19.32518	21.07	3	100	0	12	-0.6439608	-3.172179	36.77723	
19:06:32	-6.797334	38.98554	-587.847	1.08626	19.32518	20.78	3	100	0	12	-0.6462774	-1.634241	38.07721	
19:06:32	-6.797399	38.98554	-610.06	1.08626	19.32518	21.35	3	100	0	12	-0.6265103	-0.5439773	39.3997	
19:06:33	-6.797465	38.98554	-632.123	1.08626	19.32518	21.75	3	100	0	12	-0.6156108	0.1444793	40.82705	
19:06:33	-6.79753	38.98554	-654.072	1.068481	14.7185	21.42	3	100	0	12	-0.6347248	-1.178	42.27461	
19:06:33	-6.797596	38.98554	-676.286	1.068481	14.7185	21.83	3	100	0	12	-0.6852403	-2.834153	43.73444	
19:06:33	-6.797664	38.98554	-698.78	1.068481	14.7185	22.64	3	100	0	12	-0.6454557	-0.971826	45.2635	
19:06:33	-6.797731	38.98554	-720.972	1.068481	14.7185	22.1	3	100	0	12	-0.6065078	-1.422745	46.83785	
19:06:34	-6.797799	38.98554	-743.521	1.068481	14.7185	23.05	3	100	0	12	-0.5411018	-0.749669	48.44041	
19:06:34	-6.797865	38.98554	-765.551	0.8463941	2.321025	22.31	3	100	0	12	-0.4758207	-0.5510309	50.09304	
19:06:34	-6.797935	38.98554	-787.972	0.8463941	2.321025	23.1	3	100	0	12	-0.3863141	0.7415749	51.7848	
19:06:34	-6.798003	38.98554	-810.584	0.8463941	2.321025	23.65	3	100	0	12	-0.3563923	-0.7047967	53.52884	
19:06:34	-6.798069	38.98553	-832.698	0.8463941	2.321025	22.26	3	100	0	12	-0.3366027	-2.302381	55.26546	
19:06:35	-6.798135	38.98553	-854.617	0.8463941	2.321025	22.7	3	100	0	12	-0.2392713	-0.9509581	57.04951	
19:06:35	-6.798198	38.98553	-875.25	0.8867924	7.626728	23.71	3	100	0	12	-0.1872887	-2.092182	58.90345	
19:06:35	-6.798258	38.98553	-895.515	0.8867924	7.626728	22.48	3	100	0	12	-0.137087	-0.02250926	60.76047	
19:06:35	-6.798319	38.98553	-915.852	0.8867924	7.626728	23.18	3	100	0	12	-0.148905	-1.558515	62.67704	
19:06:35	-6.79838	38.98553	-936.087	0.8867924	7.626728	22.75	3	100	0	12	-0.09347326	-0.8540142	64.62171	
19:06:36	-6.798439	38.98553	-956.118	0.8867924	7.626728	22.18	3	100	0	12	-0.03211296	0.46146	66.58044	
19:06:36	-6.798498	38.98553	-976.061	0.9109013	8.204428	21.8	3	100	0	12	-0.02652017	-1.07086	68.53281	
19:06:36	-6.798555	38.98553	-995.155	0.9109013	8.204428	21.4	3	100	0	12	0.03699249	-1.060195	70.47563	
19:06:36	-6.798614	38.98553	-1014.386	0.9109013	8.204428	21.93	3	100	0	12	0.08139291	-1.7722	72.50603	
19:06:36	-6.798672	38.98553	-1033.589	0.9109013	8.204428	21.95	3	100	0	12	0.1315477	0.08614442	74.53844	
19:06:37	-6.798729	38.98553	-1052.619	0.9109013	8.204428	21.57	3	100	0	12	0.1151338	-1.712542	77.04356	
19:06:37	-6.798784	38.98553	-1071.38	0.8938955	6.513155	21.28	3	100	0	13	0.2205371	-1.673614	79.56873	
19:06:37	-6.798784	38.98553	-1071.38	0.8938955	6.513155	21.28	3	100	0	13	0.302877	0.1759568	81.73042	
19:06:37	-6.798784	38.98553	-1071.38	0.8938955	6.513155	21.28	3	100	0	13	0.3526613	1.469051	83.45771	
19:06:37	-6.798784	38.98553	-1071.38	0.8938955	6.513155	21.28	3	100	0	13	0.3652847	-0.6210555	84.86836	
19:06:38	-6.798784	38.98553	-1071.38	0.8938955	6.513155	21.28	3	100	0	13	0.4327289	1.421966	86.06459	
19:06:38	-6.798784	38.98553	-1071.38	1.028087	14.19705	21.28	3	100	0	12	0.4485029	0.3031509	87.09215	
19:06:38	-6.798784	38.98553	-1071.38	1.028087	14.19705	21.28	3	100	0	12	0.4701034	0.03485231	87.99255	
19:06:38	-6.798784	38.98553	-1071.38	1.028087	14.19705	21.28	3	100	0	12	0.4872377	-0.8946056	88.81113	
19:06:38	-6.798784	38.98553	-1071.38	1.028087	14.19705	21.28	3	100	0	12	0.5120057	0.8875255	89.56317	
19:06:39	-6.798784	38.98553	-1071.38	1.028087	14.19705	21.28	3	100	0	12	0.5013089	-1.132023	90.24906	
19:06:39	-6.798784	38.98553	-1071.38	0.9702527	8.489859	21.28	3	100	0	12	0.5130867	0.5655057	90.90699	
19:06:39	-6.798784	38.98553	-1071.38	0.9702527	8.489859	21.28	3	100	0	12	0.4939471	1.252299	91.53691	
19:06:39	-6.798784	38.98553	-1071.38	0.9702527	8.489859	21.28	3	100	0	12	0.4868844	-0.4949838	92.15487	
19:06:40	-6.798784	38.98553	-1071.38	0.9702527	8.489859	21.28	3	100	0	12	0.4898057	1.00033	92.74561	
19:06:40	-6.798784	38.98553	-1071.38	0.9702527	8.489859	21.28	3	100	0	12	0.4865453	-0.5008796	93.33915	
19:06:40	-6.798784	38.98553	-1071.38	1.013629	10.39491	21.28	3	100	0	12	0.4963332	0.473423	93.91474	
19:06:40	-6.798784	38.98553	-1071.38	1.013629	10.39491	21.28	3	100	0	12	0.5023173	-0.5400041	94.4911	
19:06:40	-6.798784	38.98553	-1071.38	1.013629	10.39491	21.28	3	100	0	12	0.5308486	0.686267	95.05049	
19:06:41	-6.798784	38.98553	-1071.38	1.013629	10.39491	21.28	3	100	0	12	0.5337791	2.125963	95.63233	
19:06:41	-6.798784	38.98553	-1071.38	1.013629	10.39491	21.28	3	100	0	12	0.5431253	2.38668	96.18957	
19:06:41	-6.798784	38.98553	-1071.38	0.9861513	7.430379	21.28	3	100	0	13	0.5469444	0.8321849	96.75074	
19:06:41	-6.798784	38.98553	-1071.38	0.9861513	7.430379	21.28	3	100	0	13	0.570462	1.634407	97.30954	
19:06:41	-6.798784	38.98553	-1071.38	0.9861513	7.430379	21.28	3	100	0	13	0.5964153	0.7725145	97.86788	
19:06:42	-6.798784	38.98553	-1071.38	0.9861513	7.430379	21.28	3	100	0	13	0.6179311	1.514041	98.41393	
19:06:42	-6.798784	38.98553	-1071.38	0.9861513	7.430379	21.28	3	100	0	13	0.650187	3.382751	99.00021	
19:06:42	-6.798784	38.98553	-1071.38	0.8694753	1.558582	21.28	3	100	0	11	0.6566537	3.980015	99.60957	
19:06:42	-6.798784	38.98553	-1071.38	0.8694753	1.558582	21.28	3	100	0	11	0.6475793	3.956032	100.2117	
19:06:42	-6.798784	38.98553	-1071.38	0.8694753	1.558582	21.28	3	100	0	11	0.6553553	2.707208	100.812	
19:06:43	-6.798784	38.98553	-1071.38	0.8694753	1.558582	21.28	3	100	0	11	0.6588956	3.044683	101.4181	
19:06:43	-6.798784	38.98553	-1071.38	0.8694753	1.558582	21.28	3	100	0	11	0.6643432	2.516112	102.0174	
19:06:43	-6.798784	38.98553	-1071.38	1.133585	14.08123	21.28	3	100	0	12	0.6747286	2.108497	102.6207	
19:06:43	-6.798784	38.98553	-1071.38	1.133585	14.08123	21.28	3	100	0	12	0.6892015	3.397425	103.2243	
19:06:43	-6.798784	38.98553	-1071.38	1.133585	14.08123	21.28	3	100	0	12	0.7288786	2.899505	103.8124	
19:06:44	-6.798784	38.98553	-1071.38	1.133585	14.08123	21.28	3	100	0	12	0.751647	2.818653	104.4118	
19:06:44	-6.798784	38.98553	-1071.38	1.133585	14.08123	21.28	3	100	0	12	0.8020961	3.85939	105.0076	
19:06:44	-6.798784	38.98553	-1071.38	1.220865	12.04242	21.28	3	100	0	12	0.8129715	3.013612	105.5975	
19:06:44	-6.798784	38.98553	-1071.38	1.220865	12.04242	21.28	3	100	0	12	0.8399172	2.877998	106.1961	
19:06:44	-6.798784	38.98553	-1071.38	1.220865	12.04242	21.28	3	100	0	12	0.8683652	3.564571	106.7957	
19:06:45	-6.798784	38.98553	-1071.38	1.220865	12.04242	21.28	3	100	0	12	0.8717191	2.94949	107.4022	
19:06:45	-6.798784	38.98553	-1071.38	1.220865	12.04242	21.28	3	100	0	12	0.8768937	3.1597	107.9977	
19:06:45	-6.798784	38.98553	-1071.38	1.077569	2.297185	21.28	3	100	0	12	0.885323	2.699766	108.6066	
19:06:45	-6.798784	38.98553	-1071.38	1.077569	2.297185	21.28	3	100	0	12	0.8846915	3.477822	109.2061	
19:06:45	-6.798784	38.98553	-1071.38	1.077569	2.297185	21.28	3	100	0	12	0.890766	3.760587	109.8066	
19:06:46	-6.798784	38.98553	-1071.38	1.077569	2.297185	21.28	3	100	0	12	0.8877699	4.261496	110.4038	
19:06:46	-6.798784	38.98553	-1071.38	1.077569	2.297185	21.28	3	100	0	12	0.8631892	3.222664	110.9974	
19:06:46	-6.798784	38.98553	-1071.38	0.817108	-9.563925	21.28	3	100	0	12	0.8477319	3.135648	111.5972	
19:06:46	-6.798784	38.98553	-1071.38	0.817108	-9.563925	21.28	3	100	0	12	0.8392179	3.304379	112.193	
19:06:46	-6.798784	38.98553	-1071.38	0.817108	-9.563925	21.28	3	100	0	12	0.8661543	4.034182	112.7969	
19:06:47	-6.798784	38.98553	-1071.38	0.817108	-9.563925	21.28	3	100	0	12	0.8569036	2.776834	113.399	
19:06:47	-6.798784	38.98553	-1071.38	0.817108	-9.563925	21.28	3	100	0	12	0.8294535	1.971058	113.992	
19:06:47	-6.798784	38.98553	-1071.38	0.8538978	-3.447405	21.28	3	100	0	12	0.820884	2.999861	114.588	
19:06:47	-6.798784	38.98553	-1071.38	0.8538978	-3.447405	21.28	3	100	0	12	0.7903644	2.936772	115.1985	
19:06:47	-6.798784	38.98553	-1071.38	0.8538978	-3.447405	21.28	3	100	0	12	0.7690501	2.863887	115.7937	
19:06:48	-6.798784	38.98553	-1071.38	0.8538978	-3.447405	21.28	3	100	0	12	0.7572195	2.581676	116.3872	
19:06:48	-6.798784	38.98553	-1071.38	0.8538978	-3.447405	21.28	3	100	0	12	0.7545958	0.4976598	116.9855	
19:06:48	-6.798784	38.98553	-1071.38	0.7856936	-4.038516	21.28	3	100	0	12	0.7797965	2.634291	117.6046	
19:06:48	-6.79884	38.98552	-1090.255	0.7856936	-4.038516	21.34	3	100	0	12	0.7602754	2.636658	118.2123	
19:06:48	-6.797039	38.98507	-265.103	0.7856936	-4.038516	5.6	3	100	0	12	0.8479763	3.851235	120.4392	
19:06:49	-6.796947	38.98508	-232.803	0.7856936	-4.038516	5.19	3	100	0	12	0.9674512	3.6656	123.0841	
19:06:49	-6.796851	38.9851	-199.697	0.7856936	-4.038516	4.83	3	100	0	12	1.049596	2.388474	125.5819	
19:06:49	-6.796768	38.98513	-172.912	0.5727263	-10.6952	4.02	3	100	0	12	1.157377	3.608298	128.033	
19:06:49	-6.796698	38.98515	-150.525	0.5727263	-10.6952	3.32	3	100	0	12	1.220568	2.318112	130.4187	
19:06:49	-6.796638	38.98516	-131.223	0.5727263	-10.6952	4.83	3	100	0	12	1.154138	0.618517	128.9583	
19:06:50	-6.796589	38.98518	-114.092	0.5727263	-10.6952	6.43	3	100	0	12	0.9692308	-0.5572321	127.49	
19:06:50	-6.79655	38.98518	-100.516	0.5727263	-10.6952	6.67	3	100	0	12	0.8229764	0.9624987	126.0149	
19:06:50	-6.796514	38.98518	-88.783	0.6073012	-1.631603	3.35	3	100	0	12	0.5958913	2.384194	124.4981	
19:06:50	-6.796478	38.98519	-76.985	0.6073012	-1.631603	3.8	3	100	0	12	0.4259638	3.681458	122.9694	
19:06:50	-6.796445	38.9852	-66.653	0.6073012	-1.631603	3.25	3	100	0	12	0.3103915	2.526192	121.44	
19:06:51	-6.796424	38.9852	-58.377	0.6073012	-1.631603	4.65	3	100	0	12	0.2000435	3.203823	119.9016	
19:06:51	-6.796406	38.9852	-51.806	0.6073012	-1.631603	4.77	3	100	0	12	0.06780539	2.169182	118.3302	
19:06:51	-6.796392	38.9852	-46.108	0.8658808	12.04381	5.29	3	100	0	12	-0.06219191	3.437321	116.7518	
19:06:51	-6.796379	38.9852	-40.71	0.8658808	12.04381	4.48	3	100	0	12	-0.2191641	3.785091	115.1999	
19:06:51	-6.796364	38.9852	-35.414	0.8658808	12.04381	3.38	3	100	0	12	-0.3493915	2.761378	113.6485	
19:06:52	-6.796354	38.98521	-32.233	0.8658808	12.04381	1.76	3	100	0	12	-0.4713053	3.462421	112.0966	
19:06:52	-6.796343	38.98521	-29.042	0.8658808	12.04381	2.24	3	100	0	12	-0.5496897	2.016958	110.5433	
19:06:52	-6.796337	38.98522	-26.95	0.8853331	10.5274	2.28	3	100	0	12	-0.7406877	1.091318	108.8089	
19:06:52	-6.796334	38.98522	-25.719	0.8853331	10.5274	2.64	3	100	0	12	-0.9817859	1.559027	107.0447	
19:06:52	-6.796331	38.98523	-24.527	0.8853331	10.5274	3	3	100	0	12	-1.191391	3.011784	105.2817	
19:06:53	-6.796331	38.98523	-24.527	0.8853331	10.5274	3	3	100	0	12	-1.408617	3.446903	103.5301	
19:06:53	-6.796331	38.98523	-24.527	0.8853331	10.5274	3	3	100	0	12	-1.622186	3.345723	101.8189	
19:06:53	-6.796331	38.98523	-24.527	0.9674753	10.79259	3	3	100	0	12	-1.754003	2.001848	100.0983	
19:06:53	-6.796331	38.98523	-24.527	0.9674753	10.79259	3	3	100	0	12	-1.910735	2.713171	98.39069	
19:06:53	-6.796331	38.98523	-24.527	0.9674753	10.79259	3	3	100	0	12	-2.057363	2.305748	96.72074	
19:06:54	-6.796331	38.98523	-24.527	0.9674753	10.79259	3	3	100	0	12	-2.214496	2.723915	95.07072	
19:06:54	-6.796331	38.98523	-24.527	0.9674753	10.79259	3	3	100	0	12	-2.342073	2.541404	93.42683	
19:06:54	-6.796331	38.98523	-24.527	1.110875	14.01824	3	3	100	0	12	-2.468378	3.378509	91.79094	
19:06:54	-6.796331	38.98523	-24.527	1.110875	14.01824	3	3	100	0	12	-2.570975	3.7465	90.19805	
19:06:54	-6.796331	38.98523	-24.527	1.110875	14.01824	3	3	100	0	12	-2.672962	3.586167	88.64223	
19:06:55	-6.796331	38.98523	-24.527	1.110875	14.01824	3	3	100	0	12	-2.736519	2.242967	87.12206	
19:06:55	-6.796331	38.98523	-24.527	1.110875	14.01824	3	3	100	0	12	-2.847353	1.528731	85.61021	
19:06:55	-6.796331	38.98523	-24.527	1.134013	9.127374	3	3	100	0	12	-2.985913	2.465986	84.11628	
19:06:55	-6.796331	38.98523	-24.527	1.134013	9.127374	3	3	100	0	12	-3.09902	2.413579	82.66633	
19:06:55	-6.796331	38.98523	-24.527	1.134013	9.127374	3	3	100	0	12	-3.174044	1.308678	81.26926	
19:06:56	-6.796331	38.98523	-23.708	1.134013	9.127374	3.79	3	100	0	12	-3.272534	1.842306	79.88219	
19:06:56	-6.796204	38.98532	-8.88	1.134013	9.127374	1.97	3	100	0	12	-3.357248	2.69524	78.50911	
19:06:56	-6.796086	38.98536	17.728	1.132903	7.570248	1.79	3	100	0	12	-3.424767	3.605372	77.18346	
19:06:56	-6.796006	38.98538	39.596	1.132903	7.570248	1.61	3	100	0	12	-3.48078	4.39891	75.89648	
19:06:56	-6.795951	38.9854	55.201	1.132903	7.570248	1.01	3	100	0	12	-3.498405	3.3625	74.65331	
19:06:57	-6.795914	38.9854	65.7	1.132903	7.570248	0.55	3	100	0	12	-3.530812	2.910612	73.40411	
19:06:57	-6.795888	38.98541	74.415	1.132903	7.570248	1.45	3	100	0	12	-3.560082	2.331256	72.22213	
19:06:57	-6.795867	38.98542	82.569	1.058342	0.08098195	1.09	3	100	0	12	-3.604733	1.442672	70.83804	
19:06:57	-6.795851	38.98542	89.729	1.058342	0.08098195	1.48	3	100	0	12	-3.710404	2.597799	69.18922	
19:06:57	-6.795839	38.98542	96.099	1.058342	0.08098195	1.42	3	100	0	12	-3.780893	3.553071	67.59373	
19:06:58	-6.795827	38.98542	100.835	1.058342	0.08098195	1.04	3	100	0	12	-3.794667	2.829939	66.08443	
19:06:58	-6.795818	38.98542	103.78	1.058342	0.08098195	1.82	3	100	0	12	-3.787648	1.295109	64.61951	
19:06:58	-6.79581	38.98542	106.572	0.9991587	-0.6678475	0.56	3	100	0	12	-3.777456	0.1768791	63.16989	
19:06:58	-6.795805	38.98542	109.451	0.9991587	-0.6678475	1.84	3	100	0	12	-3.780642	0.07734632	61.75804	
19:06:58	-6.795805	38.98542	109.451	0.9991587	-0.6678475	1.84	3	100	0	12	-3.780618	0.2055014	60.38024	
19:06:59	-6.795805	38.98542	109.451	0.9991587	-0.6678475	1.84	3	100	0	12	-3.786539	0.2091287	59.01751	
19:06:59	-6.795805	38.98542	109.451	0.9991587	-0.6678475	1.84	3	100	0	12	-3.781708	-0.1299518	57.71969	
19:06:59	-6.795805	38.98542	109.451	1.042302	2.029249	1.84	3	100	0	12	-3.800942	0.8845106	56.4528	
19:06:59	-6.795805	38.98542	109.451	1.042302	2.029249	1.84	3	100	0	12	-3.794472	0.7662468	55.21672	
19:06:59	-6.795805	38.98542	109.451	1.042302	2.029249	1.84	3	100	0	12	-3.812793	1.933164	53.9974	
19:07:00	-6.795799	38.98542	113.893	1.042302	2.029249	0.44	3	100	0	12	-3.785878	-0.07641838	52.85077	
19:07:00	-6.795799	38.98542	113.893	1.042302	2.029249	0.44	3	100	0	12	-3.84089	1.339196	51.72408	
19:07:00	-6.795799	38.98542	113.893	1.011366	0.2612736	0.44	3	100	0	12	-3.855915	2.216057	50.65984	
19:07:00	-6.795799	38.98542	113.893	1.011366	0.2612736	0.44	3	100	0	12	-3.88825	3.734295	49.60594	
19:07:00	-6.795799	38.98542	113.893	1.011366	0.2612736	0.44	3	100	0	12	-3.88547	2.397697	48.57769	
19:07:01	-6.795799	38.98542	113.893	1.011366	0.2612736	0.44	3	100	0	12	-3.928209	4.196666	47.58166	
19:07:01	-6.795799	38.98542	113.893	1.011366	0.2612736	0.44	3	100	0	12	-3.923498	2.221164	46.6649	
19:07:01	-6.795799	38.98542	113.893	0.6163923	-17.19897	0.44	3	100	0	12	-3.920348	0.796919	45.81031	
19:07:01	-6.795799	38.98542	113.893	0.6163923	-17.19897	0.44	3	100	0	12	-3.937668	2.002542	44.93169	
19:07:01	-6.795799	38.98542	113.893	0.6163923	-17.19897	0.44	3	100	0	12	-3.944581	3.58219	44.06664	
19:07:02	-6.795799	38.98542	113.893	0.6163923	-17.19897	0.44	3	100	0	12	-3.938864	1.774659	43.27894	
19:07:02	-6.795799	38.98542	113.893	0.6163923	-17.19897	0.44	3	100	0	12	-3.965149	3.023213	42.47445	
19:07:02	-6.795799	38.98542	113.893	0.4679169	-16.05154	0.44	3	100	0	12	-3.943663	2.904378	41.74076	
19:07:02	-6.795799	38.98542	113.893	0.4679169	-16.05154	0.44	3	100	0	12	-3.918819	1.616047	40.76111	
19:07:02	-6.795799	38.98542	113.893	0.4679169	-16.05154	0.44	3	100	0	12	-3.930118	2.779464	39.81614	
19:07:03	-6.795799	38.98542	113.893	0.4679169	-16.05154	0.44	3	100	0	12	-3.89615	2.086366	38.91609	
19:07:03	-6.795799	38.98542	113.893	0.4679169	-16.05154	0.44	3	100	0	12	-3.877727	0.7634054	37.99562	
19:07:03	-6.795799	38.98542	113.893	0.5448489	-6.955052	0.44	3	100	0	12	-3.870937	0.2437171	37.11225	
19:07:03	-6.795799	38.98542	113.893	0.5448489	-6.955052	0.44	3	100	0	12	-3.866181	1.557999	36.29622	
19:07:03	-6.795799	38.98542	113.893	0.5448489	-6.955052	0.44	3	100	0	12	-3.837368	1.022457	35.46486	
19:07:04	-6.795799	38.98542	113.893	0.5448489	-6.955052	0.44	3	100	0	12	-3.822397	2.08751	34.68129	
19:07:04	-6.795799	38.98542	113.893	0.5448489	-6.955052	0.44	3	100	0	12	-3.801343	0.8912295	33.92328	
19:07:04	-6.795799	38.98542	113.893	0.5881169	-3.262419	0.44	3	100	0	12	-3.81515	2.040387	33.20586	
19:07:04	-6.795799	38.98542	113.893	0.5881169	-3.262419	0.44	3	100	0	12	-3.809475	0.9436799	32.50743	
19:07:04	-6.795799	38.98542	113.893	0.5881169	-3.262419	0.44	3	100	0	12	-3.796703	1.343374	31.81823	
19:07:05	-6.795799	38.98542	113.893	0.5881169	-3.262419	0.44	3	100	0	12	-3.781318	2.026445	31.16898	
19:07:05	-6.795799	38.98542	113.893	0.5881169	-3.262419	0.44	3	100	0	12	-3.732929	2.714594	30.56276	
19:07:05	-6.795799	38.98542	113.893	0.5582195	-3.348932	0.44	3	100	0	12	-3.731322	4.047286	29.93259	
19:07:05	-6.795799	38.98542	113.893	0.5582195	-3.348932	0.44	3	100	0	12	-3.713094	3.467552	29.38245	
19:07:05	-6.795791	38.98542	114.925	0.5582195	-3.348932	0.52	3	100	0	12	-3.680748	4.1155	28.85123	
19:07:06	-6.795749	38.98542	101.981	0.5582195	-3.348932	1.46	3	100	0	12	-3.727808	3.296528	28.37403	
19:07:06	-6.795743	38.98542	107.793	0.5582195	-3.348932	2.84	3	100	0	12	-3.756365	3.259307	27.85706	
19:07:06	-6.795744	38.98541	111.327	0.5391389	-3.592314	2.91	3	100	0	12	-3.743221	4.868077	27.35624	
19:07:06	-6.795742	38.9854	115.985	0.5391389	-3.592314	2.47	3	100	0	12	-3.728025	4.57842	26.88474	
19:07:06	-6.795736	38.98539	122.163	0.5391389	-3.592314	2.37	3	100	0	12	-3.705172	2.77631	26.46761	
19:07:07	-6.795731	38.98539	126.737	0.5391389	-3.592314	2.16	3	100	0	12	-3.682952	2.914723	26.09772	
19:07:07	-6.795726	38.98538	132.8	0.5391389	-3.592314	0.59	3	100	0	12	-3.676717	3.014922	25.71368	
19:07:07	-6.795723	38.98537	138.86	0.483048	-4.830709	0.7	3	100	0	12	-3.639094	1.377712	25.31896	
19:07:07	-6.79572	38.98536	144.106	0.483048	-4.830709	0.66	3	100	0	12	-3.610465	1.537636	24.88522	
19:07:07	-6.795718	38.98536	147.342	0.483048	-4.830709	0.72	3	100	0	12	-3.575051	2.44418	24.41923	
19:07:08	-6.795716	38.98536	149.676	0.483048	-4.830709	2.02	3	100	0	12	-3.525346	2.366904	23.97143	
19:07:08	-6.795715	38.98536	154.206	0.483048	-4.830709	0.66	3	100	0	12	-3.479185	2.762159	23.53453	
19:07:08	-6.795712	38.98535	160.128	0.5296664	-1.252897	1.32	3	100	0	12	-3.41379	3.180902	23.10747	
19:07:08	-6.795707	38.98534	166.008	0.5296664	-1.252897	2.19	3	100	0	12	-3.317469	3.763689	22.72061	
19:07:08	-6.795705	38.98533	171.019	0.5296664	-1.252897	1.06	3	100	0	12	-3.250676	3.190234	22.36355	
19:07:09	-6.795702	38.98533	175.038	0.5296664	-1.252897	1.61	3	100	0	12	-3.20771	2.217688	21.9865	
19:07:09	-6.795699	38.98532	178.782	0.5296664	-1.252897	1.77	3	100	0	12	-3.199625	3.519413	21.61546	
19:07:09	-6.795695	38.98532	182.548	0.5629052	0.6725351	1.87	3	100	0	12	-3.162978	3.686783	21.29458	
19:07:09	-6.795692	38.98532	186.132	0.5629052	0.6725351	1.95	3	100	0	12	-3.128289	3.010635	20.98329	
19:07:09	-6.795689	38.98532	189.393	0.5629052	0.6725351	1.7	3	100	0	12	-3.081537	3.918246	20.70674	
19:07:10	-6.795684	38.98532	191.954	0.5629052	0.6725351	2.6	3	100	0	12	-3.02353	3.077209	20.43182	
19:07:10	-6.795677	38.98531	194.817	0.5629052	0.6725351	3.61	3	100	0	12	-2.985743	1.70376	20.17479	
19:07:10	-6.79567	38.9853	197.592	0.3829306	-6.976825	4.16	3	100	0	10	-2.949108	2.316851	19.91921	
19:07:10	-6.795665	38.9853	200.694	0.3829306	-6.976825	2.35	3	100	0	10	-2.91492	3.634649	19.62342	
19:07:10	-6.795661	38.98531	200.527	0.3829306	-6.976825	1.73	3	100	0	10	-2.330192	3.585408	19.41785	
19:07:11	-6.795658	38.98531	201.829	0.3829306	-6.976825	2.08	3	100	0	10	-2.306227	3.699659	19.1714	
19:07:11	-6.79565	38.98531	204.2	0.3829306	-6.976825	3.16	3	100	0	10	-2.726086	3.2845	18.90147	
19:07:11	-6.795645	38.98531	206.638	0.4129638	-0.9315717	2.51	4.070146	100	0	12	-1.7712	2.911992	18.74455	
19:07:11	-6.795639	38.98532	206.523	0.4129638	-0.9315717	3.61	4.070146	100	0	12	-1.81288	2.575158	18.48301	
19:07:11	-6.795631	38.98532	206.512	0.4129638	-0.9315717	4.27	4.070146	100	0	12	-2.749202	1.381557	18.21265	
19:07:12	-6.795624	38.98532	206.618	0.4129638	-0.9315717	3.99	4.070146	100	0	12	-2.291158	0.942085	17.97525	
19:07:12	-6.795616	38.98533	208.017	0.4129638	-0.9315717	4.54	4.070146	100	0	12	-1.53544	0.8835771	17.69397	
19:07:12	-6.795609	38.98533	209.488	0.6876861	12.18	3.22	4.810494	100	0	12	-1.253964	1.31996	17.45691	
19:07:12	-6.795604	38.98534	211.515	0.6876861	12.18	2.75	4.810494	100	0	12	-1.391239	2.209436	17.21657	
19:07:12	-6.795597	38.98534	213.919	0.6876861	12.18	3.97	4.810494	100	0	12	-1.951995	2.117399	17.00885	
19:07:13	-6.79559	38.98534	217.099	0.6876861	12.18	2.6	4.810494	100	0	12	-2.151162	2.267032	16.84932	
19:07:13	-6.795587	38.98534	219.775	0.6876861	12.18	2.22	4.810494	100	0	12	-1.196093	2.755201	16.75075	
19:07:13	-6.795582	38.98534	221.003	0.7468297	8.543955	3.59	4.904366	100	0	12	-1.066436	1.967655	16.58142	
19:07:13	-6.795574	38.98534	221.988	0.7468297	8.543955	4.29	4.904366	100	0	12	-2.054974	0.9669539	16.41569	
19:07:13	-6.795567	38.98534	223.349	0.7468297	8.543955	3.56	4.904366	100	0	12	-2.106193	1.312579	16.28189	
19:07:14	-6.795562	38.98535	225.472	0.7468297	8.543955	3.44	4.904366	100	0	12	-1.406028	2.738695	16.19593	
19:07:14	-6.795561	38.98535	225.654	0.7468297	8.543955	2.37	4.904366	100	0	12	-1.093713	2.688018	16.08142	
19:07:14	-6.795562	38.98535	225.455	0.8083364	10.32329	2.02	4.573509	100	0	4	-1.055275	3.415001	15.90562	
19:07:14	0	0	0	0.8083364	10.32329	0	4.573509	100	0	4	-1.048645	4.648922	15.48704	
19:07:14	0	0	0	0.8083364	10.32329	0	4.573509	100	0	4	-1.042166	4.661717	15.08687	
19:07:15	0	0	0	0.8083364	10.32329	0	4.573509	100	0	4	-1.034569	4.70007	14.70267	
19:07:15	0	0	0	0.8083364	10.32329	0	4.573509	100	0	4	-1.025996	4.738566	14.33578	
19:07:15	0	0	0	-2.998733	-901.9146	0	3	100	0	4	-1.016432	4.777383	13.98382	
19:07:15	0	0	0	-2.998733	-901.9146	0	3	100	0	4	-1.005892	4.816518	13.64638	
19:07:15	0	0	0	-2.998733	-901.9146	0	3	100	0	4	-0.9944257	4.855956	13.32265	
19:07:16	0	0	0	-2.998733	-901.9146	0	3	100	0	4	-0.9819689	4.896079	13.00866	
19:07:16	0	0	0	-2.998733	-901.9146	0	3	100	0	4	-0.9687501	4.936092	12.71063	
19:07:16	0	0	0	-9.387558	-1527.509	0	3	100	0	4	-0.9545988	4.976584	12.42355	
19:07:16	0	0	0	-9.387558	-1527.509	0	3	100	0	4	-0.9397181	5.017138	12.14939	
19:07:16	0	0	0	-9.387558	-1527.509	0	3	100	0	4	-0.924191	5.058107	11.8826	
19:07:17	0	0	0	-9.387558	-1527.509	0	3	100	0	4	-0.907629	5.099183	11.63183	
19:07:17	0	0	0	-9.387558	-1527.509	0	3	100	0	4	-0.8902777	5.140502	11.39189	
19:07:17	0	0	0	-14.32295	-1796.528	0	3	100	0	4	-0.8721673	5.182054	11.16233	
19:07:17	0	0	0	-14.32295	-1796.528	0	3	100	0	4	-0.8533626	5.224208	10.93799	
19:07:17	0	0	0	-14.32295	-1796.528	0	3	100	0	4	-0.8295577	5.286282	10.76355	
19:07:18	0	0	0	-14.32295	-1796.528	0	3	100	0	4	-0.8038164	5.353933	10.60733	
19:07:18	0	0	0	-14.32295	-1796.528	0	3	100	0	4	-0.7774318	5.421772	10.45989	
19:07:18	0	0	0	-16.83656	-1811.956	0	3	100	0	4	-0.7502967	5.49013	10.32009	
19:07:18	0	0	0	-16.83656	-1811.956	0	3	100	0	4	-0.7229657	5.557961	10.1882	
19:07:18	0	0	0	-16.83656	-1811.956	0	3	100	0	4	-0.6948678	5.625968	10.06577	
19:07:19	0	0	0	-16.83656	-1811.956	0	3	100	0	4	-0.6667392	5.69438	9.943087	
19:07:19	0	0	0	-16.83656	-1811.956	0	3	100	0	4	-0.6387784	5.762521	9.822161	
19:07:19	0	0	0	-17.28362	-1690.758	0	3	100	0	4	-0.6089491	5.831593	9.717217	
19:07:19	0	0	0	-17.28362	-1690.758	0	3	100	0	4	-0.5792578	5.900064	9.616057	
19:07:20	0	0	0	-17.28362	-1690.758	0	3	100	0	4	-0.5485548	5.969024	9.523921	
19:07:20	0	0	0	-17.28362	-1690.758	0	3	100	0	4	-0.5173047	6.038417	9.43614	
19:07:20	0	0	0	-17.28362	-1690.758	0	3	100	0	4	-0.4858805	6.107223	9.354791	
19:07:20	0	0	0	-16.49202	-1526.958	0	3	100	0	4	-0.45418	6.176099	9.276933	
19:07:20	0	0	0	-16.49202	-1526.958	0	3	100	0	4	-0.4222092	6.245044	9.202421	
19:07:21	0	0	0	-16.49202	-1526.958	0	3	100	0	4	-0.389367	6.314093	9.136696	
19:07:21	0	0	0	-16.49202	-1526.958	0	3	100	0	4	-0.3560757	6.383212	9.075745	
19:07:21	0	0	0	-16.49202	-1526.958	0	3	100	0	4	-0.322346	6.452391	9.019379	
19:07:21	0	0	0	-15.15434	-1365.632	0	3	100	0	4	-0.2889168	6.522267	8.957383	
19:07:21	0	0	0	-15.15434	-1365.632	0	3	100	0	4	-0.2544792	6.591545	8.90837	
19:07:22	0	0	0	-15.15434	-1365.632	0	3	100	0	4	-0.2190658	6.661572	8.864877	
19:07:22	0	0	0	-15.15434	-1365.632	0	3	100	0	4	-0.1836781	6.730941	8.825041	
19:07:22	0	0	0	-15.15434	-1365.632	0	3	100	0	4	-0.1472783	6.801049	8.790804	
19:07:22	0	0	0	-13.77532	-1236.301	0	3	100	0	4	-0.1119407	6.870471	8.75138	
19:07:22	0	0	0	-13.77532	-1236.301	0	3	100	0	4	-0.07506307	6.940628	8.721801	
19:07:23	0	0	0	-13.77532	-1236.301	0	3	100	0	4	-0.03045277	7.010855	8.756094	
19:07:23	0	0	0	-13.77532	-1236.301	0	3	100	0	4	0.01630604	7.080714	8.809246	
19:07:23	0	0	0	-13.77532	-1236.301	0	3	100	0	4	0.06263392	7.150186	8.86003	
19:07:23	0	0	0	-12.53706	-1129.587	0	3	100	0	4	0.1090432	7.219966	8.9094	
19:07:23	0	0	0	-12.53706	-1129.587	0	3	100	0	4	0.1558116	7.289351	8.9627	
19:07:24	0	0	0	-12.53706	-1129.587	0	3	100	0	4	0.2029269	7.358685	9.018229	
19:07:24	0	0	0	-12.53706	-1129.587	0	3	100	0	4	0.2506481	7.427958	9.077937	
19:07:24	0	0	0	-12.53706	-1129.587	0	3	100	0	4	0.2984229	7.497182	9.137517	
19:07:24	0	0	0	-11.52132	-1047.05	0	3	100	0	4	0.3463868	7.566352	9.198001	
19:07:24	0	0	0	-11.52132	-1047.05	0	3	100	0	4	0.393554	7.63587	9.250373	
19:07:25	0	0	0	-11.52132	-1047.05	0	3	100	0	4	0.441933	7.704926	9.312876	
19:07:25	0	0	0	-11.52132	-1047.05	0	3	100	0	4	0.4905037	7.773923	9.376238	
19:07:25	0	0	0	-11.52132	-1047.05	0	3	100	0	4	0.5394901	7.843207	9.440622	
19:07:25	0	0	0	-10.65941	-974.7413	0	3	100	0	4	0.5885152	7.912438	9.504746	
19:07:25	0	0	0	-10.65941	-974.7413	0	3	100	0	4	0.6376271	7.981253	9.570387	
19:07:26	0	0	0	-10.65941	-974.7413	0	3	100	0	4	0.686311	8.050419	9.630919	
19:07:26	0	0	0	-10.65941	-974.7413	0	3	100	0	4	0.7363445	8.11942	9.700561	
19:07:26	0	0	0	-10.65941	-974.7413	0	3	100	0	4	0.7862513	8.188382	9.768729	
19:07:26	0	0	0	-9.930561	-911.6555	0	3	100	0	4	0.8358644	8.257323	9.834289	
19:07:26	0	0	0	-9.930561	-911.6555	0	3	100	0	4	0.8853838	8.325862	9.900034	
19:07:27	0	0	0	-9.930561	-911.6555	0	3	100	0	4	0.9357897	8.394626	9.969975	
19:07:27	0	0	0	-9.930561	-911.6555	0	3	100	0	4	0.9863781	8.463317	10.04059	
19:07:27	0	0	0	-9.930561	-911.6555	0	3	100	0	4	1.037124	8.53194	10.11169	
19:07:27	0	0	0	-9.293358	-854.2536	0	3	100	0	4	1.088015	8.600494	10.18321	
19:07:27	0	0	0	-9.293358	-854.2536	0	3	100	0	4	1.138805	8.668635	10.25484	
19:07:28	0	0	0	-9.293358	-854.2536	0	3	100	0	4	1.198026	8.735967	10.3802	
19:07:28	0	0	0	-9.293358	-854.2536	0	3	100	0	4	1.263877	8.802264	10.54817	
19:07:28	0	0	0	-9.293358	-854.2536	0	3	100	0	4	1.329098	8.868494	10.71079	
19:07:28	0	0	0	-8.714178	-800.7397	0	3	100	0	4	1.393549	8.934312	10.86853	
19:07:28	0	0	0	-8.714178	-800.7397	0	3	100	0	4	1.458694	9.000254	11.02829	
19:07:29	0	0	0	-8.714178	-800.7397	0	3	100	0	4	1.52288	9.066206	11.18079	
19:07:29	0	0	0	-8.714178	-800.7397	0	3	100	0	4	1.586187	9.131791	11.3279	
19:07:29	0	0	0	-8.714178	-800.7397	0	3	100	0	4	1.650701	9.197798	11.47904	
19:07:29	0	0	0	-8.163334	-746.7884	0	3	100	0	4	1.715444	9.262861	11.63302	
19:07:29	0	0	0	-8.163334	-746.7884	0	3	100	0	4	1.780045	9.328202	11.78382	
19:07:30	0	0	0	-8.163334	-746.7884	0	3	100	0	4	1.843706	9.393593	11.9278	
19:07:30	0	0	0	-8.163334	-746.7884	0	3	100	0	4	1.907148	9.458515	12.07068	
19:07:30	0	0	0	-8.163334	-746.7884	0	3	100	0	4	1.970643	9.523308	12.21292	
19:07:30	0	0	0	-7.662488	-697.9016	0	3	100	0	4	2.034873	9.58822	12.35742	
19:07:30	0	0	0	-7.662488	-697.9016	0	3	100	0	4	2.098849	9.653062	12.49943	
19:07:31	0	0	0	-7.662488	-697.9016	0	3	100	0	4	2.162568	9.717451	12.64017	
19:07:31	0	0	0	-7.662488	-697.9016	0	3	100	0	4	2.225687	9.781858	12.77644	
19:07:31	0	0	0	-7.662488	-697.9016	0	3	100	0	4	2.289037	9.84689	12.91084	
19:07:31	0	0	0	-7.194754	-654.0536	0	3	100	0	4	2.352169	9.911077	13.04542	
19:07:31	0	0	0	-7.194754	-654.0536	0	3	100	0	4	2.415555	9.975094	13.18062	
19:07:32	0	0	0	-7.194754	-654.0536	0	3	100	0	4	2.478855	10.03903	13.31446	
19:07:32	0	0	0	-7.194754	-654.0536	0	3	100	0	4	2.542064	10.10288	13.44695	
19:07:32	0	0	0	-7.194754	-654.0536	0	3	100	0	4	2.604021	10.16694	13.5715	
19:07:32	0	0	0	-6.741312	-610.1891	0	3	100	0	4	2.666758	10.23071	13.69968	
19:07:32	0	0	0	-6.741312	-610.1891	0	3	100	0	4	2.729248	10.29445	13.82568	
19:07:33	0	0	0	-6.741312	-610.1891	0	3	100	0	4	2.798645	10.35625	13.98938	
19:07:33	0	0	0	-6.741312	-610.1891	0	3	100	0	4	2.877125	10.41544	14.20257	
19:07:33	0	0	0	-6.741312	-610.1891	0	3	100	0	4	2.956305	10.47501	14.41622	
19:07:33	0	0	0	-6.304357	-564.6291	0	3	100	0	4	3.034856	10.53414	14.62633	
19:07:33	0	0	0	-6.304357	-564.6291	0	3	100	0	4	3.112556	10.59329	14.83064	
19:07:34	0	0	0	-6.304357	-564.6291	0	3	100	0	4	3.189475	10.65207	15.03068	
19:07:34	0	0	0	-6.304357	-564.6291	0	3	100	0	4	3.266244	10.7111	15.22774	
19:07:34	0	0	0	-6.304357	-564.6291	0	3	100	0	4	3.343147	10.7699	15.42445	
19:07:34	0	0	0	-5.903593	-530.2478	0	3	100	0	4	3.418586	10.82897	15.6123	
19:07:34	0	0	0	-5.903593	-530.2478	0	3	100	0	4	3.493505	10.88761	15.79744	
19:07:35	0	0	0	-5.903593	-530.2478	0	3	100	0	4	3.56975	10.94606	15.98754	
19:07:35	0	0	0	-5.903593	-530.2478	0	3	100	0	4	3.64464	11.00437	16.17058	
19:07:35	0	0	0	-5.903593	-530.2478	0	3	100	0	4	3.719911	11.0628	16.35361	
19:07:35	0	0	0	-5.505602	-489.4992	0	3	100	0	4	3.794006	11.12104	16.53061	
19:07:35	0	0	0	-5.505602	-489.4992	0	3	100	0	4	3.867182	11.17944	16.70194	
19:07:36	0	0	0	-5.505602	-489.4992	0	3	100	0	4	3.940169	11.23817	16.87039	
19:07:36	0	0	0	-5.505602	-489.4992	0	3	100	0	4	4.013903	11.29608	17.04284	
19:07:36	0	0	0	-5.505602	-489.4992	0	3	100	0	4	4.087724	11.35422	17.21383	
19:07:36	0	0	0	-5.157545	-461.3235	0	3	100	0	4	4.161718	11.41216	17.38484	
19:07:36	0	0	0	-5.157545	-461.3235	0	3	100	0	4	4.234112	11.47012	17.54794	
19:07:37	0	0	0	-5.157545	-461.3235	0	3	100	0	4	4.306457	11.52837	17.70897	
19:07:37	0	0	0	-5.157545	-461.3235	0	3	100	0	4	4.379187	11.58635	17.87112	
19:07:37	0	0	0	-5.157545	-461.3235	0	3	100	0	4	4.451939	11.64419	18.03259	
19:07:37	0	0	0	-4.828039	-428.2132	0	3	100	0	4	4.524109	11.70213	18.19039	
19:07:37	0	0	0	-4.828039	-428.2132	0	3	100	0	4	4.595687	11.75973	18.3455	
19:07:38	0	0	0	-4.828039	-428.2132	0	3	100	0	4	4.665656	11.81785	18.49198	
19:07:38	0	0	0	-4.828039	-428.2132	0	3	100	0	4	4.743932	11.87257	18.67818	
19:07:38	0	0	0	-4.828039	-428.2132	0	3	100	0	4	4.830586	11.92378	18.90425	
19:07:38	0	0	0	-4.533991	-405.3828	0	3	100	0	4	4.916535	11.97503	19.12596	
19:07:38	0	0	0	-4.533991	-405.3828	0	3	100	0	4	5.002523	12.02603	19.34693	
19:07:39	0	0	0	-4.533991	-405.3828	0	3	100	0	4	5.087677	12.07714	19.56298	
19:07:39	0	0	0	-4.533991	-405.3828	0	3	100	0	4	5.172443	12.12819	19.77629	
19:07:39	0	0	0	-4.533991	-405.3828	0	3	100	0	4	5.257371	12.17982	19.98758	
19:07:39	0	0	0	-4.248998	-373.6332	0	3	100	0	4	5.340981	12.23137	20.1927	
19:07:39	0	0	0	-4.248998	-373.6332	0	3	100	0	4	5.424511	12.28274	20.3966	
19:07:40	0	0	0	-4.248998	-373.6332	0	3	100	0	4	5.506726	12.33406	20.59443	
19:07:40	0	0	0	-4.248998	-373.6332	0	3	100	0	4	5.587679	12.38575	20.78557	
19:07:40	0	0	0	-4.248998	-373.6332	0	3	100	0	4	5.669158	12.43703	20.97836	
19:07:40	0	0	0	-3.990416	-348.9879	0	3	100	0	4	5.750183	12.48833	21.16827	
19:07:40	0	0	0	-3.990416	-348.9879	0	3	100	0	4	5.830637	12.53972	21.35477	
19:07:41	0	0	0	-3.990416	-348.9879	0	3	100	0	4	5.910941	12.59101	21.53983	
19:07:41	0	0	0	-3.990416	-348.9879	0	3	100	0	4	5.990172	12.64264	21.71925	
19:07:41	0	0	0	-3.990416	-348.9879	0	3	100	0	4	6.068635	12.69447	21.89445	
19:07:41	0	0	0	-3.748809	-325.9787	0	3	100	0	4	6.144945	12.74718	22.05914	
19:07:42	0	0	0	-3.748809	-325.9787	0	3	100	0	4	6.223345	12.79875	22.23264	
19:07:42	0	0	0	-3.748809	-325.9787	0	3	100	0	4	6.297899	12.85204	22.38815	
19:07:42	0	0	0	-3.748809	-325.9787	0	3	100	0	4	6.374135	12.90438	22.55052	
19:07:42	0	0	0	-3.748809	-325.9787	0	3	100	0	4	6.451657	12.95598	22.71803	
19:07:42	0	0	0	-3.520518	-303.7981	0	3	100	0	4	6.529226	13.00785	22.88419	
19:07:42	0	0	0	-3.520518	-303.7981	0	3	100	0	4	6.605824	13.05963	23.04627	
19:07:43	0	0	0	-3.520518	-303.7981	0	3	100	0	4	6.683207	13.11135	23.21031	
19:07:43	0	0	0	-3.520518	-303.7981	0	3	100	0	4	6.758691	13.16388	23.36538	
19:07:43	0	0	0	-3.520518	-303.7981	0	3	100	0	4	6.84535	13.21013	23.56972	
19:07:43	0	0	0	-3.298773	-280.6159	0	3	100	0	5	6.934897	13.25515	23.78511	
19:07:43	0	0	0	-3.298773	-280.6159	0	3	100	0	5	7.02317	13.30014	23.9951	
19:07:44	0	0	0	-3.298773	-280.6159	0	3	100	0	5	7.111081	13.34511	24.20284	
19:07:44	0	0	0	-3.298773	-280.6159	0	3	100	0	5	7.19754	13.39063	24.40361	
19:07:44	0	0	0	-3.298773	-280.6159	0	3	100	0	5	7.283261	13.43634	24.60053	
19:07:45	0	0	0	-3.086923	-261.7115	0	3	100	0	4	7.368468	13.48215	24.7946	
19:07:45	0	0	0	-3.086923	-261.7115	0	3	100	0	4	7.445662	13.53259	24.95281	
19:07:45	0	0	0	-3.086923	-261.7115	0	3	100	0	4	7.526217	13.5806	25.12563	
19:07:45	0	0	0	-3.086923	-261.7115	0	3	100	0	4	7.611584	13.62629	25.31749	
19:07:45	0	0	0	-3.086923	-261.7115	0	3	100	0	4	7.695809	13.67196	25.50472	
19:07:45	0	0	0	-2.89153	-246.7097	0	3	100	0	4	7.780264	13.71779	25.69147	
19:07:45	0	0	0	-2.89153	-246.7097	0	3	100	0	4	7.863798	13.76351	25.87457	
19:07:46	0	0	0	-2.89153	-246.7097	0	3	100	0	4	7.946776	13.80984	26.0539	
19:07:46	0	0	0	-2.89153	-246.7097	0	3	100	0	4	8.02961	13.85656	26.23121	
19:07:46	0	0	0	-2.89153	-246.7097	0	3	100	0	4	8.104514	13.90676	26.37653	
19:07:46	0	0	0	-2.70257	-225.5287	0	3	100	0	4	8.184103	13.95462	26.53996	
19:07:47	0	0	0	-2.70257	-225.5287	0	3	100	0	4	8.26549	14.00084	26.71113	
19:07:47	0	0	0	-2.70257	-225.5287	0	3	100	0	4	8.346765	14.04744	26.88045	
19:07:47	0	0	0	-2.70257	-225.5287	0	3	100	0	4	8.426581	14.0943	27.04405	
19:07:47	0	0	0	-2.70257	-225.5287	0	3	100	0	4	8.506712	14.14084	27.20842	
19:07:48	0	0	0	-2.536075	-212.7225	0	3	100	0	4	8.586437	14.18749	27.37059	
19:07:48	0	0	0	-2.536075	-212.7225	0	3	100	0	4	8.66346	14.23611	27.52041	
19:07:48	0	0	0	-2.536075	-212.7225	0	3	100	0	4	8.733119	14.28907	27.63985	
19:07:48	0	0	0	-2.536075	-212.7225	0	3	100	0	4	8.803879	14.3413	27.76325	
19:07:48	0	0	0	-2.536075	-212.7225	0	3	100	0	4	8.883197	14.38777	27.92156	
19:07:48	0	0	0	-2.374481	-193.4599	0	3	100	0	4	8.971382	14.42917	28.11423	
19:07:48	0	0	0	-2.374481	-193.4599	0	3	100	0	4	9.059049	14.4702	28.30509	
19:07:49	0	0	0	-2.374481	-193.4599	0	3	100	0	4	9.146431	14.51172	28.49347	
19:07:49	0	0	0	-2.374481	-193.4599	0	3	100	0	4	9.233702	14.55361	28.68009	
19:07:49	0	0	0	-2.374481	-193.4599	0	3	100	0	4	9.31972	14.59514	28.86281	
19:07:49	0	0	0	-2.225213	-177.7532	0	3	100	0	4	9.405057	14.63742	29.04151	
19:07:49	0	0	0	-2.225213	-177.7532	0	3	100	0	4	9.488463	14.68029	29.21288	
19:07:50	0	0	0	-2.225213	-177.7532	0	3	100	0	4	9.567492	14.72583	29.36648	
19:07:50	0	0	0	-2.225213	-177.7532	0	3	100	0	4	9.651523	14.76802	29.53929	
19:07:50	0	0	0	-2.225213	-177.7532	0	3	100	0	4	9.734873	14.81051	29.70895	
19:07:50	0	0	0	-2.08495	-165.0022	0	3	100	0	4	9.817957	14.85302	29.87711	
19:07:50	0	0	0	-2.08495	-165.0022	0	3	100	0	4	9.900937	14.89595	30.0436	
19:07:51	0	0	0	-2.08495	-165.0022	0	3	100	0	4	9.983114	14.93878	30.2073	
19:07:51	0	0	0	-2.08495	-165.0022	0	3	100	0	4	10.06503	14.98214	30.36871	
19:07:51	0	0	0	-2.08495	-165.0022	0	3	100	0	4	10.14394	15.0269	30.51887	
19:07:51	0	0	0	-1.956602	-156.5358	0	3	100	0	4	10.21825	15.07512	30.65008	
19:07:51	0	0	0	-1.956602	-156.5358	0	3	100	0	4	10.29414	15.12171	30.78767	
