Date	Latitude(deg) 	Longitude(deg)	hamsl(m)	hafl(m)	climbrate(cm/s)	GroundSpeed(m/s)	Airspeed(m/s)	Mav_Link(%)	Rssi_Link(%)	Throttle	Roll(deg)	Pitch(deg)	Yaw(deg)
10:45:41	0	0	0	0	0	0	0	100	0	0	-1.738329	0.7835358	71.15352	
10:45:41	0	0	0	0	0	0	0	100	0	0	-1.722492	0.7788191	71.15952	
10:45:41	0	0	0	0	0	0	0	100	0	0	-1.711102	0.8105024	71.17254	
10:45:41	0	0	0	0	0	0	0	100	0	0	-1.721555	0.8115442	71.18761	
10:45:41	0	0	0	0.4228525	-32.48843	0	3	100	0	50	-1.748187	0.799413	71.19624	
10:45:42	0	0	0	0.4228525	-32.48843	0	3	100	0	50	-1.757501	0.7922181	71.20923	
10:45:42	0	0	0	0.4228525	-32.48843	0	3	100	0	50	-1.773267	0.7892138	71.22273	
10:45:42	0	0	0	0.4228525	-32.48843	0	3	100	0	50	-1.779652	0.7859687	71.24389	
10:45:42	0	0	0	0.4228525	-32.48843	0	3	100	0	50	-1.781976	0.7950074	71.26154	
10:45:42	0	0	0	1.107276	-6.213247	0	3	100	0	50	-1.776343	0.788173	71.27389	
10:45:43	0	0	0	1.107276	-6.213247	0	3	100	0	50	-1.771898	0.7883536	71.27838	
10:45:43	0	0	0	1.107276	-6.213247	0	3	100	0	50	-1.781852	0.7866923	71.29212	
10:45:43	0	0	0	1.107276	-6.213247	0	3	100	0	50	-1.941559	0.7997556	71.30812	
10:45:43	0	0	0	1.107276	-6.213247	0	3	100	0	50	-2.27481	0.7448803	71.32462	
10:45:43	0	0	0	1.352056	-9.721113	0	3	100	0	50	-2.304247	0.7440184	71.33774	
10:45:44	0	0	0	1.352056	-9.721113	0	3	100	0	50	-2.295134	0.7416523	71.35242	
10:45:44	0	0	0	1.352056	-9.721113	0	3	100	0	50	-2.2463	0.7448579	71.36401	
10:45:44	0	0	0	1.352056	-9.721113	0	3	100	0	50	-2.212883	0.7573137	71.38044	
10:45:44	0	0	0	1.352056	-9.721113	0	3	100	0	50	-2.166077	0.7555342	71.39095	
10:45:44	0	0	0	1.059255	-33.30465	0	3	100	0	50	-2.138169	0.7482743	71.40655	
10:45:45	0	0	0	1.059255	-33.30465	0	3	100	0	50	-2.120027	0.7549196	71.41318	
10:45:45	0	0	0	1.059255	-33.30465	0	3	100	0	50	-2.112351	0.7539675	71.41823	
10:45:45	0	0	0	1.059255	-33.30465	0	3	100	0	50	-2.105121	0.7563276	71.43191	
10:45:45	0	0	0	1.059255	-33.30465	0	3	100	0	50	-2.089352	0.7434263	71.4425	
10:45:45	0	0	0	1.036779	-35.20367	0	3	100	0	50	-2.083181	0.7411447	71.46174	
10:45:46	0	0	0	1.036779	-35.20367	0	3	100	0	50	-2.086682	0.7499452	71.48087	
10:45:46	0	0	0	1.036779	-35.20367	0	3	100	0	50	-2.076605	0.7664542	71.49429	
10:45:46	0	0	0	1.036779	-35.20367	0	3	100	0	50	-2.059312	0.7717547	71.50103	
10:45:46	0	0	0	1.036779	-35.20367	0	3	100	0	50	-2.055685	0.7660347	71.50409	
10:45:46	0	0	0	0.8305289	-42.16326	0	3	100	0	50	-2.039144	0.7514064	71.51029	
10:45:47	0	0	0	0.8305289	-42.16326	0	3	100	0	50	-2.019384	0.7495375	71.51115	
10:45:47	0	0	0	0.8305289	-42.16326	0	3	100	0	50	-2.009411	0.7393244	71.52496	
10:45:47	0	0	0	0.8305289	-42.16326	0	3	100	0	50	-1.993753	0.7456019	71.52295	
10:45:47	0	0	0	0.8305289	-42.16326	0	3	100	0	50	-1.98097	0.7411841	71.51535	
10:45:47	0	0	0	0.6937367	-44.36029	0	3	100	0	50	-1.963339	0.7596609	71.52521	
10:45:48	0	0	0	0.6937367	-44.36029	0	3	100	0	50	-1.936936	0.7657495	71.52888	
10:45:48	0	0	0	0.6937367	-44.36029	0	3	100	0	50	-1.926908	0.7644057	71.52808	
10:45:48	0	0	0	0.6937367	-44.36029	0	3	100	0	50	-1.907027	0.7734216	71.52673	
10:45:48	0	0	0	0.6937367	-44.36029	0	3	100	0	50	-1.87556	0.7739969	71.52847	
10:45:48	0	0	0	0.7372928	-36.76363	0	3	100	0	50	-1.857949	0.775677	71.53563	
10:45:49	0	0	0	0.7372928	-36.76363	0	3	100	0	50	-1.850538	0.7901859	71.52521	
10:45:49	0	0	0	0.7372928	-36.76363	0	3	100	0	50	-1.860626	0.7963252	71.53496	
10:45:49	0	0	0	0.7372928	-36.76363	0	3	100	0	50	-1.843807	0.8121724	71.52996	
10:45:49	0	0	0	0.7372928	-36.76363	0	3	100	0	50	-1.848465	0.8090568	71.5314	
10:45:49	0	0	0	0.8853691	-26.00509	0	3	100	0	50	-1.857046	0.7894539	71.52507	
10:45:50	0	0	0	0.8853691	-26.00509	0	3	100	0	50	-1.839642	0.7977414	71.51689	
10:45:50	0	0	0	0.8853691	-26.00509	0	3	100	0	50	-1.830767	0.7935886	71.51276	
10:45:50	0	0	0	0.8853691	-26.00509	0	3	100	0	50	-1.837505	0.7882975	71.50751	
10:45:50	0	0	0	0.8853691	-26.00509	0	3	100	0	50	-1.865688	0.7926818	71.49314	
10:45:50	0	0	0	0.9951206	-21.09286	0	3	100	0	50	-1.838949	0.7950771	71.47767	
10:45:51	0	0	0	0.9951206	-21.09286	0	3	100	0	50	-1.806044	0.7989589	71.46851	
10:45:51	0	0	0	0.9951206	-21.09286	0	3	100	0	50	-1.795224	0.8172876	71.46651	
10:45:51	0	0	0	0.9951206	-21.09286	0	3	100	0	50	-1.78909	0.8389121	71.46752	
10:45:51	0	0	0	0.9951206	-21.09286	0	3	100	0	50	-1.776379	0.8383229	71.46938	
10:45:51	0	0	0	0.909164	-26.33617	0	3	100	0	50	-1.795156	0.8283164	71.47404	
10:45:52	0	0	0	0.909164	-26.33617	0	3	100	0	50	-1.823046	0.8166813	71.44827	
10:45:52	0	0	0	0.909164	-26.33617	0	3	100	0	50	-1.750619	0.85228	71.48536	
10:45:52	0	0	0	0.909164	-26.33617	0	3	100	0	50	-1.789715	0.8529844	71.48892	
10:45:52	0	0	0	0.909164	-26.33617	0	3	100	0	50	-1.763178	0.8473839	71.48711	
10:45:53	0	0	0	0.949021	-20.65175	0	3	100	0	50	-1.761373	0.8558987	71.50808	
10:45:53	0	0	0	0.949021	-20.65175	0	3	100	0	50	-1.754244	0.8442534	71.521	
10:45:53	0	0	0	0.949021	-20.65175	0	3	100	0	50	-1.752223	0.8701859	71.5445	
10:45:53	0	0	0	0.949021	-20.65175	0	3	100	0	50	-1.748931	0.8808285	71.56647	
10:45:53	0	0	0	0.949021	-20.65175	0	3	100	0	50	-1.756203	0.8661755	71.58553	
10:45:54	0	0	0	1.169232	-11.93966	0	3	100	0	50	-1.749414	0.8589803	71.61214	
10:45:54	0	0	0	1.169232	-11.93966	0	3	100	0	50	-1.74013	0.8724341	71.63062	
10:45:54	0	0	0	1.169232	-11.93966	0	3	100	0	50	-1.734934	0.8745702	71.65226	
10:45:54	0	0	0	1.169232	-11.93966	0	3	100	0	50	-1.73354	0.8744779	71.66986	
10:45:54	0	0	0	1.169232	-11.93966	0	3	100	0	50	-1.731176	0.8686174	71.68208	
10:45:55	0	0	0	1.063724	-19.46179	0	3	100	0	50	-1.724113	0.880758	71.6997	
10:45:55	0	0	0	1.063724	-19.46179	0	3	100	0	50	-1.711214	0.893328	71.71094	
10:45:55	0	0	0	1.063724	-19.46179	0	3	100	0	50	-1.717859	0.8873678	71.72736	
10:45:55	0	0	0	1.063724	-19.46179	0	3	100	0	50	-1.700169	0.8794813	71.74026	
10:45:55	0	0	0	1.063724	-19.46179	0	3	100	0	50	-1.695873	0.8823496	71.75716	
10:45:56	0	0	0	0.887601	-27.52925	0	3	100	0	50	-1.706529	0.876458	71.76921	
10:45:56	0	0	0	0.887601	-27.52925	0	3	100	0	50	-1.698275	0.8732569	71.78757	
10:45:56	0	0	0	0.887601	-27.52925	0	3	100	0	50	-1.6614	0.8615974	71.79876	
10:45:56	0	0	0	0.887601	-27.52925	0	3	100	0	50	-1.668415	0.8519733	71.80787	
10:45:56	0	0	0	0.887601	-27.52925	0	3	100	0	50	-1.668499	0.8319242	71.81322	
10:45:57	0	0	0	0.4435373	-42.79376	0	3	100	0	50	-1.667949	0.8316985	71.83553	
10:45:57	0	0	0	0.4435373	-42.79376	0	3	100	0	50	-1.66199	0.8277476	71.84696	
10:45:57	0	0	0	0.4435373	-42.79376	0	3	100	0	50	-1.667053	0.8305938	71.86248	
10:45:57	0	0	0	0.4435373	-42.79376	0	3	100	0	50	-1.687524	0.8077649	71.88247	
10:45:57	0	0	0	0.4435373	-42.79376	0	3	100	0	50	-1.680805	0.796341	71.8914	
10:45:58	0	0	0	0.552298	-26.61282	0	3	100	0	50	-1.687773	0.7889446	71.8997	
10:45:58	0	0	0	0.552298	-26.61282	0	3	100	0	50	-1.687555	0.7831501	71.91729	
10:45:58	0	0	0	0.552298	-26.61282	0	3	100	0	50	-1.693799	0.7677574	71.93152	
10:45:58	0	0	0	0.552298	-26.61282	0	3	100	0	50	-1.694202	0.7621877	71.94198	
10:45:58	0	0	0	0.552298	-26.61282	0	3	100	0	50	-1.695755	0.7563928	71.94308	
10:45:59	0	0	0	0.8564279	-10.73378	0	3	100	0	50	-1.678431	0.7622156	71.94003	
10:45:59	0	0	0	0.8564279	-10.73378	0	3	100	0	50	-1.669993	0.7550572	71.93137	
10:45:59	0	0	0	0.8564279	-10.73378	0	3	100	0	50	-1.672679	0.7670943	71.93656	
10:45:59	0	0	0	0.8564279	-10.73378	0	3	100	0	50	-1.693912	0.7739606	71.94245	
10:45:59	0	0	0	0.8564279	-10.73378	0	3	100	0	50	-1.690161	0.7818358	71.93745	
10:46:00	0	0	0	0.9681119	-8.250575	0	3	100	0	50	-1.674037	0.7925116	71.938	
10:46:00	0	0	0	0.9681119	-8.250575	0	3	100	0	50	-1.668879	0.7779204	71.92817	
10:46:00	0	0	0	0.9681119	-8.250575	0	3	100	0	50	-1.662981	0.7746118	71.91797	
10:46:00	0	0	0	0.9681119	-8.250575	0	3	100	0	50	-1.50706	0.7852617	71.91667	
10:46:00	0	0	0	0.9681119	-8.250575	0	3	100	0	50	-1.451134	0.7566729	71.92062	
10:46:01	0	0	0	0.9090305	-11.78468	0	3	100	0	50	-1.536816	0.7369615	71.93253	
10:46:01	0	0	0	0.9090305	-11.78468	0	3	100	0	50	-1.558424	0.7402133	71.90838	
10:46:01	0	0	0	0.9090305	-11.78468	0	3	100	0	50	-1.570247	0.7399676	71.8475	
10:46:01	0	0	0	0.9090305	-11.78468	0	3	100	0	50	-1.57862	0.7297648	71.77144	
10:46:01	0	0	0	0.9090305	-11.78468	0	3	100	0	50	-1.582673	0.7254697	71.6955	
10:46:02	0	0	0	0.8061506	-18.74505	0	3	100	0	50	-1.578278	0.7370031	71.62042	
10:46:02	0	0	0	0.8061506	-18.74505	0	3	100	0	50	-1.578084	0.7344907	71.54854	
10:46:02	0	0	0	0.8061506	-18.74505	0	3	100	0	50	-1.575934	0.7392717	71.4911	
10:46:02	0	0	0	0.8061506	-18.74505	0	3	100	0	50	-1.585036	0.7311019	71.42095	
10:46:02	0	0	0	0.8061506	-18.74505	0	3	100	0	50	-1.603601	0.7341125	71.35506	
10:46:03	0	0	0	0.5204301	-27.86201	0	3	100	0	50	-1.606075	0.7346845	71.31333	
10:46:03	0	0	0	0.5204301	-27.86201	0	3	100	0	50	-1.61638	0.7389126	71.26918	
10:46:03	0	0	0	0.5204301	-27.86201	0	3	100	0	50	-1.619073	0.7677854	71.24284	
10:46:03	0	0	0	0.5204301	-27.86201	0	3	100	0	50	-1.623545	0.7815865	71.21458	
10:46:03	0	0	0	0.5204301	-27.86201	0	3	100	0	50	-1.621731	0.7931716	71.18913	
10:46:04	0	0	0	0.2974635	-30.70256	0	3	100	0	50	-1.621743	0.802913	71.15437	
10:46:04	0	0	0	0.2974635	-30.70256	0	3	100	0	50	-1.620991	0.8285102	71.12691	
10:46:04	0	0	0	0.2974635	-30.70256	0	3	100	0	50	-1.617351	0.8250257	71.10126	
10:46:04	0	0	0	0.2974635	-30.70256	0	3	100	0	50	-1.617917	0.8276264	71.07926	
10:46:04	0	0	0	0.2974635	-30.70256	0	3	100	0	50	-1.634246	0.8142149	71.05209	
10:46:05	0	0	0	0.4773921	-11.67961	0	3	100	0	50	-1.653386	0.8229302	71.02708	
10:46:05	0	0	0	0.4773921	-11.67961	0	3	100	0	50	-1.642252	0.8450232	70.98904	
10:46:05	0	0	0	0.4773921	-11.67961	0	3	100	0	50	-1.648622	0.8341463	70.94552	
10:46:05	0	0	0	0.4773921	-11.67961	0	3	100	0	50	-1.64725	0.8329273	70.90661	
10:46:05	0	0	0	0.4773921	-11.67961	0	3	100	0	50	-1.654668	0.82691	70.86802	
10:46:06	0	0	0	0.9600647	8.416577	0	3	100	0	50	-1.651435	0.8191213	70.83472	
10:46:06	0	0	0	0.9600647	8.416577	0	3	100	0	50	-1.64465	0.8160722	70.80655	
10:46:06	0	0	0	0.9600647	8.416577	0	3	100	0	50	-1.642995	0.8119516	70.77628	
10:46:06	0	0	0	0.9600647	8.416577	0	3	100	0	50	-1.637358	0.8276929	70.7374	
10:46:07	0	0	0	0.9600647	8.416577	0	3	100	0	50	-1.651191	0.822754	70.69756	
10:46:07	0	0	0	1.173472	9.432007	0	3	100	0	50	-1.646767	0.8350145	70.66865	
10:46:07	0	0	0	1.173472	9.432007	0	3	100	0	50	-1.657054	0.8537339	70.63545	
10:46:07	0	0	0	1.173472	9.432007	0	3	100	0	50	-1.649921	0.8543854	70.6012	
10:46:07	0	0	0	1.173472	9.432007	0	3	100	0	50	-1.639385	0.8671377	70.5787	
10:46:08	0	0	0	1.173472	9.432007	0	3	100	0	50	-1.648371	0.8574958	70.56326	
10:46:08	0	0	0	0.9949975	-5.724012	0	3	100	0	50	-1.660089	0.8368295	70.53899	
10:46:08	0	0	0	0.9949975	-5.724012	0	3	100	0	50	-1.656685	0.8238763	70.50555	
10:46:08	0	0	0	0.9949975	-5.724012	0	3	100	0	50	-1.664104	0.8246738	70.48143	
10:46:08	0	0	0	0.9949975	-5.724012	0	3	100	0	50	-1.657727	0.8120603	70.45972	
10:46:09	0	0	0	0.9949975	-5.724012	0	3	100	0	50	-1.661366	0.8043033	70.43742	
10:46:09	0	0	0	0.5928955	-23.39053	0	3	100	0	50	-1.653821	0.8063642	70.41502	
10:46:09	0	0	0	0.5928955	-23.39053	0	3	100	0	50	-1.652345	0.8173343	70.40187	
10:46:09	0	0	0	0.5928955	-23.39053	0	3	100	0	50	-1.648558	0.8284379	70.38868	
10:46:09	0	0	0	0.5928955	-23.39053	0	3	100	0	50	-1.643382	0.836987	70.37035	
10:46:10	0	0	0	0.5928955	-23.39053	0	3	100	0	50	-1.639701	0.8495855	70.35536	
10:46:10	0	0	0	0.6071922	-14.99276	0	3	100	0	50	-1.634972	0.8649607	70.34728	
10:46:10	0	0	0	0.6071922	-14.99276	0	3	100	0	50	-1.64845	0.856313	70.32274	
10:46:10	0	0	0	0.6071922	-14.99276	0	3	100	0	50	-1.647018	0.8420694	70.30875	
10:46:10	0	0	0	0.6071922	-14.99276	0	3	100	0	50	-1.650765	0.838206	70.29678	
10:46:11	0	0	0	0.6071922	-14.99276	0	3	100	0	50	-1.637226	0.845369	70.29288	
10:46:11	0	0	0	0.8632026	-0.7467461	0	3	100	0	50	-1.647723	0.8415878	70.29912	
10:46:11	0	0	0	0.8632026	-0.7467461	0	3	100	0	50	-1.645048	0.8439897	70.31524	
10:46:11	0	0	0	0.8632026	-0.7467461	0	3	100	0	50	-1.634467	0.8596538	70.34533	
10:46:11	0	0	0	0.8632026	-0.7467461	0	3	100	0	50	-1.607197	0.8619497	70.38155	
10:46:12	0	0	0	0.8632026	-0.7467461	0	3	100	0	50	-1.613791	0.8719763	70.41448	
10:46:12	0	0	0	1.04887	4.868836	0	3	100	0	50	-1.603172	0.8625077	70.43925	
10:46:12	0	0	0	1.04887	4.868836	0	3	100	0	50	-1.612473	0.8753564	70.45048	
10:46:12	0	0	0	1.04887	4.868836	0	3	100	0	50	-1.622339	0.8762039	70.45033	
10:46:12	0	0	0	1.04887	4.868836	0	3	100	0	50	-1.60981	0.8729972	70.43084	
10:46:13	0	0	0	1.04887	4.868836	0	3	100	0	50	-1.616232	0.8637905	70.41604	
10:46:13	0	0	0	0.8132207	-10.34894	0	3	100	0	50	-1.62517	0.8593428	70.4102	
10:46:13	0	0	0	0.8132207	-10.34894	0	3	100	0	50	-1.623513	0.8573102	70.40071	
10:46:13	0	0	0	0.8132207	-10.34894	0	3	100	0	50	-1.625476	0.8509501	70.38425	
10:46:13	0	0	0	0.8132207	-10.34894	0	3	100	0	50	-1.63435	0.8464223	70.38245	
10:46:14	0	0	0	0.8132207	-10.34894	0	3	100	0	50	-1.633358	0.8516517	70.38565	
10:46:14	0	0	0	0.7822877	-8.366219	0	3	100	0	50	-1.627492	0.8582234	70.37386	
10:46:14	0	0	0	0.7822877	-8.366219	0	3	100	0	50	-1.633576	0.8590717	70.35924	
10:46:14	0	0	0	0.7822877	-8.366219	0	3	100	0	50	-1.635259	0.864554	70.35821	
10:46:14	0	0	0	0.7822877	-8.366219	0	3	100	0	50	-1.637474	0.8673837	70.35835	
10:46:15	0	0	0	0.7822877	-8.366219	0	3	100	0	50	-1.633642	0.8751462	70.35831	
10:46:15	0	0	0	1.135547	7.366265	0	3	100	0	50	-1.641132	0.8807722	70.34155	
10:46:15	0	0	0	1.135547	7.366265	0	3	100	0	50	-1.648655	0.8893148	70.32637	
10:46:15	0	0	0	1.135547	7.366265	0	3	100	0	50	-1.657911	0.8844264	70.30801	
10:46:15	0	0	0	1.135547	7.366265	0	3	100	0	50	-1.656965	0.8797258	70.30833	
10:46:16	0	0	0	1.135547	7.366265	0	3	100	0	50	-1.638123	0.9053679	70.31225	
10:46:16	0	0	0	1.018246	-4.220513	0	3	100	0	50	-1.621868	0.9257263	70.30934	
10:46:16	0	0	0	1.018246	-4.220513	0	3	100	0	50	-1.613635	0.9464294	70.30233	
10:46:16	0	0	0	1.018246	-4.220513	0	3	100	0	50	-1.617077	0.9522513	70.30465	
10:46:16	0	0	0	1.018246	-4.220513	0	3	100	0	50	-1.606113	0.9687294	70.29873	
10:46:17	0	0	0	1.018246	-4.220513	0	3	100	0	50	-1.605374	0.9673121	70.2932	
10:46:17	0	0	0	0.5834839	-23.37879	0	3	100	0	50	-1.612654	0.9578242	70.29082	
10:46:17	0	0	0	0.5834839	-23.37879	0	3	100	0	50	-1.606435	0.9581417	70.29486	
10:46:17	0	0	0	0.5834839	-23.37879	0	3	100	0	50	-1.600675	0.9638803	70.28926	
10:46:17	0	0	0	0.5834839	-23.37879	0	3	100	0	50	-1.602774	0.9634945	70.27979	
10:46:18	0	0	0	0.5834839	-23.37879	0	3	100	0	50	-1.574206	0.9616393	70.27673	
10:46:18	0	0	0	0.9091073	0.5676306	0	3	100	0	50	-1.545301	0.9659356	70.29775	
10:46:18	0	0	0	0.9091073	0.5676306	0	3	100	0	50	-1.537118	0.9781499	70.37188	
10:46:18	0	0	0	0.9091073	0.5676306	0	3	100	0	50	-1.492179	1.022102	70.47627	
10:46:19	0	0	0	0.9091073	0.5676306	0	3	100	0	50	-1.481542	1.019165	70.55228	
10:46:19	0	0	0	0.9091073	0.5676306	0	3	100	0	50	-1.480433	1.018194	70.58671	
10:46:19	0	0	0	0.9675523	-1.125341	0	3	100	0	50	-1.50655	1.018378	70.62952	
10:46:19	0	0	0	0.9675523	-1.125341	0	3	100	0	50	-1.519222	1.009677	70.64779	
10:46:19	0	0	0	0.9675523	-1.125341	0	3	100	0	50	-1.527385	0.9928817	70.67926	
10:46:20	0	0	0	0.9675523	-1.125341	0	3	100	0	50	-1.500325	1.014202	70.71548	
10:46:20	0	0	0	0.9675523	-1.125341	0	3	100	0	50	-1.483228	1.029503	70.75331	
10:46:20	0	0	0	0.8124092	-8.342775	0	3	100	0	50	-1.505068	1.020221	70.79783	
10:46:20	0	0	0	0.8124092	-8.342775	0	3	100	0	50	-1.56858	1.003337	70.83286	
10:46:20	0	0	0	0.8124092	-8.342775	0	3	100	0	50	-1.597065	1.003418	70.85653	
10:46:21	0	0	0	0.8124092	-8.342775	0	3	100	0	50	-1.617421	0.9974085	70.85889	
10:46:21	0	0	0	0.8124092	-8.342775	0	3	100	0	50	-1.627624	1.006842	70.85481	
10:46:21	0	0	0	0.6731269	-11.8703	0	3	100	0	50	-1.625416	1.00016	70.84846	
10:46:21	0	0	0	0.6731269	-11.8703	0	3	100	0	50	-1.621922	0.9988459	70.83512	
10:46:21	0	0	0	0.6731269	-11.8703	0	3	100	0	50	-1.62238	0.9834211	70.82866	
10:46:22	0	0	0	0.6731269	-11.8703	0	3	100	0	50	-1.621558	0.9669785	70.833	
10:46:22	0	0	0	0.6731269	-11.8703	0	3	100	0	50	-1.627498	0.962194	70.8273	
10:46:22	0	0	0	0.6908569	-7.237321	0	3	100	0	50	-1.640123	0.952741	70.82771	
10:46:22	0	0	0	0.6908569	-7.237321	0	3	100	0	50	-1.641239	0.9588144	70.82556	
10:46:22	0	0	0	0.6908569	-7.237321	0	3	100	0	50	-1.635272	0.9587726	70.83164	
10:46:23	0	0	0	0.6908569	-7.237321	0	3	100	0	50	-1.631534	0.9526847	70.82615	
10:46:23	0	0	0	0.6908569	-7.237321	0	3	100	0	50	-1.629655	0.9544225	70.81555	
10:46:23	0	0	0	0.5295553	-14.63714	0	3	100	0	50	-1.629752	0.950533	70.80422	
10:46:23	0	0	0	0.5295553	-14.63714	0	3	100	0	50	-1.617153	0.9573107	70.79655	
10:46:23	0	0	0	0.5295553	-14.63714	0	3	100	0	50	-1.625994	0.9551332	70.79742	
10:46:24	0	0	0	0.5295553	-14.63714	0	3	100	0	50	-1.630988	0.9503949	70.79188	
10:46:24	0	0	0	0.5295553	-14.63714	0	3	100	0	50	-1.616812	0.9563534	70.7903	
10:46:24	0	0	0	0.6976894	-0.785998	0	3	100	0	50	-1.619117	0.9343895	70.78611	
10:46:24	0	0	0	0.6976894	-0.785998	0	3	100	0	50	-1.624483	0.9373143	70.77945	
10:46:24	0	0	0	0.6976894	-0.785998	0	3	100	0	50	-1.612778	0.9274614	70.78796	
10:46:25	0	0	0	0.6976894	-0.785998	0	3	100	0	50	-1.618773	0.914215	70.7939	
10:46:25	0	0	0	0.6976894	-0.785998	0	3	100	0	50	-1.603414	0.9133568	70.8001	
10:46:25	0	0	0	1.174163	19.30002	0	3	100	0	50	-1.601186	0.9105256	70.80338	
10:46:25	0	0	0	1.174163	19.30002	0	3	100	0	50	-1.594524	0.91438	70.80363	
10:46:25	0	0	0	1.174163	19.30002	0	3	100	0	50	-1.582754	0.9142786	70.80309	
10:46:26	0	0	0	1.174163	19.30002	0	3	100	0	50	-1.591539	0.9118899	70.81016	
10:46:26	0	0	0	1.174163	19.30002	0	3	100	0	50	-1.600164	0.8926426	70.80241	
10:46:26	0	0	0	1.105246	7.361016	0	3	100	0	50	-1.610484	0.8804266	70.79668	
10:46:26	0	0	0	1.105246	7.361016	0	3	100	0	50	-1.609673	0.8933316	70.79844	
10:46:26	0	0	0	1.105246	7.361016	0	3	100	0	50	-1.597237	0.9087503	70.80072	
10:46:27	0	0	0	1.105246	7.361016	0	3	100	0	50	-1.600432	0.9256204	70.80069	
10:46:27	0	0	0	1.105246	7.361016	0	3	100	0	50	-1.602498	0.9285521	70.7906	
10:46:27	0	0	0	0.9688188	-2.859269	0	3	100	0	50	-1.59437	0.9258807	70.7847	
10:46:27	0	0	0	0.9688188	-2.859269	0	3	100	0	50	-1.596536	0.9270861	70.78111	
10:46:27	0	0	0	0.9688188	-2.859269	0	3	100	0	50	-1.602515	0.9336262	70.79393	
10:46:28	0	0	0	0.9688188	-2.859269	0	3	100	0	50	-1.600812	0.9289877	70.79167	
10:46:28	0	0	0	0.9688188	-2.859269	0	3	100	0	50	-1.594498	0.942894	70.79297	
10:46:28	0	0	0	0.6973423	-13.01994	0	3	100	0	50	-1.582997	0.9574232	70.78655	
10:46:28	0	0	0	0.6973423	-13.01994	0	3	100	0	50	-1.584869	0.9551894	70.78403	
10:46:28	0	0	0	0.6973423	-13.01994	0	3	100	0	50	-1.589393	0.9567174	70.80119	
10:46:29	0	0	0	0.6973423	-13.01994	0	3	100	0	50	-1.603091	0.9446093	70.81294	
10:46:29	0	0	0	0.6973423	-13.01994	0	3	100	0	50	-1.61146	0.9362329	70.81505	
10:46:29	0	0	0	0.8567777	-1.302105	0	3	100	0	50	-1.622064	0.9258019	70.81533	
10:46:29	0	0	0	0.8567777	-1.302105	0	3	100	0	50	-1.626686	0.9344106	70.82788	
10:46:30	0	0	0	0.8567777	-1.302105	0	3	100	0	50	-1.62505	0.9309939	70.82517	
10:46:30	0	0	0	0.8567777	-1.302105	0	3	100	0	50	-1.610519	0.9159202	70.83188	
10:46:30	0	0	0	0.8567777	-1.302105	0	3	100	0	50	-1.61911	0.9111637	70.82883	
10:46:30	0	0	0	1.15191	11.45275	0	3	100	0	50	-1.627902	0.9021306	70.83074	
10:46:30	0	0	0	1.15191	11.45275	0	3	100	0	50	-1.631129	0.8953233	70.83527	
10:46:31	0	0	0	1.15191	11.45275	0	3	100	0	50	-1.64534	0.9073668	70.83198	
10:46:31	0	0	0	1.15191	11.45275	0	3	100	0	50	-1.661744	0.8922925	70.82258	
10:46:31	0	0	0	1.15191	11.45275	0	3	100	0	50	-1.674593	0.8827803	70.82327	
10:46:31	0	0	0	1.380615	15.03586	0	3	100	0	50	-1.669346	0.8988209	70.82709	
10:46:31	0	0	0	1.380615	15.03586	0	3	100	0	50	-1.675251	0.8985524	70.82941	
10:46:32	0	0	0	1.380615	15.03586	0	3	100	0	50	-1.686374	0.8986943	70.83168	
10:46:32	0	0	0	1.380615	15.03586	0	3	100	0	50	-1.68361	0.9053043	70.84282	
10:46:32	0	0	0	1.380615	15.03586	0	3	100	0	50	-1.66478	0.9204066	70.85578	
10:46:32	0	0	0	1.230118	1.052302	0	3	100	0	50	-1.664934	0.9142328	70.86083	
10:46:32	0	0	0	1.230118	1.052302	0	3	100	0	50	-1.664151	0.9058357	70.86923	
10:46:33	0	0	0	1.230118	1.052302	0	3	100	0	50	-1.66925	0.8936957	70.87539	
10:46:33	0	0	0	1.230118	1.052302	0	3	100	0	50	-1.673793	0.87802	70.87163	
10:46:33	0	0	0	1.230118	1.052302	0	3	100	0	50	-1.674493	0.8579887	70.86548	
10:46:33	0	0	0	1.061954	-8.553466	0	3	100	0	50	-1.666711	0.8736833	70.86459	
10:46:33	0	0	0	1.061954	-8.553466	0	3	100	0	50	-1.674336	0.8790049	70.86328	
10:46:34	0	0	0	1.061954	-8.553466	0	3	100	0	50	-1.685784	0.8571044	70.85997	
10:46:34	0	0	0	1.061954	-8.553466	0	3	100	0	50	-1.689348	0.8581697	70.86311	
10:46:34	0	0	0	1.061954	-8.553466	0	3	100	0	50	-1.692736	0.8496531	70.85625	
10:46:34	0	0	0	0.9394444	-11.40234	0	3	100	0	50	-1.692259	0.8365473	70.84563	
10:46:34	0	0	0	0.9394444	-11.40234	0	3	100	0	50	-1.691677	0.8351856	70.8371	
10:46:35	0	0	0	0.9394444	-11.40234	0	3	100	0	50	-1.687902	0.8303357	70.84413	
10:46:35	0	0	0	0.9394444	-11.40234	0	3	100	0	50	-1.687567	0.8260044	70.84173	
10:46:35	0	0	0	0.9394444	-11.40234	0	3	100	0	50	-1.689728	0.8224466	70.83701	
10:46:35	0	0	0	1.039005	-3.391178	0	3	100	0	50	-1.680904	0.824255	70.83738	
10:46:35	0	0	0	1.039005	-3.391178	0	3	100	0	50	-1.680075	0.8126251	70.83065	
10:46:36	0	0	0	1.039005	-3.391178	0	3	100	0	50	-1.68638	0.7939608	70.82922	
10:46:36	0	0	0	1.039005	-3.391178	0	3	100	0	50	-1.686969	0.7821709	70.83952	
10:46:36	0	0	0	1.039005	-3.391178	0	3	100	0	50	-1.692811	0.7621924	70.84663	
10:46:36	0	0	0	0.9575658	-6.603311	0	3	100	0	50	-1.691158	0.7752879	70.84295	
10:46:36	0	0	0	0.9575658	-6.603311	0	3	100	0	50	-1.685768	0.7783234	70.8379	
10:46:37	0	0	0	0.9575658	-6.603311	0	3	100	0	50	-1.686321	0.7909629	70.83653	
10:46:37	0	0	0	0.9575658	-6.603311	0	3	100	0	50	-1.675835	0.7831914	70.83433	
10:46:37	0	0	0	0.9575658	-6.603311	0	3	100	0	50	-1.664854	0.7866443	70.83175	
10:46:37	0	0	0	1.119864	1.641954	0	3	100	0	50	-1.663572	0.7943131	70.83819	
10:46:37	0	0	0	1.119864	1.641954	0	3	100	0	50	-1.664779	0.7990656	70.83645	
10:46:38	0	0	0	1.119864	1.641954	0	3	100	0	50	-1.668725	0.7955129	70.83018	
10:46:38	0	0	0	1.119864	1.641954	0	3	100	0	50	-1.672546	0.7979637	70.82579	
10:46:38	0	0	0	1.119864	1.641954	0	3	100	0	50	-1.689942	0.7851405	70.82033	
10:46:38	0	0	0	1.052627	-1.483564	0	3	100	0	50	-1.70008	0.783307	70.8148	
10:46:38	0	0	0	1.052627	-1.483564	0	3	100	0	50	-1.70756	0.7756301	70.82164	
10:46:39	0	0	0	1.052627	-1.483564	0	3	100	0	50	-1.709198	0.774828	70.82336	
10:46:39	0	0	0	1.052627	-1.483564	0	3	100	0	50	-1.706814	0.7820316	70.817	
10:46:39	0	0	0	1.052627	-1.483564	0	3	100	0	50	-1.714749	0.772508	70.8111	
10:46:39	0	0	0	0.9395669	-5.31696	0	3	100	0	50	-1.710019	0.7695655	70.81163	
10:46:39	0	0	0	0.9395669	-5.31696	0	3	100	0	50	-1.703969	0.7593902	70.81409	
10:46:40	0	0	0	0.9395669	-5.31696	0	3	100	0	50	-1.693641	0.7714555	70.81306	
10:46:40	0	0	0	0.9395669	-5.31696	0	3	100	0	50	-1.686395	0.7710453	70.81375	
10:46:40	0	0	0	0.9395669	-5.31696	0	3	100	0	50	-1.69287	0.7717007	70.80753	
10:46:40	0	0	0	0.7907021	-8.191221	0	3	100	0	50	-1.697905	0.7637561	70.8026	
10:46:40	0	0	0	0.7907021	-8.191221	0	3	100	0	50	-1.699463	0.7662447	70.80326	
10:46:41	0	0	0	0.7907021	-8.191221	0	3	100	0	50	-1.701416	0.7690449	70.8057	
10:46:41	0	0	0	0.7907021	-8.191221	0	3	100	0	50	-1.699225	0.7712262	70.80515	
10:46:41	0	0	0	0.7907021	-8.191221	0	3	100	0	50	-1.699153	0.7692417	70.80322	
10:46:41	0	0	0	0.9620879	2.782531	0	3	100	0	50	-1.692866	0.785583	70.8063	
10:46:41	0	0	0	0.9620879	2.782531	0	3	100	0	50	-1.690541	0.7895218	70.81297	
10:46:42	0	0	0	0.9620879	2.782531	0	3	100	0	50	-1.698222	0.7813911	70.81515	
10:46:42	0	0	0	0.9620879	2.782531	0	3	100	0	50	-1.701851	0.7908564	70.81798	
10:46:42	0	0	0	0.9620879	2.782531	0	3	100	0	50	-1.698625	0.8001162	70.8288	
10:46:42	0	0	0	0.9394578	-0.4252803	0	3	100	0	50	-1.701511	0.8047495	70.84385	
10:46:42	0	0	0	0.9394578	-0.4252803	0	3	100	0	50	-1.691149	0.8179636	70.84852	
10:46:43	0	0	0	0.9394578	-0.4252803	0	3	100	0	50	-1.69815	0.8317282	70.84151	
10:46:43	0	0	0	0.9394578	-0.4252803	0	3	100	0	50	-1.697073	0.8340029	70.844	
10:46:43	0	0	0	0.9394578	-0.4252803	0	3	100	0	50	-1.69152	0.842621	70.84198	
10:46:43	0	0	0	1.324671	14.48288	0	3	100	0	50	-1.684776	0.8416109	70.84214	
10:46:44	0	0	0	1.324671	14.48288	0	3	100	0	50	-1.668142	0.8486402	70.85442	
10:46:44	0	0	0	1.324671	14.48288	0	3	100	0	50	-1.66232	0.8519187	70.86877	
10:46:44	0	0	0	1.324671	14.48288	0	3	100	0	50	-1.660161	0.8589731	70.87222	
10:46:44	0	0	0	1.324671	14.48288	0	3	100	0	50	-1.669107	0.8570591	70.87118	
10:46:44	0	0	0	1.26517	5.634608	0	3	100	0	50	-1.671822	0.8557793	70.87273	
10:46:45	0	0	0	1.26517	5.634608	0	3	100	0	50	-1.66239	0.8396428	70.87441	
10:46:45	0	0	0	1.26517	5.634608	0	3	100	0	50	-1.646109	0.8435317	70.87353	
10:46:45	0	0	0	1.26517	5.634608	0	3	100	0	50	-1.65091	0.8334795	70.86202	
10:46:45	0	0	0	1.26517	5.634608	0	3	100	0	50	-1.651833	0.84003	70.86101	
10:46:45	0	0	0	1.273479	2.191537	0	3	100	0	50	-1.650272	0.8471212	70.85829	
10:46:46	0	0	0	1.273479	2.191537	0	3	100	0	50	-1.647804	0.8502132	70.85438	
10:46:46	0	0	0	1.273479	2.191537	0	3	100	0	50	-1.643103	0.855214	70.85976	
10:46:46	0	0	0	1.273479	2.191537	0	3	100	0	50	-1.643771	0.8505732	70.86611	
10:46:46	0	0	0	1.273479	2.191537	0	3	100	0	50	-1.630091	0.8597218	70.86842	
10:46:46	0	0	0	1.077994	-6.49255	0	3	100	0	50	-1.63453	0.8462453	70.86308	
10:46:47	0	0	0	1.077994	-6.49255	0	3	100	0	50	-1.635235	0.8522723	70.8735	
10:46:47	0	0	0	1.077994	-6.49255	0	3	100	0	50	-1.639127	0.8427483	70.87566	
10:46:47	0	0	0	1.077994	-6.49255	0	3	100	0	50	-1.64415	0.8385227	70.87753	
10:46:47	0	0	0	1.077994	-6.49255	0	3	100	0	50	-1.643832	0.8238175	70.8726	
10:46:47	0	0	0	1.133386	-1.237006	0	3	100	0	50	-1.659611	0.8150977	70.86963	
10:46:48	0	0	0	1.133386	-1.237006	0	3	100	0	50	-1.659794	0.8075946	70.85965	
10:46:48	0	0	0	1.133386	-1.237006	0	3	100	0	50	-1.662704	0.7845466	70.85745	
10:46:48	0	0	0	1.133386	-1.237006	0	3	100	0	50	-1.66854	0.7816054	70.85725	
10:46:48	0	0	0	1.133386	-1.237006	0	3	100	0	50	-1.670366	0.7712637	70.85658	
10:46:48	0	0	0	0.9664732	-8.622652	0	3	100	0	50	-1.668052	0.7679867	70.84656	
10:46:49	0	0	0	0.9664732	-8.622652	0	3	100	0	50	-1.670101	0.7674186	70.85167	
10:46:49	0	0	0	0.9664732	-8.622652	0	3	100	0	50	-1.673949	0.7627291	70.84933	
10:46:49	0	0	0	0.9664732	-8.622652	0	3	100	0	50	-1.667787	0.7859488	70.8619	
10:46:49	0	0	0	0.9664732	-8.622652	0	3	100	0	50	-1.661192	0.773897	70.87222	
10:46:49	0	0	0	0.7985274	-10.87531	0	3	100	0	50	-1.662552	0.7798709	70.87676	
10:46:50	0	0	0	0.7985274	-10.87531	0	3	100	0	50	-1.671045	0.7939403	70.86977	
10:46:50	0	0	0	0.7985274	-10.87531	0	3	100	0	50	-1.670524	0.7891665	70.87997	
10:46:50	0	0	0	0.7985274	-10.87531	0	3	100	0	50	-1.666644	0.7936546	70.89465	
10:46:50	0	0	0	0.7985274	-10.87531	0	3	100	0	50	-1.663754	0.7996018	70.90081	
10:46:50	0	0	0	0.8441966	-4.478464	0	3	100	0	50	-1.663813	0.8149506	70.90142	
10:46:51	0	0	0	0.8441966	-4.478464	0	3	100	0	50	-1.650853	0.8342029	70.90496	
10:46:51	0	0	0	0.8441966	-4.478464	0	3	100	0	50	-1.643142	0.8427631	70.90408	
10:46:51	0	0	0	0.8441966	-4.478464	0	3	100	0	50	-1.656928	0.8463929	70.91794	
10:46:51	0	0	0	0.8441966	-4.478464	0	3	100	0	50	-1.665208	0.834545	70.91201	
10:46:51	0	0	0	0.8198093	-4.811625	0	3	100	0	50	-1.668763	0.8371656	70.90403	
10:46:52	0	0	0	0.8198093	-4.811625	0	3	100	0	50	-1.670569	0.8520293	70.90553	
10:46:52	0	0	0	0.8198093	-4.811625	0	3	100	0	50	-1.679171	0.8599898	70.90665	
10:46:52	0	0	0	0.8198093	-4.811625	0	3	100	0	50	-1.692967	0.8625402	70.9111	
10:46:52	0	0	0	0.8198093	-4.811625	0	3	100	0	50	-1.684605	0.8674009	70.91098	
10:46:52	0	0	0	0.6109113	-10.66909	0	3	100	0	50	-1.694317	0.854196	70.9127	
10:46:53	0	0	0	0.6109113	-10.66909	0	3	100	0	50	-1.685438	0.8411127	70.90559	
10:46:53	0	0	0	0.6109113	-10.66909	0	3	100	0	50	-1.673904	0.8488322	70.90161	
10:46:53	0	0	0	0.6109113	-10.66909	0	3	100	0	50	-1.670011	0.8406702	70.91526	
10:46:53	0	0	0	0.6109113	-10.66909	0	3	100	0	50	-1.661147	0.8520209	70.92785	
10:46:53	0	0	0	0.5840108	-5.517615	0	3	100	0	50	-1.661363	0.8691663	70.93028	
10:46:54	0	0	0	0.5840108	-5.517615	0	3	100	0	50	-1.657384	0.8924864	70.93643	
10:46:54	0	0	0	0.5840108	-5.517615	0	3	100	0	50	-1.673434	0.8907058	70.93892	
10:46:54	0	0	0	0.5840108	-5.517615	0	3	100	0	50	-1.670154	0.8965753	70.92922	
10:46:54	0	0	0	0.5840108	-5.517615	0	3	100	0	50	-1.658803	0.9040231	70.93842	
10:46:54	0	0	0	0.6958523	1.517673	0	3	100	0	50	-1.656939	0.8997167	70.92703	
10:46:55	0	0	0	0.6958523	1.517673	0	3	100	0	50	-1.656635	0.8898515	70.91988	
10:46:55	0	0	0	0.6958523	1.517673	0	3	100	0	50	-1.655769	0.8960931	70.92658	
10:46:55	0	0	0	0.6958523	1.517673	0	3	100	0	50	-1.666178	0.8949136	70.92169	
10:46:55	0	0	0	0.6958523	1.517673	0	3	100	0	50	-1.658764	0.8936205	70.91422	
10:46:55	0	0	0	0.9533594	11.9115	0	3	100	0	50	-1.659495	0.8914154	70.91588	
10:46:56	0	0	0	0.9533594	11.9115	0	3	100	0	50	-1.651217	0.9061764	70.93192	
10:46:56	0	0	0	0.9533594	11.9115	0	3	100	0	50	-1.640415	0.9209016	70.94498	
10:46:56	0	0	0	0.9533594	11.9115	0	3	100	0	50	-1.630262	0.9360598	70.95335	
10:46:56	0	0	0	0.9533594	11.9115	0	3	100	0	50	-1.613766	0.9483832	70.94814	
10:46:57	0	0	0	1.026567	8.97678	0	3	100	0	50	-1.622237	0.9556767	70.95226	
10:46:57	0	0	0	1.026567	8.97678	0	3	100	0	50	-1.615584	0.9592646	70.95686	
10:46:57	0	0	0	1.026567	8.97678	0	3	100	0	50	-1.616279	0.967734	70.95076	
10:46:57	0	0	0	1.026567	8.97678	0	3	100	0	50	-1.623012	0.9525273	70.95219	
10:46:57	0	0	0	1.026567	8.97678	0	3	100	0	50	-1.623546	0.9445139	70.95143	
10:46:58	0	0	0	1.048687	6.024178	0	3	100	0	50	-1.617642	0.943522	70.95094	
10:46:58	0	0	0	1.048687	6.024178	0	3	100	0	50	-1.626515	0.9469056	70.95117	
10:46:58	0	0	0	1.048687	6.024178	0	3	100	0	50	-1.630057	0.9521594	70.9552	
10:46:58	0	0	0	1.048687	6.024178	0	3	100	0	50	-1.627944	0.9461556	70.96256	
10:46:58	0	0	0	1.048687	6.024178	0	3	100	0	50	-1.622999	0.9386508	70.96307	
10:46:59	0	0	0	0.947489	-0.595396	0	3	100	0	50	-1.635885	0.9151222	70.96692	
10:46:59	0	0	0	0.947489	-0.595396	0	3	100	0	50	-1.635247	0.9059938	70.95859	
10:46:59	0	0	0	0.947489	-0.595396	0	3	100	0	50	-1.637224	0.9088843	70.95977	
10:46:59	0	0	0	0.947489	-0.595396	0	3	100	0	50	-1.636117	0.8931433	70.96078	
10:46:59	0	0	0	0.947489	-0.595396	0	3	100	0	50	-1.640747	0.8788257	70.95636	
10:47:00	0	0	0	0.7872235	-6.535974	0	3	100	0	50	-1.632043	0.8772096	70.95993	
10:47:00	0	0	0	0.7872235	-6.535974	0	3	100	0	50	-1.631464	0.8775958	70.96954	
10:47:00	0	0	0	0.7872235	-6.535974	0	3	100	0	50	-1.626665	0.89799	70.97575	
10:47:00	0	0	0	0.7872235	-6.535974	0	3	100	0	50	-1.631051	0.8948242	70.96233	
10:47:00	0	0	0	0.7872235	-6.535974	0	3	100	0	50	-1.632341	0.9032457	70.96296	
10:47:01	0	0	0	0.8701071	0.2793635	0	3	100	0	50	-1.635468	0.9020219	70.96969	
10:47:01	0	0	0	0.8701071	0.2793635	0	3	100	0	50	-1.632081	0.9046243	70.96463	
10:47:01	0	0	0	0.8701071	0.2793635	0	3	100	0	50	-1.63046	0.9043788	70.95812	
10:47:01	0	0	0	0.8701071	0.2793635	0	3	100	0	50	-1.630979	0.9011909	70.96334	
10:47:01	0	0	0	0.8701071	0.2793635	0	3	100	0	50	-1.631084	0.9143758	70.96187	
10:47:02	0	0	0	0.9695003	3.161638	0	3	100	0	50	-1.612351	0.9225193	70.98482	
10:47:02	0	0	0	0.9695003	3.161638	0	3	100	0	50	-1.607572	0.92761	70.98356	
10:47:02	0	0	0	0.9695003	3.161638	0	3	100	0	50	-1.603897	0.9199845	70.97209	
10:47:02	0	0	0	0.9695003	3.161638	0	3	100	0	50	-1.612101	0.9193184	70.97153	
10:47:02	0	0	0	0.9695003	3.161638	0	3	100	0	50	-1.593784	0.9269437	70.98241	
10:47:03	0	0	0	1.048458	5.908313	0	3	100	0	50	-1.592297	0.9299526	70.9935	
10:47:03	0	0	0	1.048458	5.908313	0	3	100	0	50	-1.594679	0.9297467	70.99333	
10:47:03	0	0	0	1.048458	5.908313	0	3	100	0	50	-1.586867	0.9287715	70.99506	
10:47:03	0	0	0	1.048458	5.908313	0	3	100	0	50	-1.594177	0.9206411	70.99615	
10:47:03	0	0	0	1.048458	5.908313	0	3	100	0	50	-1.602328	0.9087002	70.99206	
10:47:04	0	0	0	1.119751	5.706887	0	3	100	0	50	-1.5963	0.8978948	70.99494	
10:47:04	0	0	0	1.119751	5.706887	0	3	100	0	50	-1.598482	0.894744	70.99145	
10:47:04	0	0	0	1.119751	5.706887	0	3	100	0	50	-1.596878	0.9021797	70.97938	
10:47:04	0	0	0	1.119751	5.706887	0	3	100	0	50	-1.606832	0.8901531	70.98615	
10:47:04	0	0	0	1.119751	5.706887	0	3	100	0	50	-1.613799	0.8746251	70.97716	
10:47:05	0	0	0	0.9763106	-2.029035	0	3	100	0	50	-1.595076	0.8748959	70.98718	
10:47:05	0	0	0	0.9763106	-2.029035	0	3	100	0	50	-1.59684	0.8664124	70.97375	
10:47:05	0	0	0	0.9763106	-2.029035	0	3	100	0	50	-1.611446	0.8513339	70.97879	
10:47:05	0	0	0	0.9763106	-2.029035	0	3	100	0	50	-1.612035	0.8515123	70.98468	
10:47:05	0	0	0	0.9763106	-2.029035	0	3	100	0	50	-1.595529	0.8487243	70.98508	
10:47:06	0	0	0	0.8482807	-8.195443	0	3	100	0	50	-1.537473	0.8645359	70.9991	
10:47:06	0	0	0	0.8482807	-8.195443	0	3	100	0	50	-1.517719	0.8638853	71.03278	
10:47:06	0	0	0	0.8482807	-8.195443	0	3	100	0	50	-1.49824	0.8735027	71.07663	
10:47:06	0	0	0	0.8482807	-8.195443	0	3	100	0	50	-1.527125	0.9001535	71.11041	
10:47:06	0	0	0	0.8482807	-8.195443	0	3	100	0	50	-1.638772	0.8688679	71.1517	
10:47:07	0	0	0	0.7840113	-8.277059	0	3	100	0	50	-1.617159	0.83533	71.18606	
10:47:07	0	0	0	0.7840113	-8.277059	0	3	100	0	50	-1.420275	0.7438476	71.27209	
10:47:07	0	0	0	0.7840113	-8.277059	0	3	100	0	50	-1.592499	0.7306033	71.28457	
10:47:07	0	0	0	0.7840113	-8.277059	0	3	100	0	50	-1.691354	0.7275375	71.30841	
10:47:08	0	0	0	0.7840113	-8.277059	0	3	100	0	50	-1.685589	0.7247882	71.32213	
10:47:08	0	0	0	0.8716325	-1.237625	0	3	100	0	50	-1.796959	0.7416876	71.32298	
10:47:08	0	0	0	0.8716325	-1.237625	0	3	100	0	50	-1.809463	0.725108	71.30995	
10:47:08	0	0	0	0.8716325	-1.237625	0	3	100	0	50	-1.536873	0.7048008	71.99356	
10:47:08	0	0	0	0.8716325	-1.237625	0	3	100	0	50	-1.538694	0.6950847	72.00904	
10:47:09	0	0	0	0.8716325	-1.237625	0	3	100	0	50	-1.50335	0.6789463	72.09808	
10:47:09	0	0	0	0.8968869	0.5771072	0	3	100	0	50	-1.254124	0.7622868	73.49486	
10:47:09	0	0	0	0.8968869	0.5771072	0	3	100	0	50	-1.450769	0.725279	76.17712	
10:47:09	0	0	0	0.8968869	0.5771072	0	3	100	0	50	-1.39787	0.6844512	77.20939	
10:47:09	0	0	0	0.8968869	0.5771072	0	3	100	0	50	-1.690928	0.6643012	77.15504	
10:47:10	0	0	0	0.8968869	0.5771072	0	3	100	0	50	-1.539316	0.8758764	80.08254	
10:47:10	0	0	0	1.006223	4.804384	0	3	100	0	50	-1.616966	0.9095051	86.3126	
10:47:10	0	0	0	1.006223	4.804384	0	3	100	0	50	-1.616203	0.8240096	87.57143	
10:47:10	0	0	0	1.006223	4.804384	0	3	100	0	50	-1.459588	0.737261	88.45284	
10:47:10	0	0	0	1.006223	4.804384	0	3	100	0	50	-1.300874	0.6041985	89.05724	
10:47:11	0	0	0	1.006223	4.804384	0	3	100	0	50	-1.138252	0.5081481	90.48277	
10:47:11	0	0	0	1.012135	5.479255	0	3	100	0	50	-1.107948	0.5028422	94.27493	
10:47:11	0	0	0	1.012135	5.479255	0	3	100	0	50	-1.327107	0.574035	96.98908	
10:47:11	0	0	0	1.012135	5.479255	0	3	100	0	50	-1.585826	0.6589031	99.87285	
10:47:11	0	0	0	1.012135	5.479255	0	3	100	0	50	-1.737559	0.7065696	102.2116	
10:47:12	0	0	0	1.012135	5.479255	0	3	100	0	50	-1.627788	0.9021133	106.39	
10:47:12	0	0	0	1.251053	21.15291	0	3	100	0	50	-1.830059	0.9519778	109.1512	
10:47:12	0	0	0	1.251053	21.15291	0	3	100	0	50	-1.96126	0.9716222	111.7156	
10:47:12	0	0	0	1.251053	21.15291	0	3	100	0	50	-2.4332	0.9289287	117.2592	
10:47:12	0	0	0	1.251053	21.15291	0	3	100	0	50	-2.322263	0.9246432	120.2518	
10:47:13	0	0	0	1.251053	21.15291	0	3	100	0	50	-2.195293	1.154104	120.7296	
10:47:13	0	0	0	1.3813	21.5512	0	3	100	0	50	-2.204384	1.179432	123.1595	
10:47:13	0	0	0	1.3813	21.5512	0	3	100	0	50	-2.253877	1.22585	128.033	
10:47:13	0	0	0	1.3813	21.5512	0	3	100	0	50	-2.046666	1.19524	132.0134	
10:47:13	0	0	0	1.3813	21.5512	0	3	100	0	50	-2.072018	1.298499	134.8401	
10:47:14	0	0	0	1.3813	21.5512	0	3	100	0	50	-2.145028	1.368724	136.4798	
10:47:14	0	0	0	0.8745623	-25.01198	0	3	100	0	50	-2.363914	1.202207	136.9874	
10:47:14	0	0	0	0.8745623	-25.01198	0	3	100	0	50	-2.234278	1.238893	137.8218	
10:47:14	0	0	0	0.8745623	-25.01198	0	3	100	0	50	-2.27296	1.22919	138.2552	
10:47:14	0	0	0	0.8745623	-25.01198	0	3	100	0	50	-2.2627	1.176877	138.2878	
10:47:15	0	0	0	0.8745623	-25.01198	0	3	100	0	50	-2.241581	1.138725	138.341	
10:47:15	0	0	0	0.9079091	-11.00861	0	3	100	0	50	-2.227664	1.075567	138.4599	
10:47:15	0	0	0	0.9079091	-11.00861	0	3	100	0	50	-2.223875	1.042006	138.4621	
10:47:15	0	0	0	0.9079091	-11.00861	0	3	100	0	50	-2.183688	0.9775105	138.5899	
10:47:15	0	0	0	0.9079091	-11.00861	0	3	100	0	50	-2.161157	0.9688638	138.8254	
10:47:16	0	0	0	0.9079091	-11.00861	0	3	100	0	50	-1.952159	1.019773	138.3961	
10:47:16	0	0	0	1.18861	3.910965	0	3	100	0	50	1.313388	2.58816	130.8513	
10:47:16	0	0	0	1.18861	3.910965	0	3	100	0	50	1.055259	4.799267	124.7687	
10:47:16	0	0	0	1.18861	3.910965	0	3	100	0	50	2.864899	6.840091	119.5029	
10:47:16	0	0	0	1.18861	3.910965	0	3	100	0	50	2.145884	7.658722	115.2272	
10:47:17	0	0	0	1.18861	3.910965	0	3	100	0	50	1.788962	6.929312	110.0436	
10:47:17	0	0	0	1.060257	-7.833185	0	3	100	0	50	1.950407	7.052785	104.0697	
10:47:17	0	0	0	1.060257	-7.833185	0	3	100	0	50	-2.648776	4.357072	98.51552	
10:47:17	0	0	0	1.060257	-7.833185	0	3	100	0	50	1.035143	4.266006	92.30596	
10:47:17	0	0	0	1.060257	-7.833185	0	3	100	0	50	-0.3254143	3.860109	81.05127	
10:47:18	0	0	0	1.060257	-7.833185	0	3	100	0	50	-0.5966462	-0.2114918	70.2999	
10:47:18	0	0	0	0.8005777	-19.59969	0	3	100	0	50	0.1379733	1.786223	63.13378	
10:47:18	0	0	0	0.8005777	-19.59969	0	3	100	0	50	0.2776605	1.617556	58.3492	
10:47:18	0	0	0	0.8005777	-19.59969	0	3	100	0	50	0.8829194	1.729643	54.1343	
10:47:19	0	0	0	0.8005777	-19.59969	0	3	100	0	50	-1.330691	1.803324	51.58775	
10:47:19	0	0	0	0.8005777	-19.59969	0	3	100	0	50	-5.688365	1.321226	47.09973	
10:47:19	0	0	0	0.9915326	-3.96293	0	3	100	0	50	-10.17268	-0.7883569	44.14191	
10:47:19	0	0	0	0.9915326	-3.96293	0	3	100	0	50	-10.6486	-5.10574	42.25832	
10:47:19	0	0	0	0.9915326	-3.96293	0	3	100	0	50	-12.25952	-6.693007	40.19481	
10:47:20	0	0	0	0.9915326	-3.96293	0	3	100	0	50	-14.13356	-7.542273	40.63046	
10:47:20	0	0	0	0.9915326	-3.96293	0	3	100	0	50	-15.12678	-7.144226	39.59918	
10:47:20	0	0	0	1.44734	11.4713	0	3	100	0	50	-17.21157	-9.687189	38.69811	
10:47:20	0	0	0	1.44734	11.4713	0	3	100	0	50	-13.97475	-9.237876	36.07917	
10:47:20	0	0	0	1.44734	11.4713	0	3	100	0	50	-11.32605	-9.704352	33.38167	
10:47:21	0	0	0	1.44734	11.4713	0	3	100	0	50	-8.331277	-10.90958	29.74005	
10:47:21	0	0	0	1.44734	11.4713	0	3	100	0	50	-8.369386	-11.1249	27.252	
10:47:21	0	0	0	1.476478	17.67364	0	3	100	0	50	-1.514092	-13.27554	18.47781	
10:47:21	0	0	0	1.476478	17.67364	0	3	100	0	50	-1.008139	-12.33415	15.26096	
10:47:21	0	0	0	1.476478	17.67364	0	3	100	0	50	-0.901552	-11.95304	13.76132	
10:47:22	0	0	0	1.476478	17.67364	0	3	100	0	50	-0.2963935	-11.63239	11.71944	
10:47:22	0	0	0	1.476478	17.67364	0	3	100	0	50	-1.868902	-12.79396	8.505868	
10:47:22	0	0	0	1.327095	2.147814	0	3	100	0	50	-3.886187	-13.6366	5.36441	
10:47:22	0	0	0	1.327095	2.147814	0	3	100	0	50	-5.011174	-14.22894	4.165781	
10:47:22	0	0	0	1.327095	2.147814	0	3	100	0	50	-3.195753	-14.2664	2.906625	
10:47:23	0	0	0	1.327095	2.147814	0	3	100	0	50	-1.881253	-14.68062	1.743971	
10:47:23	0	0	0	1.327095	2.147814	0	3	100	0	50	-1.142404	-14.87401	0.2845605	
10:47:23	0	0	0	1.221689	-4.043229	0	3	100	0	50	-2.014226	-15.02878	0.3280595	
10:47:23	0	0	0	1.221689	-4.043229	0	3	100	0	50	-2.287986	-15.43575	0.6011362	
10:47:23	0	0	0	1.221689	-4.043229	0	3	100	0	50	-1.901761	-16.33496	1.279692	
10:47:24	0	0	0	1.221689	-4.043229	0	3	100	0	50	-2.629559	-16.45267	0.8389015	
10:47:24	0	0	0	1.221689	-4.043229	0	3	100	0	50	-3.105476	-16.30024	0.487813	
10:47:24	0	0	0	1.242335	0.4919515	0	3	100	0	50	-3.217834	-16.66973	0.5533128	
10:47:24	0	0	0	1.242335	0.4919515	0	3	100	0	50	-3.426115	-16.93879	0.5342833	
10:47:24	0	0	0	1.242335	0.4919515	0	3	100	0	50	-3.133447	-17.43301	0.3522001	
10:47:25	0	0	0	1.242335	0.4919515	0	3	100	0	50	-3.61164	-17.44373	0.3380003	
10:47:25	0	0	0	1.242335	0.4919515	0	3	100	0	50	-3.939297	-17.15368	0.1090969	
10:47:25	0	0	0	1.268245	5.227151	0	3	100	0	50	-4.051146	-17.13673	-0.02697413	
10:47:25	0	0	0	1.268245	5.227151	0	3	100	0	50	-3.265393	-17.57833	-0.3678471	
10:47:25	0	0	0	1.268245	5.227151	0	3	100	0	50	-3.345908	-18.20321	0.3929282	
10:47:26	0	0	0	1.268245	5.227151	0	3	100	0	50	-3.21292	-17.96731	-0.5285045	
10:47:26	0	0	0	1.268245	5.227151	0	3	100	0	50	-3.515533	-17.66009	-0.6335886	
10:47:26	0	0	0	1.194552	3.389625	0	3	100	0	50	-3.593955	-18.2024	-0.137971	
10:47:26	0	0	0	1.194552	3.389625	0	3	100	0	50	-4.547657	-18.00542	-0.3660036	
10:47:26	0	0	0	1.194552	3.389625	0	3	100	0	50	-4.81438	-17.90782	-0.9117874	
10:47:27	0	0	0	1.194552	3.389625	0	3	100	0	50	-4.73613	-18.26454	-1.051028	
10:47:27	0	0	0	1.194552	3.389625	0	3	100	0	50	-4.72078	-18.16706	-1.064008	
10:47:27	0	0	0	0.9254186	-4.616393	0	3	100	0	50	-4.337689	-18.51673	-0.7453848	
10:47:27	0	0	0	0.9254186	-4.616393	0	3	100	0	50	-4.528111	-18.75082	-0.4315074	
10:47:27	0	0	0	0.9254186	-4.616393	0	3	100	0	50	-5.396442	-18.6229	0.1072132	
10:47:28	0	0	0	0.9254186	-4.616393	0	3	100	0	50	-6.483007	-17.75776	0.7892215	
10:47:28	0	0	0	0.9254186	-4.616393	0	3	100	0	50	-5.017615	-16.63347	-0.8937573	
10:47:28	0	0	0	1.006028	2.948648	0	3	100	0	50	-4.794427	-16.10096	-0.8823538	
10:47:28	0	0	0	1.006028	2.948648	0	3	100	0	50	-1.352885	-14.27742	-1.785556	
10:47:28	0	0	0	1.006028	2.948648	0	3	100	0	50	-2.588421	-12.92422	-1.475225	
10:47:29	0	0	0	1.006028	2.948648	0	3	100	0	50	-3.950876	-11.12794	0.1478619	
10:47:29	0	0	0	1.006028	2.948648	0	3	100	0	50	-4.480371	-10.75313	0.3114989	
10:47:29	0	0	0	1.132033	9.290961	0	3	100	0	50	-4.882148	-10.69522	0.4006399	
10:47:29	0	0	0	1.132033	9.290961	0	3	100	0	50	-4.702485	-10.90434	0.6282744	
10:47:29	0	0	0	1.132033	9.290961	0	3	100	0	50	-4.560227	-11.25577	1.000936	
10:47:30	0	0	0	1.132033	9.290961	0	3	100	0	50	-4.491156	-11.04801	0.6929616	
10:47:30	0	0	0	1.132033	9.290961	0	3	100	0	50	-3.132254	-10.60587	-0.7224982	
10:47:30	0	0	0	1.501335	23.83137	0	3	100	0	50	-2.651696	-9.977624	-0.211906	
10:47:30	0	0	0	1.501335	23.83137	0	3	100	0	50	-0.4856781	-7.6734	-3.014233	
10:47:30	0	0	0	1.501335	23.83137	0	3	100	0	50	0.9799427	-7.590039	-4.511507	
10:47:31	0	0	0	1.501335	23.83137	0	3	100	0	50	2.12522	-7.089879	-5.841044	
10:47:31	0	0	0	1.501335	23.83137	0	3	100	0	50	2.50357	-6.138211	-7.34892	
10:47:31	0	0	0	1.503036	18.88953	0	3	100	0	50	2.221491	-6.145576	-7.5718	
10:47:31	0	0	0	1.503036	18.88953	0	3	100	0	50	1.76682	-5.838352	-8.126306	
10:47:32	0	0	0	1.503036	18.88953	0	3	100	0	50	1.26825	-5.675894	-8.304852	
10:47:32	0	0	0	1.503036	18.88953	0	3	100	0	50	0.7080472	-5.665781	-6.512484	
10:47:32	0	0	0	1.503036	18.88953	0	3	100	0	50	0.3789857	-5.514432	-4.513413	
10:47:32	0	0	0	1.44743	11.26597	0	3	100	0	50	0.4314858	-4.859256	-2.726569	
10:47:32	0	0	0	1.44743	11.26597	0	3	100	0	50	-1.640511	-5.046512	0.3176183	
10:47:33	0	0	0	1.44743	11.26597	0	3	100	0	50	-4.737344	-4.216496	1.74223	
10:47:33	0	0	0	1.44743	11.26597	0	3	100	0	50	-6.910088	-5.059592	2.345104	
10:47:33	0	0	0	1.44743	11.26597	0	3	100	0	50	-3.411922	-3.551435	-0.9001458	
10:47:33	0	0	0	1.170059	-11.76637	0	3	100	0	50	0.06214207	-2.248245	-3.851943	
10:47:33	0	0	0	1.170059	-11.76637	0	3	100	0	50	1.344584	0.8025503	-5.106995	
10:47:34	0	0	0	1.170059	-11.76637	0	3	100	0	50	0.2956679	2.450686	-7.144985	
10:47:34	0	0	0	1.170059	-11.76637	0	3	100	0	50	-0.2963978	1.56674	-8.228585	
10:47:34	0	0	0	1.170059	-11.76637	0	3	100	0	50	-0.7244343	0.7093921	-8.741165	
10:47:34	0	0	0	1.076752	-0.9575011	0	3	100	0	50	-0.794184	-0.2092167	-8.566102	
10:47:34	0	0	0	1.076752	-0.9575011	0	3	100	0	50	-0.7035213	-0.3012455	-8.44874	
10:47:35	0	0	0	1.076752	-0.9575011	0	3	100	0	50	-0.4311168	-0.417168	-8.405503	
10:47:35	0	0	0	1.076752	-0.9575011	0	3	100	0	50	-0.446099	-0.4527031	-8.476471	
10:47:35	0	0	0	1.076752	-0.9575011	0	3	100	0	50	-0.4587821	-0.4722118	-8.406392	
10:47:35	0	0	0	1.107433	2.299283	0	3	100	0	50	-0.7885491	-0.5217475	-8.295828	
10:47:35	0	0	0	1.107433	2.299283	0	3	100	0	50	-0.9258769	-0.4848536	-8.144272	
10:47:36	0	0	0	1.107433	2.299283	0	3	100	0	50	-1.294875	-0.6907195	-7.354714	
10:47:36	0	0	0	1.107433	2.299283	0	3	100	0	50	-1.434629	-0.781446	-6.552787	
10:47:36	0	0	0	1.107433	2.299283	0	3	100	0	50	-1.430145	-0.799686	-6.235046	
10:47:36	0	0	0	1.188553	3.391341	0	3	100	0	50	-1.455044	-0.8052232	-6.100453	
10:47:36	0	0	0	1.188553	3.391341	0	3	100	0	50	-1.51733	-0.8031484	-5.503009	
10:47:37	0	0	0	1.188553	3.391341	0	3	100	0	50	-1.510009	-0.7763519	-4.748663	
10:47:37	0	0	0	1.188553	3.391341	0	3	100	0	50	-1.518498	-0.7904361	-4.275924	
10:47:37	0	0	0	1.188553	3.391341	0	3	100	0	50	-1.559382	-0.800687	-3.886136	
10:47:37	0	0	0	1.14768	-0.4352829	0	3	100	0	50	-1.56547	-0.7880732	-3.559796	
10:47:37	0	0	0	1.14768	-0.4352829	0	3	100	0	50	-1.566401	-0.7589304	-3.241963	
10:47:38	0	0	0	1.14768	-0.4352829	0	3	100	0	50	-1.582998	-0.7576052	-2.967543	
10:47:38	0	0	0	1.14768	-0.4352829	0	3	100	0	50	-1.632375	-0.7334042	-2.387154	
10:47:38	0	0	0	1.14768	-0.4352829	0	3	100	0	50	-1.728716	-0.7379403	-1.866409	
10:47:38	0	0	0	1.168593	-1.389007	0	3	100	0	50	-1.8728	-0.7208559	-1.477248	
10:47:38	0	0	0	1.168593	-1.389007	0	3	100	0	50	-2.026523	-0.7087463	-1.281795	
10:47:39	0	0	0	1.168593	-1.389007	0	3	100	0	50	-2.212419	-0.6763573	-0.894722	
10:47:39	0	0	0	1.168593	-1.389007	0	3	100	0	50	-1.699883	-0.604713	-0.0396062	
10:47:39	0	0	0	1.168593	-1.389007	0	3	100	0	50	-1.711243	-0.5798203	0.75332	
10:47:39	0	0	0	0.9894025	-8.384936	0	3	100	0	50	-1.665368	-0.5468641	0.981622	
10:47:39	0	0	0	0.9894025	-8.384936	0	3	100	0	50	-1.626205	-0.5246966	1.056708	
10:47:40	0	0	0	0.9894025	-8.384936	0	3	100	0	50	-1.627487	-0.5130962	1.140491	
10:47:40	0	0	0	0.9894025	-8.384936	0	3	100	0	50	-1.63216	-0.5065141	1.22316	
10:47:40	0	0	0	0.9894025	-8.384936	0	3	100	0	50	-1.640839	-0.4975084	1.285107	
10:47:40	0	0	0	0.8761795	-10.1046	0	3	100	0	50	-1.64117	-0.4795612	1.330491	
10:47:40	0	0	0	0.8761795	-10.1046	0	3	100	0	50	-1.640546	-0.4721731	1.372409	
10:47:41	0	0	0	0.8761795	-10.1046	0	3	100	0	50	-1.636702	-0.474495	1.206744	
10:47:41	0	0	0	0.8761795	-10.1046	0	3	100	0	50	-1.638221	-0.4710974	1.251356	
10:47:41	0	0	0	0.8761795	-10.1046	0	3	100	0	50	-1.613434	-0.4579086	1.266684	
10:47:41	0	0	0	0.9843034	-2.821453	0	3	100	0	50	-1.574658	-0.4529648	1.227135	
10:47:41	0	0	0	0.9843034	-2.821453	0	3	100	0	50	-1.557038	-0.472688	0.7306162	
10:47:42	0	0	0	0.9843034	-2.821453	0	3	100	0	50	-1.553517	-0.472598	0.7322223	
10:47:42	0	0	0	0.9843034	-2.821453	0	3	100	0	50	-1.546428	-0.4623962	0.7871653	
10:47:42	0	0	0	0.9843034	-2.821453	0	3	100	0	50	-1.545527	-0.4514526	0.8328719	
10:47:42	0	0	0	0.9587069	-4.745412	0	3	100	0	50	-1.544963	-0.4494057	0.8892736	
10:47:43	0	0	0	0.9587069	-4.745412	0	3	100	0	50	-1.545149	-0.4505351	0.949293	
10:47:43	0	0	0	0.9587069	-4.745412	0	3	100	0	50	-1.534852	-0.4279613	0.9965348	
10:47:43	0	0	0	0.9587069	-4.745412	0	3	100	0	50	-1.480057	-0.4252199	1.021615	
10:47:43	0	0	0	0.9587069	-4.745412	0	3	100	0	50	-1.421712	-0.3948918	1.081383	
10:47:43	0	0	0	1.018	-1.636652	0	3	100	0	50	-1.321411	-0.3563307	0.946892	
10:47:44	0	0	0	1.018	-1.636652	0	3	100	0	50	-0.9682905	-0.2809627	0.9518991	
10:47:44	0	0	0	1.018	-1.636652	0	3	100	0	50	-0.7903866	-0.2301124	1.003326	
10:47:44	0	0	0	1.018	-1.636652	0	3	100	0	50	-0.7178301	-0.2051308	1.058223	
10:47:44	0	0	0	1.018	-1.636652	0	3	100	0	50	-0.6613767	-0.195744	1.111911	
10:47:44	0	0	0	0.7991444	-11.45818	0	3	100	0	50	-0.6273977	-0.1858695	1.157405	
10:47:45	0	0	0	0.7991444	-11.45818	0	3	100	0	50	-0.6201527	-0.1700422	1.197902	
10:47:45	0	0	0	0.7991444	-11.45818	0	3	100	0	50	-0.6021865	-0.1565293	1.236636	
10:47:45	0	0	0	0.7991444	-11.45818	0	3	100	0	50	-0.5908581	-0.1494255	1.273609	
10:47:45	0	0	0	0.7991444	-11.45818	0	3	100	0	50	-0.6156871	-0.1618021	1.319211	
10:47:45	0	0	0	0.5668772	-15.26074	0	3	100	0	50	-0.6573817	-0.1752674	1.372969	
10:47:46	0	0	0	0.5668772	-15.26074	0	3	100	0	50	-0.7260355	-0.1778452	1.398561	
10:47:46	0	0	0	0.5668772	-15.26074	0	3	100	0	50	-0.9712949	-0.1989367	1.453183	
10:47:46	0	0	0	0.5668772	-15.26074	0	3	100	0	50	-1.083546	-0.2027111	1.518172	
10:47:46	0	0	0	0.5668772	-15.26074	0	3	100	0	50	-1.197553	-0.174016	2.758772	
10:47:46	0	0	0	0.8132823	1.270702	0	3	100	0	50	-1.420653	-0.1124085	6.112419	
10:47:47	0	0	0	0.8132823	1.270702	0	3	100	0	50	-1.504411	-0.0568097	7.677155	
10:47:47	0	0	0	0.8132823	1.270702	0	3	100	0	50	-1.612396	-0.02957087	8.537371	
10:47:47	0	0	0	0.8132823	1.270702	0	3	100	0	50	-1.575402	-0.01623023	8.958097	
10:47:47	0	0	0	0.8132823	1.270702	0	3	100	0	50	-1.602384	-0.01508907	9.51494	
10:47:47	0	0	0	1.117398	12.28516	0	3	100	0	50	-1.559103	0.02846488	10.39418	
10:47:48	0	0	0	1.117398	12.28516	0	3	100	0	50	-1.704563	0.0468464	12.37105	
10:47:48	0	0	0	1.117398	12.28516	0	3	100	0	50	-1.867991	0.08832559	15.85979	
10:47:48	0	0	0	1.117398	12.28516	0	3	100	0	50	-1.903684	0.1271935	18.31568	
10:47:48	0	0	0	1.117398	12.28516	0	3	100	0	50	-1.946821	0.1324181	19.74134	
10:47:48	0	0	0	1.097512	7.252311	0	3	100	0	50	-1.986899	0.131276	20.52505	
10:47:49	0	0	0	1.097512	7.252311	0	3	100	0	50	-2.021736	0.1973106	23.27395	
10:47:49	0	0	0	1.097512	7.252311	0	3	100	0	50	-2.042389	0.231728	26.22926	
10:47:49	0	0	0	1.097512	7.252311	0	3	100	0	50	-2.027986	0.3387135	29.24265	
10:47:49	0	0	0	1.097512	7.252311	0	3	100	0	50	-2.022143	0.3926404	31.52765	
10:47:49	0	0	0	1.19198	9.248274	0	3	100	0	50	-2.013567	0.3698591	31.74877	
10:47:50	0	0	0	1.19198	9.248274	0	3	100	0	50	-1.979188	0.3520821	31.78122	
10:47:50	0	0	0	1.19198	9.248274	0	3	100	0	50	-1.951415	0.3349218	31.9775	
10:47:50	0	0	0	1.19198	9.248274	0	3	100	0	50	-1.905303	0.3367945	32.00866	
10:47:50	0	0	0	1.19198	9.248274	0	3	100	0	50	-1.864433	0.3304745	32.29136	
10:47:50	0	0	0	1.343679	12.0954	0	3	100	0	50	-1.922902	0.3085491	33.28747	
10:47:51	0	0	0	1.343679	12.0954	0	3	100	0	50	-1.937984	0.3158055	34.27258	
10:47:51	0	0	0	1.343679	12.0954	0	3	100	0	50	-2.088966	0.4623958	40.55163	
10:47:51	0	0	0	1.343679	12.0954	0	3	100	0	50	-2.125143	0.5746132	44.39114	
10:47:51	0	0	0	1.343679	12.0954	0	3	100	0	50	-2.092224	0.5917069	45.77084	
10:47:51	0	0	0	1.194027	0.007960358	0	3	100	0	50	-2.008648	0.6178386	46.57811	
10:47:52	0	0	0	1.194027	0.007960358	0	3	100	0	50	-1.996112	0.6338258	47.57007	
10:47:52	0	0	0	1.194027	0.007960358	0	3	100	0	50	-1.957412	0.6508028	49.00069	
10:47:52	0	0	0	1.194027	0.007960358	0	3	100	0	50	-1.98014	0.6791185	51.0012	
10:47:52	0	0	0	1.194027	0.007960358	0	3	100	0	50	-1.937847	0.7700639	54.30746	
10:47:53	0	0	0	0.848336	-19.37317	0	3	100	0	50	-2.093296	0.7865399	57.23728	
10:47:53	0	0	0	0.848336	-19.37317	0	3	100	0	50	-2.078497	0.8089165	59.23217	
10:47:53	0	0	0	0.848336	-19.37317	0	3	100	0	50	-2.041605	0.8981996	63.14419	
10:47:53	0	0	0	0.848336	-19.37317	0	3	100	0	50	-2.065296	0.9625711	66.60533	
10:47:53	0	0	0	0.848336	-19.37317	0	3	100	0	50	-2.213632	0.9785869	69.89207	
10:47:54	0	0	0	0.6882091	-19.08625	0	3	100	0	50	-2.341155	0.8151359	72.60776	
10:47:54	0	0	0	0.6882091	-19.08625	0	3	100	0	50	-2.417387	0.9010167	74.76804	
10:47:54	0	0	0	0.6882091	-19.08625	0	3	100	0	50	-2.516846	1.138633	78.19373	
10:47:54	0	0	0	0.6882091	-19.08625	0	3	100	0	50	-2.250033	1.217439	80.5976	
10:47:54	0	0	0	0.6882091	-19.08625	0	3	100	0	50	-2.122222	1.310408	82.11683	
10:47:55	0	0	0	0.8256625	-5.445226	0	3	100	0	50	-2.347692	1.342851	84.72577	
10:47:55	0	0	0	0.8256625	-5.445226	0	3	100	0	50	-2.219953	1.389123	88.86715	
10:47:55	0	0	0	0.8256625	-5.445226	0	3	100	0	50	-1.916082	1.40053	90.65441	
10:47:55	0	0	0	0.8256625	-5.445226	0	3	100	0	50	-1.811425	1.368137	92.19527	
10:47:55	0	0	0	0.8256625	-5.445226	0	3	100	0	50	-2.246987	1.448633	94.79849	
10:47:56	0	0	0	1.123322	11.46124	0	3	100	0	50	-2.338286	1.451339	95.11062	
10:47:56	0	0	0	1.123322	11.46124	0	3	100	0	50	-2.37452	1.369866	95.21089	
10:47:56	0	0	0	1.123322	11.46124	0	3	100	0	50	-6.937517	-3.304903	93.89139	
10:47:56	0	0	0	1.123322	11.46124	0	3	100	0	50	-8.307467	-4.280827	97.43713	
10:47:56	0	0	0	1.123322	11.46124	0	3	100	0	50	-10.08484	-0.06517529	101.7283	
10:47:57	0	0	0	1.427428	15.16872	0	3	100	0	50	-8.723737	0.4921274	105.5937	
10:47:57	0	0	0	1.427428	15.16872	0	3	100	0	50	-5.119512	2.548946	109.45	
10:47:57	0	0	0	1.427428	15.16872	0	3	100	0	50	-4.004068	4.453574	116.4974	
10:47:57	0	0	0	1.427428	15.16872	0	3	100	0	50	-2.973221	6.093783	120.655	
10:47:57	0	0	0	1.427428	15.16872	0	3	100	0	50	-2.302252	6.463996	127.3737	
10:47:58	0	0	0	1.30797	-0.9174187	0	3	100	0	50	-0.3399273	7.452716	136.8102	
10:47:58	0	0	0	1.30797	-0.9174187	0	3	100	0	50	7.637745	7.229207	141.4523	
10:47:58	0	0	0	1.30797	-0.9174187	0	3	100	0	50	4.942408	6.029947	146.5151	
10:47:58	0	0	0	1.30797	-0.9174187	0	3	100	0	50	3.124053	5.193318	153.3745	
10:47:58	0	0	0	1.30797	-0.9174187	0	3	100	0	50	1.970062	5.342535	157.5554	
10:47:59	0	0	0	1.162996	-3.618106	0	3	100	0	50	1.08459	5.254083	167.2309	
10:47:59	0	0	0	1.162996	-3.618106	0	3	100	0	50	2.104374	4.976444	173.8329	
10:47:59	0	0	0	1.162996	-3.618106	0	3	100	0	50	-0.5297055	5.898046	175.837	
10:47:59	0	0	0	1.162996	-3.618106	0	3	100	0	50	-7.007388	5.518277	173.3267	
10:47:59	0	0	0	1.162996	-3.618106	0	3	100	0	50	-5.215181	5.213529	172.5209	
10:48:00	0	0	0	1.115362	-4.150732	0	3	100	0	50	-3.70714	5.595396	176.7474	
10:48:00	0	0	0	1.115362	-4.150732	0	3	100	0	50	-3.738259	5.563271	176.3524	
10:48:00	0	0	0	1.115362	-4.150732	0	3	100	0	50	-4.74368	5.07829	178.1131	
10:48:00	0	0	0	1.115362	-4.150732	0	3	100	0	50	-3.345639	4.199643	178.5563	
10:48:00	0	0	0	1.115362	-4.150732	0	3	100	0	50	-3.320708	2.964995	-178.6644	
10:48:01	0	0	0	1.079776	-5.055447	0	3	100	0	50	-3.90588	2.350837	-176.6649	
10:48:01	0	0	0	1.079776	-5.055447	0	3	100	0	50	-4.130114	1.756681	-175.56	
10:48:01	0	0	0	1.079776	-5.055447	0	3	100	0	50	-4.051208	1.491184	-175.1631	
10:48:01	0	0	0	1.079776	-5.055447	0	3	100	0	50	-4.588668	0.8973277	-174.2195	
10:48:01	0	0	0	1.079776	-5.055447	0	3	100	0	50	-6.061133	0.2924431	-172.5238	
10:48:02	0	0	0	1.14314	-4.998158	0	3	100	0	50	-9.036624	-0.8016092	-165.2838	
10:48:02	0	0	0	1.14314	-4.998158	0	3	100	0	50	-7.407346	-1.737033	-157.1803	
10:48:02	0	0	0	1.14314	-4.998158	0	3	100	0	50	-8.053917	-1.773343	-154.8532	
10:48:02	0	0	0	1.14314	-4.998158	0	3	100	0	50	-7.99975	-1.708793	-152.9753	
10:48:02	0	0	0	1.14314	-4.998158	0	3	100	0	50	-6.965357	-0.7832828	-151.9634	
10:48:03	0	0	0	0.8483791	-16.15252	0	3	100	0	50	-6.261054	0.2797332	-151.1191	
10:48:03	0	0	0	0.8483791	-16.15252	0	3	100	0	50	-5.265144	0.683603	-150.7319	
10:48:03	0	0	0	0.8483791	-16.15252	0	3	100	0	50	-5.807002	0.7052525	-149.401	
10:48:03	0	0	0	0.8483791	-16.15252	0	3	100	0	50	-3.878191	0.8887873	-142.9746	
10:48:03	0	0	0	0.8483791	-16.15252	0	3	100	0	50	-3.811265	-2.1516	-130.3197	
10:48:04	0	0	0	0.8499734	-13.84867	0	3	100	0	50	-6.180694	1.123518	-120.8924	
10:48:04	0	0	0	0.8499734	-13.84867	0	3	100	0	50	-6.413547	3.27904	-110.9387	
10:48:04	0	0	0	0.8499734	-13.84867	0	3	100	0	50	-6.321405	0.6469252	-104.6987	
10:48:04	0	0	0	0.8499734	-13.84867	0	3	100	0	50	-5.195658	-2.481503	-98.97755	
10:48:04	0	0	0	0.8499734	-13.84867	0	3	100	0	50	-2.845746	-0.6063266	-90.23616	
10:48:05	0	0	0	0.9636462	-4.666133	0	3	100	0	50	-2.037597	-0.2463788	-74.20886	
10:48:05	0	0	0	0.9636462	-4.666133	0	3	100	0	50	-2.712272	-0.8262425	-69.97031	
10:48:05	0	0	0	0.9636462	-4.666133	0	3	100	0	50	-3.276823	0.3630598	-61.74743	
10:48:05	0	0	0	0.9636462	-4.666133	0	3	100	0	50	-1.915025	-0.6198367	-54.03147	
10:48:06	0	0	0	0.9636462	-4.666133	0	3	100	0	50	-1.163125	-1.243026	-45.76659	
10:48:06	0	0	0	1.201116	10.4089	0	3	100	0	50	-2.084572	-1.716217	-36.73505	
10:48:06	0	0	0	1.201116	10.4089	0	3	100	0	50	-0.9456657	-0.8281609	-25.02731	
10:48:06	0	0	0	1.201116	10.4089	0	3	100	0	50	-0.5869107	0.2436537	-17.24452	
10:48:06	0	0	0	1.201116	10.4089	0	3	100	0	50	-2.623765	0.9292162	-13.35174	
10:48:07	0	0	0	1.201116	10.4089	0	3	100	0	50	-2.902814	1.291083	-9.843393	
10:48:07	0	0	0	1.38131	13.53543	0	3	100	0	50	-3.409598	0.5091675	-11.27963	
10:48:07	0	0	0	1.38131	13.53543	0	3	100	0	50	-1.503394	-0.1351832	-11.72646	
10:48:07	0	0	0	1.38131	13.53543	0	3	100	0	50	-1.774653	-0.7550169	-13.3142	
10:48:07	0	0	0	1.38131	13.53543	0	3	100	0	50	-1.784578	-2.449314	-19.36914	
10:48:08	0	0	0	1.38131	13.53543	0	3	100	0	50	-0.5797479	-6.120678	-31.75256	
10:48:08	0	0	0	1.254039	3.879673	0	3	100	0	50	1.935875	-11.22406	-43.58827	
10:48:08	0	0	0	1.254039	3.879673	0	3	100	0	50	-2.521757	-14.79911	-56.04345	
10:48:08	0	0	0	1.254039	3.879673	0	3	100	0	50	-2.603375	-16.08089	-66.74886	
10:48:08	0	0	0	1.254039	3.879673	0	3	100	0	50	-2.538747	-20.04401	-79.42904	
10:48:09	0	0	0	1.254039	3.879673	0	3	100	0	50	1.059377	-20.84432	-96.12534	
10:48:09	0	0	0	1.223906	6.793036	0	3	100	0	50	2.724437	-19.99531	-109.3244	
10:48:09	0	0	0	1.223906	6.793036	0	3	100	0	50	4.030818	-17.46511	-121.923	
10:48:09	0	0	0	1.223906	6.793036	0	3	100	0	50	2.061711	-16.60399	-124.6206	
10:48:09	0	0	0	1.223906	6.793036	0	3	100	0	50	3.994679	-15.35612	-133.1801	
10:48:10	0	0	0	1.223906	6.793036	0	3	100	0	50	9.747805	-11.80191	-147.9612	
10:48:10	0	0	0	1.194462	8.691576	0	3	100	0	50	9.065281	-10.51591	-155.5872	
10:48:10	0	0	0	1.194462	8.691576	0	3	100	0	50	8.249271	-5.96121	-168.1752	
10:48:10	0	0	0	1.194462	8.691576	0	3	100	0	50	10.61407	-2.600993	-178.5245	
10:48:10	0	0	0	1.194462	8.691576	0	3	100	0	50	11.17091	0.9242573	167.7215	
10:48:11	0	0	0	1.194462	8.691576	0	3	100	0	50	12.26384	4.344544	155.8829	
10:48:11	0	0	0	1.25491	17.53132	0	3	100	0	50	11.3996	4.743044	147.5238	
10:48:11	0	0	0	1.25491	17.53132	0	3	100	0	50	13.1647	5.813306	138.7144	
10:48:11	0	0	0	1.25491	17.53132	0	3	100	0	50	12.43362	7.976534	125.3477	
10:48:11	0	0	0	1.25491	17.53132	0	3	100	0	50	10.61183	11.52002	115.351	
10:48:12	0	0	0	1.25491	17.53132	0	3	100	0	50	10.0859	16.31399	105.4615	
10:48:12	0	0	0	1.296463	13.96187	0	3	100	0	50	8.471485	18.11865	97.20813	
10:48:12	0	0	0	1.296463	13.96187	0	3	100	0	50	6.825721	17.49929	90.22942	
10:48:12	0	0	0	1.296463	13.96187	0	3	100	0	50	2.936313	17.21248	83.44057	
10:48:12	0	0	0	1.296463	13.96187	0	3	100	0	50	-0.3648339	14.60118	78.05345	
10:48:13	0	0	0	1.296463	13.96187	0	3	100	0	50	-1.563111	15.20441	75.75381	
10:48:13	0	0	0	1.324351	8.82389	0	3	100	0	50	-3.775467	13.87826	72.409	
10:48:13	0	0	0	1.324351	8.82389	0	3	100	0	50	-6.167021	13.87929	69.46965	
10:48:13	0	0	0	1.324351	8.82389	0	3	100	0	50	-5.961245	15.18585	68.77992	
10:48:13	0	0	0	1.324351	8.82389	0	3	100	0	50	-6.83844	13.98003	66.59234	
10:48:14	0	0	0	1.324351	8.82389	0	3	100	0	50	-8.529269	12.73662	64.89142	
10:48:14	0	0	0	1.039391	-10.87081	0	3	100	0	50	-9.184422	10.95435	61.23271	
10:48:14	0	0	0	1.039391	-10.87081	0	3	100	0	50	-9.086003	7.140053	54.90796	
10:48:14	0	0	0	1.039391	-10.87081	0	3	100	0	50	-6.671903	5.475917	50.27435	
10:48:14	0	0	0	1.039391	-10.87081	0	3	100	0	50	-9.586335	0.3233073	44.54967	
10:48:15	0	0	0	1.039391	-10.87081	0	3	100	0	50	-9.695091	-2.270972	40.48639	
10:48:15	0	0	0	0.8511744	-20.17033	0	3	100	0	50	-10.9482	-4.259215	37.2494	
10:48:15	0	0	0	0.8511744	-20.17033	0	3	100	0	50	-13.58364	-4.260538	33.37172	
10:48:15	0	0	0	0.8511744	-20.17033	0	3	100	0	50	-15.01076	-4.136334	33.13941	
10:48:15	0	0	0	0.8511744	-20.17033	0	3	100	0	50	-23.56949	-3.102664	34.6757	
10:48:16	0	0	0	0.8511744	-20.17033	0	3	100	0	50	-35.14819	-0.01930493	36.21712	
10:48:16	0	0	0	0.6311395	-20.90831	0	3	100	0	50	-38.27958	0.7390691	36.92323	
10:48:16	0	0	0	0.6311395	-20.90831	0	3	100	0	50	-40.97724	0.8697718	39.20424	
10:48:16	0	0	0	0.6311395	-20.90831	0	3	100	0	50	-41.3605	1.221036	40.94698	
10:48:17	0	0	0	0.6311395	-20.90831	0	3	100	0	50	-35.02574	3.190895	47.89341	
10:48:17	0	0	0	0.6311395	-20.90831	0	3	100	0	50	-31.27535	2.489794	58.20123	
10:48:17	0	0	0	0.6446767	-17.90273	0	3	100	0	50	-16.16849	3.503967	74.22727	
10:48:17	0	0	0	0.6446767	-17.90273	0	3	100	0	50	-4.485105	-1.673549	97.87394	
10:48:17	0	0	0	0.6446767	-17.90273	0	3	100	0	50	-5.525757	-4.204603	112.5686	
10:48:18	0	0	0	0.6446767	-17.90273	0	3	100	0	50	-12.19154	-4.18225	118.4909	
10:48:18	0	0	0	0.6446767	-17.90273	0	3	100	0	50	-10.71846	0.15119	124.3041	
10:48:18	0	0	0	0.6038803	-19.66522	0	3	100	0	50	-9.658562	0.08052736	132.2362	
10:48:18	0	0	0	0.6038803	-19.66522	0	3	100	0	50	-9.178402	2.074624	134.847	
10:48:18	0	0	0	0.6038803	-19.66522	0	3	100	0	50	-10.37538	4.522821	141.0484	
10:48:19	0	0	0	0.6038803	-19.66522	0	3	100	0	50	-10.10501	5.192392	142.0462	
10:48:19	0	0	0	0.6038803	-19.66522	0	3	100	0	50	-9.062131	6.077876	143.3731	
