Date	Latitude(deg) 	Longitude(deg)	hamsl(m)	hafl(m)	climbrate(cm/s)	GroundSpeed(m/s)	Airspeed(m/s)	Mav_Link(%)	Rssi_Link(%)	Throttle	Roll(deg)	Pitch(deg)	Yaw(deg)
22:41:15	0	0	0	0	0	0	0	100	0	0	2.532825	2.054717	-46.90681	
22:41:15	0	0	0	0	0	0	0	100	0	0	2.527909	2.054799	-46.9024	
22:41:15	0	0	0	0	0	0	0	100	0	0	2.524188	2.054467	-46.87442	
22:41:15	0	0	0	-0.07641411	-66.19603	0	3	100	0	50	2.520591	2.060744	-46.85952	
22:41:15	0	0	0	-0.07641411	-66.19603	0	3	100	0	50	2.522364	2.061399	-46.85379	
22:41:16	0	0	0	-0.07641411	-66.19603	0	3	100	0	50	2.518626	2.068292	-46.85866	
22:41:16	0	0	0	-0.07641411	-66.19603	0	3	100	0	50	2.513077	2.066761	-46.8489	
22:41:16	0	0	0	-0.07641411	-66.19603	0	3	100	0	50	2.49914	2.084065	-46.84733	
22:41:16	0	0	0	0.3103341	-100.1124	0	3	100	0	50	2.509079	2.100338	-46.82798	
22:41:16	0	0	0	0.3103341	-100.1124	0	3	100	0	50	2.503906	2.107204	-46.81538	
22:41:17	0	0	0	0.3103341	-100.1124	0	3	100	0	50	2.503419	2.121841	-46.82641	
22:41:17	0	0	0	0.3103341	-100.1124	0	3	100	0	50	2.496686	2.120723	-46.81678	
22:41:17	0	0	0	0.3103341	-100.1124	0	3	100	0	50	2.482356	2.116895	-46.81384	
22:41:17	0	0	0	-0.4598136	-165.4503	0	3	100	0	50	2.489116	2.120443	-46.81603	
22:41:17	0	0	0	-0.4598136	-165.4503	0	3	100	0	50	2.492527	2.123549	-46.8089	
22:41:18	0	0	0	-0.4598136	-165.4503	0	3	100	0	50	2.484833	2.131431	-46.80361	
22:41:18	0	0	0	-0.4598136	-165.4503	0	3	100	0	50	2.478435	2.148524	-46.79865	
22:41:18	0	0	0	-0.4598136	-165.4503	0	3	100	0	50	2.464465	2.167537	-46.78521	
22:41:18	0	0	0	-1.195371	-197.7398	0	3	100	0	50	2.462832	2.180871	-46.7776	
22:41:18	0	0	0	-1.195371	-197.7398	0	3	100	0	50	2.463666	2.180824	-46.78714	
22:41:19	0	0	0	-1.195371	-197.7398	0	3	100	0	50	2.459566	2.186882	-46.79074	
22:41:19	0	0	0	-1.195371	-197.7398	0	3	100	0	50	2.445834	2.213279	-46.76745	
22:41:19	0	0	0	-1.195371	-197.7398	0	3	100	0	50	2.434069	2.228499	-46.73283	
22:41:19	0	0	0	-1.527821	-194.6692	0	3	100	0	50	2.436552	2.24246	-46.72301	
22:41:19	0	0	0	-1.527821	-194.6692	0	3	100	0	50	2.441848	2.255569	-46.6841	
22:41:20	0	0	0	-1.527821	-194.6692	0	3	100	0	50	2.436472	2.254477	-46.67233	
22:41:20	0	0	0	-1.527821	-194.6692	0	3	100	0	50	2.433121	2.268011	-46.64647	
22:41:20	0	0	0	-1.527821	-194.6692	0	3	100	0	50	2.429742	2.270218	-46.64744	
22:41:20	0	0	0	-1.540456	-176.0358	0	3	100	0	50	2.432057	2.263678	-46.6374	
22:41:20	0	0	0	-1.540456	-176.0358	0	3	100	0	50	2.425586	2.268594	-46.62733	
22:41:21	0	0	0	-1.540456	-176.0358	0	3	100	0	50	2.425998	2.27023	-46.63903	
22:41:21	0	0	0	-1.540456	-176.0358	0	3	100	0	50	2.432036	2.281388	-46.6493	
22:41:21	0	0	0	-1.540456	-176.0358	0	3	100	0	50	2.425954	2.280337	-46.68714	
22:41:21	0	0	0	-1.331302	-151.1821	0	3	100	0	50	2.412874	2.2781	-46.70583	
22:41:21	0	0	0	-1.331302	-151.1821	0	3	100	0	50	2.417347	2.285891	-46.69612	
22:41:22	0	0	0	-1.331302	-151.1821	0	3	100	0	50	2.412854	2.283927	-46.69889	
22:41:22	0	0	0	-1.331302	-151.1821	0	3	100	0	50	2.423516	2.283541	-46.69219	
22:41:22	0	0	0	-1.331302	-151.1821	0	3	100	0	50	2.425493	2.278937	-46.69065	
22:41:22	0	0	0	-1.152461	-135.0633	0	3	100	0	50	2.418982	2.278834	-46.66396	
22:41:23	0	0	0	-1.152461	-135.0633	0	3	100	0	50	2.409686	2.292546	-46.66265	
22:41:23	0	0	0	-1.152461	-135.0633	0	3	100	0	50	2.422347	2.316155	-46.6516	
22:41:23	0	0	0	-1.152461	-135.0633	0	3	100	0	50	2.428882	2.319391	-46.64365	
22:41:23	0	0	0	-1.152461	-135.0633	0	3	100	0	50	2.429462	2.313549	-46.64862	
22:41:23	0	0	0	-0.9612237	-122.0473	0	3	100	0	50	2.424991	2.319906	-46.6488	
22:41:24	0	0	0	-0.9612237	-122.0473	0	3	100	0	50	2.410734	2.312545	-46.62286	
22:41:24	0	0	0	-0.9612237	-122.0473	0	3	100	0	50	2.397681	2.320989	-46.62472	
22:41:24	0	0	0	-0.9612237	-122.0473	0	3	100	0	50	2.395334	2.320173	-46.5658	
22:41:24	0	0	0	-0.9612237	-122.0473	0	3	100	0	50	21.99376	-0.2122538	-46.24926	
22:41:24	0	0	0	-0.9761033	-124.9889	0	3	100	0	50	7.183003	-2.276008	-46.3647	
22:41:25	0	0	0	-0.9761033	-124.9889	0	3	100	0	50	-17.32911	-5.128932	-45.26302	
22:41:25	0	0	0	-0.9761033	-124.9889	0	3	100	0	50	-13.07279	-7.804662	-44.91929	
22:41:25	0	0	0	-0.9761033	-124.9889	0	3	100	0	50	17.46265	-6.973833	-49.15456	
22:41:25	0	0	0	-0.9761033	-124.9889	0	3	100	0	50	-19.47297	-5.96785	-43.88458	
22:41:25	0	0	0	-0.8246433	-105.1641	0	3	100	0	50	-30.62708	-4.94316	-44.32793	
22:41:26	0	0	0	-0.8246433	-105.1641	0	3	100	0	50	1.435915	-6.141552	-48.53844	
22:41:26	0	0	0	-0.8246433	-105.1641	0	3	100	0	50	-1.195665	-7.181662	-47.10482	
22:41:26	0	0	0	-0.8246433	-105.1641	0	3	100	0	50	-34.4592	-3.590431	-40.30091	
22:41:26	0	0	0	-0.8246433	-105.1641	0	3	100	0	50	-21.50128	-5.986016	-42.31989	
22:41:26	0	0	0	-0.7855884	-92.12806	0	3	100	0	50	-7.707349	-1.530218	-45.19492	
22:41:27	0	0	0	-0.7855884	-92.12806	0	3	100	0	50	-0.4479932	1.626845	-44.55468	
22:41:27	0	0	0	-0.7855884	-92.12806	0	3	100	0	50	-0.09982004	1.91054	-44.7689	
22:41:27	0	0	0	-0.7855884	-92.12806	0	3	100	0	50	0.1255861	1.979739	-45.0092	
22:41:27	0	0	0	-0.7855884	-92.12806	0	3	100	0	50	0.5490528	2.160216	-45.15234	
22:41:27	0	0	0	-0.7490087	-93.13613	0	3	100	0	50	0.6152713	2.129452	-45.24425	
22:41:28	0	0	0	-0.7490087	-93.13613	0	3	100	0	50	0.7928985	2.210277	-45.33264	
22:41:28	0	0	0	-0.7490087	-93.13613	0	3	100	0	50	0.8851259	2.240361	-45.38846	
22:41:28	0	0	0	-0.7490087	-93.13613	0	3	100	0	50	0.9061737	2.214587	-45.46676	
22:41:28	0	0	0	-0.7490087	-93.13613	0	3	100	0	50	0.9203619	2.194213	-45.52592	
22:41:28	0	0	0	-0.688311	-89.92622	0	3	100	0	50	0.9209898	2.182492	-45.58635	
22:41:29	0	0	0	-0.688311	-89.92622	0	3	100	0	50	0.919785	2.158579	-45.6505	
22:41:29	0	0	0	-0.688311	-89.92622	0	3	100	0	50	0.9599665	2.157877	-45.68552	
22:41:29	0	0	0	-0.688311	-89.92622	0	3	100	0	50	0.9422891	2.131795	-45.68773	
22:41:29	0	0	0	-0.688311	-89.92622	0	3	100	0	50	0.8398274	1.798262	-40.41804	
22:41:29	0	0	0	-0.682763	-85.06635	0	3	100	0	50	0.7837783	1.655126	-36.3103	
22:41:30	0	0	0	-0.682763	-85.06635	0	3	100	0	50	0.7655493	1.501964	-33.65425	
22:41:30	0	0	0	-0.682763	-85.06635	0	3	100	0	50	0.6801051	1.35453	-30.76719	
22:41:30	0	0	0	-0.682763	-85.06635	0	3	100	0	50	0.7900785	1.37915	-29.9469	
22:41:30	0	0	0	-0.682763	-85.06635	0	3	100	0	50	1.081948	1.447503	-26.97284	
22:41:30	0	0	0	-0.3521593	-70.53745	0	3	100	0	50	1.005412	1.4033	-24.27132	
22:41:31	0	0	0	-0.3521593	-70.53745	0	3	100	0	50	0.9367097	1.365798	-21.77509	
22:41:31	0	0	0	-0.3521593	-70.53745	0	3	100	0	50	0.933161	1.414275	-19.91908	
22:41:31	0	0	0	-0.3521593	-70.53745	0	3	100	0	50	0.7958891	1.376351	-19.2801	
22:41:31	0	0	0	-0.3521593	-70.53745	0	3	100	0	50	1.057598	1.503983	-17.85452	
22:41:31	0	0	0	-0.4060817	-74.49004	0	3	100	0	50	1.196385	1.527011	-17.04133	
22:41:32	0	0	0	-0.4060817	-74.49004	0	3	100	0	50	1.071816	1.406969	-16.37305	
22:41:32	0	0	0	-0.4060817	-74.49004	0	3	100	0	50	0.5185856	1.19173	-15.7186	
22:41:32	0	0	0	-0.4060817	-74.49004	0	3	100	0	50	0.7002313	1.112617	-15.29517	
22:41:32	0	0	0	-0.4060817	-74.49004	0	3	100	0	50	0.5080569	0.8747071	-14.716	
22:41:32	0	0	0	-0.3285373	-72.40221	0	3	100	0	50	-0.4278385	0.3882958	-12.32637	
22:41:33	0	0	0	-0.3285373	-72.40221	0	3	100	0	50	-0.9232653	-0.2999551	-10.64557	
22:41:33	0	0	0	-0.3285373	-72.40221	0	3	100	0	50	-1.533015	-0.7494031	-10.31149	
22:41:33	0	0	0	-0.3285373	-72.40221	0	3	100	0	50	-0.548378	-2.41053	-8.28399	
22:41:33	0	0	0	-0.3285373	-72.40221	0	3	100	0	50	0.2701322	-1.232132	-8.567873	
22:41:33	0	0	0	-0.383232	-70.67052	0	3	100	0	50	1.251035	0.8884618	-7.036722	
22:41:34	0	0	0	-0.383232	-70.67052	0	3	100	0	50	1.095016	0.9429244	-5.097013	
22:41:34	0	0	0	-0.383232	-70.67052	0	3	100	0	50	1.116521	0.9100221	-3.165302	
22:41:34	0	0	0	-0.383232	-70.67052	0	3	100	0	50	1.026806	0.84002	-2.178713	
22:41:34	0	0	0	-0.383232	-70.67052	0	3	100	0	50	1.057571	0.8330091	-1.225985	
22:41:34	0	0	0	-0.3043318	-60.78997	0	3	100	0	50	1.127089	0.8123294	-0.07200436	
22:41:35	0	0	0	-0.3043318	-60.78997	0	3	100	0	50	1.010368	0.7269586	0.8720132	
22:41:35	0	0	0	-0.3043318	-60.78997	0	3	100	0	50	1.021304	0.6992943	1.257469	
22:41:35	0	0	0	-0.3043318	-60.78997	0	3	100	0	50	1.117762	0.7418131	1.547311	
22:41:35	0	0	0	-0.3043318	-60.78997	0	3	100	0	50	1.181972	0.751589	0.8468307	
22:41:35	0	0	0	-0.1182953	-50.74391	0	3	100	0	50	1.220129	0.7460988	0.6480415	
22:41:36	0	0	0	-0.1182953	-50.74391	0	3	100	0	50	1.253975	0.7300493	0.3971581	
22:41:36	0	0	0	-0.1182953	-50.74391	0	3	100	0	50	1.255217	0.675724	-0.06863012	
22:41:36	0	0	0	-0.1182953	-50.74391	0	3	100	0	50	1.399015	0.6739347	-2.498345	
22:41:36	0	0	0	-0.1182953	-50.74391	0	3	100	0	50	1.441966	0.6282634	-2.612362	
22:41:37	0	0	0	0.1083896	-42.70477	0	3	100	0	50	1.478661	0.64054	-3.580178	
22:41:37	0	0	0	0.1083896	-42.70477	0	3	100	0	50	1.58142	0.6623442	-5.02512	
22:41:37	0	0	0	0.1083896	-42.70477	0	3	100	0	50	1.791101	0.6170009	-8.551682	
22:41:37	0	0	0	0.1083896	-42.70477	0	3	100	0	50	1.091866	-5.297999	-7.402971	
22:41:37	0	0	0	0.1083896	-42.70477	0	3	100	0	50	-3.153989	2.941514	-5.967188	
22:41:38	0	0	0	0.0188087	-44.28262	0	3	100	0	50	-2.933336	5.543351	-2.694416	
22:41:38	0	0	0	0.0188087	-44.28262	0	3	100	0	50	-6.878928	5.461108	0.8240536	
22:41:38	0	0	0	0.0188087	-44.28262	0	3	100	0	50	-9.165886	10.19002	3.960993	
22:41:38	0	0	0	0.0188087	-44.28262	0	3	100	0	50	-7.927043	7.807348	6.964644	
22:41:38	0	0	0	0.0188087	-44.28262	0	3	100	0	50	-8.560184	7.7448	11.08788	
22:41:39	0	0	0	-0.01952503	-60.58844	0	3	100	0	50	-10.84526	10.24045	14.13037	
22:41:39	0	0	0	-0.01952503	-60.58844	0	3	100	0	50	-12.42881	14.00496	16.35519	
22:41:39	0	0	0	-0.01952503	-60.58844	0	3	100	0	50	-7.753053	7.20305	20.87844	
22:41:39	0	0	0	-0.01952503	-60.58844	0	3	100	0	50	-8.285681	3.273366	25.11219	
22:41:39	0	0	0	-0.01952503	-60.58844	0	3	100	0	50	-9.582919	1.07086	29.59929	
22:41:40	0	0	0	-0.1013781	-66.24216	0	3	100	0	50	-12.64087	3.790628	34.53533	
22:41:40	0	0	0	-0.1013781	-66.24216	0	3	100	0	50	-14.39335	8.476569	45.03622	
22:41:40	0	0	0	-0.1013781	-66.24216	0	3	100	0	50	-14.11923	7.99624	52.50459	
22:41:40	0	0	0	-0.1013781	-66.24216	0	3	100	0	50	-12.61397	7.815052	59.76755	
22:41:40	0	0	0	-0.1013781	-66.24216	0	3	100	0	50	-13.00603	4.747572	62.59982	
22:41:41	0	0	0	-0.05902953	-59.75031	0	3	100	0	50	-13.1771	2.11344	68.0093	
22:41:41	0	0	0	-0.05902953	-59.75031	0	3	100	0	50	-12.73412	-0.431382	71.78372	
22:41:41	0	0	0	-0.05902953	-59.75031	0	3	100	0	50	-12.56649	-0.6194059	74.81503	
22:41:41	0	0	0	-0.05902953	-59.75031	0	3	100	0	50	-11.70008	-1.601857	82.82426	
22:41:41	0	0	0	-0.05902953	-59.75031	0	3	100	0	50	-13.45104	-4.085632	90.14479	
22:41:42	0	0	0	-0.02140027	-50.50868	0	3	100	0	50	-14.42009	-4.222395	92.77313	
22:41:42	0	0	0	-0.02140027	-50.50868	0	3	100	0	50	-13.80373	-5.510831	95.54848	
22:41:42	0	0	0	-0.02140027	-50.50868	0	3	100	0	50	-15.7766	-11.23608	102.4565	
22:41:42	0	0	0	-0.02140027	-50.50868	0	3	100	0	50	-15.17418	-13.72686	111.5847	
22:41:42	0	0	0	-0.02140027	-50.50868	0	3	100	0	50	-17.53768	-13.68363	117.6906	
22:41:43	0	0	0	0.09901275	-38.86331	0	3	100	0	50	-21.16017	-14.55935	120.7414	
22:41:43	0	0	0	0.09901275	-38.86331	0	3	100	0	50	-23.35871	-14.81035	127.8799	
22:41:43	0	0	0	0.09901275	-38.86331	0	3	100	0	50	-26.57119	-14.39793	130.308	
22:41:43	0	0	0	0.09901275	-38.86331	0	3	100	0	50	-26.54614	-13.95313	134.3162	
22:41:43	0	0	0	0.09901275	-38.86331	0	3	100	0	50	-27.2334	-14.34618	137.6544	
22:41:44	0	0	0	0.2134458	-18.99736	0	3	100	0	50	-27.99077	-13.949	142.1139	
22:41:44	0	0	0	0.2134458	-18.99736	0	3	100	0	50	-26.27747	-13.35116	143.4618	
22:41:44	0	0	0	0.2134458	-18.99736	0	3	100	0	50	-22.45201	-12.21252	143.5906	
22:41:44	0	0	0	0.2134458	-18.99736	0	3	100	0	50	-22.55051	-14.69808	149.7662	
22:41:44	0	0	0	0.2134458	-18.99736	0	3	100	0	50	-22.22975	-15.35144	162.52	
22:41:45	0	0	0	0.3847001	2.839067	0	3	100	0	50	-19.73473	-8.736136	171.6846	
22:41:45	0	0	0	0.3847001	2.839067	0	3	100	0	50	-15.9665	-2.522386	179.5248	
22:41:45	0	0	0	0.3847001	2.839067	0	3	100	0	50	-13.7681	0.956118	-175.8924	
22:41:45	0	0	0	0.3847001	2.839067	0	3	100	0	50	-12.33603	1.911408	-172.6733	
22:41:45	0	0	0	0.3847001	2.839067	0	3	100	0	50	-11.15802	3.06021	-167.909	
22:41:46	0	0	0	0.4370681	-14.33027	0	3	100	0	50	-8.9685	5.065612	-162.8379	
22:41:46	0	0	0	0.4370681	-14.33027	0	3	100	0	50	-7.869694	5.955028	-159.6182	
22:41:46	0	0	0	0.4370681	-14.33027	0	3	100	0	50	-6.485494	7.461616	-153.7386	
22:41:46	0	0	0	0.4370681	-14.33027	0	3	100	0	50	-4.921704	7.613557	-147.3631	
22:41:46	0	0	0	0.4370681	-14.33027	0	3	100	0	50	-2.476618	8.795028	-141.126	
22:41:47	0	0	0	0.2681383	-33.73285	0	3	100	0	50	-1.266414	9.024021	-134.6682	
22:41:47	0	0	0	0.2681383	-33.73285	0	3	100	0	50	-0.5796397	11.14659	-128.4754	
22:41:47	0	0	0	0.2681383	-33.73285	0	3	100	0	50	-7.393791	15.11025	-121.2331	
22:41:47	0	0	0	0.2681383	-33.73285	0	3	100	0	50	-5.26348	14.66858	-116.2366	
22:41:47	0	0	0	0.2681383	-33.73285	0	3	100	0	50	-2.785837	14.39394	-107.424	
22:41:48	0	0	0	0.2228367	-40.35078	0	3	100	0	50	-2.460388	14.00789	-102.4439	
22:41:48	0	0	0	0.2228367	-40.35078	0	3	100	0	50	-2.508972	14.5453	-95.8134	
22:41:48	0	0	0	0.2228367	-40.35078	0	3	100	0	50	-6.660748	15.00798	-90.97438	
22:41:48	0	0	0	0.2228367	-40.35078	0	3	100	0	50	-5.511105	15.96779	-85.26561	
22:41:48	0	0	0	0.2228367	-40.35078	0	3	100	0	50	-3.497865	16.03234	-79.06958	
22:41:49	0	0	0	0.11155	-47.1489	0	3	100	0	50	-1.348242	15.77585	-72.90234	
22:41:49	0	0	0	0.11155	-47.1489	0	3	100	0	50	-0.2122565	15.02024	-68.56185	
22:41:49	0	0	0	0.11155	-47.1489	0	3	100	0	50	0.2289536	15.25977	-61.39892	
22:41:49	0	0	0	0.11155	-47.1489	0	3	100	0	50	1.025316	14.141	-55.03874	
22:41:49	0	0	0	0.11155	-47.1489	0	3	100	0	50	1.780244	13.18533	-47.34418	
22:41:50	0	0	0	-0.04337615	-48.36549	0	3	100	0	50	3.436125	12.53539	-41.64749	
22:41:50	0	0	0	-0.04337615	-48.36549	0	3	100	0	50	2.514557	12.00017	-36.29899	
22:41:50	0	0	0	-0.04337615	-48.36549	0	3	100	0	50	2.659416	11.70815	-31.81394	
22:41:50	0	0	0	-0.04337615	-48.36549	0	3	100	0	50	3.730287	11.32199	-30.05602	
22:41:51	0	0	0	-0.04337615	-48.36549	0	3	100	0	50	4.168615	10.68182	-28.3258	
22:41:51	0	0	0	0.07367287	-34.02722	0	3	100	0	50	4.258254	10.27153	-27.63751	
22:41:51	0	0	0	0.07367287	-34.02722	0	3	100	0	50	4.270811	10.12142	-26.9203	
22:41:51	0	0	0	0.07367287	-34.02722	0	3	100	0	50	4.550747	9.793605	-26.29621	
22:41:51	0	0	0	0.07367287	-34.02722	0	3	100	0	50	4.616444	9.473178	-25.74629	
22:41:52	0	0	0	0.07367287	-34.02722	0	3	100	0	50	4.621154	9.351473	-25.07402	
22:41:52	0	0	0	0.2309375	-22.99862	0	3	100	0	50	4.788173	9.26577	-24.46251	
22:41:52	0	0	0	0.2309375	-22.99862	0	3	100	0	50	4.838246	9.152991	-24.23206	
22:41:52	0	0	0	0.2309375	-22.99862	0	3	100	0	50	4.41772	8.953987	-24.14466	
22:41:52	0	0	0	0.2309375	-22.99862	0	3	100	0	50	3.211454	9.189016	-24.42592	
22:41:53	0	0	0	0.2309375	-22.99862	0	3	100	0	50	2.602413	9.500372	-24.21322	
22:41:53	0	0	0	0.233209	-22.34838	0	3	100	0	50	2.691828	9.082744	-22.78099	
22:41:53	0	0	0	0.233209	-22.34838	0	3	100	0	50	2.944815	8.467966	-19.31602	
22:41:53	0	0	0	0.233209	-22.34838	0	3	100	0	50	4.388239	7.402671	-17.00704	
22:41:53	0	0	0	0.233209	-22.34838	0	3	100	0	50	5.622926	6.94031	-14.26445	
22:41:54	0	0	0	0.233209	-22.34838	0	3	100	0	50	5.758935	6.311806	-13.14348	
22:41:54	0	0	0	0.07660292	-27.29612	0	3	100	0	50	5.823342	6.322026	-11.74057	
22:41:54	0	0	0	0.07660292	-27.29612	0	3	100	0	50	5.734878	6.093422	-10.29696	
22:41:54	0	0	0	0.07660292	-27.29612	0	3	100	0	50	5.372458	6.084141	-9.532597	
22:41:54	0	0	0	0.07660292	-27.29612	0	3	100	0	50	5.032098	5.675967	-8.385579	
22:41:55	0	0	0	0.07660292	-27.29612	0	3	100	0	50	5.203681	5.404399	-6.756043	
22:41:55	0	0	0	0.1354776	-20.41248	0	3	100	0	50	4.325447	3.604295	-1.875469	
22:41:55	0	0	0	0.1354776	-20.41248	0	3	100	0	50	4.506966	2.437764	4.479765	
22:41:55	0	0	0	0.1354776	-20.41248	0	3	100	0	50	2.499612	4.460347	6.038075	
22:41:55	0	0	0	0.1354776	-20.41248	0	3	100	0	50	5.448427	0.1726013	8.211828	
22:41:56	0	0	0	0.1354776	-20.41248	0	3	100	0	50	3.182144	5.404323	8.550962	
22:41:56	0	0	0	0.03438453	-24.05618	0	3	100	0	50	1.271478	12.00307	7.463151	
22:41:56	0	0	0	0.03438453	-24.05618	0	3	100	0	50	5.551593	5.307391	8.312262	
22:41:56	0	0	0	0.03438453	-24.05618	0	3	100	0	50	5.986938	4.837374	8.410524	
22:41:56	0	0	0	0.03438453	-24.05618	0	3	100	0	50	6.51174	5.772753	8.494511	
22:41:57	0	0	0	0.03438453	-24.05618	0	3	100	0	50	5.3805	4.956044	8.616225	
22:41:57	0	0	0	0.09821527	-15.73707	0	3	100	0	50	3.538984	5.177625	8.827809	
22:41:57	0	0	0	0.09821527	-15.73707	0	3	100	0	50	4.794297	5.752978	3.286151	
22:41:57	0	0	0	0.09821527	-15.73707	0	3	100	0	50	5.83351	4.77425	1.933936	
22:41:57	0	0	0	0.09821527	-15.73707	0	3	100	0	50	5.90941	4.201393	1.460678	
22:41:58	0	0	0	0.09821527	-15.73707	0	3	100	0	50	6.584541	4.133353	0.8332577	
22:41:58	0	0	0	0.1111959	-17.75236	0	3	100	0	50	7.523043	3.786061	-0.4268362	
22:41:58	0	0	0	0.1111959	-17.75236	0	3	100	0	50	8.719662	3.076442	-1.399215	
22:41:58	0	0	0	0.1111959	-17.75236	0	3	100	0	50	8.838952	2.883084	-1.941264	
22:41:58	0	0	0	0.1111959	-17.75236	0	3	100	0	50	9.200002	2.246079	-2.926972	
22:41:59	0	0	0	0.1111959	-17.75236	0	3	100	0	50	9.428582	2.017641	-2.920431	
22:41:59	0	0	0	0.3358296	-6.577521	0	3	100	0	50	9.515932	1.94834	-2.931039	
22:41:59	0	0	0	0.3358296	-6.577521	0	3	100	0	50	9.539026	2.152259	-2.690883	
22:41:59	0	0	0	0.3358296	-6.577521	0	3	100	0	50	9.27169	2.275992	-2.301105	
22:41:59	0	0	0	0.3358296	-6.577521	0	3	100	0	50	9.42867	2.090059	-2.276748	
22:42:00	0	0	0	0.3358296	-6.577521	0	3	100	0	50	9.162045	2.256703	-1.893168	
22:42:00	0	0	0	0.3271086	-8.746619	0	3	100	0	50	8.697356	2.6981	-1.379248	
22:42:00	0	0	0	0.3271086	-8.746619	0	3	100	0	50	8.779006	2.589984	-1.20952	
22:42:00	0	0	0	0.3271086	-8.746619	0	3	100	0	50	7.41069	3.38427	0.9484177	
22:42:00	0	0	0	0.3271086	-8.746619	0	3	100	0	50	6.265558	3.957853	3.368775	
22:42:01	0	0	0	0.3271086	-8.746619	0	3	100	0	50	5.414841	4.48702	5.14054	
22:42:01	0	0	0	0.4392749	-5.000389	0	3	100	0	50	4.738578	5.454374	5.591398	
22:42:01	0	0	0	0.4392749	-5.000389	0	3	100	0	50	3.894419	6.069056	6.040433	
22:42:01	0	0	0	0.4392749	-5.000389	0	3	100	0	50	3.579625	6.090515	6.241583	
22:42:01	0	0	0	0.4392749	-5.000389	0	3	100	0	50	3.720145	6.362042	6.048111	
22:42:02	0	0	0	0.4392749	-5.000389	0	3	100	0	50	3.753663	6.601084	6.296879	
22:42:02	0	0	0	0.3547577	-14.09077	0	3	100	0	50	3.7335	6.56665	6.476477	
22:42:02	0	0	0	0.3547577	-14.09077	0	3	100	0	50	3.803181	6.62079	6.685667	
22:42:02	0	0	0	0.3547577	-14.09077	0	3	100	0	50	3.804427	6.840615	6.872591	
22:42:02	0	0	0	0.3547577	-14.09077	0	3	100	0	50	3.755233	6.955305	6.943609	
22:42:03	0	0	0	0.3547577	-14.09077	0	3	100	0	50	3.756247	6.999514	7.036014	
22:42:03	0	0	0	0.2489727	-17.0153	0	3	100	0	50	3.765333	6.939245	7.11017	
22:42:03	0	0	0	0.2489727	-17.0153	0	3	100	0	50	3.780233	6.959926	7.137709	
22:42:03	0	0	0	0.2489727	-17.0153	0	3	100	0	50	3.962857	6.920414	7.101817	
22:42:03	0	0	0	0.2489727	-17.0153	0	3	100	0	50	5.639503	6.214136	4.548281	
22:42:04	0	0	0	0.2489727	-17.0153	0	3	100	0	50	6.66833	6.053992	3.242251	
22:42:04	0	0	0	0.2635301	-15.01317	0	3	100	0	50	6.492617	5.958622	3.376638	
22:42:04	0	0	0	0.2635301	-15.01317	0	3	100	0	50	6.393423	6.066427	3.442499	
22:42:04	0	0	0	0.2635301	-15.01317	0	3	100	0	50	6.379004	6.01462	3.51714	
22:42:05	0	0	0	0.2635301	-15.01317	0	3	100	0	50	6.237056	6.07987	3.508097	
22:42:05	0	0	0	0.2635301	-15.01317	0	3	100	0	50	6.202072	6.104716	3.540274	
22:42:05	0	0	0	0.19954	-15.02149	0	3	100	0	50	6.178315	6.061317	3.601728	
22:42:05	0	0	0	0.19954	-15.02149	0	3	100	0	50	6.247531	6.213507	3.448376	
22:42:05	0	0	0	0.19954	-15.02149	0	3	100	0	50	6.475586	6.359482	3.269916	
22:42:06	0	0	0	0.19954	-15.02149	0	3	100	0	50	6.462192	6.318843	3.316661	
22:42:06	0	0	0	0.19954	-15.02149	0	3	100	0	50	6.407231	6.227656	3.542207	
22:42:06	0	0	0	0.130374	-14.31771	0	3	100	0	50	6.276703	6.264248	3.761545	
22:42:06	0	0	0	0.130374	-14.31771	0	3	100	0	50	6.388325	6.491035	3.17822	
22:42:06	0	0	0	0.130374	-14.31771	0	3	100	0	50	6.658686	6.291084	2.611222	
22:42:07	0	0	0	0.130374	-14.31771	0	3	100	0	50	7.61878	5.732288	1.14253	
22:42:07	0	0	0	0.130374	-14.31771	0	3	100	0	50	8.05013	5.519939	0.5077463	
22:42:07	0	0	0	0.2891964	-7.3715	0	3	100	0	50	7.959818	5.219345	0.7720196	
22:42:07	0	0	0	0.2891964	-7.3715	0	3	100	0	50	7.801205	5.197178	0.9134422	
22:42:07	0	0	0	0.2891964	-7.3715	0	3	100	0	50	7.76855	5.364947	0.9631323	
22:42:08	0	0	0	0.2891964	-7.3715	0	3	100	0	50	7.800323	5.372736	1.024223	
22:42:08	0	0	0	0.2891964	-7.3715	0	3	100	0	50	7.77972	5.445706	0.9647723	
22:42:08	0	0	0	0.2608658	-8.792545	0	3	100	0	50	7.698474	5.522711	0.9552692	
22:42:08	0	0	0	0.2608658	-8.792545	0	3	100	0	50	7.706632	5.525079	1.013403	
22:42:08	0	0	0	0.2608658	-8.792545	0	3	100	0	50	7.816947	5.385406	1.138809	
22:42:09	0	0	0	0.2608658	-8.792545	0	3	100	0	50	7.862167	5.395859	1.132594	
22:42:09	0	0	0	0.2608658	-8.792545	0	3	100	0	50	7.789784	5.36628	1.107885	
22:42:09	0	0	0	0.2595793	-8.591194	0	3	100	0	50	7.870131	5.473328	0.6407648	
22:42:09	0	0	0	0.2595793	-8.591194	0	3	100	0	50	8.226039	5.370141	-0.6144584	
22:42:09	0	0	0	0.2595793	-8.591194	0	3	100	0	50	8.334947	5.490658	-0.9174171	
22:42:10	0	0	0	0.2595793	-8.591194	0	3	100	0	50	8.224194	5.540868	-0.850183	
22:42:10	0	0	0	0.2595793	-8.591194	0	3	100	0	50	8.226482	5.568369	-0.8163889	
22:42:10	0	0	0	0.4366837	-0.9237278	0	3	100	0	50	8.200809	5.422351	-0.7853578	
22:42:10	0	0	0	0.4366837	-0.9237278	0	3	100	0	50	8.323422	5.634621	-0.8936399	
22:42:10	0	0	0	0.4366837	-0.9237278	0	3	100	0	50	8.15922	5.708466	-0.8069399	
22:42:11	0	0	0	0.4366837	-0.9237278	0	3	100	0	50	8.156601	5.838785	-1.119491	
22:42:11	0	0	0	0.4366837	-0.9237278	0	3	100	0	50	9.240084	4.37396	-4.94798	
22:42:11	0	0	0	0.4598758	3.361549	0	3	100	0	50	12.32343	1.77509	-13.80165	
22:42:11	0	0	0	0.4598758	3.361549	0	3	100	0	50	14.10936	0.510721	-20.08961	
22:42:11	0	0	0	0.4598758	3.361549	0	3	100	0	50	12.60369	-1.595037	-26.42386	
22:42:12	0	0	0	0.4598758	3.361549	0	3	100	0	50	10.66705	-3.173682	-31.16152	
22:42:12	0	0	0	0.4598758	3.361549	0	3	100	0	50	6.749017	-4.875941	-32.5643	
22:42:12	0	0	0	0.505196	0.6973289	0	3	100	0	50	4.972219	-4.677938	-35.53559	
22:42:12	0	0	0	0.505196	0.6973289	0	3	100	0	50	-0.03624497	-3.77023	-39.90836	
22:42:12	0	0	0	0.505196	0.6973289	0	3	100	0	50	0.7353138	-4.461434	-48.66589	
22:42:13	0	0	0	0.505196	0.6973289	0	3	100	0	50	-1.353057	-4.260914	-55.90976	
22:42:13	0	0	0	0.505196	0.6973289	0	3	100	0	50	-0.5954262	-2.656115	-62.07382	
22:42:13	0	0	0	0.579737	1.338565	0	3	100	0	50	4.305809	-1.891507	-69.07581	
22:42:13	0	0	0	0.579737	1.338565	0	3	100	0	50	7.122466	-3.399432	-74.98919	
22:42:13	0	0	0	0.579737	1.338565	0	3	100	0	50	3.827675	-7.423544	-83.97189	
22:42:14	0	0	0	0.579737	1.338565	0	3	100	0	50	3.777849	-8.853665	-90.2533	
22:42:14	0	0	0	0.579737	1.338565	0	3	100	0	50	7.180655	-8.691737	-98.84824	
22:42:14	0	0	0	0.5776672	-3.533398	0	3	100	0	50	9.684123	-8.043828	-107.9577	
22:42:14	0	0	0	0.5776672	-3.533398	0	3	100	0	50	17.72639	-4.5467	-128.654	
22:42:14	0	0	0	0.5776672	-3.533398	0	3	100	0	50	21.54506	-3.27427	-140.633	
22:42:15	0	0	0	0.5776672	-3.533398	0	3	100	0	50	21.36405	-2.031604	-152.3287	
22:42:15	0	0	0	0.5776672	-3.533398	0	3	100	0	50	20.74933	-7.592589	-166.9031	
22:42:15	0	0	0	0.4745007	-8.113853	0	3	100	0	50	17.64134	-5.318895	172.7885	
22:42:15	0	0	0	0.4745007	-8.113853	0	3	100	0	50	20.25521	-8.002969	153.631	
22:42:15	0	0	0	0.4745007	-8.113853	0	3	100	0	50	21.33773	-13.72512	137.0491	
22:42:16	0	0	0	0.4745007	-8.113853	0	3	100	0	50	22.04926	-22.26489	110.7116	
22:42:16	0	0	0	0.4745007	-8.113853	0	3	100	0	50	21.23371	-22.81384	90.82926	
22:42:16	0	0	0	0.459941	-8.350476	0	3	100	0	50	18.61943	-22.26377	71.86349	
22:42:16	0	0	0	0.459941	-8.350476	0	3	100	0	50	14.99711	-17.9854	59.82686	
22:42:16	0	0	0	0.459941	-8.350476	0	3	100	0	50	15.06966	-10.29656	49.90137	
22:42:17	0	0	0	0.459941	-8.350476	0	3	100	0	50	16.31164	-9.568542	40.08849	
22:42:17	0	0	0	0.459941	-8.350476	0	3	100	0	50	7.808816	-9.488937	29.06609	
22:42:17	0	0	0	0.6946296	11.32486	0	3	100	0	50	2.349203	-3.233957	13.89594	
22:42:17	0	0	0	0.6946296	11.32486	0	3	100	0	50	3.577398	-3.934511	-0.7026752	
22:42:17	0	0	0	0.6946296	11.32486	0	3	100	0	50	6.507483	-0.9955799	-8.861465	
22:42:18	0	0	0	0.6946296	11.32486	0	3	100	0	50	8.141666	-0.1909488	-9.011174	
22:42:18	0	0	0	0.6946296	11.32486	0	3	100	0	50	9.011024	-0.5654725	-9.911561	
22:42:18	0	0	0	0.684127	8.200147	0	3	100	0	50	9.909322	0.6546212	-10.28029	
22:42:18	0	0	0	0.684127	8.200147	0	3	100	0	50	8.288135	0.9552913	-9.836031	
22:42:18	0	0	0	0.684127	8.200147	0	3	100	0	50	6.455156	2.238933	-8.666197	
22:42:19	0	0	0	0.684127	8.200147	0	3	100	0	50	7.066007	2.438064	-8.737127	
22:42:19	0	0	0	0.684127	8.200147	0	3	100	0	50	18.56116	0.725624	-14.44724	
22:42:19	0	0	0	0.7292987	5.69009	0	3	100	0	50	25.52081	-3.596075	-21.86412	
22:42:19	0	0	0	0.7292987	5.69009	0	3	100	0	50	-22.03453	3.226657	-14.19222	
22:42:20	0	0	0	0.7292987	5.69009	0	3	100	0	50	-27.5949	4.50927	-15.057	
22:42:20	0	0	0	0.7292987	5.69009	0	3	100	0	50	0.3417977	-0.559615	-22.66757	
22:42:20	0	0	0	0.7292987	5.69009	0	3	100	0	50	26.19893	-3.000678	-30.54524	
22:42:20	0	0	0	0.6380782	-4.734279	0	3	100	0	50	34.99593	-3.178608	-31.74066	
22:42:20	0	0	0	0.6380782	-4.734279	0	3	100	0	50	42.14481	-2.591058	-32.49991	
22:42:21	0	0	0	0.6380782	-4.734279	0	3	100	0	50	49.22636	-2.4102	-35.32827	
22:42:21	0	0	0	0.6380782	-4.734279	0	3	100	0	50	63.0886	-4.334612	-37.79744	
22:42:21	0	0	0	0.6380782	-4.734279	0	3	100	0	50	74.88678	-1.742969	-41.0424	
22:42:21	0	0	0	0.5781133	24.50383	0	3	100	0	50	53.56939	-2.332844	-37.69678	
22:42:21	0	0	0	0.5781133	24.50383	0	3	100	0	50	-2.582246	-1.7481	-27.62329	
22:42:22	0	0	0	0.5781133	24.50383	0	3	100	0	50	-48.35779	3.439291	-11.18402	
22:42:22	0	0	0	0.5781133	24.50383	0	3	100	0	50	-75.99817	15.33584	-5.70916	
22:42:22	0	0	0	0.5781133	24.50383	0	3	100	0	50	-93.82719	26.35856	-6.339026	
22:42:22	0	0	0	0.7543929	47.89408	0	3	100	0	50	-116.4062	35.64144	-25.91194	
22:42:22	0	0	0	0.7543929	47.89408	0	3	100	0	50	-127.6243	38.78481	-34.70178	
22:42:23	0	0	0	0.7543929	47.89408	0	3	100	0	50	-140.4308	39.19432	-41.02679	
22:42:23	0	0	0	0.7543929	47.89408	0	3	100	0	50	-134.204	36.12755	-41.59423	
22:42:23	0	0	0	0.7543929	47.89408	0	3	100	0	50	-134.5345	35.50038	-42.80022	
22:42:23	0	0	0	1.171911	107.1446	0	3	100	0	50	-136.5012	34.69819	-44.07992	
22:42:23	0	0	0	1.171911	107.1446	0	3	100	0	50	-97.88498	30.60561	-38.0655	
22:42:24	0	0	0	1.171911	107.1446	0	3	100	0	50	-36.36566	18.78948	-19.11678	
22:42:24	0	0	0	1.171911	107.1446	0	3	100	0	50	8.144523	-28.62109	-18.63399	
22:42:24	0	0	0	1.171911	107.1446	0	3	100	0	50	50.14871	-24.69829	-35.20893	
22:42:24	0	0	0	1.526883	92.84341	0	3	100	0	50	92.21547	-22.09157	-48.47934	
22:42:24	0	0	0	1.526883	92.84341	0	3	100	0	50	106.4712	-19.33933	-52.89094	
22:42:25	0	0	0	1.526883	92.84341	0	3	100	0	50	89.36967	-23.16324	-49.47972	
22:42:25	0	0	0	1.526883	92.84341	0	3	100	0	50	28.42509	-24.06064	-33.31879	
22:42:25	0	0	0	1.526883	92.84341	0	3	100	0	50	0.8924316	-9.665626	-21.77519	
22:42:25	0	0	0	1.406592	67.10788	0	3	100	0	50	-9.777161	12.08552	-5.377517	
22:42:25	0	0	0	1.406592	67.10788	0	3	100	0	50	-17.6797	28.96458	-6.546007	
22:42:26	0	0	0	1.406592	67.10788	0	3	100	0	50	-15.39494	4.403779	-1.425986	
22:42:26	0	0	0	1.406592	67.10788	0	3	100	0	50	2.347203	-21.61597	-8.468689	
22:42:26	0	0	0	1.406592	67.10788	0	3	100	0	50	26.07048	-45.57949	-22.93676	
22:42:26	0	0	0	0.9573563	19.32355	0	3	100	0	50	55.68108	-57.57852	-48.85146	
22:42:26	0	0	0	0.9573563	19.32355	0	3	100	0	50	129.8727	-59.90654	-112.0037	
22:42:27	0	0	0	0.9573563	19.32355	0	3	100	0	50	163.3515	-41.0606	-125.8617	
22:42:27	0	0	0	0.9573563	19.32355	0	3	100	0	50	173.2113	-29.02732	-128.5329	
22:42:27	0	0	0	0.9573563	19.32355	0	3	100	0	50	173.7824	-29.8776	-130.246	
22:42:27	0	0	0	1.176577	124.3278	0	3	100	0	50	135.5746	-71.08625	-106.6744	
22:42:27	0	0	0	1.176577	124.3278	0	3	100	0	50	26.92863	-64.70702	-11.99199	
22:42:28	0	0	0	1.176577	124.3278	0	3	100	0	50	6.710753	-21.1692	-3.558805	
22:42:28	0	0	0	1.176577	124.3278	0	3	100	0	50	-8.583516	5.755495	-4.014025	
22:42:28	0	0	0	1.176577	124.3278	0	3	100	0	50	-19.28543	14.43421	-16.40496	
22:42:28	0	0	0	1.321127	60.75369	0	3	100	0	50	-36.53636	6.222839	-11.12983	
22:42:28	0	0	0	1.321127	60.75369	0	3	100	0	50	25.06067	-15.23829	-26.68378	
22:42:29	0	0	0	1.321127	60.75369	0	3	100	0	50	38.18123	-13.64481	-31.45726	
22:42:29	0	0	0	1.321127	60.75369	0	3	100	0	50	-16.43781	-6.369861	-15.75459	
22:42:29	0	0	0	1.321127	60.75369	0	3	100	0	50	34.04801	-13.41124	-35.02739	
22:42:29	0	0	0	1.073419	0.9408199	0	3	100	0	50	-9.41314	-8.907551	-15.63092	
22:42:29	0	0	0	1.073419	0.9408199	0	3	100	0	50	-29.0829	-6.185947	-10.3004	
22:42:30	0	0	0	1.073419	0.9408199	0	3	100	0	50	-14.81203	-9.360707	-16.47598	
22:42:30	0	0	0	1.073419	0.9408199	0	3	100	0	50	22.84318	-14.17758	-24.34187	
22:42:30	0	0	0	1.073419	0.9408199	0	3	100	0	50	35.97223	-14.39436	-29.15854	
22:42:30	0	0	0	0.8082754	-22.76626	0	3	100	0	50	-31.99235	-2.566508	-10.09108	
22:42:30	0	0	0	0.8082754	-22.76626	0	3	100	0	50	-49.29488	3.620402	-6.256357	
22:42:31	0	0	0	0.8082754	-22.76626	0	3	100	0	50	-54.89571	4.501369	-4.620302	
22:42:31	0	0	0	0.8082754	-22.76626	0	3	100	0	50	-21.31969	-11.79533	-8.770657	
22:42:31	0	0	0	0.8082754	-22.76626	0	3	100	0	50	26.24111	-22.02739	-23.08209	
22:42:31	0	0	0	0.4858373	-25.91059	0	3	100	0	50	49.34476	-19.90516	-30.28639	
22:42:31	0	0	0	0.4858373	-25.91059	0	3	100	0	50	10.03338	-14.59435	-17.06413	
22:42:32	0	0	0	0.4858373	-25.91059	0	3	100	0	50	-51.63369	2.044875	-10.33156	
22:42:32	0	0	0	0.4858373	-25.91059	0	3	100	0	50	-57.04293	4.311545	-12.14	
22:42:32	0	0	0	0.4858373	-25.91059	0	3	100	0	50	-7.765715	-14.41976	-19.33836	
22:42:32	0	0	0	0.2069476	-28.35608	0	3	100	0	50	57.57317	-16.13133	-39.5329	
22:42:32	0	0	0	0.2069476	-28.35608	0	3	100	0	50	-10.13568	-13.01015	-13.55964	
22:42:33	0	0	0	0.2069476	-28.35608	0	3	100	0	50	-18.19621	-15.49595	-15.81465	
22:42:33	0	0	0	0.2069476	-28.35608	0	3	100	0	50	-15.63596	-10.02916	-14.31123	
22:42:33	0	0	0	0.2069476	-28.35608	0	3	100	0	50	15.50928	-18.30776	-27.55945	
22:42:33	0	0	0	0.2023461	-37.95731	0	3	100	0	50	-24.73022	-4.507512	-6.284039	
22:42:34	0	0	0	0.2023461	-37.95731	0	3	100	0	50	16.5353	-17.96484	-22.092	
22:42:34	0	0	0	0.2023461	-37.95731	0	3	100	0	50	-21.97757	-12.86457	-11.13984	
22:42:34	0	0	0	0.2023461	-37.95731	0	3	100	0	50	48.04019	-14.55572	-36.54774	
22:42:34	0	0	0	0.2023461	-37.95731	0	3	100	0	50	-37.01944	-1.693271	-7.942911	
22:42:34	0	0	0	0.1622984	-41.15311	0	3	100	0	50	-10.36917	-16.90223	-14.54912	
22:42:35	0	0	0	0.1622984	-41.15311	0	3	100	0	50	15.75556	-9.98882	-15.93538	
22:42:35	0	0	0	0.1622984	-41.15311	0	3	100	0	50	-44.24827	6.32504	-0.5077431	
22:42:35	0	0	0	0.1622984	-41.15311	0	3	100	0	50	2.333463	-12.8485	-1.253268	
22:42:35	0	0	0	0.1622984	-41.15311	0	3	100	0	50	9.489955	-13.6959	-3.096787	
22:42:35	0	0	0	-0.1484409	-76.14314	0	3	100	0	50	-0.6938877	-12.08067	2.372262	
22:42:36	0	0	0	-0.1484409	-76.14314	0	3	100	0	50	-5.75409	-4.299223	5.657887	
22:42:36	0	0	0	-0.1484409	-76.14314	0	3	100	0	50	-7.086963	-0.5285305	5.827096	
22:42:36	0	0	0	-0.1484409	-76.14314	0	3	100	0	50	-6.426194	0.2740977	4.343603	
22:42:36	0	0	0	-0.1484409	-76.14314	0	3	100	0	50	-6.041899	-0.3880806	2.351141	
22:42:36	0	0	0	-0.0608423	-50.09566	0	3	100	0	50	-5.776219	-0.3687889	1.845241	
22:42:37	0	0	0	-0.0608423	-50.09566	0	3	100	0	50	-5.530971	-0.38414	1.32752	
22:42:37	0	0	0	-0.0608423	-50.09566	0	3	100	0	50	-5.306465	-0.3990775	0.8449208	
22:42:37	0	0	0	-0.0608423	-50.09566	0	3	100	0	50	-5.082663	-0.4121662	0.3501861	
22:42:37	0	0	0	-0.0608423	-50.09566	0	3	100	0	50	-4.866149	-0.4249089	-0.1362647	
22:42:37	0	0	0	-0.03377517	-40.49762	0	3	100	0	50	-4.636529	-0.41721	-0.6989037	
22:42:38	0	0	0	-0.03377517	-40.49762	0	3	100	0	50	-4.41961	-0.428234	-1.245403	
22:42:38	0	0	0	-0.03377517	-40.49762	0	3	100	0	50	-4.203598	-0.4548129	-1.790404	
22:42:38	0	0	0	-0.03377517	-40.49762	0	3	100	0	50	-3.983344	-0.4622088	-2.335134	
22:42:38	0	0	0	-0.03377517	-40.49762	0	3	100	0	50	-3.786023	-0.4517263	-2.843708	
22:42:38	0	0	0	0.01867818	-30.0151	0	3	100	0	50	-3.58822	-0.4552191	-3.355134	
22:42:39	0	0	0	0.01867818	-30.0151	0	3	100	0	50	-3.395323	-0.467494	-3.869906	
22:42:39	0	0	0	0.01867818	-30.0151	0	3	100	0	50	-3.214842	-0.4749804	-4.364172	
22:42:39	0	0	0	0.01867818	-30.0151	0	3	100	0	50	-3.034785	-0.4668525	-4.836648	
22:42:39	0	0	0	0.01867818	-30.0151	0	3	100	0	50	-2.875339	-0.4527811	-5.295969	
22:42:39	0	0	0	-0.05133132	-28.23775	0	3	100	0	50	-2.72446	-0.4454527	-5.743414	
22:42:40	0	0	0	-0.05133132	-28.23775	0	3	100	0	50	-2.568385	-0.4528137	-6.189006	
22:42:40	0	0	0	-0.05133132	-28.23775	0	3	100	0	50	-2.404572	-0.4454989	-6.633953	
22:42:40	0	0	0	-0.05133132	-28.23775	0	3	100	0	50	-2.2586	-0.4261623	-7.08586	
22:42:40	0	0	0	-0.05133132	-28.23775	0	3	100	0	50	-2.117629	-0.4084122	-7.512677	
22:42:40	0	0	0	0.05510196	-18.8877	0	3	100	0	50	-1.988813	-0.4023518	-7.931491	
22:42:41	0	0	0	0.05510196	-18.8877	0	3	100	0	50	-1.85948	-0.3925756	-8.333801	
22:42:41	0	0	0	0.05510196	-18.8877	0	3	100	0	50	-1.725072	-0.3775724	-8.741118	
22:42:41	0	0	0	0.05510196	-18.8877	0	3	100	0	50	-1.607875	-0.3604183	-9.111573	
22:42:41	0	0	0	0.05510196	-18.8877	0	3	100	0	50	-1.495976	-0.3567909	-9.471981	
22:42:41	0	0	0	0.07453912	-15.89489	0	3	100	0	50	-1.39281	-0.3391759	-9.825521	
22:42:42	0	0	0	0.07453912	-15.89489	0	3	100	0	50	-1.290969	-0.3323684	-10.18788	
22:42:42	0	0	0	0.07453912	-15.89489	0	3	100	0	50	-1.186889	-0.3090971	-10.49425	
22:42:42	0	0	0	0.07453912	-15.89489	0	3	100	0	50	-1.097682	-0.2880263	-10.82909	
22:42:42	0	0	0	0.07453912	-15.89489	0	3	100	0	50	-1.004637	-0.2735534	-11.13618	
22:42:42	0	0	0	0.2081907	-8.038451	0	3	100	0	50	-0.8851019	-0.258369	-11.56265	
22:42:43	0	0	0	0.2081907	-8.038451	0	3	100	0	50	-0.7659183	-0.2461077	-11.99146	
22:42:43	0	0	0	0.2081907	-8.038451	0	3	100	0	50	-0.6612507	-0.2208814	-12.41899	
22:42:43	0	0	0	0.2081907	-8.038451	0	3	100	0	50	-0.5624646	-0.1922077	-12.82518	
22:42:43	0	0	0	0.2081907	-8.038451	0	3	100	0	50	-0.4643446	-0.1755767	-13.18244	
22:42:43	0	0	0	0.04030678	-17.57846	0	3	100	0	50	-0.3753381	-0.1654709	-13.53734	
22:42:44	0	0	0	0.04030678	-17.57846	0	3	100	0	50	-0.2866907	-0.1536878	-13.90223	
22:42:44	0	0	0	0.04030678	-17.57846	0	3	100	0	50	-0.2025726	-0.1335724	-14.26731	
22:42:44	0	0	0	0.04030678	-17.57846	0	3	100	0	50	-0.1106598	-0.1248051	-14.61966	
22:42:44	0	0	0	0.04030678	-17.57846	0	3	100	0	50	-0.0387552	-0.1283166	-14.95306	
22:42:44	0	0	0	0.16109	-9.050014	0	3	100	0	50	0.04568368	-0.1146129	-15.30014	
22:42:45	0	0	0	0.16109	-9.050014	0	3	100	0	50	0.1328683	-0.0869893	-15.62096	
22:42:45	0	0	0	0.16109	-9.050014	0	3	100	0	50	0.2201247	-0.07093645	-15.92779	
22:42:45	0	0	0	0.16109	-9.050014	0	3	100	0	50	0.2861946	-0.04247576	-16.22605	
22:42:45	0	0	0	0.16109	-9.050014	0	3	100	0	50	0.3464747	-0.009718289	-16.5236	
22:42:45	0	0	0	0.3020697	-4.064276	0	3	100	0	50	0.4196349	0.008148707	-16.81224	
22:42:46	0	0	0	0.3020697	-4.064276	0	3	100	0	50	0.4903258	0.03107316	-17.07367	
22:42:46	0	0	0	0.3020697	-4.064276	0	3	100	0	50	0.5494278	0.05651643	-17.31614	
22:42:46	0	0	0	0.3020697	-4.064276	0	3	100	0	50	0.595787	0.0652126	-17.57076	
22:42:46	0	0	0	0.3020697	-4.064276	0	3	100	0	50	0.6505752	0.08620383	-17.82806	
22:42:46	0	0	0	0.4593543	0.7719969	0	3	100	0	50	0.7122036	0.1050375	-18.0862	
22:42:47	0	0	0	0.4593543	0.7719969	0	3	100	0	50	0.7621338	0.1340665	-18.33605	
22:42:47	0	0	0	0.4593543	0.7719969	0	3	100	0	50	0.8042397	0.1672347	-18.55802	
22:42:47	0	0	0	0.4593543	0.7719969	0	3	100	0	50	0.8493419	0.1778407	-18.74862	
22:42:47	0	0	0	0.4593543	0.7719969	0	3	100	0	50	0.8920614	0.1931827	-18.96931	
22:42:48	0	0	0	0.1048195	-19.01639	0	3	100	0	50	0.9569455	0.1970859	-19.2155	
22:42:48	0	0	0	0.1048195	-19.01639	0	3	100	0	50	1.006577	0.2086925	-19.45155	
22:42:48	0	0	0	0.1048195	-19.01639	0	3	100	0	50	1.055336	0.2344619	-19.68972	
22:42:48	0	0	0	0.1048195	-19.01639	0	3	100	0	50	1.108764	0.2328224	-19.93194	
22:42:48	0	0	0	0.1048195	-19.01639	0	3	100	0	50	1.157246	0.2447722	-20.15621	
22:42:49	0	0	0	0.1544438	-11.41496	0	3	100	0	50	1.211081	0.2508459	-20.37737	
22:42:49	0	0	0	0.1544438	-11.41496	0	3	100	0	50	1.262144	0.2665299	-20.60419	
22:42:49	0	0	0	0.1544438	-11.41496	0	3	100	0	50	1.314134	0.284161	-20.82124	
22:42:49	0	0	0	0.1544438	-11.41496	0	3	100	0	50	1.359364	0.3005156	-21.01464	
22:42:49	0	0	0	0.1544438	-11.41496	0	3	100	0	50	1.395436	0.3142159	-21.20492	
22:42:50	0	0	0	0.2489506	-5.792765	0	3	100	0	50	1.431233	0.3075856	-21.39815	
22:42:50	0	0	0	0.2489506	-5.792765	0	3	100	0	50	1.459182	0.3040071	-21.59875	
22:42:50	0	0	0	0.2489506	-5.792765	0	3	100	0	50	1.493455	0.3151503	-21.77657	
22:42:50	0	0	0	0.2489506	-5.792765	0	3	100	0	50	1.536026	0.3250267	-21.94957	
22:42:50	0	0	0	0.2489506	-5.792765	0	3	100	0	50	1.574178	0.3467765	-22.11902	
22:42:51	0	0	0	0.397228	-1.46215	0	3	100	0	50	1.603306	0.3347118	-22.28036	
22:42:51	0	0	0	0.397228	-1.46215	0	3	100	0	50	1.629958	0.3388802	-22.42466	
22:42:51	0	0	0	0.397228	-1.46215	0	3	100	0	50	1.651897	0.3476234	-22.58762	
22:42:51	0	0	0	0.397228	-1.46215	0	3	100	0	50	1.683664	0.3579239	-22.74311	
22:42:51	0	0	0	0.397228	-1.46215	0	3	100	0	50	1.702719	0.3549851	-22.87748	
22:42:52	0	0	0	0.1726384	-13.74992	0	3	100	0	50	1.723086	0.3430009	-23.03338	
22:42:52	0	0	0	0.1726384	-13.74992	0	3	100	0	50	1.747964	0.3414885	-23.16985	
22:42:52	0	0	0	0.1726384	-13.74992	0	3	100	0	50	1.772369	0.3511403	-23.3012	
22:42:52	0	0	0	0.1726384	-13.74992	0	3	100	0	50	1.806528	0.3362597	-23.43383	
22:42:52	0	0	0	0.1726384	-13.74992	0	3	100	0	50	1.849293	0.3085965	-23.55619	
22:42:53	0	0	0	0.2652144	-5.949636	0	3	100	0	50	1.877008	0.2745574	-23.67539	
22:42:53	0	0	0	0.2652144	-5.949636	0	3	100	0	50	1.914959	0.22372	-23.81323	
22:42:53	0	0	0	0.2652144	-5.949636	0	3	100	0	50	1.956119	0.2116525	-23.95184	
22:42:53	0	0	0	0.2652144	-5.949636	0	3	100	0	50	1.980639	0.1831432	-24.08016	
22:42:53	0	0	0	0.2652144	-5.949636	0	3	100	0	50	2.009977	0.1442148	-24.22076	
22:42:54	0	0	0	0.1648854	-9.508772	0	3	100	0	50	2.045027	0.1099476	-24.33981	
22:42:54	0	0	0	0.1648854	-9.508772	0	3	100	0	50	2.085443	0.0731228	-24.44539	
22:42:54	0	0	0	0.1648854	-9.508772	0	3	100	0	50	2.114285	0.04563511	-24.54952	
22:42:54	0	0	0	0.1648854	-9.508772	0	3	100	0	50	2.133891	-0.01029496	-24.64683	
22:42:54	0	0	0	0.1648854	-9.508772	0	3	100	0	50	2.153309	0.001438182	-24.74823	
22:42:55	0	0	0	0.05556012	-13.39896	0	3	100	0	50	2.175879	-0.01432803	-24.84767	
22:42:55	0	0	0	0.05556012	-13.39896	0	3	100	0	50	2.208516	-0.04507791	-24.94936	
22:42:55	0	0	0	0.05556012	-13.39896	0	3	100	0	50	2.225476	-0.07186715	-25.03741	
22:42:55	0	0	0	0.05556012	-13.39896	0	3	100	0	50	2.236192	-0.08681226	-25.13772	
22:42:55	0	0	0	0.05556012	-13.39896	0	3	100	0	50	2.266249	-0.1158048	-25.22974	
22:42:56	0	0	0	0.146784	-6.428122	0	3	100	0	50	2.300882	-0.1590947	-25.31479	
22:42:56	0	0	0	0.146784	-6.428122	0	3	100	0	50	2.310438	-0.1641982	-25.40038	
22:42:56	0	0	0	0.146784	-6.428122	0	3	100	0	50	2.327325	-0.1876365	-25.46729	
22:42:56	0	0	0	0.146784	-6.428122	0	3	100	0	50	2.363574	-0.1924983	-25.53637	
22:42:56	0	0	0	0.146784	-6.428122	0	3	100	0	50	2.391926	-0.2251429	-25.6163	
22:42:57	0	0	0	0.3276605	1.667238	0	3	100	0	50	2.413113	-0.2406888	-25.69872	
22:42:57	0	0	0	0.3276605	1.667238	0	3	100	0	50	2.417874	-0.2479828	-25.78768	
22:42:57	0	0	0	0.3276605	1.667238	0	3	100	0	50	2.435069	-0.2514201	-25.86147	
22:42:57	0	0	0	0.3276605	1.667238	0	3	100	0	50	2.439272	-0.2728046	-25.92491	
22:42:57	0	0	0	0.3276605	1.667238	0	3	100	0	50	2.448361	-0.2882912	-25.99146	
22:42:58	0	0	0	0.3548059	0.02272972	0	3	100	0	50	2.45775	-0.3856697	-26.04113	
22:42:58	0	0	0	0.3548059	0.02272972	0	3	100	0	50	2.463611	-0.657095	-26.09271	
22:42:58	0	0	0	0.3548059	0.02272972	0	3	100	0	50	2.514437	-1.035498	-26.12601	
22:42:58	0	0	0	0.3548059	0.02272972	0	3	100	0	50	2.472521	-0.2854155	-26.20632	
22:42:58	0	0	0	0.3548059	0.02272972	0	3	100	0	50	2.478413	-0.3084156	-26.24793	
22:42:59	0	0	0	0.2798644	-6.130815	0	3	100	0	50	2.490419	-0.2981247	-26.27345	
22:42:59	0	0	0	0.2798644	-6.130815	0	3	100	0	50	2.503748	-0.3036322	-26.3053	
22:42:59	0	0	0	0.2798644	-6.130815	0	3	100	0	50	2.51149	-0.3156023	-26.33026	
22:42:59	0	0	0	0.2798644	-6.130815	0	3	100	0	50	2.516554	-0.3163422	-26.35875	
22:42:59	0	0	0	0.2798644	-6.130815	0	3	100	0	50	2.534766	-0.3339194	-26.38339	
22:43:00	0	0	0	0.2142105	-6.901489	0	3	100	0	50	2.543243	-0.3443415	-26.39592	
22:43:00	0	0	0	0.2142105	-6.901489	0	3	100	0	50	2.547127	-0.3326012	-26.41506	
22:43:00	0	0	0	0.2142105	-6.901489	0	3	100	0	50	2.543202	-0.3523831	-26.43097	
22:43:00	0	0	0	0.2142105	-6.901489	0	3	100	0	50	2.536447	-0.367044	-26.47846	
22:43:00	0	0	0	0.2142105	-6.901489	0	3	100	0	50	2.537819	-0.369328	-26.49142	
22:43:01	0	0	0	0.2301323	-5.540714	0	3	100	0	50	2.536758	-0.3770155	-26.51366	
22:43:01	0	0	0	0.2301323	-5.540714	0	3	100	0	50	2.483054	-0.6720953	-27.18917	
22:43:01	0	0	0	0.2301323	-5.540714	0	3	100	0	50	2.475213	-0.7138017	-27.18468	
22:43:01	0	0	0	0.2301323	-5.540714	0	3	100	0	50	2.492179	-0.7086404	-27.20009	
22:43:02	0	0	0	0.2301323	-5.540714	0	3	100	0	50	2.50402	-0.7108282	-27.22137	
22:43:02	0	0	0	0.11931	-11.91073	0	3	100	0	50	2.501081	-0.7031708	-27.22889	
22:43:02	0	0	0	0.11931	-11.91073	0	3	100	0	50	2.495156	-0.692864	-27.24026	
22:43:02	0	0	0	0.11931	-11.91073	0	3	100	0	50	2.504611	-0.6809098	-27.23746	
22:43:02	0	0	0	0.11931	-11.91073	0	3	100	0	50	2.502603	-0.6508124	-27.24564	
22:43:03	0	0	0	0.11931	-11.91073	0	3	100	0	50	2.501097	-0.6688769	-27.25284	
22:43:03	0	0	0	0.1437556	-5.125946	0	3	100	0	50	2.519528	-0.5060301	-27.3986	
22:43:03	0	0	0	0.1437556	-5.125946	0	3	100	0	50	2.510263	-0.4761487	-27.37583	
22:43:03	0	0	0	0.1437556	-5.125946	0	3	100	0	50	2.505395	-0.492745	-27.33059	
22:43:03	0	0	0	0.1437556	-5.125946	0	3	100	0	50	2.497025	-0.5118117	-27.3082	
22:43:04	0	0	0	0.1437556	-5.125946	0	3	100	0	50	2.487577	-0.5073152	-27.27429	
22:43:04	0	0	0	0.349535	4.780992	0	3	100	0	50	2.478331	-0.4946363	-27.24352	
22:43:04	0	0	0	0.349535	4.780992	0	3	100	0	50	2.466692	-0.5031459	-27.22138	
22:43:04	0	0	0	0.349535	4.780992	0	3	100	0	50	2.4526	-0.4862961	-27.20944	
22:43:04	0	0	0	0.349535	4.780992	0	3	100	0	50	2.440232	-0.4995869	-27.17712	
22:43:05	0	0	0	0.349535	4.780992	0	3	100	0	50	2.429582	-0.5138934	-27.17096	
22:43:05	0	0	0	0.4132029	4.486008	0	3	100	0	50	2.416089	-0.5043446	-27.14541	
22:43:05	0	0	0	0.4132029	4.486008	0	3	100	0	50	2.409217	-0.5057894	-27.1374	
22:43:05	0	0	0	0.4132029	4.486008	0	3	100	0	50	2.423399	-0.4975406	-27.10141	
22:43:05	0	0	0	0.4132029	4.486008	0	3	100	0	50	2.423402	-0.4954079	-27.0751	
22:43:06	0	0	0	0.4132029	4.486008	0	3	100	0	50	2.419649	-0.4968633	-27.05756	
22:43:06	0	0	0	0.4522323	3.170316	0	3	100	0	50	2.410216	-0.4900842	-27.0517	
22:43:06	0	0	0	0.4522323	3.170316	0	3	100	0	50	2.40812	-0.4689169	-27.03902	
22:43:06	0	0	0	0.4522323	3.170316	0	3	100	0	50	2.398142	-0.4541025	-27.02098	
22:43:06	0	0	0	0.4522323	3.170316	0	3	100	0	50	2.388364	-0.4481793	-27.00569	
22:43:07	0	0	0	0.4522323	3.170316	0	3	100	0	50	2.377097	-0.4395303	-26.99455	
22:43:07	0	0	0	0.4745086	1.18206	0	3	100	0	50	2.363917	-0.4241212	-26.99332	
22:43:07	0	0	0	0.4745086	1.18206	0	3	100	0	50	2.358604	-0.4331947	-27.00217	
22:43:07	0	0	0	0.4745086	1.18206	0	3	100	0	50	2.34797	-0.422841	-26.99311	
22:43:07	0	0	0	0.4745086	1.18206	0	3	100	0	50	2.351853	-0.424641	-26.96466	
22:43:08	0	0	0	0.4745086	1.18206	0	3	100	0	50	2.345107	-0.4272979	-26.94667	
22:43:08	0	0	0	0.5259393	1.588128	0	3	100	0	50	2.354069	-0.4296186	-26.92651	
22:43:08	0	0	0	0.5259393	1.588128	0	3	100	0	50	2.336729	-0.4198639	-26.8927	
22:43:08	0	0	0	0.5259393	1.588128	0	3	100	0	50	2.331755	-0.4140941	-26.83782	
22:43:08	0	0	0	0.5259393	1.588128	0	3	100	0	50	2.309716	-0.3989543	-26.78765	
22:43:09	0	0	0	0.5259393	1.588128	0	3	100	0	50	2.291667	-0.3886435	-26.7493	
22:43:09	0	0	0	0.4835178	-1.37922	0	3	100	0	50	2.268627	-0.3760385	-26.6891	
22:43:09	0	0	0	0.4835178	-1.37922	0	3	100	0	50	2.252909	-0.3635305	-26.65092	
22:43:09	0	0	0	0.4835178	-1.37922	0	3	100	0	50	2.24106	-0.3660771	-26.61621	
22:43:09	0	0	0	0.4835178	-1.37922	0	3	100	0	50	2.222098	-0.3553393	-26.58134	
22:43:10	0	0	0	0.4835178	-1.37922	0	3	100	0	50	2.209148	-0.3542387	-26.54048	
22:43:10	0	0	0	0.556141	0.6321437	0	3	100	0	50	2.19829	-0.3508849	-26.51079	
22:43:10	0	0	0	0.556141	0.6321437	0	3	100	0	50	2.19418	-0.3509971	-26.45744	
22:43:10	0	0	0	0.556141	0.6321437	0	3	100	0	50	2.182874	-0.3382418	-26.41323	
22:43:10	0	0	0	0.556141	0.6321437	0	3	100	0	50	2.164493	-0.3220378	-26.38354	
22:43:11	0	0	0	0.556141	0.6321437	0	3	100	0	50	2.170205	-0.3099858	-26.36158	
22:43:11	0	0	0	0.3148054	-12.88477	0	3	100	0	50	2.17059	-0.318505	-26.3319	
22:43:11	0	0	0	0.3148054	-12.88477	0	3	100	0	50	2.164737	-0.3078042	-26.2981	
22:43:11	0	0	0	0.3148054	-12.88477	0	3	100	0	50	2.157471	-0.3099103	-26.26463	
22:43:11	0	0	0	0.3148054	-12.88477	0	3	100	0	50	2.150667	-0.3083299	-26.23961	
22:43:12	0	0	0	0.3148054	-12.88477	0	3	100	0	50	2.146767	-0.3143465	-26.21737	
22:43:12	0	0	0	0.1570069	-15.2348	0	3	100	0	50	2.131805	-0.295064	-26.18607	
22:43:12	0	0	0	0.1570069	-15.2348	0	3	100	0	50	2.113318	-0.2908844	-26.14603	
22:43:12	0	0	0	0.1570069	-15.2348	0	3	100	0	50	2.112562	-0.2826933	-26.13384	
22:43:12	0	0	0	0.1570069	-15.2348	0	3	100	0	50	2.095468	-0.2716843	-26.11527	
22:43:13	0	0	0	0.1570069	-15.2348	0	3	100	0	50	2.094459	-0.2736506	-26.08699	
22:43:13	0	0	0	0.3089874	-3.247429	0	3	100	0	50	2.088901	-0.2579072	-26.07694	
22:43:13	0	0	0	0.3089874	-3.247429	0	3	100	0	50	2.072087	-0.2680703	-26.05414	
22:43:13	0	0	0	0.3089874	-3.247429	0	3	100	0	50	2.055616	-0.2619284	-26.00303	
22:43:13	0	0	0	0.3089874	-3.247429	0	3	100	0	50	2.048334	-0.2593168	-25.95031	
22:43:14	0	0	0	0.3089874	-3.247429	0	3	100	0	50	2.041827	-0.2576361	-25.89798	
22:43:14	0	0	0	0.4472594	3.039365	0	3	100	0	50	2.036218	-0.249485	-25.85228	
22:43:14	0	0	0	0.4472594	3.039365	0	3	100	0	50	2.04185	-0.2361838	-25.8005	
22:43:14	0	0	0	0.4472594	3.039365	0	3	100	0	50	2.029201	-0.2229296	-25.75303	
22:43:15	0	0	0	0.4472594	3.039365	0	3	100	0	50	2.014337	-0.2899054	-25.72752	
22:43:15	0	0	0	0.4472594	3.039365	0	3	100	0	50	1.996776	-0.2397157	-25.69059	
22:43:15	0	0	0	0.4823451	3.085948	0	3	100	0	50	1.982357	-0.2189555	-25.65235	
22:43:15	0	0	0	0.4823451	3.085948	0	3	100	0	50	1.966149	-0.1969514	-25.62736	
22:43:15	0	0	0	0.4823451	3.085948	0	3	100	0	50	1.960888	-0.1969535	-25.58177	
22:43:16	0	0	0	0.4823451	3.085948	0	3	100	0	50	1.948651	-0.2025394	-25.56504	
22:43:16	0	0	0	0.4823451	3.085948	0	3	100	0	50	1.938333	-0.1959699	-25.53169	
22:43:16	0	0	0	0.2795804	-7.172839	0	3	100	0	50	1.93233	-0.1860125	-25.48539	
22:43:16	0	0	0	0.2795804	-7.172839	0	3	100	0	50	1.921458	-0.1894475	-25.46531	
22:43:16	0	0	0	0.2795804	-7.172839	0	3	100	0	50	1.914817	-0.2004861	-25.41662	
22:43:17	0	0	0	0.2795804	-7.172839	0	3	100	0	50	1.904444	-0.1989216	-25.37847	
22:43:17	0	0	0	0.2795804	-7.172839	0	3	100	0	50	1.898193	-0.1905081	-25.34952	
22:43:17	0	0	0	0.2901335	-3.194763	0	3	100	0	50	1.901994	-0.1912992	-25.30956	
22:43:17	0	0	0	0.2901335	-3.194763	0	3	100	0	50	1.904343	-0.1939798	-25.28681	
22:43:17	0	0	0	0.2901335	-3.194763	0	3	100	0	50	1.890525	-0.5914199	-25.27811	
22:43:18	0	0	0	0.2901335	-3.194763	0	3	100	0	50	1.882282	-0.2951563	-25.27086	
22:43:18	0	0	0	0.2901335	-3.194763	0	3	100	0	50	1.88493	-0.5048447	-25.2632	
22:43:18	0	0	0	0.3937165	3.504579	0	3	100	0	50	1.878435	-0.3309131	-25.24789	
22:43:18	0	0	0	0.3937165	3.504579	0	3	100	0	50	1.887934	-0.2192073	-25.2506	
22:43:18	0	0	0	0.3937165	3.504579	0	3	100	0	50	1.884699	-0.24302	-25.1886	
22:43:19	0	0	0	0.3937165	3.504579	0	3	100	0	50	1.890571	-0.2370139	-25.15115	
22:43:19	0	0	0	0.3937165	3.504579	0	3	100	0	50	1.874362	-0.2113547	-25.11493	
22:43:19	0	0	0	0.4319978	4.177115	0	3	100	0	50	1.860909	-0.1843717	-25.07449	
22:43:19	0	0	0	0.4319978	4.177115	0	3	100	0	50	1.844827	-0.1782075	-25.04008	
22:43:19	0	0	0	0.4319978	4.177115	0	3	100	0	50	1.834347	-0.1743882	-25.00533	
22:43:20	0	0	0	0.4319978	4.177115	0	3	100	0	50	1.816099	-0.1687451	-24.96521	
22:43:20	0	0	0	0.4319978	4.177115	0	3	100	0	50	1.812386	-0.1531249	-24.92796	
22:43:20	0	0	0	0.178232	-9.753208	0	3	100	0	50	1.78696	-0.1466535	-24.87627	
22:43:20	0	0	0	0.178232	-9.753208	0	3	100	0	50	1.782571	-0.1488784	-24.84288	
22:43:20	0	0	0	0.178232	-9.753208	0	3	100	0	50	1.782981	-0.1379303	-24.80107	
22:43:21	0	0	0	0.178232	-9.753208	0	3	100	0	50	1.782098	-0.1476412	-24.78829	
22:43:21	0	0	0	0.178232	-9.753208	0	3	100	0	50	1.783671	-0.1469164	-24.75933	
22:43:21	0	0	0	0.1791249	-5.423528	0	3	100	0	50	1.775184	-0.1540622	-24.74159	
22:43:21	0	0	0	0.1791249	-5.423528	0	3	100	0	50	1.765299	-0.1603006	-24.70456	
22:43:21	0	0	0	0.1791249	-5.423528	0	3	100	0	50	1.770996	-0.1640693	-24.66741	
22:43:22	0	0	0	0.1791249	-5.423528	0	3	100	0	50	1.766954	-0.1473617	-24.62443	
22:43:22	0	0	0	0.1791249	-5.423528	0	3	100	0	50	1.76133	-0.1413259	-24.58224	
22:43:22	0	0	0	0.3618496	5.147601	0	3	100	0	50	1.753932	-0.1385936	-24.55227	
22:43:22	0	0	0	0.3618496	5.147601	0	3	100	0	50	1.747221	-0.1282926	-24.53597	
22:43:22	0	0	0	0.3618496	5.147601	0	3	100	0	50	1.738707	-0.1225041	-24.51587	
22:43:23	0	0	0	0.3618496	5.147601	0	3	100	0	50	1.745655	-0.1109403	-24.49371	
22:43:23	0	0	0	0.3618496	5.147601	0	3	100	0	50	1.73059	-0.1236766	-24.47883	
22:43:23	0	0	0	0.4922961	8.652542	0	3	100	0	50	1.707537	-0.1168085	-24.46539	
22:43:23	0	0	0	0.4922961	8.652542	0	3	100	0	50	1.701051	-0.1167892	-24.45623	
22:43:23	0	0	0	0.4922961	8.652542	0	3	100	0	50	1.695451	-0.09625448	-24.44861	
22:43:24	0	0	0	0.4922961	8.652542	0	3	100	0	50	1.688303	-0.08775771	-24.41419	
22:43:24	0	0	0	0.4922961	8.652542	0	3	100	0	50	1.673732	-0.06822484	-24.384	
22:43:24	0	0	0	0.4203704	2.004622	0	3	100	0	50	1.661873	-0.06062141	-24.33614	
22:43:24	0	0	0	0.4203704	2.004622	0	3	100	0	50	1.641906	-0.05107574	-24.27964	
22:43:24	0	0	0	0.4203704	2.004622	0	3	100	0	50	1.63243	-0.05602143	-24.24198	
22:43:25	0	0	0	0.4203704	2.004622	0	3	100	0	50	1.638525	-0.0481825	-24.21836	
22:43:25	0	0	0	0.4203704	2.004622	0	3	100	0	50	1.634087	-0.03921185	-24.17786	
22:43:25	0	0	0	0.5708185	8.941051	0	3	100	0	50	1.619447	-0.02635808	-24.14199	
22:43:25	0	0	0	0.5708185	8.941051	0	3	100	0	50	1.606385	-0.02757828	-24.12391	
22:43:25	0	0	0	0.5708185	8.941051	0	3	100	0	50	1.601544	-0.01832839	-24.09196	
22:43:26	0	0	0	0.5708185	8.941051	0	3	100	0	50	1.587016	-0.0112466	-24.06403	
22:43:26	0	0	0	0.5708185	8.941051	0	3	100	0	50	1.588719	-0.0176094	-24.02737	
22:43:26	0	0	0	0.691546	10.36898	0	3	100	0	50	1.598415	-0.01142381	-24.00203	
22:43:26	0	0	0	0.691546	10.36898	0	3	100	0	50	1.595027	-0.02409082	-23.97997	
22:43:26	0	0	0	0.691546	10.36898	0	3	100	0	50	1.591898	-0.01122296	-23.97412	
22:43:27	0	0	0	0.691546	10.36898	0	3	100	0	50	1.575365	0.002169492	-23.93789	
22:43:27	0	0	0	0.691546	10.36898	0	3	100	0	50	1.569503	-0.001078583	-23.90408	
22:43:27	0	0	0	0.7709569	9.599707	0	3	100	0	50	1.561978	-0.009338522	-23.87076	
22:43:27	0	0	0	0.7709569	9.599707	0	3	100	0	50	1.557144	0.004324684	-23.86743	
22:43:27	0	0	0	0.7709569	9.599707	0	3	100	0	50	1.558681	0.01911097	-23.86889	
22:43:28	0	0	0	0.7709569	9.599707	0	3	100	0	50	1.558543	0.01813698	-23.85425	
22:43:28	0	0	0	0.7709569	9.599707	0	3	100	0	50	1.539944	0.02969222	-23.82763	
22:43:28	0	0	0	0.4743149	-7.893963	0	3	100	0	50	1.54407	0.04382628	-23.79975	
22:43:28	0	0	0	0.4743149	-7.893963	0	3	100	0	50	1.540197	0.04413785	-23.77252	
22:43:28	0	0	0	0.4743149	-7.893963	0	3	100	0	50	1.52724	0.05242256	-23.75301	
22:43:29	0	0	0	0.4743149	-7.893963	0	3	100	0	50	1.51657	0.05394473	-23.71299	
22:43:29	0	0	0	0.4743149	-7.893963	0	3	100	0	50	1.511801	0.06484412	-23.70032	
22:43:29	0	0	0	0.4489076	-5.831809	0	3	100	0	50	1.503511	0.06804416	-23.68073	
22:43:29	0	0	0	0.4489076	-5.831809	0	3	100	0	50	1.489604	0.08193481	-23.64918	
22:43:29	0	0	0	0.4489076	-5.831809	0	3	100	0	50	1.493744	0.09982506	-23.61759	
22:43:30	0	0	0	0.4489076	-5.831809	0	3	100	0	50	1.492929	0.1174277	-23.59947	
22:43:30	0	0	0	0.4489076	-5.831809	0	3	100	0	50	1.501169	0.1203599	-23.58147	
22:43:30	0	0	0	0.2497247	-11.67678	0	3	100	0	50	1.499283	0.1083807	-23.5629	
22:43:30	0	0	0	0.2497247	-11.67678	0	3	100	0	50	1.491715	0.1031111	-23.55448	
22:43:31	0	0	0	0.2497247	-11.67678	0	3	100	0	50	1.491487	0.09904659	-23.5471	
22:43:31	0	0	0	0.2497247	-11.67678	0	3	100	0	50	1.495307	0.0905361	-23.52399	
22:43:31	0	0	0	0.2497247	-11.67678	0	3	100	0	50	1.477896	0.1061548	-23.51701	
22:43:31	0	0	0	0.4260753	-0.2533983	0	3	100	0	50	1.471105	0.1163439	-23.49697	
22:43:31	0	0	0	0.4260753	-0.2533983	0	3	100	0	50	1.471603	0.1161281	-23.48065	
22:43:32	0	0	0	0.4260753	-0.2533983	0	3	100	0	50	1.461081	0.1135391	-23.47	
22:43:32	0	0	0	0.4260753	-0.2533983	0	3	100	0	50	1.448036	0.1301119	-23.45828	
22:43:32	0	0	0	0.4260753	-0.2533983	0	3	100	0	50	1.458685	0.1272922	-23.43899	
22:43:32	0	0	0	0.5672935	4.81658	0	3	100	0	50	1.452202	0.1363028	-23.41416	
22:43:32	0	0	0	0.5672935	4.81658	0	3	100	0	50	1.456568	0.1192034	-23.39777	
22:43:33	0	0	0	0.5672935	4.81658	0	3	100	0	50	1.458506	0.1051667	-23.38744	
22:43:33	0	0	0	0.5672935	4.81658	0	3	100	0	50	1.44555	0.1080952	-23.35985	
22:43:33	0	0	0	0.5672935	4.81658	0	3	100	0	50	1.437097	0.09911785	-23.34995	
22:43:33	0	0	0	0.5961569	3.725997	0	3	100	0	50	1.432718	0.08643579	-23.34202	
22:43:33	0	0	0	0.5961569	3.725997	0	3	100	0	50	1.429471	0.09367584	-23.31021	
22:43:34	0	0	0	0.5961569	3.725997	0	3	100	0	50	1.425951	0.1081747	-23.29018	
22:43:34	0	0	0	0.5961569	3.725997	0	3	100	0	50	1.433745	0.1149435	-23.2787	
22:43:34	0	0	0	0.5961569	3.725997	0	3	100	0	50	1.430757	0.1062475	-23.24032	
22:43:34	0	0	0	0.5791166	1.034365	0	3	100	0	50	1.421266	0.1166114	-23.22306	
22:43:34	0	0	0	0.5791166	1.034365	0	3	100	0	50	1.406507	0.1430276	-23.21272	
22:43:35	0	0	0	0.5791166	1.034365	0	3	100	0	50	1.400718	0.1445408	-23.20511	
22:43:35	0	0	0	0.5791166	1.034365	0	3	100	0	50	1.40316	0.1600234	-23.17982	
22:43:35	0	0	0	0.5791166	1.034365	0	3	100	0	50	1.410568	0.1745989	-23.16969	
22:43:35	0	0	0	0.6301289	3.418065	0	3	100	0	50	1.398832	0.1848732	-23.14925	
22:43:35	0	0	0	0.6301289	3.418065	0	3	100	0	50	1.383842	0.1970149	-23.14841	
22:43:36	0	0	0	0.6301289	3.418065	0	3	100	0	50	1.369573	0.20518	-23.14549	
22:43:36	0	0	0	0.6301289	3.418065	0	3	100	0	50	1.371937	0.1949396	-23.14435	
22:43:36	0	0	0	0.6301289	3.418065	0	3	100	0	50	1.366473	0.1975469	-23.12111	
22:43:36	0	0	0	0.4612435	-5.054293	0	3	100	0	50	1.375544	0.1913125	-23.13199	
22:43:36	0	0	0	0.4612435	-5.054293	0	3	100	0	50	1.371147	0.183263	-23.11183	
22:43:37	0	0	0	0.4612435	-5.054293	0	3	100	0	50	1.381214	0.174421	-23.10256	
22:43:37	0	0	0	0.4612435	-5.054293	0	3	100	0	50	1.37786	0.1778099	-23.09237	
22:43:37	0	0	0	0.4612435	-5.054293	0	3	100	0	50	1.374471	0.1756281	-23.07636	
22:43:37	0	0	0	0.4757483	-1.782075	0	3	100	0	50	1.364459	0.1665534	-23.06984	
22:43:37	0	0	0	0.4757483	-1.782075	0	3	100	0	50	1.367604	0.154709	-23.06245	
22:43:38	0	0	0	0.4757483	-1.782075	0	3	100	0	50	1.369355	0.1556759	-23.05712	
22:43:38	0	0	0	0.4757483	-1.782075	0	3	100	0	50	1.366447	0.1508325	-23.04626	
22:43:38	0	0	0	0.4757483	-1.782075	0	3	100	0	50	1.355887	0.1427801	-23.04866	
22:43:38	0	0	0	0.5868669	3.54103	0	3	100	0	50	1.365663	0.1253175	-23.04453	
22:43:38	0	0	0	0.5868669	3.54103	0	3	100	0	50	1.380894	0.09994644	-23.04549	
22:43:39	0	0	0	0.5868669	3.54103	0	3	100	0	50	1.384278	0.07874545	-23.0328	
22:43:39	0	0	0	0.5868669	3.54103	0	3	100	0	50	1.376909	0.07095271	-23.02559	
22:43:39	0	0	0	0.5868669	3.54103	0	3	100	0	50	1.380589	0.08668992	-23.02313	
22:43:39	0	0	0	0.4144466	-4.786588	0	3	100	0	50	1.381478	0.0953218	-23.00157	
22:43:39	0	0	0	0.4144466	-4.786588	0	3	100	0	50	1.383382	0.1010715	-22.99542	
22:43:40	0	0	0	0.4144466	-4.786588	0	3	100	0	50	1.389701	0.1122048	-22.98096	
22:43:40	0	0	0	0.4144466	-4.786588	0	3	100	0	50	1.390416	0.1030963	-22.97236	
22:43:40	0	0	0	0.4144466	-4.786588	0	3	100	0	50	1.387278	0.1060314	-22.97579	
22:43:40	0	0	0	0.7100729	10.25599	0	3	100	0	50	1.396781	0.08530582	-22.96964	
22:43:40	0	0	0	0.7100729	10.25599	0	3	100	0	50	1.41401	0.07953624	-22.96082	
22:43:41	0	0	0	0.7100729	10.25599	0	3	100	0	50	1.414154	0.08154001	-22.96277	
22:43:41	0	0	0	0.7100729	10.25599	0	3	100	0	50	1.428809	0.07869103	-22.95837	
22:43:41	0	0	0	0.7100729	10.25599	0	3	100	0	50	1.420196	0.080158	-22.94692	
22:43:41	0	0	0	0.6251334	2.598208	0	3	100	0	50	1.416861	0.08955699	-22.9355	
22:43:41	0	0	0	0.6251334	2.598208	0	3	100	0	50	1.413238	0.1024096	-22.92421	
22:43:42	0	0	0	0.6251334	2.598208	0	3	100	0	50	1.419261	0.09548195	-22.90887	
22:43:42	0	0	0	0.6251334	2.598208	0	3	100	0	50	1.430335	0.09344212	-22.90565	
22:43:42	0	0	0	0.6251334	2.598208	0	3	100	0	50	1.423257	0.08716825	-22.91982	
22:43:42	0	0	0	0.443875	-5.35321	0	3	100	0	50	1.42696	0.07575978	-22.92445	
22:43:42	0	0	0	0.443875	-5.35321	0	3	100	0	50	1.418466	0.062475	-22.92346	
22:43:43	0	0	0	0.443875	-5.35321	0	3	100	0	50	1.41936	0.06491064	-22.92293	
22:43:43	0	0	0	0.443875	-5.35321	0	3	100	0	50	1.420315	0.06787769	-22.92134	
22:43:43	0	0	0	0.443875	-5.35321	0	3	100	0	50	1.409544	0.07489526	-22.89469	
22:43:43	0	0	0	0.5654387	2.78648	0	3	100	0	50	1.402488	0.0886409	-22.87548	
22:43:43	0	0	0	0.5654387	2.78648	0	3	100	0	50	1.407975	0.09621847	-22.85986	
22:43:44	0	0	0	0.5654387	2.78648	0	3	100	0	50	1.399107	0.1059401	-22.85644	
22:43:44	0	0	0	0.5654387	2.78648	0	3	100	0	50	1.391518	0.1225159	-22.83466	
22:43:44	0	0	0	0.5654387	2.78648	0	3	100	0	50	1.390341	0.1125348	-22.82114	
22:43:44	0	0	0	0.7290576	8.808118	0	3	100	0	50	1.394338	0.1189006	-22.84191	
22:43:45	0	0	0	0.7290576	8.808118	0	3	100	0	50	1.405041	0.1035089	-22.83721	
22:43:45	0	0	0	0.7290576	8.808118	0	3	100	0	50	1.408816	0.09875689	-22.84966	
22:43:45	0	0	0	0.7290576	8.808118	0	3	100	0	50	1.411744	0.1019368	-22.83633	
22:43:45	0	0	0	0.7290576	8.808118	0	3	100	0	50	1.411035	0.09044142	-22.83341	
22:43:45	0	0	0	0.7470157	5.512279	0	3	100	0	50	1.406034	0.08712579	-22.83066	
22:43:46	0	0	0	0.7470157	5.512279	0	3	100	0	50	1.381311	0.1117014	-22.81401	
22:43:46	0	0	0	0.7470157	5.512279	0	3	100	0	50	1.381102	0.132955	-22.77396	
22:43:46	0	0	0	0.7470157	5.512279	0	3	100	0	50	1.371536	0.1655435	-22.75323	
22:43:46	0	0	0	0.7470157	5.512279	0	3	100	0	50	1.371851	0.188871	-22.738	
22:43:46	0	0	0	0.7561934	2.891378	0	3	100	0	50	1.36557	0.2049825	-22.7406	
22:43:47	0	0	0	0.7561934	2.891378	0	3	100	0	50	1.33631	0.2508681	-22.7189	
22:43:47	0	0	0	0.7561934	2.891378	0	3	100	0	50	1.322217	0.2770098	-22.71822	
22:43:47	0	0	0	0.7561934	2.891378	0	3	100	0	50	1.309456	0.314145	-22.70879	
22:43:47	0	0	0	0.7561934	2.891378	0	3	100	0	50	1.282061	0.3538133	-22.70737	
22:43:47	0	0	0	0.5210006	-7.461385	0	3	100	0	50	1.267982	0.3720504	-22.70065	
22:43:48	0	0	0	0.5210006	-7.461385	0	3	100	0	50	1.253342	0.4168882	-22.66488	
22:43:48	0	0	0	0.5210006	-7.461385	0	3	100	0	50	1.244014	0.45208	-22.65296	
22:43:48	0	0	0	0.5210006	-7.461385	0	3	100	0	50	1.245231	0.4798784	-22.63971	
22:43:48	0	0	0	0.5210006	-7.461385	0	3	100	0	50	1.225613	0.5022346	-22.63778	
22:43:48	0	0	0	0.440025	-9.800395	0	3	100	0	50	1.229983	0.5321696	-22.64762	
22:43:49	0	0	0	0.440025	-9.800395	0	3	100	0	50	1.221624	0.5419084	-22.63297	
22:43:49	0	0	0	0.440025	-9.800395	0	3	100	0	50	1.207265	0.5508924	-22.61775	
22:43:49	0	0	0	0.440025	-9.800395	0	3	100	0	50	1.197986	0.5635113	-22.61633	
22:43:49	0	0	0	0.440025	-9.800395	0	3	100	0	50	1.191602	0.582935	-22.61565	
22:43:49	0	0	0	0.511109	-4.023107	0	3	100	0	50	1.189953	0.612155	-22.59545	
22:43:50	0	0	0	0.511109	-4.023107	0	3	100	0	50	1.176678	0.6449273	-22.59272	
22:43:50	0	0	0	0.511109	-4.023107	0	3	100	0	50	1.172317	0.6629388	-22.59034	
22:43:50	0	0	0	0.511109	-4.023107	0	3	100	0	50	1.17063	0.6758379	-22.59155	
22:43:50	0	0	0	0.511109	-4.023107	0	3	100	0	50	1.173885	0.6966237	-22.58268	
22:43:50	0	0	0	0.475532	-3.668941	0	3	100	0	50	1.164875	0.7306089	-22.60402	
22:43:51	0	0	0	0.475532	-3.668941	0	3	100	0	50	1.143752	0.7608109	-22.62135	
22:43:51	0	0	0	0.475532	-3.668941	0	3	100	0	50	1.129577	0.8015376	-22.61196	
