Date	Latitude(deg) 	Longitude(deg)	hamsl(m)	hafl(m)	climbrate(cm/s)	GroundSpeed(m/s)	Airspeed(m/s)	Mav_Link(%)	Rssi_Link(%)	Throttle	Roll(deg)	Pitch(deg)	Yaw(deg)
14:24:28	0	0	0	-0.1777535	-27.90285	0	3	49	0	44	1.545976	-4.737386	-75.63167	
14:24:29	0	0	0	-0.474067	-52.65504	0	3	58	0	41	1.666157	-4.76734	-76.06245	
14:24:31	0	0	0	-0.8362295	-70.52844	0	3	65	0	39	1.738061	-4.70846	-76.42419	
14:24:33	0	0	0	-0.9029335	-72.87514	0	3	69	0	36	1.733514	-4.717507	-76.67618	
14:24:35	0	0	0	-0.9145674	-68.88345	0	3	74	0	33	1.691451	-4.782376	-76.73566	
14:24:36	0	0	0	-0.7678957	-52.29115	0	3	77	0	30	1.713337	-4.794872	-76.76137	
14:24:38	0	0	0	-0.5309232	-28.96166	0	3	80	0	27	1.774786	-4.712361	-76.74962	
14:24:40	0	0	0	-0.4182988	-6.120612	0	3	82	0	24	1.792583	-4.753546	-76.70415	
14:24:42	0	0	0	-0.0397871	18.04898	0	3	84	0	21	1.797839	-4.635209	-76.60559	
14:24:43	0	0	0	0.2108745	37.65742	0	3	86	0	18	1.758552	-4.674668	-76.57932	
14:24:45	0	0	0	0.3964476	50.08296	0	3	87	0	15	1.672906	-4.830532	-76.46267	
14:24:47	0	0	0	0.5138898	56.6138	0	3	88	0	13	1.632174	-4.78919	-76.25408	
14:24:48	0	0	0	0.6151869	54.47869	0	3	89	0	13	1.651749	-4.80361	-76.1364	
14:24:50	0	0	0	0.4424855	42.16824	0	3	90	0	13	1.650935	-4.678967	-75.97108	
14:24:52	0	0	0	0.2130028	25.16564	0	3	91	0	13	1.579934	-4.57083	-75.81448	
14:24:54	0	0	0	0.1249843	6.611786	0	3	92	0	13	1.606547	-4.538681	-75.75112	
14:24:55	0	0	0	0.01225595	-11.02031	0	3	93	0	13	1.600273	-4.469928	-75.61398	
14:24:57	0	0	0	-0.04705529	-24.2904	0	3	93	0	13	1.554062	-4.473151	-75.54343	
14:24:59	0	0	0	-0.1957198	-34.47984	0	3	94	0	13	1.43485	-4.577373	-75.49113	
14:25:01	0	0	0	-0.2331959	-37.24397	0	3	94	0	13	1.447085	-4.658895	-75.3889	
14:25:02	0	0	0	-0.3152789	-36.11274	0	3	95	0	13	1.449867	-4.844208	-75.27919	
14:25:04	0	0	0	-0.2655573	-30.17794	0	3	95	0	13	1.467983	-4.691585	-75.20203	
14:25:06	0	0	0	-0.1737287	-17.65641	0	3	96	0	13	1.442448	-4.802949	-75.12476	
14:25:07	0	0	0	-0.1970986	-6.600803	0	3	96	0	13	1.458207	-4.816566	-75.04018	
14:25:09	0	0	0	-0.06429718	6.238323	0	3	96	0	13	1.480358	-4.755626	-74.9619	
14:25:11	0	0	0	0.127856	15.93372	0	3	96	0	13	1.452924	-4.832358	-74.94408	
14:25:13	0	0	0	0.04782204	21.55578	0	3	97	0	13	1.435104	-4.870457	-74.90079	
14:25:14	0	0	0	0.2141632	24.68534	0	3	97	0	13	1.491163	-4.780307	-74.88445	
14:25:16	0	0	0	0.2063261	21.84176	0	3	97	0	13	1.439559	-4.923026	-74.84506	
14:25:18	0	0	0	0.2262791	18.60757	0	3	97	0	13	1.411178	-4.824222	-74.85854	
14:25:20	0	0	0	-0.07605314	8.484678	0	3	64	0	13	1.353893	-4.830547	-74.79913	
14:25:21	0	0	0	-0.2791486	-4.121406	0	3	66	0	13	1.398986	-4.941317	-74.77487	
14:25:23	0	0	0	-0.4178645	-13.39147	0	3	68	0	13	1.382713	-4.885276	-74.75842	
14:25:25	0	0	0	-0.2534596	-10.05936	0	3	69	0	13	1.349799	-5.003878	-74.80565	
14:25:26	0	0	0	0.007017193	-4.969362	0	3	71	0	13	1.31318	-5.029916	-74.78239	
14:25:28	0	0	0	-0.03405266	-6.673707	0	3	73	0	13	1.332555	-4.995525	-74.74355	
14:25:30	0	0	0	0.3217689	2.500685	0	3	74	0	13	1.37561	-4.88944	-74.72162	
14:25:32	0	0	0	0.03936693	-4.255464	0	3	76	0	13	1.371288	-4.817022	-74.7153	
14:25:33	0	0	0	-0.05594397	-5.34718	0	3	77	0	13	1.351526	-4.749599	-74.72849	
14:25:35	0	0	0	-0.1598441	-6.068064	0	3	78	0	13	1.343784	-4.686074	-74.75243	
14:25:37	0	0	0	-0.1772983	-5.0737	0	3	80	0	13	1.331405	-4.720903	-74.74618	
14:25:38	0	0	0	-0.4952611	-9.865001	0	3	81	0	13	1.378949	-4.618992	-74.77212	
14:25:40	0	0	0	-0.4176261	-4.56887	0	3	82	0	13	1.371526	-4.703035	-74.76427	
14:25:42	0	0	0	-0.04649089	6.771021	0	3	83	0	13	1.336909	-4.747256	-74.80113	
14:25:44	0	0	0	0.09194528	9.542862	0	3	84	0	13	1.366294	-4.733402	-74.77929	
14:25:45	0	0	0	0.2679237	12.7258	0	3	85	0	13	1.395332	-4.775298	-74.79899	
14:25:47	0	0	0	0.1860314	7.625188	0	3	86	0	13	1.391258	-4.769749	-74.77778	
14:25:49	0	0	0	-0.04456148	-0.8461854	0	3	87	0	13	1.405785	-4.745447	-74.7629	
14:25:51	0	0	0	-0.1663168	-4.280304	0	3	88	0	13	1.404296	-4.80353	-74.76635	
14:25:52	0	0	0	-0.08190029	-1.642753	0	3	89	0	13	1.414344	-4.799231	-74.75656	
14:25:54	0	0	0	-0.1053151	-2.418581	0	3	89	0	13	1.37633	-4.784497	-74.77632	
14:25:56	0	0	0	0.05719559	1.388881	0	3	90	0	13	1.324206	-4.830268	-74.74776	
14:25:57	0	0	0	-0.002180006	-1.26772	0	3	91	0	13	1.324804	-4.762024	-74.73376	
14:25:59	0	0	0	0.1530911	3.577536	0	3	91	0	13	1.331533	-4.888483	-74.71942	
14:26:01	0	0	0	-0.04366224	-2.13422	0	3	92	0	13	1.321633	-4.861759	-74.70483	
14:26:03	0	0	0	-0.07584814	-1.665065	0	3	92	0	13	1.311107	-4.860105	-74.70775	
14:26:04	0	0	0	-0.2758303	-6.925835	0	3	93	0	13	1.330076	-4.854298	-74.73235	
14:26:06	0	0	0	-0.3836266	-8.77089	0	3	93	0	13	1.271761	-4.78636	-74.75279	
14:26:08	0	0	0	-0.3755054	-5.434803	0	3	94	0	13	1.246672	-4.637829	-74.7985	
14:26:09	0	0	0	-0.3793786	-3.217985	0	3	94	0	13	1.322893	-4.739489	-74.82615	
14:26:11	0	0	0	-0.2512059	0.7440578	0	3	95	0	13	1.378825	-4.673759	-74.8131	
14:26:13	0	0	0	-0.4430009	-2.025097	0	3	95	0	13	1.356402	-4.72767	-74.81603	
14:26:15	0	0	0	-0.182516	5.372264	0	3	95	0	13	1.356143	-4.668358	-74.79774	
14:26:16	0	0	0	0.2031946	14.26629	0	3	96	0	13	1.376128	-4.715721	-74.8252	
14:26:18	0	0	0	0.04325147	7.7154	0	3	96	0	13	1.339314	-4.836761	-74.83138	
14:26:20	0	0	0	0.04418624	5.577062	0	3	96	0	13	1.290656	-4.752389	-74.82069	
14:26:21	0	0	0	0.3728255	12.01255	0	3	96	0	13	1.279722	-4.806101	-74.83436	
14:26:23	0	0	0	0.7580195	18.907	0	3	97	0	13	1.268851	-4.83038	-74.86224	
14:26:25	0	0	0	0.7811067	12.93744	0	3	97	0	13	1.22272	-4.974634	-74.82092	
14:26:27	0	0	0	0.4708158	1.120131	0	3	97	0	13	1.215783	-5.011992	-74.80347	
14:26:28	0	0	0	0.149714	-10.0803	0	3	97	0	13	1.271394	-5.07694	-74.79218	
14:26:30	0	0	0	-0.0855948	-16.2598	0	3	97	0	13	1.27298	-5.009813	-74.73899	
14:26:32	0	0	0	-0.2897195	-19.01806	0	3	97	0	13	1.318651	-4.967756	-74.72615	
14:26:34	0	0	0	-0.2107335	-13.07129	0	3	98	0	13	1.300628	-4.741459	-74.71058	
14:26:35	0	0	0	-0.06260353	-6.975464	0	3	98	0	13	1.303196	-4.795491	-74.69813	
14:26:37	0	0	0	0.3347571	6.971969	0	3	98	0	13	1.308595	-4.802552	-74.71359	
14:26:39	0	0	0	0.4378534	8.975276	0	3	98	0	13	1.317735	-4.779334	-74.73757	
14:26:40	0	0	0	0.4651696	8.719659	0	3	98	0	13	1.289647	-4.817987	-74.717	
14:26:42	0	0	0	0.003411287	-3.567269	0	3	98	0	13	1.293794	-4.81661	-74.74787	
14:26:44	0	0	0	-0.03681277	-3.312572	0	3	98	0	13	1.312572	-4.905313	-74.7503	
14:26:46	0	0	0	-0.07173266	-2.580246	0	3	98	0	13	1.300213	-4.96035	-74.74847	
14:26:47	0	0	0	0.0587875	-0.1917211	0	3	68	0	13	1.283274	-4.994384	-74.74122	
14:26:49	0	0	0	0.1655175	3.092411	0	3	70	0	13	1.312101	-4.911964	-74.74364	
14:26:51	0	0	0	0.2386816	3.697438	0	3	72	0	13	1.338995	-4.887405	-74.7674	
14:26:53	0	0	0	0.3911333	6.097151	0	3	73	0	13	1.354617	-4.709181	-74.75364	
14:26:54	0	0	0	0.4812073	6.855748	0	3	75	0	13	1.401502	-4.737123	-74.76054	
14:26:56	0	0	0	0.4896215	4.435898	0	3	76	0	13	1.377143	-4.740249	-74.7515	
14:26:58	0	0	0	0.5463089	3.555175	0	3	77	0	13	1.364628	-4.667243	-74.76881	
14:26:59	0	0	0	0.3602453	-3.520153	0	3	79	0	13	1.416755	-4.601797	-74.77957	
14:27:01	0	0	0	0.1792492	-8.874856	0	3	80	0	13	1.478539	-4.448327	-74.80827	
14:27:03	0	0	0	0.1373567	-7.009305	0	3	81	0	13	1.468828	-4.507766	-74.82426	
14:27:05	0	0	0	0.1874108	-2.028589	0	3	82	0	13	1.474401	-4.601231	-74.85941	
14:27:06	0	0	0	0.3307951	1.31884	0	3	83	0	13	1.421118	-4.581883	-74.84892	
14:27:08	0	0	0	0.1204693	-4.412374	0	3	84	0	13	1.462109	-4.580169	-74.85272	
14:27:10	0	0	0	0.217483	-0.8561205	0	3	85	0	13	1.435614	-4.672462	-74.85661	
14:27:11	0	0	0	0.1113826	-2.733747	0	3	86	0	13	1.430644	-4.729992	-74.85311	
14:27:13	0	0	0	0.2792789	3.374799	0	3	87	0	13	1.385131	-4.72611	-74.82728	
14:27:15	0	0	0	0.1648441	-2.07596	0	3	88	0	13	1.316271	-4.719695	-74.80103	
14:27:17	0	0	0	-0.008033962	-2.787999	0	3	89	0	13	1.341821	-4.769251	-74.80781	
14:27:18	0	0	0	0.1145032	2.765522	0	3	89	0	13	1.334897	-4.825471	-74.79314	
14:27:20	0	0	0	0.2947306	7.861687	0	3	90	0	13	1.297008	-4.872857	-74.80058	
14:27:22	0	0	0	0.3356563	6.510677	0	3	91	0	13	1.271135	-4.863519	-74.79624	
14:27:24	0	0	0	-0.08100606	-7.078071	0	3	91	0	13	1.319945	-4.866993	-74.7701	
14:27:25	0	0	0	-0.1564503	-7.711689	0	3	92	0	13	1.285751	-4.902405	-74.76476	
14:27:27	0	0	0	-0.08894306	-3.354022	0	3	92	0	13	1.299135	-4.892707	-74.75221	
14:27:29	0	0	0	-0.2208522	-3.904823	0	3	93	0	13	1.315414	-4.779981	-74.71877	
14:27:30	0	0	0	-0.1112506	2.210814	0	3	93	0	13	1.34364	-4.801538	-74.72198	
14:27:32	0	0	0	0.2424125	13.15154	0	3	94	0	13	1.362893	-4.896915	-74.76037	
14:27:34	0	0	0	0.5203997	18.22424	0	3	94	0	13	1.345515	-4.882831	-74.7602	
14:27:36	0	0	0	0.4908647	9.752973	0	3	94	0	13	1.283662	-4.857585	-74.71403	
14:27:37	0	0	0	0.5695531	8.867991	0	3	95	0	13	1.320258	-4.822537	-74.73367	
14:27:39	0	0	0	0.8455037	11.39914	0	3	95	0	13	1.312133	-4.849962	-74.728	
14:27:41	0	0	0	0.7606556	1.378142	0	3	95	0	13	1.31697	-4.815118	-74.75142	
14:27:43	0	0	0	0.9044821	4.266673	0	3	96	0	13	1.323403	-4.789028	-74.74598	
14:27:44	0	0	0	1.090525	7.407174	0	3	96	0	13	1.310396	-4.775355	-74.77596	
14:27:46	0	0	0	0.9769391	1.285712	0	3	96	0	13	1.348834	-4.628107	-74.79276	
14:27:48	0	0	0	0.9772154	1.654065	0	3	97	0	13	1.315878	-4.545677	-74.80091	
14:27:49	0	0	0	1.2765	245.9877	0	3	65	0	13	1.278327	-4.690525	-74.79462	
14:27:51	0	0	0	7.088585	623.3386	0	3	66	0	13	1.328626	-4.679913	-74.76119	
14:27:53	0	0	0	-6.078089	-1922.036	0	3	68	0	13	1.338156	-4.627066	-74.77065	
14:27:55	0	0	0	-8.611552	776.4865	0	3	70	0	13	1.355343	-4.662547	-74.80075	
14:27:56	0	0	0	35.91272	4893.744	0	3	71	0	13	1.339772	-4.746142	-74.82008	
14:27:58	0	0	0	-21.64874	-9688.41	0	3	73	0	13	1.351771	-4.746173	-74.81509	
14:28:00	0	0	0	-78.09253	-1636.919	0	3	74	0	13	1.341707	-4.779379	-74.80975	
14:28:01	0	0	0	28.87953	6746.28	0	3	56	0	13	1.321213	-4.815962	-74.8181	
14:28:03	0	0	0	64.04369	6574.399	0	3	58	0	13	1.284592	-4.785614	-74.8443	
14:28:05	0	0	0	42.35583	1822.768	0	3	59	0	13	1.330289	-4.758931	-74.80881	
14:28:07	0	0	0	-7.285056	-3531.45	0	3	61	0	13	1.339308	-4.80853	-74.81384	
14:28:08	0	0	0	-43.94482	-5561.625	0	3	63	0	13	1.362469	-4.809355	-74.79953	
14:28:10	0	0	0	-43.85364	-3413.338	0	3	65	0	13	1.300994	-4.898657	-74.7599	
14:28:12	0	0	0	-12.99046	790.1217	0	3	67	0	13	1.289378	-4.839328	-74.74733	
14:28:14	0	0	0	21.61842	3741.677	0	3	68	0	13	1.363604	-4.817861	-74.75204	
14:28:15	0	0	0	37.13795	3749.58	0	3	70	0	13	1.334769	-4.833732	-74.75195	
14:28:17	0	0	0	25.15322	1151.635	0	3	71	0	13	1.325007	-4.734128	-74.75079	
14:28:19	0	0	0	-1.827862	-1833.355	0	3	73	0	13	1.396968	-4.720429	-74.76281	
14:28:21	0	0	0	-22.90573	-3087.487	0	3	74	0	13	1.379196	-4.70413	-74.77062	
14:28:22	0	0	0	-24.40401	-2014.837	0	3	76	0	13	1.369019	-4.633748	-74.79106	
14:28:24	0	0	0	-8.559966	286.9523	0	3	77	0	13	1.395692	-4.617127	-74.83011	
14:28:26	0	0	0	11.05796	2022.654	0	3	78	0	13	1.369399	-4.726969	-74.86268	
14:28:27	0	0	0	20.66334	2129.128	0	3	80	0	13	1.29599	-4.772714	-74.84132	
14:28:29	0	0	0	15.5328	799.2379	0	3	81	0	13	1.331229	-4.682876	-74.84213	
14:28:31	0	0	0	0.7807719	-885.9503	0	3	82	0	13	1.32064	-4.772655	-74.85078	
14:28:33	0	0	0	-12.53933	-1740.687	0	3	83	0	13	1.34355	-4.734478	-74.84888	
14:28:34	0	0	0	-14.43397	-1256.422	0	3	84	0	13	1.315411	-4.86535	-74.86884	
14:28:36	0	0	0	-5.839445	27.96844	0	3	85	0	13	1.299506	-4.862624	-74.84411	
14:28:38	0	0	0	5.672193	1091.035	0	3	86	0	13	1.265679	-4.986992	-74.83666	
14:28:39	0	0	0	11.78828	1207.922	0	3	60	0	13	1.312071	-4.902883	-74.81982	
14:28:41	0	0	0	8.9087	541.9697	0	3	62	0	13	1.283033	-4.869326	-74.81561	
14:28:43	0	0	0	3.503047	34.55367	0	3	63	0	13	1.313436	-4.949325	-74.7936	
14:28:45	0	0	0	-0.1860415	-225.811	0	3	65	0	13	1.317238	-4.959054	-74.74555	
14:28:46	0	0	0	-2.052811	-314.0034	0	3	67	0	13	1.28057	-4.956927	-74.75692	
14:28:48	0	0	0	-2.362565	-296.7351	0	3	69	0	13	1.299847	-4.938108	-74.75087	
14:28:50	0	0	0	-2.425598	-249.7648	0	3	70	0	13	1.336263	-4.89836	-74.76788	
14:28:52	0	0	0	-2.115295	-186.4522	0	3	72	0	13	1.367631	-4.731727	-74.7543	
14:28:53	0	0	0	-1.619903	-125.2641	0	3	73	0	13	1.371692	-4.775007	-74.76868	
14:28:55	0	0	0	-0.752628	-64.27816	0	3	75	0	13	1.438024	-4.71906	-74.77315	
14:28:57	0	0	0	-0.02567909	-24.6503	0	3	76	0	13	1.387039	-4.79622	-74.80627	
14:28:59	0	0	0	0.2143556	-8.877583	0	3	77	0	13	1.393865	-4.786895	-74.80753	
14:29:00	0	0	0	0.2716019	-4.78476	0	3	79	0	13	1.37192	-4.827728	-74.79234	
14:29:02	0	0	0	0.3273249	-0.2975428	0	3	80	0	13	1.39685	-4.774628	-74.77776	
14:29:04	0	0	0	0.5432991	6.29812	0	3	81	0	13	1.396174	-4.686434	-74.74578	
14:29:05	0	0	0	0.2077421	-3.20949	0	3	82	0	13	1.330168	-4.716137	-74.74357	
14:29:07	0	0	0	0.7276632	13.90759	0	3	60	0	13	1.290942	-4.864495	-74.78587	
14:29:09	0	0	0	0.3513741	-13.23523	0	3	62	0	13	1.247569	-4.790939	-74.75062	
14:29:11	0	0	0	0.2013669	-21.43738	0	3	64	0	13	1.266535	-4.764511	-74.74117	
14:29:12	0	0	0	-0.5063125	-43.139	0	3	65	0	13	1.325078	-4.77643	-74.76092	
14:29:14	0	0	0	-0.630127	-36.12339	0	3	67	0	13	1.345897	-4.693825	-74.74257	
14:29:16	0	0	0	-0.3984193	-22.62199	0	3	69	0	13	1.391754	-4.638955	-74.76424	
14:29:18	0	0	0	-0.9006081	-32.54549	0	3	70	0	13	1.360738	-4.761774	-74.79385	
14:29:19	0	0	0	-0.6837102	-17.42815	0	3	72	0	13	1.39727	-4.760415	-74.79364	
14:29:21	0	0	0	-0.007343171	2.577613	0	3	73	0	13	1.368665	-4.822408	-74.77511	
14:29:23	0	0	0	-0.2815186	-7.500414	0	3	75	0	13	1.439099	-4.740166	-74.78046	
14:29:24	0	0	0	-0.06122204	-1.000023	0	3	76	0	13	1.400532	-4.696612	-74.76192	
14:29:26	0	0	0	-0.08765326	-3.712498	0	3	78	0	13	1.41544	-4.652857	-74.80252	
14:29:28	0	0	0	0.02244839	-2.047262	0	3	79	0	13	1.380319	-4.701004	-74.82785	
14:29:30	0	0	0	0.09926483	0.664584	0	3	80	0	13	1.367141	-4.719883	-74.81373	
14:29:31	0	0	0	0.3183857	3.230033	0	3	81	0	13	1.374305	-4.815103	-74.82294	
14:29:33	0	0	0	0.0633712	-5.869739	0	3	82	0	13	1.384358	-4.886414	-74.84148	
14:29:35	0	0	0	-0.2534911	-12.52117	0	3	83	0	13	1.392424	-4.861541	-74.81015	
14:29:37	0	0	0	-0.3816775	-11.1957	0	3	84	0	13	1.390849	-4.872784	-74.79506	
14:29:38	0	0	0	0.04060305	4.085546	0	3	85	0	13	1.325038	-4.921791	-74.77592	
14:29:40	0	0	0	0.2740093	9.036688	0	3	86	0	13	1.350772	-5.017445	-74.76055	
14:29:42	0	0	0	0.5923319	13.33506	0	3	87	0	13	1.285663	-5.028106	-74.72355	
14:29:43	0	0	0	0.7464525	11.10404	0	3	88	0	13	1.305705	-4.984883	-74.73418	
14:29:45	0	0	0	0.8735863	8.547553	0	3	89	0	13	1.270661	-4.935343	-74.69028	
14:29:47	0	0	0	0.7543052	-1.205299	0	3	89	0	13	1.299661	-4.837879	-74.70596	
14:29:49	0	0	0	0.4052645	-10.27255	0	3	90	0	13	1.324315	-4.843591	-74.69822	
14:29:50	0	0	0	0.5424452	-2.380563	0	3	91	0	13	1.329693	-4.870004	-74.70612	
14:29:52	0	0	0	0.6616207	0.4680993	0	3	91	0	13	1.306667	-4.825954	-74.72688	
14:29:54	0	0	0	0.7510403	0.07241657	0	3	65	0	13	1.288364	-4.70659	-74.74451	
14:29:56	0	0	0	0.6523618	-25.64491	0	3	67	0	13	1.342875	-4.741531	-74.74719	
14:29:57	0	0	0	0.5802876	-38.43373	0	3	69	0	13	1.389192	-4.629241	-74.75652	
14:29:59	0	0	0	0.3982067	-48.95678	0	3	70	0	13	1.401051	-4.650059	-74.79371	
14:30:01	0	0	0	0.2149781	-55.06573	0	3	72	0	13	1.384653	-4.632393	-74.84403	
14:30:02	0	0	0	0.3453732	-49.15987	0	3	74	0	13	1.361344	-4.814946	-74.88815	
14:30:04	0	0	0	0.2703236	-52.46433	0	3	75	0	13	1.368284	-4.84688	-74.87839	
14:30:06	0	0	0	0.08982635	-57.578	0	3	76	0	13	1.329016	-4.851465	-74.90073	
14:30:08	0	0	0	0.1412967	-53.7319	0	3	78	0	13	1.386897	-4.701123	-74.88463	
14:30:09	0	0	0	0.4175702	-37.43732	0	3	59	0	13	1.336409	-4.711975	-74.87159	
14:30:11	0	0	0	0.4005132	-26.26857	0	3	61	0	13	1.329147	-4.862521	-74.86888	
14:30:13	0	0	0	0.4857808	-19.76003	0	3	63	0	13	1.353459	-4.771469	-74.85588	
14:30:15	0	0	0	0.6305945	-18.65254	0	3	64	0	13	1.35706	-4.741693	-74.88522	
14:30:16	0	0	0	0.5369251	-25.35021	0	3	66	0	13	1.333122	-4.720877	-74.90932	
14:30:18	0	0	0	0.6722664	-21.51368	0	3	68	0	13	1.339417	-4.750319	-74.87192	
14:30:20	0	0	0	0.4265277	-34.26697	0	3	69	0	13	1.415122	-4.710051	-74.87679	
14:30:21	0	0	0	0.2418101	-34.4767	0	3	71	0	13	1.408727	-4.78349	-74.87035	
14:30:23	0	0	0	0.03631229	-32.44758	0	3	72	0	13	1.391507	-4.833137	-74.85032	
14:30:25	0	0	0	0.08661134	-22.5869	0	3	74	0	13	1.386726	-4.755305	-74.8446	
14:30:27	0	0	0	0.5034384	-7.063712	0	3	75	0	13	1.413312	-4.834825	-74.84103	
14:30:28	0	0	0	0.736661	-12.74037	0	3	77	0	13	1.386143	-4.78716	-74.83644	
14:30:30	0	0	0	0.4789163	-29.1796	0	3	78	0	13	1.351765	-4.768519	-74.81284	
14:30:32	0	0	0	0.5756685	-21.6781	0	3	79	0	13	1.356649	-4.877006	-74.81158	
14:30:33	0	0	0	0.8212386	-13.42719	0	3	81	0	13	1.322095	-4.941807	-74.78773	
14:30:35	0	0	0	1.104964	-12.06186	0	3	82	0	13	1.336116	-4.910541	-74.76717	
14:30:37	0	0	0	0.8364348	-36.88948	0	3	83	0	13	1.356611	-4.863498	-74.75978	
14:30:39	0	0	0	0.7785293	-21.40511	0	3	61	0	13	1.344745	-4.863833	-74.76365	
14:30:40	0	0	0	0.6189564	-31.88118	0	3	63	0	13	1.31716	-4.88269	-74.75134	
14:30:42	0	0	0	0.4766051	-29.19422	0	3	65	0	13	1.30112	-4.935569	-74.72751	
14:30:44	0	0	0	0.6451602	-10.97328	0	3	66	0	13	1.377007	-4.863259	-74.74152	
14:30:46	0	0	0	0.6828843	-19.65076	0	3	68	0	13	1.458006	-4.872129	-74.76919	
14:30:47	0	0	0	0.6029037	-23.13558	0	3	70	0	13	1.439884	-4.756805	-74.73193	
14:30:49	0	0	0	0.56621	-24.91524	0	3	71	0	13	1.417728	-4.75849	-74.71425	
14:30:51	0	0	0	0.5385526	-18.19514	0	3	73	0	13	1.379622	-4.811344	-74.76249	
14:30:52	0	0	0	0.7615255	-10.66214	0	3	74	0	13	1.396355	-4.920974	-74.74376	
14:30:54	0	0	0	1.07145	-4.505034	0	3	76	0	13	1.356793	-4.793097	-74.72003	
14:30:56	0	0	0	0.7136344	-36.17066	0	3	77	0	13	1.384245	-4.709455	-74.7635	
14:30:58	0	0	0	0.5845966	-31.25156	0	3	78	0	13	1.36842	-4.752646	-74.78738	
14:30:59	0	0	0	0.5998617	-19.94278	0	3	79	0	13	1.386979	-4.754328	-74.79664	
14:31:01	0	0	0	0.8639994	-9.912246	0	3	81	0	13	1.4626	-4.661723	-74.77495	
14:31:03	0	0	0	0.7068295	-23.48907	0	3	82	0	13	1.508194	-4.585538	-74.81699	
14:31:05	0	0	0	0.2434866	-42.04913	0	3	83	0	13	1.395959	-4.596064	-74.81243	
14:31:06	0	0	0	0.8566067	86.41566	0	3	63	0	13	1.390771	-4.582755	-74.87491	
14:31:08	0	0	0	1.715769	116.9365	0	3	65	0	13	1.387179	-4.629407	-74.87268	
14:31:10	0	0	0	1.723676	81.10104	0	3	66	0	13	1.309204	-4.6998	-74.87813	
14:31:11	0	0	0	1.908633	81.73524	0	3	68	0	13	1.337073	-4.776597	-74.8735	
14:31:13	0	0	0	1.687187	59.77635	0	3	70	0	13	1.281385	-4.782654	-74.86313	
14:31:15	0	0	0	1.388429	50.01902	0	3	71	0	13	1.28406	-4.737922	-74.89789	
14:31:17	0	0	0	1.36774	57.34549	0	3	73	0	13	1.28926	-4.700489	-74.88708	
14:31:18	0	0	0	1.752491	69.82401	0	3	74	0	13	1.288496	-4.749544	-74.89109	
14:31:20	0	0	0	1.627297	46.82058	0	3	75	0	13	1.204701	-4.911266	-74.8652	
14:31:22	0	0	0	1.466339	37.43626	0	3	77	0	13	1.176149	-4.966457	-74.85788	
14:31:23	0	0	0	1.34996	34.85465	0	3	78	0	13	1.149372	-4.97338	-74.83512	
14:31:25	0	0	0	1.461664	45.56014	0	3	79	0	13	1.16087	-5.044117	-74.81531	
14:31:27	0	0	0	1.720937	44.81351	0	3	81	0	13	1.201659	-4.975937	-74.76302	
14:31:29	0	0	0	1.658186	39.45502	0	3	82	0	13	1.189408	-5.083851	-74.73277	
14:31:30	0	0	0	1.653248	33.02414	0	3	83	0	13	1.231522	-4.985307	-74.72159	
14:31:32	0	0	0	1.516584	26.34853	0	3	84	0	13	1.239519	-5.060617	-74.72671	
14:31:34	0	0	0	1.400177	23.14148	0	3	85	0	13	1.221724	-5.083995	-74.72488	
14:31:36	0	0	0	1.32406	17.90831	0	3	86	0	13	1.24439	-5.038231	-74.69784	
14:31:37	0	0	0	1.18338	16.76184	0	3	87	0	13	1.281035	-4.900652	-74.68016	
14:31:39	0	0	0	1.341569	28.40857	0	3	88	0	13	1.318646	-4.862998	-74.70478	
14:31:41	0	0	0	1.243967	20.87936	0	3	88	0	13	1.39643	-4.802047	-74.70853	
14:31:42	0	0	0	1.130146	12.58518	0	3	89	0	13	1.355562	-4.803749	-74.69563	
14:31:44	0	0	0	1.087701	22.0936	0	3	90	0	13	1.417145	-4.935472	-74.73608	
14:31:46	0	0	0	1.267184	21.9945	0	3	90	0	13	1.379484	-4.905425	-74.73393	
14:31:48	0	0	0	1.166618	11.21651	0	3	91	0	13	1.320247	-4.924295	-74.78012	
14:31:49	0	0	0	1.135701	14.92311	0	3	92	0	13	1.353934	-4.867897	-74.79366	
14:31:51	0	0	0	1.312398	17.19581	0	3	92	0	13	1.360759	-4.827467	-74.77448	
14:31:53	0	0	0	0.9650186	1.072797	0	3	93	0	13	1.359947	-4.714201	-74.78806	
14:31:54	0	0	0	0.8498596	1.018769	0	3	93	0	13	1.291244	-4.801672	-74.81017	
14:31:56	0	0	0	1.18108	28.75333	0	3	94	0	13	1.26775	-4.825615	-74.78365	
14:31:58	0	0	0	1.335619	19.88271	0	3	94	0	13	1.328266	-4.803913	-74.75786	
14:32:00	0	0	0	1.293614	7.612645	0	3	94	0	13	1.337482	-4.735556	-74.77222	
14:32:01	0	0	0	1.097159	-0.5123403	0	3	95	0	13	1.301003	-4.7482	-74.77199	
14:32:03	0	0	0	0.9562919	2.972905	0	3	95	0	13	1.367004	-4.67248	-74.76802	
14:32:05	0	0	0	1.138013	15.70284	0	3	95	0	13	1.357015	-4.691712	-74.79315	
14:32:07	0	0	0	1.11634	7.467698	0	3	96	0	13	1.329763	-4.82747	-74.80594	
14:32:08	0	0	0	1.137872	13.27267	0	3	96	0	13	1.317076	-4.815083	-74.77209	
14:32:10	0	0	0	1.139042	7.654891	0	3	96	0	13	1.354767	-4.730466	-74.78313	
14:32:12	0	0	0	1.044888	0.8770676	0	3	96	0	13	1.403307	-4.679987	-74.7647	
14:32:13	0	0	0	1.012475	4.182179	0	3	97	0	13	1.386937	-4.708938	-74.76263	
14:32:15	0	0	0	0.8279713	-4.102419	0	3	97	0	13	1.448793	-4.650939	-74.82471	
14:32:17	0	0	0	0.7003739	-0.1790116	0	3	97	0	13	1.42906	-4.83955	-74.82394	
14:32:19	0	0	0	0.9353047	15.38268	0	3	97	0	13	1.362055	-4.957191	-74.76475	
14:32:20	0	0	0	1.414655	28.48907	0	3	97	0	13	1.342318	-4.98064	-74.74136	
14:32:22	0	0	0	1.578644	14.43541	0	3	98	0	13	1.309236	-4.950282	-74.70941	
14:32:24	0	0	0	1.303388	-6.201511	0	3	98	0	13	1.332627	-4.948868	-74.7243	
14:32:25	0	0	0	1.339132	-0.5339437	0	3	98	0	13	1.312069	-4.885341	-74.72087	
14:32:27	0	0	0	1.515842	13.02619	0	3	98	0	13	1.341416	-4.918262	-74.69064	
14:32:29	0	0	0	1.408296	-3.033261	0	3	98	0	13	1.295553	-4.840243	-74.68867	
14:32:31	0	0	0	1.514836	4.261549	0	3	98	0	13	1.38155	-4.828619	-74.71602	
14:32:32	0	0	0	1.132173	-12.48385	0	3	98	0	13	1.372328	-4.760551	-74.76239	
14:32:34	0	0	0	1.355945	10.50005	0	3	98	0	13	1.357629	-4.746817	-74.77303	
14:32:36	0	0	0	1.14633	-4.833143	0	3	98	0	13	1.355161	-4.731954	-74.79522	
14:32:38	0	0	0	1.251077	5.704738	0	3	99	0	13	1.327088	-4.847331	-74.80627	
14:32:39	0	0	0	1.226242	-1.176976	0	3	68	0	13	1.332144	-4.908295	-74.76894	
14:32:41	0	0	0	1.11269	-5.468585	0	3	70	0	13	1.376617	-4.820693	-74.76144	
14:32:43	0	0	0	0.9060131	-13.49937	0	3	72	0	13	1.350394	-4.750978	-74.78493	
14:32:44	0	0	0	0.5757812	-19.33545	0	3	73	0	13	1.405154	-4.687957	-74.77151	
14:32:46	0	0	0	0.8519242	10.01576	0	3	75	0	13	1.376485	-4.642506	-74.793	
14:32:48	0	0	0	1.337311	22.92014	0	3	76	0	13	1.345608	-4.719111	-74.79815	
14:32:50	0	0	0	1.263792	-1.816755	0	3	77	0	13	1.303088	-4.782189	-74.79473	
14:32:51	0	0	0	0.9968938	-8.347281	0	3	79	0	13	1.330356	-4.758716	-74.82268	
14:32:53	0	0	0	1.222143	10.12464	0	3	80	0	13	1.323061	-4.80132	-74.82676	
14:32:55	0	0	0	1.142359	1.705685	0	3	81	0	13	1.32731	-4.824028	-74.79744	
14:32:56	0	0	0	1.116809	3.841526	0	3	82	0	13	1.346478	-4.82085	-74.74963	
14:32:58	0	0	0	1.45218	10.8285	0	3	83	0	13	1.303497	-4.808049	-74.75769	
14:33:00	0	0	0	1.369278	-5.425957	0	3	84	0	13	1.324227	-4.825929	-74.75045	
14:33:02	0	0	0	1.149816	-12.1168	0	3	85	0	13	1.314186	-4.851961	-74.75961	
14:33:03	0	0	0	0.6836063	-23.16732	0	3	86	0	13	1.341084	-4.828302	-74.73815	
14:33:05	0	0	0	0.6809958	1.770759	0	3	87	0	13	1.354025	-4.720146	-74.76273	
14:33:07	0	0	0	1.106345	16.05286	0	3	88	0	13	1.334217	-4.702872	-74.7635	
14:33:08	0	0	0	1.023673	-5.125028	0	3	89	0	13	1.341411	-4.722693	-74.77036	
14:33:10	0	0	0	1.218597	9.038292	0	3	89	0	13	1.303106	-4.811892	-74.78806	
14:33:12	0	0	0	1.290169	-0.5957701	0	3	90	0	13	1.266462	-4.812562	-74.79202	
14:33:14	0	0	0	1.10394	-10.24448	0	3	91	0	13	1.285461	-4.847611	-74.78532	
14:33:15	0	0	0	0.9946471	-10.58451	0	3	91	0	13	1.324972	-4.719345	-74.79276	
14:33:17	0	0	0	0.9462189	-0.7721531	0	3	92	0	13	1.409562	-4.626515	-74.82066	
14:33:19	0	0	0	1.261867	15.70644	0	3	65	0	13	1.394824	-4.574703	-74.84145	
14:33:21	0	0	0	0.9951581	-7.391523	0	3	66	0	13	1.396335	-4.496883	-74.85781	
14:33:22	0	0	0	0.6625307	-9.276592	0	3	68	0	13	1.386029	-4.616928	-74.87315	
14:33:24	0	0	0	1.07777	19.26134	0	3	70	0	13	1.360797	-4.688373	-74.89626	
14:33:26	0	0	0	1.212237	12.74249	0	3	71	0	13	1.367401	-4.81593	-74.87338	
14:33:27	0	0	0	0.8615018	-8.199244	0	3	73	0	13	1.343289	-4.812675	-74.82837	
14:33:29	0	0	0	1.030258	9.78218	0	3	74	0	13	1.271707	-4.826477	-74.81857	
14:33:31	0	0	0	1.212442	0.5166871	0	3	76	0	13	1.254164	-4.975872	-74.79173	
14:33:33	0	0	0	0.7102533	-19.61836	0	3	77	0	13	1.211889	-4.890468	-74.7614	
14:33:34	0	0	0	0.395051	-16.9033	0	3	78	0	13	1.287802	-4.924009	-74.75372	
14:33:36	0	0	0	0.3890397	-0.3803102	0	3	80	0	13	1.391422	-4.894678	-74.72988	
14:33:38	0	0	0	0.2950268	-7.210845	0	3	81	0	13	1.382026	-4.833676	-74.72515	
14:33:39	0	0	0	0.569248	8.18355	0	3	82	0	13	1.425405	-4.785445	-74.78082	
14:33:41	0	0	0	0.7106652	10.05154	0	3	83	0	13	1.353911	-4.772105	-74.76099	
14:33:43	0	0	0	1.092262	21.55566	0	3	84	0	13	1.338472	-4.805832	-74.76242	
14:33:45	0	0	0	1.101246	1.384729	0	3	85	0	13	1.380132	-4.72321	-74.77425	
14:33:46	0	0	0	0.6994073	-12.6557	0	3	86	0	13	1.350675	-4.752194	-74.78191	
14:33:48	0	0	0	0.5338305	-12.39153	0	3	87	0	13	1.422235	-4.833189	-74.78384	
14:33:50	0	0	0	0.4279717	-1.25557	0	3	88	0	13	1.416962	-4.779452	-74.77126	
14:33:51	0	0	0	0.4481054	2.32477	0	3	88	0	13	1.456653	-4.798942	-74.78368	
14:33:53	0	0	0	0.5969829	5.218729	0	3	89	0	13	1.447794	-4.724558	-74.79022	
14:33:55	0	0	0	0.5739422	-2.069153	0	3	90	0	13	1.408044	-4.712306	-74.77678	
14:33:57	0	0	0	0.4792066	-2.051722	0	3	90	0	13	1.375166	-4.801094	-74.78339	
14:33:58	0	0	0	0.5665252	4.554614	0	3	91	0	13	1.357748	-4.833091	-74.80991	
14:34:00	0	0	0	0.4620368	-4.348006	0	3	92	0	13	1.346727	-4.819436	-74.79987	
14:34:02	0	0	0	0.5688561	4.336614	0	3	92	0	13	1.343023	-4.792131	-74.79932	
14:34:04	0	0	0	0.3952982	-8.772511	0	3	65	0	13	1.399125	-4.777864	-74.78709	
14:34:05	0	0	0	0.3150839	-0.3725747	0	3	66	0	13	1.453676	-4.774144	-74.78616	
14:34:07	0	0	0	0.6662007	14.92285	0	3	68	0	13	1.395064	-4.847889	-74.76788	
14:34:09	0	0	0	0.9538085	13.97549	0	3	70	0	13	1.421279	-4.814392	-74.77181	
14:34:10	0	0	0	0.7315127	-7.210989	0	3	71	0	13	1.326816	-4.785834	-74.7776	
14:34:12	0	0	0	0.6975833	-1.019479	0	3	73	0	13	1.314232	-4.675215	-74.79057	
14:34:14	0	0	0	0.7365413	-1.756488	0	3	74	0	13	1.311547	-4.738079	-74.7914	
14:34:16	0	0	0	0.6571452	-1.459377	0	3	76	0	13	1.312615	-4.650255	-74.78101	
14:34:17	0	0	0	0.9900174	16.34022	0	3	77	0	13	1.39429	-4.695302	-74.80012	
14:34:19	0	0	0	0.9745936	-3.801757	0	3	78	0	13	1.398971	-4.686218	-74.80627	
14:34:21	0	0	0	0.7705209	-6.133231	0	3	79	0	13	1.376906	-4.716046	-74.79842	
14:34:22	0	0	0	0.7560346	-3.019385	0	3	81	0	13	1.370834	-4.877202	-74.83772	
14:34:24	0	0	0	0.8858568	2.535111	0	3	82	0	13	1.388456	-4.879787	-74.83604	
14:34:26	0	0	0	0.804183	-3.24625	0	3	83	0	13	1.356383	-5.027895	-74.82375	
14:34:28	0	0	0	1.088661	13.0019	0	3	84	0	13	1.364703	-5.019466	-74.79012	
14:34:29	0	0	0	1.052871	4.305542	0	3	61	0	13	1.308079	-4.981529	-74.79885	
14:34:31	0	0	0	0.7895429	-9.108213	0	3	63	0	13	1.270958	-4.954567	-74.75305	
14:34:33	0	0	0	0.753095	-3.160103	0	3	65	0	13	1.305001	-4.848678	-74.74088	
14:34:34	0	0	0	0.7489461	-2.46325	0	3	66	0	13	1.249741	-4.843387	-74.73573	
14:34:36	0	0	0	0.4057261	-11.12171	0	3	68	0	13	1.254186	-4.945812	-74.70571	
14:34:38	0	0	0	0.6228922	-0.5147181	0	3	70	0	13	1.26942	-4.755153	-74.69461	
14:34:40	0	0	0	0.6087089	-0.6117308	0	3	71	0	13	1.295207	-4.72629	-74.72027	
14:34:41	0	0	0	0.621757	0.1489843	0	3	73	0	13	1.252184	-4.801768	-74.7485	
14:34:43	0	0	0	0.6994886	0.5483214	0	3	74	0	13	1.235517	-4.796123	-74.75947	
14:34:45	0	0	0	0.6649529	0.4214395	0	3	76	0	13	1.248116	-4.786098	-74.83144	
14:34:47	0	0	0	0.4955415	-5.813222	0	3	77	0	13	1.268266	-4.830698	-74.85128	
14:34:48	0	0	0	0.5918748	0.2230431	0	3	78	0	13	1.230241	-4.905185	-74.82098	
14:34:50	0	0	0	0.6472802	3.085846	0	3	80	0	13	1.224212	-5.006167	-74.80107	
14:34:52	0	0	0	0.6879054	1.926082	0	3	81	0	13	1.320988	-4.965805	-74.79771	
14:34:53	0	0	0	0.9766577	12.98639	0	3	82	0	13	1.321766	-4.864548	-74.77573	
14:34:55	0	0	0	0.8677138	1.249923	0	3	83	0	13	1.281727	-4.980468	-74.74368	
14:34:57	0	0	0	0.7436356	-4.083019	0	3	84	0	13	1.326851	-4.974636	-74.71891	
14:34:59	0	0	0	0.969773	7.58047	0	3	85	0	13	1.359128	-4.853004	-74.75118	
14:35:00	0	0	0	1.034452	2.514858	0	3	86	0	13	1.353634	-4.846962	-74.73228	
14:35:02	0	0	0	1.116846	3.782384	0	3	87	0	13	1.340248	-4.91412	-74.74367	
14:35:04	0	0	0	1.035954	-1.784019	0	3	88	0	13	1.326376	-4.919177	-74.75662	
14:35:05	0	0	0	0.811316	-7.165568	0	3	88	0	13	1.284574	-4.920037	-74.72337	
14:35:07	0	0	0	0.9958338	4.50586	0	3	89	0	13	1.343254	-4.857655	-74.70954	
14:35:09	0	0	0	1.01395	2.880753	0	3	90	0	13	1.365818	-4.899296	-74.73779	
14:35:11	0	0	0	0.8978909	-3.678638	0	3	90	0	13	1.319731	-4.93413	-74.7153	
14:35:12	0	0	0	0.8858832	-3.798929	0	3	91	0	13	1.319577	-4.966673	-74.73061	
14:35:14	0	0	0	0.884261	-1.805534	0	3	92	0	13	1.299329	-5.029406	-74.70986	
14:35:16	0	0	0	0.9343718	1.739895	0	3	92	0	13	1.325223	-5.012318	-74.69377	
14:35:17	0	0	0	0.9004339	-0.5230996	0	3	93	0	13	1.33909	-4.873755	-74.71941	
14:35:19	0	0	0	0.7970611	-3.53756	0	3	93	0	13	1.353087	-4.839646	-74.69132	
14:35:21	0	0	0	0.7169178	-5.050801	0	3	94	0	13	1.36352	-4.847963	-74.69239	
14:35:23	0	0	0	0.5627598	-8.508338	0	3	94	0	13	1.358127	-4.723311	-74.69804	
14:35:24	0	0	0	0.5419855	-1.561642	0	3	94	0	13	1.316926	-4.815434	-74.75147	
14:35:26	0	0	0	0.4722394	-2.747086	0	3	95	0	13	1.334636	-4.761538	-74.76706	
14:35:28	0	0	0	0.630655	4.710763	0	3	95	0	13	1.340375	-4.718398	-74.77184	
14:35:30	0	0	0	0.9740021	13.25341	0	3	95	0	13	1.348236	-4.68294	-74.78145	
14:35:31	0	0	0	1.07996	10.40528	0	3	96	0	13	1.365378	-4.698458	-74.76877	
14:35:33	0	0	0	1.332118	13.83717	0	3	96	0	13	1.361513	-4.640531	-74.76562	
14:35:35	0	0	0	1.258684	3.756044	0	3	96	0	13	1.383936	-4.538233	-74.78872	
14:35:36	0	0	0	1.363881	7.284826	0	3	96	0	13	1.417412	-4.632919	-74.84926	
14:35:38	0	0	0	1.103404	-6.178505	0	3	97	0	13	1.424157	-4.704228	-74.86111	
14:35:40	0	0	0	1.053287	-4.396931	0	3	97	0	13	1.456498	-4.679055	-74.82638	
14:35:42	0	0	0	1.137505	0.7023463	0	3	97	0	13	1.447399	-4.735964	-74.81161	
14:35:43	0	0	0	1.172028	0.03394828	0	3	97	0	13	1.420363	-4.710986	-74.83265	
14:35:45	0	0	0	1.164872	0.5982538	0	3	97	0	13	1.388611	-4.804091	-74.82977	
14:35:47	0	0	0	0.7305071	-14.84955	0	3	98	0	13	1.359921	-4.763708	-74.83971	
14:35:48	0	0	0	1.058134	6.805153	0	3	98	0	13	1.332387	-4.909909	-74.81142	
14:35:50	0	0	0	1.167544	5.88978	0	3	98	0	13	1.324061	-4.90949	-74.79904	
14:35:52	0	0	0	1.153579	1.641854	0	3	98	0	13	1.324441	-4.997455	-74.76424	
14:35:54	0	0	0	1.07348	-2.959127	0	3	98	0	13	1.354967	-4.972396	-74.7464	
14:35:55	0	0	0	1.104576	-1.847389	0	3	98	0	13	1.413199	-4.828549	-74.7533	
14:35:57	0	0	0	0.9956183	-4.855538	0	3	98	0	13	1.404404	-4.701545	-74.72369	
14:35:59	0	0	0	1.150198	8.809796	0	3	98	0	13	1.383084	-4.68868	-74.72604	
14:36:00	0	0	0	1.054411	-0.7750207	0	3	98	0	13	1.428275	-4.598605	-74.79066	
14:36:02	0	0	0	1.461926	15.48057	0	3	99	0	13	1.362669	-4.692032	-74.80237	
14:36:04	0	0	0	0.9030638	-13.64706	0	3	99	0	13	1.322813	-4.693648	-74.82825	
14:36:06	0	0	0	1.086986	3.011217	0	3	99	0	13	1.269329	-4.748717	-74.85201	
14:36:07	0	0	0	1.148678	3.003443	0	3	99	0	13	1.240787	-4.82687	-74.8505	
14:36:09	0	0	0	1.056007	-0.60872	0	3	99	0	13	1.312863	-4.906107	-74.81023	
14:36:11	0	0	0	1.097794	-2.906332	0	3	99	0	13	1.352103	-4.865572	-74.81567	
14:36:12	0	0	0	1.02142	-3.948902	0	3	99	0	13	1.369315	-4.847305	-74.80297	
14:36:14	0	0	0	0.5680349	-15.18065	0	3	99	0	13	1.335587	-4.94489	-74.79327	
14:36:16	0	0	0	0.6591381	-1.688484	0	3	99	0	13	1.333781	-4.928686	-74.76543	
14:36:18	0	0	0	0.59727	-3.330482	0	3	99	0	13	1.301169	-4.874364	-74.74837	
14:36:19	0	0	0	0.7469208	3.389815	0	3	99	0	13	1.346135	-4.731449	-74.72601	
14:36:21	0	0	0	0.5613797	-5.937604	0	3	99	0	13	1.344642	-4.731208	-74.71931	
14:36:23	0	0	0	0.5871902	-4.844824	0	3	99	0	13	1.283738	-4.643232	-74.71407	
14:36:25	0	0	0	0.5374394	-4.079196	0	3	99	0	13	1.330227	-4.58542	-74.71758	
14:36:26	0	0	0	0.7590824	9.601043	0	3	99	0	13	1.330472	-4.675117	-74.74393	
14:36:28	0	0	0	0.7227268	-0.4452313	0	3	99	0	13	1.293465	-4.801623	-74.79333	
14:36:30	0	0	0	0.7466154	1.266207	0	3	99	0	13	1.335016	-4.815974	-74.79071	
14:36:31	0	0	0	0.7772524	-1.093756	0	3	99	0	13	1.345969	-4.706149	-74.82651	
14:36:33	0	0	0	1.164248	12.02456	0	3	99	0	13	1.338828	-4.718896	-74.83369	
14:36:35	0	0	0	0.9309915	-2.962206	0	3	99	0	13	1.312951	-4.71874	-74.8196	
14:36:37	0	0	0	1.042262	4.030873	0	3	99	0	13	1.330204	-4.794115	-74.85271	
14:36:38	0	0	0	0.9290604	-5.126721	0	3	99	0	13	1.359312	-4.764328	-74.82141	
14:36:40	0	0	0	0.1816671	-31.29891	0	3	99	0	13	1.369289	-4.710943	-74.78085	
14:36:42	0	0	0	0.3070556	-5.59974	0	3	99	0	13	1.348815	-4.895831	-74.83286	
14:36:44	0	0	0	0.7537277	14.03337	0	3	99	0	13	1.324649	-4.94697	-74.83401	
14:36:45	0	0	0	0.8322809	10.72578	0	3	99	0	13	1.289049	-4.864993	-74.79899	
14:36:47	0	0	0	0.9435827	5.945878	0	3	99	0	13	1.306656	-4.764936	-74.80972	
14:36:49	0	0	0	1.102422	8.894861	0	3	99	0	13	1.258826	-4.846521	-74.82636	
14:36:50	0	0	0	0.5135146	-16.08786	0	3	99	0	13	1.289043	-4.741536	-74.82087	
14:36:52	0	0	0	0.5508164	-7.637995	0	3	70	0	13	1.303506	-4.678575	-74.81362	
14:36:54	0	0	0	0.7781083	1.893577	0	3	72	0	13	1.295129	-4.871149	-74.86062	
14:36:56	0	0	0	0.9745747	9.732741	0	3	74	0	13	1.263601	-4.966987	-74.86037	
14:36:57	0	0	0	1.248186	11.4642	0	3	75	0	13	1.263724	-5.124592	-74.85915	
14:36:59	0	0	0	0.936164	-1.769175	0	3	76	0	13	1.231812	-5.070805	-74.831	
14:37:01	0	0	0	0.9490315	-0.9401802	0	3	78	0	13	1.212229	-5.004613	-74.76823	
14:37:02	0	0	0	0.9645473	-0.4812947	0	3	79	0	13	1.20813	-5.170524	-74.76917	
14:37:04	0	0	0	0.9688559	-0.02995171	0	3	80	0	13	1.193091	-5.194123	-74.68532	
14:37:06	0	0	0	1.155362	2.394953	0	3	81	0	13	1.276075	-5.031326	-74.66946	
14:37:08	0	0	0	1.254901	6.974826	0	3	82	0	13	1.324702	-4.941057	-74.70415	
14:37:09	0	0	0	1.399573	6.361927	0	3	84	0	13	1.347052	-4.965836	-74.70865	
14:37:11	0	0	0	1.218677	-3.700618	0	3	85	0	13	1.360931	-5.016883	-74.67933	
14:37:13	0	0	0	1.333553	2.630468	0	3	85	0	13	1.296528	-4.982917	-74.66442	
14:37:15	0	0	0	1.097856	-6.063111	0	3	86	0	13	1.264371	-4.951207	-74.68988	
14:37:16	0	0	0	1.11831	-2.749014	0	3	87	0	13	1.270915	-4.87721	-74.728	
14:37:18	0	0	0	1.333807	4.080834	0	3	88	0	13	1.237165	-4.994815	-74.71999	
14:37:20	0	0	0	1.146775	-3.983517	0	3	89	0	13	1.303803	-4.831421	-74.70532	
14:37:21	0	0	0	1.327743	3.993456	0	3	89	0	13	1.299608	-4.801147	-74.70664	
14:37:23	0	0	0	1.293228	0.8073373	0	3	90	0	13	1.34866	-4.706082	-74.70841	
14:37:25	0	0	0	1.460482	5.053278	0	3	91	0	13	1.347452	-4.709146	-74.77815	
14:37:27	0	0	0	1.257447	0.3478747	0	3	91	0	13	1.366946	-4.713058	-74.80082	
14:37:28	0	0	0	1.194762	-3.130064	0	3	92	0	13	1.372681	-4.701004	-74.81662	
14:37:30	0	0	0	1.330254	0.06928453	0	3	92	0	13	1.354033	-4.687143	-74.85518	
14:37:32	0	0	0	0.9176354	-13.83797	0	3	93	0	13	1.314297	-4.683093	-74.90077	
14:37:33	0	0	0	1.147915	1.012196	0	3	64	0	13	1.325883	-4.721504	-74.89766	
14:37:35	0	0	0	1.055245	-2.077795	0	3	66	0	13	1.309509	-4.761177	-74.84606	
14:37:37	0	0	0	1.017721	-2.299549	0	3	67	0	13	1.289325	-4.801452	-74.82491	
14:37:39	0	0	0	0.9402454	-4.507475	0	3	69	0	13	1.252338	-4.710296	-74.79916	
14:37:40	0	0	0	0.6873312	-7.274715	0	3	71	0	13	1.269993	-4.7796	-74.80565	
14:37:42	0	0	0	0.6676474	-5.233003	0	3	72	0	13	1.333585	-4.844011	-74.79692	
14:37:44	0	0	0	1.243258	6.597301	0	3	74	0	13	1.328047	-4.816942	-74.79199	
14:37:46	0	0	0	1.323997	5.6151	0	3	75	0	13	1.309493	-4.831366	-74.80698	
14:37:47	0	0	0	1.302685	3.669226	0	3	77	0	13	1.352663	-4.853683	-74.82603	
14:37:49	0	0	0	1.141039	-0.04396224	0	3	78	0	13	1.361706	-4.841771	-74.76152	
14:37:51	0	0	0	1.572542	8.102385	0	3	79	0	13	1.349829	-4.837268	-74.76173	
14:37:52	0	0	0	1.606742	5.127668	0	3	80	0	13	1.30569	-4.828197	-74.7532	
14:37:54	0	0	0	1.693244	4.501655	0	3	82	0	13	1.29978	-4.806487	-74.75225	
14:37:56	0	0	0	1.337874	-2.136138	0	3	83	0	13	1.325354	-4.824533	-74.74182	
14:37:58	0	0	0	1.198911	-4.052141	0	3	84	0	13	1.362019	-4.874376	-74.76023	
14:37:59	0	0	0	1.135993	-3.091654	0	3	85	0	13	1.439784	-4.804653	-74.78356	
14:38:01	0	0	0	1.168014	6.188	0	3	62	0	13	1.393622	-4.744593	-74.78876	
14:38:03	0	0	0	1.212634	6.073752	0	3	64	0	13	1.374812	-4.780293	-74.79709	
14:38:05	0	0	0	1.497831	15.21024	0	3	66	0	13	1.345331	-4.709726	-74.84257	
14:38:06	0	0	0	1.428524	1.239727	0	3	67	0	13	1.330544	-4.655382	-74.86257	
14:38:08	0	0	0	1.545419	5.61951	0	3	69	0	13	1.304506	-4.718673	-74.88456	
14:38:10	0	0	0	1.497744	-6.516769	0	3	71	0	13	1.348966	-4.595677	-74.85301	
14:38:11	0	0	0	1.192018	-16.73367	0	3	72	0	13	1.312714	-4.682613	-74.82777	
14:38:13	0	0	0	1.229606	3.544354	0	3	74	0	13	1.332414	-4.563431	-74.82722	
14:38:15	0	0	0	1.428847	6.45273	0	3	75	0	13	1.321931	-4.646352	-74.87178	
14:38:17	0	0	0	1.359308	-6.318741	0	3	76	0	13	1.314224	-4.646439	-74.92537	
14:38:18	0	0	0	1.244748	-5.129441	0	3	78	0	13	1.349861	-4.675039	-74.95641	
14:38:20	0	0	0	1.17752	-5.790107	0	3	79	0	13	1.322669	-4.781058	-74.9504	
14:38:22	0	0	0	1.192813	-0.1362588	0	3	80	0	13	1.329971	-4.846542	-74.92493	
14:38:24	0	0	0	1.391219	8.788855	0	3	81	0	13	1.301047	-4.900283	-74.91236	
14:38:25	0	0	0	1.541876	4.269163	0	3	83	0	13	1.264351	-4.982515	-74.911	
14:38:27	0	0	0	1.26421	-10.5606	0	3	84	0	13	1.253982	-4.94767	-74.86057	
14:38:29	0	0	0	1.48771	11.27916	0	3	85	0	13	1.257959	-4.888115	-74.81666	
14:38:30	0	0	0	1.585708	5.624014	0	3	86	0	13	1.280726	-4.930847	-74.81609	
14:38:32	0	0	0	1.280426	-19.49698	0	3	86	0	13	1.25763	-4.989872	-74.76569	
14:38:34	0	0	0	1.1332	0.688891	0	3	87	0	13	1.289127	-5.049939	-74.70889	
14:38:36	0	0	0	1.703394	28.1478	0	3	88	0	13	1.243622	-5.022031	-74.69465	
14:38:37	0	0	0	1.981704	10.29584	0	3	89	0	13	1.307198	-4.929054	-74.6534	
14:38:39	0	0	0	1.598982	-14.2906	0	3	62	0	13	1.338697	-4.928026	-74.64436	
14:38:41	0	0	0	1.992331	17.9421	0	3	64	0	13	1.352051	-4.818782	-74.65469	
14:38:43	0	0	0	1.890816	-10.20435	0	3	66	0	13	1.386223	-4.827671	-74.71375	
14:38:44	0	0	0	1.710077	-4.085588	0	3	68	0	13	1.34897	-4.894114	-74.70599	
14:38:46	0	0	0	1.665885	-4.479508	0	3	69	0	13	1.329502	-4.932658	-74.72299	
14:38:48	0	0	0	1.677381	1.366077	0	3	71	0	13	1.323846	-4.83966	-74.73462	
14:38:49	0	0	0	1.789961	6.684012	0	3	72	0	13	1.325363	-4.879875	-74.76294	
14:38:51	0	0	0	1.940616	11.36486	0	3	74	0	13	1.372817	-4.829864	-74.7662	
14:38:53	0	0	0	2.03113	2.821137	0	3	75	0	13	1.337292	-4.823256	-74.71584	
14:38:55	0	0	0	2.008232	2.271426	0	3	77	0	13	1.322343	-4.738503	-74.75338	
14:38:56	0	0	0	1.847418	-7.241991	0	3	78	0	13	1.292433	-4.727194	-74.76707	
14:38:58	0	0	0	1.767521	-2.767473	0	3	79	0	13	1.271511	-4.696961	-74.77941	
14:39:00	0	0	0	1.91346	1.954726	0	3	80	0	13	1.259433	-4.819042	-74.7904	
14:39:02	0	0	0	1.926011	4.490008	0	3	82	0	13	1.265929	-4.777702	-74.79131	
14:39:03	0	0	0	1.948913	-1.048915	0	3	83	0	13	1.301157	-4.783185	-74.79115	
14:39:05	0	0	0	1.870157	-5.111348	0	3	84	0	13	1.28608	-4.971046	-74.82098	
14:39:07	0	0	0	1.73996	-5.495529	0	3	85	0	13	1.258739	-4.977958	-74.74749	
14:39:08	0	0	0	1.702553	-10.63054	0	3	86	0	13	1.296042	-4.985444	-74.70773	
14:39:10	0	0	0	1.142143	-26.26212	0	3	87	0	13	1.339672	-4.927005	-74.71099	
14:39:12	0	0	0	1.124554	-2.796834	0	3	87	0	13	1.337554	-4.900872	-74.68762	
14:39:14	0	0	0	1.157236	0.06843752	0	3	88	0	13	1.369482	-4.949765	-74.66927	
14:39:15	0	0	0	1.446202	12.32698	0	3	89	0	13	1.359344	-4.817204	-74.68661	
14:39:17	0	0	0	1.646042	15.15842	0	3	90	0	13	1.399773	-4.673787	-74.73197	
14:39:19	0	0	0	1.836468	9.480618	0	3	62	0	13	1.373744	-4.681592	-74.77955	
14:39:21	0	0	0	1.638915	-7.109352	0	3	64	0	13	1.371556	-4.781568	-74.80788	
14:39:22	0	0	0	1.55996	-6.359895	0	3	66	0	13	1.37599	-4.854704	-74.78681	
14:39:24	0	0	0	1.441901	-11.57521	0	3	67	0	13	1.308309	-4.988812	-74.75527	
14:39:26	0	0	0	0.9654317	-25.67233	0	3	69	0	13	1.296571	-5.018825	-74.75281	
14:39:27	0	0	0	0.8466035	-5.234512	0	3	71	0	13	1.288073	-4.962881	-74.71378	
14:39:29	0	0	0	1.018573	8.007638	0	3	72	0	13	1.302168	-4.843564	-74.73597	
14:39:31	0	0	0	1.287458	11.97816	0	3	74	0	13	1.220091	-4.904341	-74.75723	
14:39:33	0	0	0	1.230199	-0.08263143	0	3	75	0	13	1.313677	-4.829817	-74.76621	
14:39:34	0	0	0	1.355607	8.724354	0	3	77	0	13	1.317909	-4.866544	-74.78803	
14:39:36	0	0	0	1.520925	11.21417	0	3	78	0	13	1.31196	-4.898223	-74.78366	
14:39:38	0	0	0	1.705335	11.99293	0	3	79	0	13	1.301565	-4.80357	-74.80946	
14:39:40	0	0	0	1.892794	8.827803	0	3	80	0	13	1.312794	-4.803128	-74.78551	
14:39:41	0	0	0	1.846329	1.938468	0	3	82	0	13	1.334231	-4.754392	-74.79675	
14:39:43	0	0	0	1.800841	-2.29721	0	3	83	0	13	1.349625	-4.708238	-74.80683	
14:39:45	0	0	0	1.682903	-7.324976	0	3	84	0	13	1.375521	-4.801163	-74.80757	
14:39:46	0	0	0	1.439536	-13.89154	0	3	85	0	13	1.374961	-4.767612	-74.7816	
14:39:48	0	0	0	1.42546	-3.670198	0	3	86	0	13	1.394058	-4.736342	-74.79916	
14:39:50	0	0	0	1.437509	-5.23733	0	3	86	0	13	1.338938	-4.73886	-74.80688	
14:39:52	0	0	0	1.588381	9.917843	0	3	87	0	13	1.348849	-4.766371	-74.82652	
14:39:53	0	0	0	1.626523	-0.1269824	0	3	61	0	13	1.281866	-4.883739	-74.85646	
14:39:55	0	0	0	1.669888	-1.883242	0	3	62	0	13	1.290759	-4.866981	-74.83099	
14:39:57	0	0	0	1.818897	7.28115	0	3	64	0	13	1.285542	-4.873297	-74.82064	
14:39:59	0	0	0	1.857733	-5.812136	0	3	66	0	13	1.214835	-4.915907	-74.79203	
14:40:00	0	0	0	1.76761	-2.965188	0	3	68	0	13	1.205732	-4.95848	-74.78857	
14:40:02	0	0	0	1.766744	-7.333171	0	3	69	0	13	1.29096	-4.967252	-74.80009	
14:40:04	0	0	0	1.437323	-13.2499	0	3	71	0	13	1.293093	-4.94727	-74.77998	
14:40:05	0	0	0	2.100037	34.69716	0	3	72	0	13	1.241585	-4.933312	-74.72957	
14:40:07	0	0	0	2.208001	2.841263	0	3	74	0	13	1.276315	-4.929935	-74.71151	
14:40:09	0	0	0	1.44288	-41.05806	0	3	75	0	13	1.296824	-4.95906	-74.68835	
14:40:11	0	0	0	1.504927	0.510242	0	3	56	0	13	1.290251	-4.862826	-74.6953	
14:40:12	0	0	0	1.690738	9.017738	0	3	58	0	13	1.270611	-4.814569	-74.67846	
14:40:14	0	0	0	1.784534	2.589607	0	3	60	0	13	1.276324	-4.808706	-74.69669	
14:40:16	0	0	0	1.85875	3.765054	0	3	62	0	13	1.250967	-4.76625	-74.69115	
14:40:17	0	0	0	1.784209	-1.782034	0	3	64	0	13	1.317575	-4.674468	-74.70805	
14:40:19	0	0	0	1.731366	-6.909504	0	3	65	0	13	1.330875	-4.645259	-74.75632	
14:40:21	0	0	0	1.34666	-17.83079	0	3	67	0	13	1.330144	-4.672512	-74.78783	
14:40:23	0	0	0	1.515622	7.148653	0	3	69	0	13	1.381103	-4.619569	-74.82079	
14:40:24	0	0	0	1.673644	8.921937	0	3	70	0	13	1.346201	-4.743856	-74.86406	
14:40:26	0	0	0	1.879057	12.63188	0	3	72	0	13	1.362261	-4.680323	-74.86495	
14:40:28	0	0	0	1.875268	0.3476047	0	3	73	0	13	1.315264	-4.752778	-74.84628	
14:40:30	0	0	0	1.834819	1.267998	0	3	75	0	13	1.312871	-4.913511	-74.84724	
14:40:31	0	0	0	2.116078	13.34984	0	3	76	0	13	1.28913	-4.964188	-74.87463	
14:40:33	0	0	0	1.814002	-11.70636	0	3	78	0	13	1.346753	-4.959625	-74.81235	
14:40:35	0	0	0	1.660412	-8.466726	0	3	79	0	13	1.34737	-4.959917	-74.78513	
14:40:36	0	0	0	1.699402	-1.221412	0	3	80	0	13	1.325016	-4.896989	-74.74709	
14:40:38	0	0	0	1.303305	-19.33888	0	3	81	0	13	1.320684	-5.000244	-74.76253	
14:40:40	0	0	0	1.330226	-0.9955345	0	3	82	0	13	1.374187	-4.913182	-74.72067	
14:40:42	0	0	0	1.401232	3.100596	0	3	83	0	13	1.375694	-4.884771	-74.77243	
14:40:43	0	0	0	1.269056	-5.994718	0	3	59	0	13	1.349289	-4.921533	-74.77737	
14:40:45	0	0	0	1.461359	8.2352	0	3	61	0	13	1.308632	-4.912453	-74.77399	
14:40:47	0	0	0	1.397845	0.3928781	0	3	62	0	13	1.311908	-4.884651	-74.78045	
14:40:49	0	0	0	1.424476	4.057673	0	3	64	0	13	1.282003	-4.858518	-74.77452	
14:40:50	0	0	0	1.477299	2.043065	0	3	66	0	13	1.28577	-4.883836	-74.77979	
14:40:52	0	0	0	1.523706	2.886035	0	3	67	0	13	1.273932	-4.944763	-74.77456	
14:40:54	0	0	0	1.527796	1.796815	0	3	69	0	13	1.325592	-4.829275	-74.76792	
14:40:55	0	0	0	1.589094	2.787796	0	3	71	0	13	1.294836	-4.828831	-74.7564	
14:40:57	0	0	0	1.532538	-4.544853	0	3	72	0	13	1.23774	-4.8512	-74.76286	
14:40:59	0	0	0	1.57254	1.590964	0	3	74	0	13	1.218506	-4.860819	-74.7469	
14:41:01	0	0	0	1.606419	1.918566	0	3	75	0	13	1.32432	-4.739287	-74.73763	
14:41:02	0	0	0	1.60203	1.521823	0	3	77	0	13	1.329253	-4.743319	-74.76707	
14:41:04	0	0	0	1.540261	-1.893086	0	3	78	0	13	1.300327	-4.741713	-74.79305	
14:41:06	0	0	0	1.641394	4.497263	0	3	79	0	13	1.29236	-4.777307	-74.80123	
14:41:07	0	0	0	1.62239	-3.070601	0	3	80	0	13	1.326146	-4.787406	-74.80915	
14:41:09	0	0	0	1.182742	-18.65585	0	3	81	0	13	1.343556	-4.812324	-74.81229	
14:41:11	0	0	0	1.281479	0.4101925	0	3	83	0	13	1.328882	-4.715751	-74.8203	
14:41:13	0	0	0	1.662231	16.32058	0	3	84	0	13	1.32527	-4.688529	-74.85654	
14:41:14	0	0	0	1.575892	0.4510481	0	3	85	0	13	1.317505	-4.719572	-74.86655	
14:41:16	0	0	0	1.18895	-16.1475	0	3	86	0	13	1.318627	-4.695827	-74.87073	
14:41:18	0	0	0	1.002335	-12.55782	0	3	86	0	13	1.273419	-4.662309	-74.84717	
14:41:20	0	0	0	1.008627	-0.8317468	0	3	87	0	13	1.304702	-4.617259	-74.84573	
14:41:21	0	0	0	1.004858	-3.271177	0	3	88	0	13	1.331506	-4.719084	-74.82526	
14:41:23	0	0	0	1.300408	15.68104	0	3	89	0	13	1.364841	-4.70883	-74.81491	
14:41:25	0	0	0	1.686837	20.10308	0	3	90	0	13	1.348583	-4.734385	-74.82448	
14:41:26	0	0	0	1.406813	-11.00623	0	3	90	0	13	1.346788	-4.697986	-74.82607	
14:41:28	0	0	0	1.31994	-4.112034	0	3	91	0	13	1.290475	-4.723112	-74.83237	
14:41:30	0	0	0	1.378495	-0.579133	0	3	91	0	13	1.272144	-4.670145	-74.84156	
14:41:32	0	0	0	1.440394	1.987275	0	3	92	0	13	1.260272	-4.761906	-74.83517	
14:41:33	0	0	0	1.17656	-11.70096	0	3	92	0	13	1.354195	-4.663479	-74.80875	
14:41:35	0	0	0	1.458865	14.81067	0	3	93	0	13	1.382721	-4.711169	-74.78254	
14:41:37	0	0	0	1.772176	13.37194	0	3	93	0	13	1.407759	-4.844707	-74.7835	
14:41:39	0	0	0	1.389594	-11.64728	0	3	94	0	13	1.452443	-4.746462	-74.78523	
14:41:40	0	0	0	1.369547	-1.577086	0	3	94	0	13	1.471394	-4.697269	-74.77509	
14:41:42	0	0	0	1.466896	4.153034	0	3	95	0	13	1.485733	-4.727946	-74.79973	
14:41:44	0	0	0	1.45661	1.999332	0	3	95	0	13	1.479655	-4.749194	-74.80019	
14:41:45	0	0	0	1.494166	1.971343	0	3	95	0	13	1.396245	-4.760906	-74.77128	
14:41:47	0	0	0	1.239898	-11.31552	0	3	96	0	13	1.365547	-4.623618	-74.77806	
14:41:49	0	0	0	1.346602	1.972775	0	3	96	0	13	1.394021	-4.693429	-74.78128	
14:41:51	0	0	0	1.405844	4.552894	0	3	96	0	13	1.403445	-4.632257	-74.79766	
14:41:52	0	0	0	1.430949	1.040699	0	3	96	0	13	1.464713	-4.59801	-74.86472	
14:41:54	0	0	0	1.241933	-8.196643	0	3	97	0	13	1.413681	-4.688596	-74.89423	
14:41:56	0	0	0	1.186709	-3.490014	0	3	66	0	13	1.40271	-4.77567	-74.88435	
14:41:57	0	0	0	1.259229	1.274387	0	3	68	0	13	1.400973	-4.862516	-74.83991	
14:41:59	0	0	0	1.157398	-3.196339	0	3	70	0	13	1.43033	-4.828741	-74.78977	
14:42:01	0	0	0	1.071195	-2.240967	0	3	71	0	13	1.43764	-4.767203	-74.81554	
14:42:03	0	0	0	1.152539	3.544606	0	3	73	0	13	1.423341	-4.780562	-74.84191	
14:42:04	0	0	0	1.492404	14.87727	0	3	74	0	13	1.389153	-4.867832	-74.8251	
14:42:06	0	0	0	1.370324	3.462559	0	3	76	0	13	1.344629	-4.997304	-74.81249	
14:42:08	0	0	0	1.46291	2.465666	0	3	77	0	13	1.371358	-5.059312	-74.77863	
14:42:10	0	0	0	1.408702	-1.907458	0	3	78	0	13	1.346795	-5.033784	-74.73313	
14:42:11	0	0	0	1.398533	-0.3441557	0	3	80	0	13	1.355271	-5.036657	-74.71513	
14:42:13	0	0	0	1.223661	-7.163368	0	3	81	0	13	1.319013	-4.890329	-74.6964	
14:42:15	0	0	0	1.178613	-4.325525	0	3	82	0	13	1.333115	-4.867903	-74.66241	
14:42:16	0	0	0	1.069466	-7.062906	0	3	83	0	13	1.36873	-4.886055	-74.71502	
14:42:18	0	0	0	1.046274	-4.270905	0	3	84	0	13	1.341307	-4.921971	-74.73292	
14:42:20	0	0	0	1.224331	6.254663	0	3	85	0	13	1.332817	-4.935092	-74.74806	
14:42:22	0	0	0	1.50446	13.75763	0	3	86	0	13	1.331818	-4.947828	-74.72993	
14:42:23	0	0	0	1.705229	14.0994	0	3	87	0	13	1.311901	-4.909341	-74.72954	
14:42:25	0	0	0	1.828815	9.642551	0	3	88	0	13	1.330976	-4.880907	-74.71521	
14:42:27	0	0	0	1.506281	-8.272285	0	3	88	0	13	1.312157	-4.758689	-74.73582	
14:42:28	0	0	0	1.11922	-17.8959	0	3	89	0	13	1.31133	-4.764937	-74.75378	
14:42:30	0	0	0	0.9107163	-14.60167	0	3	65	0	13	1.343623	-4.678421	-74.779	
14:42:32	0	0	0	1.19358	7.620988	0	3	66	0	13	1.365303	-4.756491	-74.8367	
14:42:34	0	0	0	1.405854	7.676644	0	3	68	0	13	1.361529	-4.720778	-74.86166	
14:42:35	0	0	0	1.447871	3.732003	0	3	70	0	13	1.357194	-4.770691	-74.89539	
14:42:37	0	0	0	1.353009	-4.720369	0	3	71	0	13	1.322739	-4.720443	-74.88337	
14:42:39	0	0	0	0.9860285	-14.69962	0	3	73	0	13	1.308105	-4.754406	-74.90844	
14:42:40	0	0	0	1.186736	3.549173	0	3	74	0	13	1.242962	-4.837205	-74.92635	
14:42:42	0	0	0	1.650174	24.21774	0	3	56	0	13	1.274733	-4.823401	-74.91	
14:42:44	0	0	0	1.85768	17.40439	0	3	58	0	13	1.220718	-4.789289	-74.87	
14:42:46	0	0	0	1.737214	2.605182	0	3	60	0	13	1.21015	-4.84252	-74.85036	
14:42:47	0	0	0	1.3795	-12.53944	0	3	62	0	13	1.284897	-4.827962	-74.84167	
14:42:49	0	0	0	1.313662	-3.034269	0	3	64	0	13	1.351698	-4.863939	-74.83736	
14:42:51	0	0	0	1.624601	12.26216	0	3	65	0	13	1.343277	-4.851066	-74.83659	
14:42:53	0	0	0	1.498093	2.263404	0	3	67	0	13	1.29055	-4.850806	-74.7965	
14:42:54	0	0	0	1.392187	-4.959637	0	3	69	0	13	1.268933	-4.803846	-74.79403	
14:42:56	0	0	0	1.232771	-6.15143	0	3	70	0	13	1.334445	-4.754928	-74.77899	
14:42:58	0	0	0	1.404619	6.128894	0	3	55	0	13	1.295916	-4.723966	-74.81099	
14:42:59	0	0	0	1.420882	4.772548	0	3	56	0	13	1.312195	-4.735423	-74.82887	
14:43:01	0	0	0	1.370761	1.019767	0	3	58	0	13	1.309614	-4.842128	-74.87679	
14:43:03	0	0	0	1.170305	-6.180776	0	3	60	0	13	1.305477	-4.894708	-74.85684	
14:43:05	0	0	0	1.297807	5.230611	0	3	62	0	13	1.327981	-4.892439	-74.80714	
14:43:06	0	0	0	1.656129	18.77821	0	3	64	0	13	1.33706	-4.945927	-74.77499	
14:43:08	0	0	0	1.605903	2.566066	0	3	65	0	13	1.33615	-4.922651	-74.76783	
14:43:10	0	0	0	1.351249	-9.12341	0	3	67	0	13	1.385918	-4.742482	-74.79684	
14:43:11	0	0	0	1.439984	2.470951	0	3	69	0	13	1.376183	-4.815497	-74.79552	
14:43:13	0	0	0	1.356226	-6.883088	0	3	70	0	13	1.358546	-4.847171	-74.82137	
14:43:15	0	0	0	1.338586	-3.387461	0	3	72	0	13	1.351359	-4.823308	-74.77672	
14:43:17	0	0	0	1.373641	1.572901	0	3	73	0	13	1.325636	-4.750408	-74.79556	
14:43:18	0	0	0	1.472969	3.705687	0	3	75	0	13	1.35448	-4.705892	-74.82203	
14:43:20	0	0	0	1.311899	-3.432101	0	3	76	0	13	1.374478	-4.758715	-74.87858	
14:43:22	0	0	0	1.424175	3.177428	0	3	78	0	13	1.331104	-4.776518	-74.85899	
14:43:24	0	0	0	1.273458	-5.918886	0	3	79	0	13	1.316279	-4.880688	-74.88038	
14:43:25	0	0	0	1.22777	-1.545755	0	3	80	0	13	1.323582	-4.81773	-74.86313	
14:43:27	0	0	0	1.354769	4.392184	0	3	81	0	13	1.317227	-4.84206	-74.85689	
14:43:29	0	0	0	1.444416	6.831805	0	3	82	0	13	1.348735	-4.780982	-74.82606	
14:43:30	0	0	0	1.319924	-3.483524	0	3	83	0	13	1.360159	-4.677403	-74.84686	
14:43:32	0	0	0	1.233339	-2.74126	0	3	84	0	13	1.316966	-4.804909	-74.88486	
14:43:34	0	0	0	1.418435	8.561435	0	3	85	0	13	1.343439	-4.793062	-74.8437	
14:43:36	0	0	0	1.570985	9.961011	0	3	86	0	13	1.398725	-4.695743	-74.82066	
14:43:37	0	0	0	1.798227	13.18606	0	3	87	0	13	1.379056	-4.728351	-74.81017	
14:43:39	0	0	0	1.702121	0.02415061	0	3	88	0	13	1.409595	-4.684124	-74.813	
14:43:41	0	0	0	1.351855	-16.01385	0	3	89	0	13	1.349239	-4.741107	-74.83987	
14:43:43	0	0	0	1.126959	-11.18041	0	3	89	0	13	1.350893	-4.806422	-74.83492	
14:43:44	0	0	0	1.505555	12.37888	0	3	90	0	13	1.307043	-4.896008	-74.83436	
14:43:46	0	0	0	1.794292	15.87204	0	3	91	0	13	1.281973	-4.871721	-74.81042	
14:43:48	0	0	0	1.717994	0.4660534	0	3	91	0	13	1.253933	-4.97413	-74.79742	
14:43:49	0	0	0	1.402545	-12.41336	0	3	92	0	13	1.220296	-4.899891	-74.79694	
14:43:51	0	0	0	1.384823	-5.101246	0	3	92	0	13	1.259003	-4.89107	-74.79516	
14:43:53	0	0	0	1.481843	6.027678	0	3	93	0	13	1.273807	-4.913403	-74.79964	
14:43:55	0	0	0	1.435081	-4.539404	0	3	63	0	13	1.272737	-4.885831	-74.74539	
14:43:56	0	0	0	1.243456	-6.711321	0	3	65	0	13	1.279914	-4.793698	-74.77185	
14:43:58	0	0	0	1.687858	14.11715	0	3	67	0	13	1.298128	-4.722449	-74.77528	
14:44:00	0	0	0	1.964764	16.17867	0	3	68	0	13	1.297686	-4.682149	-74.79307	
14:44:02	0	0	0	1.992454	7.119898	0	3	70	0	13	1.315118	-4.795162	-74.79404	
14:44:03	0	0	0	1.701533	-13.5861	0	3	54	0	13	1.289664	-4.752357	-74.81412	
14:44:05	0	0	0	1.595921	-6.06182	0	3	56	0	13	1.295288	-4.783566	-74.85816	
14:44:07	0	0	0	2.000414	21.98283	0	3	58	0	13	1.325727	-4.865377	-74.86718	
14:44:09	0	0	0	2.207393	13.86776	0	3	60	0	13	1.325371	-4.808879	-74.8269	
14:44:10	0	0	0	2.127812	-3.516213	0	3	62	0	13	1.326656	-4.778927	-74.78969	
14:44:12	0	0	0	1.618779	-27.66498	0	3	64	0	13	1.3113	-4.838248	-74.82163	
14:44:14	0	0	0	1.62086	3.399481	0	3	65	0	13	1.309106	-4.738093	-74.7761	
14:44:15	0	0	0	2.010491	23.91533	0	3	67	0	13	1.338181	-4.696012	-74.8026	
14:44:17	0	0	0	1.863439	-10.34979	0	3	69	0	13	1.294533	-4.763387	-74.82675	
14:44:19	0	0	0	2.00594	13.72869	0	3	70	0	13	1.317003	-4.798917	-74.81825	
14:44:21	0	0	0	2.304465	18.16423	0	3	56	0	13	1.357918	-4.735112	-74.78414	
14:44:22	0	0	0	2.181702	8.716946	0	3	58	0	13	1.36524	-4.772655	-74.80357	
14:44:24	0	0	0	2.026853	0.379309	0	3	59	0	13	1.321803	-4.794405	-74.83626	
14:44:26	0	0	0	1.863734	-7.717311	0	3	61	0	13	1.379991	-4.751975	-74.77843	
14:44:27	0	0	0	1.484618	-17.83165	0	3	63	0	13	1.401597	-4.681387	-74.80032	
14:44:29	0	0	0	1.606036	-12.89062	0	3	65	0	13	1.331747	-4.780369	-74.82101	
14:44:31	0	0	0	1.649168	-8.671802	0	3	67	0	13	1.333817	-4.767516	-74.8188	
14:44:33	0	0	0	1.841921	-2.420609	0	3	68	0	13	1.388792	-4.805361	-74.77605	
14:44:34	0	0	0	1.741912	-1.934912	0	3	70	0	13	1.392482	-4.812902	-74.79623	
14:44:36	0	0	0	1.69708	-2.41633	0	3	71	0	13	1.367898	-4.760801	-74.75036	
14:44:38	0	0	0	1.718257	-1.045946	0	3	73	0	13	1.33846	-4.782371	-74.77531	
14:44:39	0	0	0	1.662243	-1.056935	0	3	74	0	13	1.320513	-4.801323	-74.77181	
14:44:41	0	0	0	1.651458	-1.253889	0	3	76	0	13	1.326235	-4.717507	-74.79298	
14:44:43	0	0	0	1.822937	4.116127	0	3	77	0	13	1.314924	-4.713439	-74.80904	
14:44:45	0	0	0	1.977613	7.223332	0	3	78	0	13	1.300155	-4.728151	-74.80347	
14:44:46	0	0	0	1.807201	3.465884	0	3	80	0	13	1.315325	-4.748431	-74.80212	
14:44:48	0	0	0	1.964827	5.228657	0	3	81	0	13	1.323179	-4.699365	-74.80544	
14:44:50	0	0	0	1.763982	0.1198283	0	3	82	0	13	1.277526	-4.839579	-74.80915	
14:44:52	0	0	0	1.771392	-1.290164	0	3	83	0	13	1.26561	-4.812006	-74.80041	
14:44:53	0	0	0	1.919581	2.197429	0	3	84	0	13	1.252794	-4.91501	-74.81888	
14:44:55	0	0	0	1.761759	-1.879768	0	3	85	0	13	1.238574	-4.913517	-74.82424	
14:44:57	0	0	0	1.84997	0.8706685	0	3	86	0	13	1.23607	-4.886503	-74.79085	
14:44:58	0	0	0	1.813537	0.2428121	0	3	87	0	13	1.244452	-4.851378	-74.78165	
14:45:00	0	0	0	1.635314	-5.029255	0	3	88	0	13	1.256038	-4.870977	-74.76663	
14:45:02	0	0	0	1.724257	-1.574308	0	3	88	0	13	1.266826	-4.873778	-74.77047	
14:45:04	0	0	0	1.778324	-0.3312423	0	3	89	0	13	1.295981	-4.857457	-74.79012	
14:45:05	0	0	0	1.924284	4.570862	0	3	90	0	13	1.314385	-4.892835	-74.78576	
14:45:07	0	0	0	1.890657	3.765948	0	3	91	0	13	1.288467	-4.898334	-74.77551	
14:45:09	0	0	0	1.638372	-1.847725	0	3	91	0	13	1.325613	-4.892178	-74.77794	
14:45:11	0	0	0	1.349325	-9.757006	0	3	92	0	13	1.334117	-4.843704	-74.77558	
14:45:12	0	0	0	1.122119	-14.07081	0	3	92	0	13	1.317176	-4.787745	-74.75764	
14:45:14	0	0	0	1.027085	-12.01841	0	3	93	0	13	1.294603	-4.799428	-74.75614	
14:45:16	0	0	0	1.149999	-5.376721	0	3	93	0	13	1.350456	-4.792746	-74.78603	
14:45:17	0	0	0	1.151701	-3.262411	0	3	94	0	13	1.327927	-4.804248	-74.78023	
14:45:19	0	0	0	1.236159	0.1790825	0	3	94	0	13	1.29378	-4.888434	-74.78245	
14:45:21	0	0	0	1.477455	7.993294	0	3	94	0	13	1.328228	-4.867743	-74.75655	
14:45:23	0	0	0	1.646685	11.70029	0	3	95	0	13	1.363334	-4.9438	-74.75935	
14:45:24	0	0	0	1.273003	1.479513	0	3	95	0	13	1.331706	-4.892938	-74.74155	
14:45:26	0	0	0	1.215859	-0.8865551	0	3	95	0	13	1.272545	-4.98639	-74.72812	
14:45:28	0	0	0	1.120422	-3.272136	0	3	96	0	13	1.323995	-4.918071	-74.71775	
14:45:29	0	0	0	1.348909	2.962845	0	3	96	0	13	1.314941	-4.954852	-74.70999	
14:45:31	0	0	0	1.345866	0.6781176	0	3	96	0	13	1.272221	-4.913168	-74.69619	
14:45:33	0	0	0	1.307426	-0.7668015	0	3	96	0	13	1.359529	-4.962312	-74.70393	
14:45:35	0	0	0	1.34357	-0.3606561	0	3	97	0	13	1.351109	-5.014005	-74.68384	
14:45:36	0	0	0	1.321509	-1.006457	0	3	97	0	13	1.370342	-4.966556	-74.67014	
14:45:38	0	0	0	1.557053	4.558439	0	3	97	0	13	1.412359	-4.814429	-74.67802	
14:45:40	0	0	0	1.69848	7.660814	0	3	97	0	13	1.369719	-4.808333	-74.67968	
14:45:42	0	0	0	1.39496	-2.098815	0	3	97	0	13	1.291692	-4.735021	-74.74377	
14:45:43	0	0	0	0.7930617	-16.9499	0	3	98	0	13	1.283681	-4.761027	-74.77345	
14:45:45	0	0	0	0.4230018	-30.13859	0	3	69	0	13	1.257686	-4.801368	-74.79681	
14:45:47	0	0	0	0.4609354	-32.61747	0	3	71	0	13	1.264217	-4.755298	-74.81322	
14:45:48	0	0	0	0.7368597	-26.44733	0	3	73	0	13	1.296932	-4.826484	-74.8765	
14:45:50	0	0	0	1.111621	-18.74271	0	3	74	0	13	1.334375	-4.809123	-74.87746	
14:45:52	0	0	0	1.187851	-17.53389	0	3	75	0	13	1.310068	-4.87053	-74.8602	
14:45:54	0	0	0	1.159506	-18.1508	0	3	77	0	13	1.330205	-4.8275	-74.82552	
14:45:55	0	0	0	0.8170345	-23.14208	0	3	78	0	13	1.357196	-4.743703	-74.78477	
14:45:57	0	0	0	1.289722	-9.914515	0	3	79	0	13	1.314214	-4.765392	-74.78831	
14:45:59	0	0	0	1.35355	-7.151226	0	3	81	0	13	1.352142	-4.760695	-74.79209	
14:46:01	0	0	0	1.44262	-4.990134	0	3	82	0	13	1.363448	-4.780189	-74.80152	
14:46:02	0	0	0	1.485358	-3.541742	0	3	83	0	13	1.338692	-4.70026	-74.79993	
14:46:04	0	0	0	1.34054	-7.502813	0	3	84	0	13	1.357373	-4.727209	-74.82011	
14:46:06	0	0	0	1.435186	-3.455547	0	3	85	0	13	1.339398	-4.790825	-74.86089	
14:46:07	0	0	0	1.380334	-5.109962	0	3	86	0	13	1.353337	-4.699341	-74.84768	
14:46:09	0	0	0	1.610677	0.3451471	0	3	87	0	13	1.361915	-4.708861	-74.853	
14:46:11	0	0	0	1.46321	-4.21792	0	3	87	0	13	1.366714	-4.650174	-74.85379	
14:46:13	0	0	0	1.455213	-3.343087	0	3	88	0	13	1.379012	-4.684149	-74.88566	
14:46:14	0	0	0	1.426499	-1.329793	0	3	89	0	13	1.388204	-4.614655	-74.91776	
14:46:16	0	0	0	1.358502	-2.9674	0	3	90	0	13	1.340042	-4.725512	-74.93324	
14:46:18	0	0	0	1.235367	-5.275946	0	3	90	0	13	1.334637	-4.738482	-74.91468	
14:46:20	0	0	0	1.318283	-1.010742	0	3	91	0	13	1.387293	-4.746023	-74.90477	
14:46:21	0	0	0	1.28645	-0.1274564	0	3	92	0	13	1.398163	-4.758487	-74.91354	
14:46:23	0	0	0	1.397902	2.627985	0	3	92	0	13	1.369024	-4.797827	-74.89485	
14:46:25	0	0	0	1.284326	-0.3494668	0	3	93	0	13	1.33272	-4.927244	-74.90025	
14:46:27	0	0	0	1.307194	1.433379	0	3	93	0	13	1.297121	-4.852021	-74.8364	
14:46:28	0	0	0	1.525916	6.136268	0	3	94	0	13	1.387856	-4.657731	-74.7851	
14:46:30	0	0	0	1.543382	5.23874	0	3	94	0	13	1.399793	-4.616528	-74.80346	
14:46:32	0	0	0	1.437202	1.361774	0	3	94	0	13	1.368057	-4.687507	-74.80343	
14:46:33	0	0	0	1.539095	3.770878	0	3	95	0	13	1.347936	-4.724198	-74.8411	
14:46:35	0	0	0	1.788666	7.926941	0	3	95	0	13	1.290339	-4.815897	-74.8449	
14:46:37	0	0	0	1.676519	3.440295	0	3	95	0	13	1.361172	-4.740514	-74.83133	
14:46:39	0	0	0	1.695744	4.257463	0	3	96	0	13	1.311887	-4.853562	-74.80602	
14:46:40	0	0	0	1.788534	4.788939	0	3	96	0	13	1.381893	-4.865111	-74.83465	
14:46:42	0	0	0	1.828754	1.939233	0	3	96	0	13	1.360678	-4.855409	-74.79585	
14:46:44	0	0	0	1.687644	-1.697605	0	3	96	0	13	1.344354	-4.830225	-74.77042	
14:46:46	0	0	0	1.681221	-1.361051	0	3	97	0	13	1.309291	-4.777255	-74.75769	
14:46:47	0	0	0	1.704875	0.3178611	0	3	97	0	13	1.351185	-4.78544	-74.76228	
14:46:49	0	0	0	1.816772	2.261837	0	3	97	0	13	1.353077	-4.80509	-74.77957	
14:46:51	0	0	0	1.911515	3.396156	0	3	97	0	13	1.412435	-4.782689	-74.77248	
14:46:52	0	0	0	1.590152	-5.234407	0	3	97	0	13	1.375446	-4.682978	-74.82072	
14:46:54	0	0	0	1.63958	-3.54749	0	3	98	0	13	1.3294	-4.644493	-74.84707	
14:46:56	0	0	0	1.722674	0.116695	0	3	98	0	13	1.321097	-4.762117	-74.86924	
14:46:58	0	0	0	1.918386	5.47585	0	3	98	0	13	1.308401	-4.722619	-74.89089	
14:46:59	0	0	0	2.023998	7.607831	0	3	98	0	13	1.29803	-4.824148	-74.88053	
14:47:01	0	0	0	1.971684	5.10081	0	3	98	0	13	1.295123	-4.844147	-74.83356	
14:47:03	0	0	0	1.859559	0.7013863	0	3	98	0	13	1.36518	-4.835205	-74.88465	
14:47:04	0	0	0	1.709129	-2.40628	0	3	98	0	13	1.3921	-4.79425	-74.85195	
14:47:06	0	0	0	1.59187	-5.395236	0	3	98	0	13	1.351723	-4.734711	-74.82212	
14:47:08	0	0	0	1.629486	-3.89111	0	3	98	0	13	1.371612	-4.809346	-74.83093	
14:47:10	0	0	0	1.485718	-5.379711	0	3	98	0	13	1.352172	-4.787014	-74.83017	
