Date	Latitude(deg) 	Longitude(deg)	hamsl(m)	hafl(m)	climbrate(cm/s)	GroundSpeed(m/s)	Airspeed(m/s)	Mav_Link(%)	Rssi_Link(%)	Throttle	Roll(deg)	Pitch(deg)	Yaw(deg)
14:56:14	0	0	0	0	0	0	0	100	0	0	-3.066189	3.427985	-20.24122	
14:56:14	0	0	0	0	0	0	0	100	0	0	-3.071699	3.379498	-20.38938	
14:56:15	0	0	0	0.02501191	-16.06125	0	3	100	0	6545	-3.088829	3.373273	-20.49264	
14:56:15	0	0	0	0.02501191	-16.06125	0	3	100	0	6545	-3.103866	3.366451	-20.61882	
14:56:15	0	0	0	0.02501191	-16.06125	0	3	100	0	6545	-3.130022	3.335461	-20.75805	
14:56:15	0	0	0	0.02501191	-16.06125	0	3	100	0	6545	-3.152691	3.328726	-20.81882	
14:56:15	0	0	0	0.02501191	-16.06125	0	3	100	0	6545	-3.157467	3.3289	-20.85768	
14:56:16	0	0	0	0.1097486	-9.43466	0	3	100	0	6546	-3.163425	3.33253	-20.88311	
14:56:16	0	0	0	0.1097486	-9.43466	0	3	100	0	6546	-3.173507	3.309497	-21.01806	
14:56:16	0	0	0	0.1097486	-9.43466	0	3	100	0	6546	-3.176827	3.296036	-21.0677	
14:56:16	0	0	0	0.1097486	-9.43466	0	3	100	0	6546	-3.185717	3.304387	-21.08783	
14:56:16	0	0	0	0.1097486	-9.43466	0	3	100	0	6546	-3.192935	3.292201	-21.153	
14:56:17	0	0	0	0.8454989	14.80139	0	3	100	0	6546	-3.197181	3.288577	-21.21561	
14:56:17	0	0	0	0.8454989	14.80139	0	3	100	0	6546	-3.206668	3.280374	-21.31376	
14:56:17	0	0	0	0.8454989	14.80139	0	3	100	0	6546	-3.208465	3.265968	-21.29049	
14:56:17	0	0	0	0.8454989	14.80139	0	3	100	0	6546	-3.21717	3.247554	-21.36032	
14:56:17	0	0	0	0.8454989	14.80139	0	3	100	0	6546	-3.222467	3.231974	-21.44	
14:56:18	0	0	0	0.7941801	-4.508714	0	3	100	0	6546	-3.221354	3.227808	-21.55067	
14:56:18	0	0	0	0.7941801	-4.508714	0	3	100	0	6546	-3.236954	3.211938	-21.59408	
14:56:18	0	0	0	0.7941801	-4.508714	0	3	100	0	6546	-3.244956	3.208822	-21.66521	
14:56:18	0	0	0	0.7941801	-4.508714	0	3	100	0	6546	-3.239665	3.196228	-21.63706	
14:56:19	0	0	0	0.7941801	-4.508714	0	3	100	0	6546	-3.248757	3.174078	-21.76593	
14:56:19	0	0	0	0.3828907	-29.46794	0	3	100	0	6546	-3.26366	3.158657	-21.78908	
14:56:19	0	0	0	0.3828907	-29.46794	0	3	100	0	6546	-3.262506	3.157835	-21.82806	
14:56:19	0	0	0	0.3828907	-29.46794	0	3	100	0	6546	-3.272873	3.156334	-21.9088	
14:56:19	0	0	0	0.3828907	-29.46794	0	3	100	0	6546	-3.273934	3.172776	-21.90177	
14:56:19	0	0	0	0.3828907	-29.46794	0	3	100	0	6546	-3.275154	3.161294	-21.88041	
14:56:20	0	0	0	0.3583061	-27.48622	0	3	100	0	6546	-3.283087	3.152058	-21.93092	
14:56:20	0	0	0	0.3583061	-27.48622	0	3	100	0	6546	-3.295071	3.143841	-22.0177	
14:56:20	0	0	0	0.3583061	-27.48622	0	3	100	0	6546	-3.283484	3.151884	-22.03611	
14:56:20	0	0	0	0.3583061	-27.48622	0	3	100	0	6546	-3.280452	3.135562	-22.08015	
14:56:20	0	0	0	0.3583061	-27.48622	0	3	100	0	6546	-3.289292	3.143935	-22.09377	
14:56:21	0	0	0	0.3526733	-24.73916	0	3	100	0	6546	-3.293467	3.14252	-22.11155	
14:56:21	0	0	0	0.3526733	-24.73916	0	3	100	0	6546	-3.291621	3.13999	-22.11658	
14:56:21	0	0	0	0.3526733	-24.73916	0	3	100	0	6546	-3.295177	3.13919	-22.15878	
14:56:21	0	0	0	0.3526733	-24.73916	0	3	100	0	6546	-3.300361	3.127183	-22.11056	
14:56:22	0	0	0	0.3526733	-24.73916	0	3	100	0	6546	-3.30664	3.119486	-22.09655	
14:56:22	0	0	0	0.3806098	-21.17616	0	3	100	0	6546	-3.301695	3.132056	-22.1391	
14:56:22	0	0	0	0.3806098	-21.17616	0	3	100	0	6546	-3.295038	3.140124	-22.13939	
14:56:22	0	0	0	0.3806098	-21.17616	0	3	100	0	6546	-3.285984	3.120247	-22.25155	
14:56:22	0	0	0	0.3806098	-21.17616	0	3	100	0	6546	-3.280806	3.128249	-22.21537	
14:56:22	0	0	0	0.3806098	-21.17616	0	3	100	0	6546	-3.291785	3.120858	-22.22388	
14:56:23	0	0	0	0.348597	-21.23785	0	3	100	0	6546	-3.297135	3.117381	-22.24128	
14:56:23	0	0	0	0.348597	-21.23785	0	3	100	0	6546	-3.300321	3.105117	-22.27857	
14:56:23	0	0	0	0.348597	-21.23785	0	3	100	0	6546	-3.31173	3.108608	-22.32516	
14:56:23	0	0	0	0.348597	-21.23785	0	3	100	0	6546	-3.309014	3.138268	-22.30176	
14:56:23	0	0	0	0.348597	-21.23785	0	3	100	0	6546	-3.301623	3.127723	-22.3056	
14:56:24	-6.728698	38.94616	127.413	0.1696442	-27.98374	0.04	3	100	0	6546	-3.294852	3.130424	-22.37828	
14:56:24	-6.728698	38.94616	127.613	0.1696442	-27.98374	0.06	3	100	0	6546	-3.256645	3.141901	-22.38272	
14:56:24	-6.728698	38.94616	127.754	0.1696442	-27.98374	0.07	3	100	0	6546	-3.284219	3.207075	-22.4262	
14:56:24	-6.728698	38.94616	127.824	0.1696442	-27.98374	0.04	3	100	0	6546	-3.288114	3.048575	-22.4325	
14:56:24	-6.728698	38.94616	127.821	0.1696442	-27.98374	0.07	3	100	0	6546	-3.313784	3.121207	-22.43215	
14:56:25	-6.728698	38.94616	128.001	0.03887407	-29.09772	0.04	3	100	0	6546	-3.256922	3.174046	-22.49313	
14:56:25	-6.728698	38.94616	128.077	0.03887407	-29.09772	0.03	3	100	0	6546	-3.314555	3.11005	-22.41319	
14:56:25	-6.728698	38.94616	128.298	0.03887407	-29.09772	0.04	3	100	0	6546	-3.310313	3.103188	-22.52068	
14:56:25	-6.728698	38.94616	128.433	0.03887407	-29.09772	0.07	3	100	0	6546	-3.224055	3.178661	-22.49874	
14:56:25	-6.728699	38.94616	128.594	0.03887407	-29.09772	0.04	3	100	0	6546	-3.266576	3.209375	-22.57308	
14:56:26	-6.728699	38.94616	128.676	0.07325064	-22.09333	0.03	3	100	0	6546	-3.23951	3.16863	-22.55839	
14:56:26	-6.728699	38.94616	128.772	0.07325064	-22.09333	0.09	3	100	0	6546	-3.219942	3.137295	-22.59159	
14:56:26	-6.7287	38.94616	128.76	0.07325064	-22.09333	0.06	3	100	0	6546	-3.286057	3.213631	-22.53284	
14:56:26	-6.7287	38.94615	128.803	0.07325064	-22.09333	0.09	3	100	0	6546	-3.312623	3.181372	-22.56994	
14:56:26	-6.728699	38.94615	128.834	0.07325064	-22.09333	0.04	3	100	0	6546	-3.141398	3.149949	-22.49952	
14:56:27	-6.728699	38.94615	128.836	0.03201876	-19.46889	0.06	3	100	0	6546	-3.191417	3.146054	-22.54737	
14:56:27	-6.728699	38.94615	128.837	0.03201876	-19.46889	0.06	3	100	0	6546	-3.203256	3.182853	-22.57024	
14:56:27	-6.728699	38.94615	128.843	0.03201876	-19.46889	0.04	3	100	0	6546	-3.208999	3.172772	-22.62123	
14:56:27	-6.728699	38.94615	128.849	0.03201876	-19.46889	0.04	3	100	0	6546	-3.236454	3.189558	-22.59571	
14:56:28	-6.728699	38.94615	128.865	0.03201876	-19.46889	0.09	3	100	0	6546	-3.214951	3.169617	-22.5353	
14:56:28	-6.728698	38.94615	128.843	0.1976137	-10.05716	0.07	3	100	0	6546	-3.301328	3.088821	-22.51273	
14:56:28	-6.728698	38.94615	128.808	0.1976137	-10.05716	0.03	3	100	0	6546	-3.257888	3.285177	-22.50673	
14:56:28	-6.728698	38.94615	128.747	0.1976137	-10.05716	0.07	3	100	0	6546	-3.209552	3.200927	-22.50707	
14:56:28	-6.728698	38.94615	128.673	0.1976137	-10.05716	0.08	3	100	0	6546	-3.216278	3.147147	-22.48916	
14:56:28	-6.728698	38.94615	128.673	0.1976137	-10.05716	0.03	3	100	0	6546	-3.255546	3.147659	-22.52919	
14:56:29	-6.728698	38.94615	128.681	0.2960115	-6.576826	0.04	3	100	0	6546	-3.216298	3.255489	-22.53298	
14:56:29	-6.728698	38.94615	128.692	0.2960115	-6.576826	0.06	3	100	0	6546	-3.178936	3.246998	-22.58798	
14:56:29	-6.728698	38.94615	128.674	0.2960115	-6.576826	0.11	3	100	0	6546	-3.175169	3.268207	-22.59187	
14:56:29	-6.728698	38.94615	128.724	0.2960115	-6.576826	0.03	3	100	0	6546	-3.251004	3.356638	-22.62103	
14:56:29	-6.728698	38.94615	128.748	0.2960115	-6.576826	0.08	3	100	0	6546	-3.205708	3.270927	-22.56885	
14:56:30	-6.728698	38.94615	128.783	0.4004869	-4.183581	0.04	3	100	0	6546	-3.266973	3.264101	-22.59289	
14:56:30	-6.728698	38.94615	128.727	0.4004869	-4.183581	0.07	3	100	0	6546	-3.138759	3.233674	-22.62351	
14:56:30	-6.728698	38.94615	128.703	0.4004869	-4.183581	0.11	3	100	0	6546	-3.153802	3.30204	-22.62579	
14:56:30	-6.728698	38.94615	128.733	0.4004869	-4.183581	0.02	3	100	0	6546	-3.132779	3.344056	-22.65138	
14:56:31	-6.728698	38.94615	128.741	0.4004869	-4.183581	0.04	3	100	0	6546	-3.194227	3.247186	-22.6776	
14:56:31	-6.728698	38.94615	128.782	0.2655068	-12.3504	0.03	3	100	0	6546	-3.232643	3.240607	-22.72229	
14:56:31	-6.728698	38.94615	128.816	0.2655068	-12.3504	0.07	3	100	0	6546	-3.143918	3.207371	-22.68545	
14:56:31	-6.728698	38.94615	128.841	0.2655068	-12.3504	0.06	3	100	0	6546	-3.123734	3.254146	-22.69732	
14:56:32	-6.728698	38.94615	128.948	0.2655068	-12.3504	0.03	3	100	0	6546	-3.238363	3.199503	-22.70252	
14:56:32	-6.728698	38.94615	128.891	0.2655068	-12.3504	0.02	3	100	0	6546	-3.188702	3.222484	-22.6452	
14:56:32	-6.728697	38.94615	128.858	0.3421719	-8.760377	0.09	3	100	0	6546	-3.124894	3.202466	-22.57477	
14:56:32	-6.728697	38.94615	128.839	0.3421719	-8.760377	0.04	3	100	0	6546	-3.070736	3.23825	-22.59683	
14:56:32	-6.728697	38.94615	128.886	0.3421719	-8.760377	0.13	3	100	0	6546	-3.129122	3.124133	-22.59133	
14:56:33	-6.728697	38.94615	128.958	0.3421719	-8.760377	0.09	3	100	0	6546	-3.176087	3.04958	-22.54959	
14:56:33	-6.728696	38.94615	128.945	0.3421719	-8.760377	0.09	3	100	0	6546	-3.24417	3.12916	-22.63547	
14:56:33	-6.728696	38.94615	128.925	0.2754808	-12.79954	0.09	3	100	0	6546	-3.229774	3.15739	-22.61676	
14:56:33	-6.728696	38.94615	128.931	0.2754808	-12.79954	0.04	3	100	0	6546	-3.186639	3.119682	-22.64807	
14:56:33	-6.728696	38.94615	128.915	0.2754808	-12.79954	0.06	3	100	0	6546	-3.087637	3.226385	-22.69376	
14:56:34	-6.728696	38.94615	128.876	0.2754808	-12.79954	0.04	3	100	0	6546	-3.091949	3.283038	-22.63804	
14:56:34	-6.728696	38.94615	128.849	0.2754808	-12.79954	0.02	3	100	0	6546	-3.148014	3.206601	-22.63099	
14:56:34	-6.728696	38.94615	128.834	0.1720175	-16.04265	0.03	3	100	0	6546	-3.146997	3.275007	-22.64324	
14:56:34	-6.728696	38.94615	128.86	0.1720175	-16.04265	0.03	3	100	0	6546	-3.111776	3.257747	-22.60815	
14:56:35	-6.728696	38.94615	128.83	0.1720175	-16.04265	0.07	3	100	0	6546	-3.166746	3.274366	-22.61329	
14:56:35	-6.728696	38.94615	128.793	0.1720175	-16.04265	0.14	3	100	0	6546	-3.170405	3.239934	-22.5882	
14:56:35	-6.728695	38.94615	128.805	0.1720175	-16.04265	0.04	3	100	0	6546	-3.177629	3.189708	-22.61407	
14:56:35	-6.728695	38.94615	128.774	-0.01880421	-20.95324	0.08	3	100	0	6546	-3.121403	3.287778	-22.61992	
14:56:35	-6.728695	38.94615	128.761	-0.01880421	-20.95324	0.08	3	100	0	6546	-3.097089	3.222197	-22.69796	
14:56:36	-6.728695	38.94615	128.773	-0.01880421	-20.95324	0.02	3	100	0	6546	-3.150444	3.268111	-22.68884	
14:56:36	-6.728694	38.94615	128.819	-0.01880421	-20.95324	0.03	3	100	0	6546	-3.096297	3.314188	-22.62207	
14:56:36	-6.728694	38.94615	128.836	-0.01880421	-20.95324	0.11	3	100	0	6546	-3.057502	3.286027	-22.63615	
14:56:36	-6.728694	38.94615	128.81	0.03407013	-12.83712	0.04	3	100	0	6546	-3.148595	3.244637	-22.57677	
14:56:36	-6.728694	38.94615	128.777	0.03407013	-12.83712	0.02	3	100	0	6546	-3.09847	3.36163	-22.56929	
14:56:36	-6.728694	38.94615	128.761	0.03407013	-12.83712	0.03	3	100	0	6546	-3.077848	3.321109	-22.55619	
14:56:37	-6.728694	38.94615	128.786	0.03407013	-12.83712	0.04	3	100	0	6546	-3.056685	3.273561	-22.60488	
14:56:37	-6.728694	38.94615	128.725	0.03407013	-12.83712	0.07	3	100	0	6546	-3.046447	3.331099	-22.60407	
14:56:37	-6.728694	38.94615	128.733	0.1600242	-4.583869	0.06	3	100	0	6546	-3.021056	3.30545	-22.65189	
14:56:37	-6.728693	38.94615	128.703	0.1600242	-4.583869	0.04	3	100	0	6546	-3.155599	3.239771	-22.73415	
14:56:37	-6.728693	38.94615	128.697	0.1600242	-4.583869	0.06	3	100	0	6546	-3.113133	3.231014	-22.70562	
14:56:37	-6.728693	38.94615	128.697	0.1600242	-4.583869	0.07	3	100	0	6546	-3.02699	3.267302	-22.71357	
14:56:38	-6.728693	38.94615	128.714	0.1600242	-4.583869	0.04	3	100	0	6546	-3.046948	3.349504	-22.81787	
14:56:38	-6.728693	38.94615	128.695	0.1762548	-5.417895	0.07	3	100	0	6546	-3.103478	3.327343	-22.90399	
14:56:38	-6.728693	38.94615	128.696	0.1762548	-5.417895	0.02	3	100	0	6546	-3.125516	3.342684	-22.98392	
14:56:38	-6.728693	38.94615	128.662	0.1762548	-5.417895	0.08	3	100	0	6546	-3.112237	3.281365	-22.97325	
14:56:38	-6.728693	38.94615	128.684	0.1762548	-5.417895	0.03	3	100	0	6546	-3.059716	3.352428	-22.93155	
14:56:38	-6.728693	38.94615	128.674	0.1762548	-5.417895	0.06	3	100	0	6546	-3.0624	3.271301	-22.92564	
14:56:39	-6.728693	38.94615	128.716	0.4026742	3.763487	0.08	3	100	0	6546	-3.141871	3.198953	-22.94068	
14:56:39	-6.728693	38.94615	128.678	0.4026742	3.763487	0.03	3	100	0	6546	-3.112286	3.367346	-22.95884	
14:56:39	-6.728693	38.94615	128.65	0.4026742	3.763487	0.04	3	100	0	6546	-3.127963	3.303825	-22.96754	
14:56:39	-6.728693	38.94615	128.629	0.4026742	3.763487	0.19	3	100	0	6546	-3.136567	3.226882	-22.98197	
14:56:39	-6.728693	38.94615	128.562	0.4026742	3.763487	0.12	3	100	0	6546	-3.225904	3.030352	-23.02388	
14:56:40	-6.728693	38.94615	128.469	0.3727281	-1.205085	0.09	3	100	0	6546	-3.19236	3.07217	-23.00769	
14:56:40	-6.728693	38.94615	128.466	0.3727281	-1.205085	0.04	3	100	0	6546	-3.191329	3.124056	-23.05731	
14:56:40	-6.728693	38.94615	128.422	0.3727281	-1.205085	0.04	3	100	0	6546	-3.134736	3.180508	-23.03737	
14:56:40	-6.728692	38.94615	128.33	0.3727281	-1.205085	0.02	3	100	0	6546	-3.207364	3.170908	-23.02001	
14:56:40	-6.728692	38.94615	128.28	0.3727281	-1.205085	0.01	3	100	0	6546	-3.15538	3.15037	-22.93612	
14:56:41	-6.728692	38.94615	128.27	0.3890212	-3.297723	0.04	3	100	0	6546	-3.195714	3.143881	-22.97846	
14:56:41	-6.728692	38.94615	128.248	0.3890212	-3.297723	0.07	3	100	0	6546	-3.228343	3.125396	-22.99744	
14:56:41	-6.728692	38.94615	128.226	0.3890212	-3.297723	0.08	3	100	0	6546	-3.124023	3.174917	-23.0259	
14:56:41	-6.728692	38.94615	128.175	0.3890212	-3.297723	0.12	3	100	0	6546	-3.168139	3.223918	-23.00654	
14:56:42	-6.728692	38.94615	128.174	0.3890212	-3.297723	0.02	3	100	0	6546	-3.113079	3.266917	-22.9743	
14:56:42	-6.728691	38.94615	128.121	0.101179	-16.35939	0.09	3	100	0	6546	-3.182337	3.201142	-22.97616	
14:56:42	-6.728691	38.94615	128.046	0.101179	-16.35939	0.07	3	100	0	6546	-3.243957	3.18834	-22.93494	
14:56:42	-6.728691	38.94615	127.997	0.101179	-16.35939	0.03	3	100	0	6546	-3.132383	3.23235	-22.95698	
14:56:42	-6.728691	38.94615	127.969	0.101179	-16.35939	0.06	3	100	0	6546	-3.172996	3.171108	-23.00218	
14:56:42	-6.728691	38.94615	127.954	0.101179	-16.35939	0.14	3	100	0	6546	-3.140249	3.172794	-23.01694	
14:56:43	-6.728691	38.94615	127.92	0.3339733	-2.039809	0.01	3	100	0	6546	-3.228227	3.026313	-23.03019	
14:56:43	-6.728691	38.94615	127.862	0.3339733	-2.039809	0.08	3	100	0	6546	-3.168534	3.125637	-23.00175	
14:56:43	-6.728691	38.94615	127.811	0.3339733	-2.039809	0.03	3	100	0	6546	-3.160069	3.048064	-23.06915	
14:56:43	-6.728691	38.94615	127.76	0.3339733	-2.039809	0.08	3	100	0	6546	-3.174822	3.110531	-22.98923	
14:56:43	-6.728691	38.94615	127.718	0.3339733	-2.039809	0.04	3	100	0	6546	-3.209601	3.125292	-22.98331	
14:56:44	-6.72869	38.94615	127.698	0.328454	-3.566333	0.03	3	100	0	6546	-3.11522	3.216339	-22.94254	
14:56:44	-6.72869	38.94615	127.68	0.328454	-3.566333	0.08	3	100	0	6546	-3.10172	3.214109	-22.9935	
14:56:44	-6.72869	38.94615	127.698	0.328454	-3.566333	0.04	3	100	0	6546	-3.098012	3.286315	-23.04367	
14:56:44	-6.72869	38.94615	127.711	0.328454	-3.566333	0.01	3	100	0	6546	-3.085089	3.229909	-22.94402	
14:56:44	-6.72869	38.94615	127.699	0.328454	-3.566333	0.04	3	100	0	6546	-3.082815	3.264577	-22.9028	
14:56:45	-6.72869	38.94615	127.663	0.2084335	-8.6085	0.06	3	100	0	6546	-3.078193	3.300293	-22.93521	
14:56:45	-6.72869	38.94615	127.692	0.2084335	-8.6085	0.04	3	100	0	6546	-3.141033	3.310544	-22.96934	
14:56:45	-6.728689	38.94615	127.684	0.2084335	-8.6085	0.02	3	100	0	6546	-3.156338	3.248351	-22.91236	
14:56:45	-6.728689	38.94615	127.622	0.2084335	-8.6085	0.01	3	100	0	6546	-3.093916	3.245908	-22.99995	
14:56:45	-6.728689	38.94615	127.547	0.2084335	-8.6085	0.06	3	100	0	6546	-3.105797	3.26702	-22.96668	
14:56:46	-6.728689	38.94615	127.53	0.2274394	-5.936569	0.12	3	100	0	6546	-3.167853	3.261801	-22.99598	
14:56:46	-6.728689	38.94615	127.512	0.2274394	-5.936569	0.06	3	100	0	6546	-3.199198	3.279432	-23.01696	
14:56:46	-6.728688	38.94615	127.448	0.2274394	-5.936569	0.12	3	100	0	6546	-3.121901	3.330765	-22.98142	
14:56:46	-6.728688	38.94615	127.386	0.2274394	-5.936569	0.08	3	100	0	6546	-2.978748	3.393609	-22.95697	
14:56:46	-6.728688	38.94615	127.377	0.2274394	-5.936569	0.09	3	100	0	6546	-3.145351	3.324251	-23.0433	
14:56:47	-6.728688	38.94615	127.368	0.2391018	-4.771173	0.09	3	100	0	6546	-3.155082	3.327112	-23.02471	
14:56:47	-6.728688	38.94615	127.343	0.2391018	-4.771173	0.06	3	100	0	6546	-3.148719	3.325045	-22.96898	
14:56:47	-6.728687	38.94615	127.314	0.2391018	-4.771173	0.09	3	100	0	6546	-3.120824	3.315371	-22.9887	
14:56:47	-6.728687	38.94615	127.307	0.2391018	-4.771173	0.07	3	100	0	6546	-3.099306	3.286035	-22.95989	
14:56:47	-6.728687	38.94615	127.256	0.2391018	-4.771173	0.07	3	100	0	6546	-3.087181	3.306804	-22.97367	
14:56:48	-6.728686	38.94615	127.232	0.2391018	-4.771173	0.03	3	100	0	6546	-3.064839	3.355045	-22.93957	
14:56:48	-6.728686	38.94615	127.166	0.2391018	-4.771173	0.04	3	100	0	6546	-3.094389	3.435358	-22.96936	
14:56:48	-6.728686	38.94615	127.166	0.2391018	-4.771173	0.02	3	100	0	6546	-3.093913	3.40757	-22.95913	
14:56:48	-6.728686	38.94615	127.179	0.2391018	-4.771173	0.07	3	100	0	6546	-3.090605	3.413999	-22.93822	
14:56:49	-6.728685	38.94615	127.169	0.2391018	-4.771173	0.06	3	100	0	6546	-3.118655	3.406691	-22.89701	
14:56:49	-6.728685	38.94615	127.14	-0.08673673	-18.73828	0.04	3	100	0	6546	-3.111582	3.438078	-22.90703	
14:56:49	-6.728685	38.94615	127.114	-0.08673673	-18.73828	0.07	3	100	0	6546	-3.123868	3.470901	-22.88569	
14:56:49	-6.728685	38.94615	127.073	-0.08673673	-18.73828	0.04	3	100	0	6546	-3.111669	3.443143	-22.90883	
14:56:49	-6.728685	38.94615	127.054	-0.08673673	-18.73828	0.04	3	100	0	6546	-3.113615	3.479906	-22.98055	
14:56:50	-6.728685	38.94615	127.067	-0.08673673	-18.73828	0.09	3	100	0	6546	-3.110515	3.446871	-22.92178	
14:56:50	-6.728685	38.94615	127.09	-0.2818045	-21.22763	0.06	3	100	0	6546	-3.069276	3.460265	-22.8086	
14:56:50	-6.728685	38.94615	127.076	-0.2818045	-21.22763	0.04	3	100	0	6546	-3.00398	3.554854	-22.83206	
14:56:50	-6.728685	38.94615	127.044	-0.2818045	-21.22763	0.04	3	100	0	6546	-3.011341	3.52107	-22.82401	
14:56:50	-6.728685	38.94615	127.029	-0.2818045	-21.22763	0.04	3	100	0	6546	-3.045752	3.584703	-22.78404	
14:56:51	-6.728685	38.94615	127.067	-0.2818045	-21.22763	0.08	3	100	0	6546	-3.081595	3.50198	-22.74776	
14:56:51	-6.728685	38.94615	127.072	-0.4146315	-19.66039	0.03	3	100	0	6546	-3.063771	3.460342	-22.72829	
14:56:51	-6.728684	38.94615	127.093	-0.4146315	-19.66039	0.03	3	100	0	6546	-3.060979	3.495697	-22.766	
14:56:51	-6.728684	38.94615	127.073	-0.4146315	-19.66039	0.06	3	100	0	6546	-3.114258	3.54534	-22.76265	
14:56:51	-6.728685	38.94615	127.116	-0.4146315	-19.66039	0.07	3	100	0	6546	-3.120607	3.540719	-22.71768	
14:56:52	-6.728685	38.94615	127.146	-0.4146315	-19.66039	0.12	3	100	0	6546	-3.074688	3.548745	-22.64173	
14:56:52	-6.728685	38.94615	127.154	-0.3278041	-10.43637	0.04	3	100	0	6546	-3.021019	3.51861	-22.7068	
14:56:52	-6.728684	38.94615	127.18	-0.3278041	-10.43637	0.08	3	100	0	6546	-3.056165	3.409076	-22.64059	
14:56:52	-6.728684	38.94615	127.241	-0.3278041	-10.43637	0.02	3	100	0	6546	-3.10534	3.423369	-22.62195	
14:56:53	-6.728684	38.94615	127.223	-0.3278041	-10.43637	0.09	3	100	0	6546	-3.092602	3.438781	-22.66496	
14:56:53	-6.728684	38.94615	127.238	-0.3278041	-10.43637	0.14	3	100	0	6546	-3.186148	3.426206	-22.60979	
14:56:53	-6.728684	38.94615	127.237	-0.004276384	6.315925	0.11	3	100	0	6546	-3.146909	3.423112	-22.56913	
14:56:53	-6.728684	38.94615	127.21	-0.004276384	6.315925	0.06	3	100	0	6546	-3.127704	3.630924	-22.55244	
14:56:53	-6.728684	38.94615	127.236	-0.004276384	6.315925	0.19	3	100	0	6546	-3.148035	3.470151	-22.54878	
14:56:53	-6.728684	38.94615	127.24	-0.004276384	6.315925	0.08	3	100	0	6546	-3.184253	3.416332	-22.47837	
14:56:54	-6.728684	38.94615	127.246	-0.004276384	6.315925	0.07	3	100	0	6546	-3.096317	3.536865	-22.48579	
14:56:54	-6.728684	38.94615	127.268	0.1969492	10.77431	0.12	3	100	0	6546	-3.073325	3.724034	-22.52611	
14:56:54	-6.728684	38.94615	127.345	0.1969492	10.77431	0.14	3	100	0	6546	-3.074133	3.67103	-22.52173	
14:56:54	-6.728683	38.94615	127.432	0.1969492	10.77431	0.11	3	100	0	6546	-3.157681	3.4532	-22.54468	
14:56:54	-6.728683	38.94615	127.482	0.1969492	10.77431	0.14	3	100	0	6546	-3.232274	3.536768	-22.57261	
14:56:54	-6.728683	38.94615	127.526	0.1969492	10.77431	0.18	3	100	0	6546	-3.268213	3.452243	-22.479	
14:56:55	-6.728683	38.94615	127.538	0.4265831	16.87069	0.09	3	100	0	6546	-3.272989	3.443747	-22.52971	
14:56:55	-6.728683	38.94615	127.524	0.4265831	16.87069	0.11	3	100	0	6546	-3.214344	3.448198	-22.52796	
14:56:55	-6.728683	38.94615	127.58	0.4265831	16.87069	0.06	3	100	0	6546	-3.139101	3.424149	-22.49696	
14:56:55	-6.728683	38.94615	127.66	0.4265831	16.87069	0.04	3	100	0	6546	-3.078875	3.462131	-22.48194	
14:56:55	-6.728683	38.94615	127.76	0.4265831	16.87069	0.12	3	100	0	6546	-3.0133	3.471112	-22.51641	
14:56:56	-6.728683	38.94615	127.794	0.5491247	13.61994	0.09	3	100	0	6547	-2.974137	3.431221	-22.51465	
14:56:56	-6.728683	38.94615	127.834	0.5491247	13.61994	0.01	3	100	0	6547	-3.0318	3.476431	-22.48027	
14:56:56	-6.728683	38.94615	127.827	0.5491247	13.61994	0.09	3	100	0	6547	-3.077073	3.54198	-22.51729	
14:56:56	-6.728683	38.94615	127.885	0.5491247	13.61994	0.14	3	100	0	6547	-3.04021	3.497552	-22.55884	
14:56:56	-6.728682	38.94615	127.876	0.5491247	13.61994	0.09	3	100	0	6547	-3.060255	3.374279	-22.60866	
14:56:57	-6.728682	38.94615	127.934	0.3248889	-3.368545	0.13	3	100	0	6546	-3.024303	3.447075	-22.59306	
14:56:57	-6.728682	38.94615	127.916	0.3248889	-3.368545	0.17	3	100	0	6546	-2.960922	3.503427	-22.56952	
14:56:57	-6.728682	38.94615	127.98	0.3248889	-3.368545	0.01	3	100	0	6546	-3.034676	3.479762	-22.61567	
14:56:57	-6.728682	38.94615	128.021	0.3248889	-3.368545	0.12	3	100	0	6546	-3.122839	3.518207	-22.66251	
14:56:58	-6.728682	38.94615	128.056	0.3248889	-3.368545	0.07	3	100	0	6546	-3.092534	3.468173	-22.65689	
14:56:58	-6.728682	38.94615	128.088	0.004900993	-15.71846	0.06	3	100	0	6546	-3.183605	3.449714	-22.62814	
14:56:58	-6.728682	38.94615	128.093	0.004900993	-15.71846	0.04	3	100	0	6546	-3.175632	3.476168	-22.63024	
14:56:58	-6.728682	38.94615	128.134	0.004900993	-15.71846	0.07	3	100	0	6546	-3.124355	3.524302	-22.57165	
14:56:58	-6.728682	38.94615	128.124	0.004900993	-15.71846	0.03	3	100	0	6546	-3.135901	3.531602	-22.6229	
14:56:58	-6.728682	38.94615	128.164	0.004900993	-15.71846	0.13	3	100	0	6546	-3.174032	3.484846	-22.63956	
14:56:59	-6.728682	38.94615	128.215	0.1460085	-4.359766	0.03	3	100	0	6546	-3.222286	3.495882	-22.62653	
14:56:59	-6.728682	38.94615	128.187	0.1460085	-4.359766	0.06	3	100	0	6546	-3.127684	3.438214	-22.63468	
14:56:59	-6.728682	38.94615	128.221	0.1460085	-4.359766	0.08	3	100	0	6546	-3.15254	3.441568	-22.59474	
14:56:59	-6.728682	38.94615	128.226	0.1460085	-4.359766	0.09	3	100	0	6546	-3.105189	3.428946	-22.55858	
14:56:59	-6.728682	38.94615	128.206	0.1460085	-4.359766	0.04	3	100	0	6546	-3.12243	3.442961	-22.5896	
14:57:00	-6.728683	38.94615	128.239	0.1507756	-4.803019	0.11	3	100	0	6546	-3.150498	3.417631	-22.56733	
14:57:00	-6.728683	38.94615	128.259	0.1507756	-4.803019	0.11	3	100	0	6546	-3.129328	3.483708	-22.57236	
14:57:00	-6.728683	38.94615	128.308	0.1507756	-4.803019	0.09	3	100	0	6546	-3.161137	3.409016	-22.51952	
14:57:00	-6.728683	38.94615	128.277	0.1507756	-4.803019	0.09	3	100	0	6546	-3.175818	3.303789	-22.49262	
14:57:01	-6.728683	38.94615	128.241	0.1507756	-4.803019	0.04	3	100	0	6546	-3.167652	3.317176	-22.50594	
14:57:01	-6.728683	38.94615	128.232	0.01446875	-8.747174	0	3	100	0	6546	-3.184358	3.403165	-22.45874	
14:57:01	-6.728683	38.94615	128.23	0.01446875	-8.747174	0.04	3	100	0	6546	-3.146001	3.434297	-22.48333	
14:57:01	-6.728683	38.94615	128.267	0.01446875	-8.747174	0.06	3	100	0	6546	-3.110131	3.413881	-22.45426	
14:57:01	-6.728683	38.94615	128.282	0.01446875	-8.747174	0.06	3	100	0	6546	-3.191056	3.424026	-22.50027	
14:57:02	-6.728683	38.94615	128.245	0.01446875	-8.747174	0.03	3	100	0	6546	-3.207009	3.456762	-22.51785	
14:57:02	-6.728683	38.94615	128.232	-0.132283	-12.11483	0.09	3	100	0	6546	-3.192904	3.438453	-22.53003	
14:57:02	-6.728683	38.94615	128.237	-0.132283	-12.11483	0.11	3	100	0	6546	-3.253871	3.393785	-22.46214	
14:57:02	-6.728683	38.94615	128.277	-0.132283	-12.11483	0.09	3	100	0	6546	-3.274559	3.449062	-22.42067	
14:57:02	-6.728683	38.94615	128.265	-0.132283	-12.11483	0.07	3	100	0	6546	-3.233215	3.462256	-22.35579	
14:57:03	-6.728683	38.94615	128.227	-0.132283	-12.11483	0.14	3	100	0	6546	-3.270857	3.406558	-22.4518	
14:57:03	-6.728683	38.94615	128.217	-0.0787201	-4.568699	0.06	3	100	0	6546	-3.244299	3.449826	-22.41724	
14:57:03	-6.728683	38.94615	128.173	-0.0787201	-4.568699	0.04	3	100	0	6546	-3.159238	3.50285	-22.43661	
14:57:03	-6.728683	38.94615	128.154	-0.0787201	-4.568699	0.03	3	100	0	6546	-3.122715	3.473197	-22.38386	
14:57:03	-6.728683	38.94615	128.112	-0.0787201	-4.568699	0.06	3	100	0	6546	-3.139457	3.50433	-22.42366	
14:57:04	-6.728683	38.94615	128.074	-0.0787201	-4.568699	0.09	3	100	0	6546	-3.114888	3.512839	-22.48658	
14:57:04	-6.728683	38.94615	127.989	-0.03392115	-2.120005	0.04	3	100	0	6546	-3.110707	3.506035	-22.43396	
14:57:04	-6.728683	38.94615	127.973	-0.03392115	-2.120005	0.09	3	100	0	6546	-3.105872	3.486962	-22.47625	
14:57:04	-6.728683	38.94615	127.933	-0.03392115	-2.120005	0.04	3	100	0	6546	-3.073215	3.460912	-22.46622	
14:57:04	-6.728683	38.94615	127.934	-0.03392115	-2.120005	0.03	3	100	0	6546	-3.115106	3.477021	-22.47057	
14:57:04	-6.728683	38.94615	127.888	-0.03392115	-2.120005	0.09	3	100	0	6546	-3.063616	3.536861	-22.54218	
14:57:05	-6.728683	38.94615	127.856	0.04509208	1.73366	0	3	100	0	6546	-3.104312	3.510635	-22.60379	
14:57:05	-6.728683	38.94615	127.799	0.04509208	1.73366	0.06	3	100	0	6546	-3.180909	3.472384	-22.56313	
14:57:05	-6.728683	38.94615	127.767	0.04509208	1.73366	0.09	3	100	0	6546	-3.154121	3.409047	-22.61176	
14:57:05	-6.728683	38.94615	127.77	0.04509208	1.73366	0.11	3	100	0	6546	-3.20747	3.453102	-22.61253	
14:57:06	-6.728683	38.94615	127.71	0.04509208	1.73366	0.03	3	100	0	6546	-3.213186	3.482707	-22.61021	
14:57:06	-6.728683	38.94615	127.735	0.1246462	4.819889	0.06	3	100	0	6546	-3.196912	3.485142	-22.59965	
14:57:06	-6.728683	38.94615	127.732	0.1246462	4.819889	0.09	3	100	0	6546	-3.163933	3.560805	-22.61752	
14:57:06	-6.728683	38.94615	127.699	0.1246462	4.819889	0.04	3	100	0	6546	-3.13122	3.575932	-22.61012	
14:57:06	-6.728683	38.94615	127.655	0.1246462	4.819889	0.07	3	100	0	6546	-3.159531	3.486432	-22.63623	
14:57:06	-6.728683	38.94615	127.65	0.1246462	4.819889	0.04	3	100	0	6546	-3.152936	3.459483	-22.64985	
14:57:07	-6.728683	38.94615	127.633	-0.02452831	-5.630168	0.07	3	100	0	6546	-3.102588	3.433395	-22.67601	
14:57:07	-6.728683	38.94615	127.624	-0.02452831	-5.630168	0.06	3	100	0	6546	-3.145335	3.452605	-22.62037	
14:57:07	-6.728683	38.94615	127.576	-0.02452831	-5.630168	0.03	3	100	0	6546	-3.15685	3.469256	-22.68506	
14:57:07	-6.728682	38.94615	127.511	-0.02452831	-5.630168	0.07	3	100	0	6546	-3.161652	3.440603	-22.66304	
14:57:08	-6.728682	38.94615	127.469	-0.02452831	-5.630168	0.04	3	100	0	6546	-3.167253	3.470915	-22.62915	
14:57:08	-6.728682	38.94615	127.447	-0.1801835	-10.43936	0.03	3	100	0	6546	-3.123618	3.460425	-22.6597	
14:57:08	-6.728682	38.94615	127.433	-0.1801835	-10.43936	0.14	3	100	0	6546	-3.045027	3.390953	-22.64102	
14:57:08	-6.728682	38.94615	127.382	-0.1801835	-10.43936	0.04	3	100	0	6546	-3.029671	3.395244	-22.65916	
14:57:08	-6.728682	38.94615	127.338	-0.1801835	-10.43936	0.12	3	100	0	6546	-2.991946	3.38385	-22.5978	
14:57:09	-6.728681	38.94615	127.327	-0.1801835	-10.43936	0.04	3	100	0	6546	-3.03229	3.460797	-22.64401	
14:57:09	-6.728681	38.94615	127.3	-0.05762928	-0.8120067	0.06	3	100	0	6546	-3.111996	3.44416	-22.57851	
14:57:09	-6.728681	38.94615	127.302	-0.05762928	-0.8120067	0.06	3	100	0	6546	-3.138557	3.400684	-22.6544	
14:57:09	-6.728681	38.94615	127.231	-0.05762928	-0.8120067	0.14	3	100	0	6546	-3.053638	3.4713	-22.62624	
14:57:09	-6.728681	38.94615	127.203	-0.05762928	-0.8120067	0.08	3	100	0	6546	-3.036437	3.509692	-22.6562	
14:57:09	-6.728681	38.94615	127.139	-0.05762928	-0.8120067	0.14	3	100	0	6546	-3.028923	3.380166	-22.7257	
14:57:10	-6.728681	38.94615	127.076	0.08754434	4.212465	0.08	3	100	0	6546	-3.051947	3.406271	-22.75216	
14:57:10	-6.728681	38.94615	127.057	0.08754434	4.212465	0.11	3	100	0	6546	-3.018615	3.451267	-22.68676	
14:57:10	-6.728681	38.94615	127.059	0.08754434	4.212465	0.07	3	100	0	6546	-3.020285	3.420722	-22.75553	
14:57:10	-6.728681	38.94615	127.045	0.08754434	4.212465	0.07	3	100	0	6546	-3.053136	3.435038	-22.77558	
14:57:11	-6.728681	38.94615	127.045	0.08754434	4.212465	0.09	3	100	0	6546	-3.064512	3.338427	-22.78882	
14:57:11	-6.728681	38.94615	126.978	0.2608041	10.73064	0.04	3	100	0	6546	-3.130806	3.35767	-22.82379	
14:57:11	-6.728681	38.94615	126.917	0.2608041	10.73064	0.09	3	100	0	6546	-3.173617	3.358163	-22.72509	
14:57:11	-6.72868	38.94615	126.874	0.2608041	10.73064	0.04	3	100	0	6546	-3.148286	3.33635	-22.68708	
14:57:11	-6.72868	38.94615	126.838	0.2608041	10.73064	0.11	3	100	0	6546	-3.194797	3.364907	-22.76524	
14:57:12	-6.72868	38.94615	126.799	0.2608041	10.73064	0.07	3	100	0	6546	-3.176302	3.381152	-22.73554	
14:57:12	-6.72868	38.94615	126.787	0.405497	11.58479	0.09	3	100	0	6546	-3.162845	3.434496	-22.69019	
14:57:12	-6.72868	38.94615	126.758	0.405497	11.58479	0.03	3	100	0	6546	-3.100039	3.462676	-22.6593	
14:57:12	-6.72868	38.94615	126.771	0.405497	11.58479	0.01	3	100	0	6546	-3.064676	3.439906	-22.62298	
14:57:12	-6.72868	38.94615	126.692	0.405497	11.58479	0.06	3	100	0	6546	-3.037595	3.421943	-22.60701	
14:57:13	-6.72868	38.94615	126.671	0.405497	11.58479	0.09	3	100	0	6546	-2.989981	3.436261	-22.65738	
14:57:13	-6.72868	38.94615	126.686	0.6225129	17.22775	0.04	3	100	0	6546	-3.019291	3.454557	-22.65433	
14:57:13	-6.72868	38.94615	126.638	0.6225129	17.22775	0.13	3	100	0	6546	-3.109776	3.317917	-22.71364	
14:57:13	-6.72868	38.94615	126.557	0.6225129	17.22775	0.07	3	100	0	6546	-3.163741	3.362243	-22.7001	
14:57:13	-6.728681	38.94615	126.562	0.6225129	17.22775	0.14	3	100	0	6546	-3.216086	3.487405	-22.71742	
14:57:13	-6.728681	38.94615	126.534	0.6225129	17.22775	0.07	3	100	0	6546	-3.183344	3.416959	-22.69319	
14:57:14	-6.728681	38.94615	126.525	0.7351843	14.18208	0.07	3	100	0	6546	-3.157717	3.359812	-22.71739	
14:57:14	-6.728681	38.94615	126.495	0.7351843	14.18208	0.03	3	100	0	6546	-3.109239	3.367998	-22.66082	
14:57:14	-6.728681	38.94615	126.471	0.7351843	14.18208	0.04	3	100	0	6546	-3.078924	3.412094	-22.59121	
14:57:14	-6.728681	38.94615	126.49	0.7351843	14.18208	0.08	3	100	0	6546	-3.096218	3.362241	-22.68717	
14:57:15	-6.728681	38.94615	126.52	0.7351843	14.18208	0.04	3	100	0	6546	-3.061057	3.358086	-22.71967	
14:57:15	-6.728681	38.94615	126.46	0.5490028	0.07260032	0.02	3	100	0	6546	-3.046462	3.373616	-22.70842	
14:57:15	-6.728681	38.94615	126.384	0.5490028	0.07260032	0.06	3	100	0	6546	-3.084687	3.437308	-22.68525	
14:57:15	-6.728682	38.94615	126.372	0.5490028	0.07260032	0	3	100	0	6546	-3.09049	3.407033	-22.73924	
14:57:15	-6.728682	38.94615	126.302	0.5490028	0.07260032	0.06	3	100	0	6546	-3.042537	3.385437	-22.69188	
14:57:16	-6.728682	38.94615	126.283	0.5490028	0.07260032	0.04	3	100	0	6546	-3.104813	3.366072	-22.71622	
14:57:16	-6.728682	38.94615	126.256	0.6428139	4.97056	0.12	3	100	0	6546	-3.007705	3.344003	-22.62935	
14:57:16	-6.728682	38.94615	126.168	0.6428139	4.97056	0.04	3	100	0	6546	-3.046057	3.337067	-22.5663	
14:57:16	-6.728682	38.94615	126.167	0.6428139	4.97056	0.02	3	100	0	6546	-3.095428	3.382872	-22.50381	
14:57:16	-6.728682	38.94615	126.154	0.6428139	4.97056	0.06	3	100	0	6546	-3.086306	3.430015	-22.49131	
14:57:16	-6.728682	38.94615	126.103	0.6428139	4.97056	0.09	3	100	0	6546	-3.035422	3.390289	-22.49713	
14:57:17	-6.728682	38.94615	126.086	0.6246527	1.322307	0.04	3	100	0	6546	-3.047594	3.332523	-22.55371	
14:57:17	-6.728682	38.94615	126.028	0.6246527	1.322307	0.06	3	100	0	6546	-3.056287	3.365025	-22.48575	
14:57:17	-6.728682	38.94615	125.955	0.6246527	1.322307	0.09	3	100	0	6546	-3.02648	3.336445	-22.47439	
14:57:17	-6.728682	38.94615	125.919	0.6246527	1.322307	0.06	3	100	0	6546	-3.070938	3.346275	-22.50499	
14:57:18	-6.728682	38.94615	125.86	0.6246527	1.322307	0.03	3	100	0	6546	-3.055078	3.292769	-22.54278	
14:57:18	-6.728682	38.94615	125.917	0.7847103	8.107095	0.06	3	100	0	6546	-3.074546	3.266443	-22.50754	
14:57:18	-6.728682	38.94615	125.917	0.7847103	8.107095	0.06	3	100	0	6546	-3.154215	3.305036	-22.52748	
14:57:18	-6.728682	38.94615	125.885	0.7847103	8.107095	0.04	3	100	0	6546	-3.146182	3.324705	-22.48812	
14:57:18	-6.728682	38.94615	125.885	0.7847103	8.107095	0.04	3	100	0	6546	-3.099026	3.275417	-22.50819	
14:57:19	-6.728682	38.94615	125.802	0.7847103	8.107095	0.02	3	100	0	6546	-3.104727	3.301471	-22.55881	
14:57:19	-6.728682	38.94615	125.697	0.7466996	3.352453	0.03	3	100	0	6546	-3.111548	3.324628	-22.59337	
14:57:19	-6.728682	38.94615	125.595	0.7466996	3.352453	0.06	3	100	0	6546	-3.1425	3.332816	-22.57217	
14:57:19	-6.728682	38.94615	125.624	0.7466996	3.352453	0.06	3	100	0	6546	-3.160996	3.268907	-22.57397	
14:57:19	-6.728682	38.94615	125.548	0.7466996	3.352453	0.08	3	100	0	6546	-3.19428	3.286328	-22.56472	
14:57:19	-6.728682	38.94615	125.548	0.7466996	3.352453	0.04	3	100	0	6546	-3.174696	3.318622	-22.49285	
14:57:20	-6.728682	38.94615	125.634	0.7372612	1.159677	0.12	3	100	0	6546	-3.138522	3.415358	-22.56099	
14:57:20	-6.728682	38.94615	125.527	0.7372612	1.159677	0.12	3	100	0	6546	-3.142209	3.455527	-22.52277	
14:57:20	-6.728682	38.94615	125.53	0.7372612	1.159677	0.08	3	100	0	6546	-3.170647	3.249616	-22.54686	
14:57:20	-6.728682	38.94615	125.521	0.7372612	1.159677	0.13	3	100	0	6546	-3.201515	3.305878	-22.53531	
14:57:21	-6.728682	38.94615	125.501	0.7372612	1.159677	0.07	3	100	0	6546	-3.13336	3.204904	-22.55101	
14:57:21	-6.728682	38.94615	125.466	0.8512833	5.743499	0.12	3	100	0	6546	-3.162539	3.2554	-22.56936	
14:57:21	-6.728682	38.94615	125.456	0.8512833	5.743499	0.07	3	100	0	6546	-3.22832	3.354692	-22.56255	
14:57:21	-6.728682	38.94615	125.478	0.8512833	5.743499	0.08	3	100	0	6546	-3.171126	3.391254	-22.46627	
14:57:21	-6.728682	38.94615	125.47	0.8512833	5.743499	0.02	3	100	0	6546	-3.190031	3.383938	-22.46403	
14:57:22	-6.728682	38.94615	125.459	0.8512833	5.743499	0.04	3	100	0	6546	-3.121495	3.361266	-22.50027	
14:57:22	-6.728682	38.94615	125.432	0.9749005	8.515001	0.09	3	100	0	6546	-3.154304	3.348173	-22.51594	
14:57:22	-6.728682	38.94615	125.391	0.9749005	8.515001	0.08	3	100	0	6546	-3.172815	3.431165	-22.55374	
14:57:22	-6.728682	38.94615	125.375	0.9749005	8.515001	0.03	3	100	0	6546	-3.123572	3.475336	-22.54708	
14:57:22	-6.728682	38.94615	125.366	0.9749005	8.515001	0.08	3	100	0	6546	-3.081866	3.418596	-22.48851	
14:57:23	-6.728682	38.94615	125.35	0.9749005	8.515001	0.09	3	100	0	6546	-3.12214	3.302393	-22.52611	
14:57:23	-6.728682	38.94615	125.35	0.7291609	-5.379961	0.09	3	100	0	6546	-3.170908	3.393153	-22.50548	
14:57:23	-6.728682	38.94615	125.319	0.7291609	-5.379961	0.09	3	100	0	6546	-3.184255	3.456505	-22.51922	
14:57:23	-6.728682	38.94615	125.199	0.7291609	-5.379961	0.12	3	100	0	6546	-3.194104	3.433351	-22.56099	
14:57:23	-6.728682	38.94615	125.234	0.7291609	-5.379961	0.08	3	100	0	6546	-3.156537	3.459289	-22.52742	
14:57:24	-6.728682	38.94615	125.249	0.7291609	-5.379961	0.14	3	100	0	6546	-3.188129	3.40827	-22.53768	
14:57:24	-6.728682	38.94615	125.225	0.6528174	-6.953318	0.14	3	100	0	6546	-3.25962	3.354692	-22.50201	
14:57:24	-6.728683	38.94615	125.188	0.6528174	-6.953318	0.08	3	100	0	6546	-3.185498	3.480997	-22.42546	
14:57:24	-6.728682	38.94615	125.213	0.6528174	-6.953318	0.04	3	100	0	6546	-3.064552	3.460345	-22.40463	
14:57:25	-6.728682	38.94615	125.14	0.6528174	-6.953318	0.06	3	100	0	6546	-3.120085	3.400375	-22.3928	
14:57:25	-6.728682	38.94615	125.141	0.6528174	-6.953318	0.17	3	100	0	6546	-3.127541	3.343202	-22.42295	
14:57:25	-6.728682	38.94615	125.111	0.4775112	-12.0606	0.02	3	100	0	6546	-3.242671	3.417929	-22.37182	
14:57:25	-6.728682	38.94615	125.072	0.4775112	-12.0606	0.08	3	100	0	6546	-3.103371	3.435083	-22.34801	
14:57:25	-6.728682	38.94615	125.035	0.4775112	-12.0606	0.04	3	100	0	6546	-3.076937	3.464945	-22.40557	
14:57:25	-6.728682	38.94615	124.993	0.4775112	-12.0606	0.14	3	100	0	6546	-3.084464	3.415817	-22.36341	
14:57:26	-6.728682	38.94615	124.889	0.4775112	-12.0606	0.06	3	100	0	6546	-3.183192	3.374011	-22.36294	
14:57:26	-6.728682	38.94615	124.829	0.3388739	-13.66492	0.11	3	100	0	6547	-3.108317	3.407424	-22.33466	
14:57:26	-6.728683	38.94615	124.799	0.3388739	-13.66492	0.16	3	100	0	6547	-3.085663	3.473248	-22.3236	
14:57:26	-6.728683	38.94615	124.736	0.3388739	-13.66492	0.04	3	100	0	6547	-3.100765	3.540552	-22.3816	
14:57:26	-6.728683	38.94615	124.689	0.3388739	-13.66492	0.01	3	100	0	6547	-3.014325	3.405269	-22.39905	
14:57:27	-6.728683	38.94615	124.708	0.3388739	-13.66492	0.06	3	100	0	6547	-3.031522	3.34881	-22.43304	
14:57:27	-6.728683	38.94615	124.605	0.4664306	-2.449961	0.04	3	100	0	6546	-3.089616	3.329834	-22.40406	
14:57:27	-6.728683	38.94615	124.606	0.4664306	-2.449961	0.04	3	100	0	6546	-3.106639	3.354741	-22.48594	
14:57:27	-6.728683	38.94615	124.576	0.4664306	-2.449961	0.11	3	100	0	6546	-3.101624	3.365197	-22.46269	
14:57:27	-6.728683	38.94615	124.546	0.4664306	-2.449961	0.09	3	100	0	6546	-3.001882	3.296948	-22.52181	
14:57:28	-6.728683	38.94615	124.539	0.4664306	-2.449961	0.08	3	100	0	6546	-3.107987	3.394125	-22.49161	
14:57:28	-6.728683	38.94615	124.51	0.5839885	3.586586	0.07	3	100	0	6546	-3.088512	3.477849	-22.46	
14:57:28	-6.728683	38.94615	124.535	0.5839885	3.586586	0.01	3	100	0	6546	-3.122069	3.466919	-22.48852	
14:57:28	-6.728683	38.94615	124.495	0.5839885	3.586586	0.12	3	100	0	6546	-3.083473	3.411509	-22.52756	
14:57:28	-6.728682	38.94615	124.534	0.5839885	3.586586	0.04	3	100	0	6546	-3.163079	3.412113	-22.50898	
14:57:29	-6.728682	38.94615	124.544	0.5839885	3.586586	0.04	3	100	0	6546	-3.121431	3.385523	-22.51719	
14:57:29	-6.728683	38.94615	124.537	0.6051742	2.524972	0.06	3	100	0	6546	-3.050776	3.35668	-22.49334	
14:57:29	-6.728683	38.94615	124.566	0.6051742	2.524972	0.22	3	100	0	6546	-3.0121	3.388031	-22.49739	
14:57:29	-6.728682	38.94615	124.612	0.6051742	2.524972	0.19	3	100	0	6546	-2.884419	3.320533	-22.48321	
14:57:29	-6.728682	38.94615	124.723	0.6051742	2.524972	0.08	3	100	0	6546	-2.87395	3.403707	-22.43054	
14:57:30	-6.728682	38.94615	124.738	0.6051742	2.524972	0.06	3	100	0	6546	-3.047513	3.566632	-22.46604	
14:57:30	-6.728682	38.94615	124.716	0.6547934	4.574482	0.09	3	100	0	6546	-3.20888	3.533173	-22.47028	
14:57:30	-6.728683	38.94615	124.714	0.6547934	4.574482	0.04	3	100	0	6546	-3.261155	3.534849	-22.52163	
14:57:30	-6.728683	38.94615	124.682	0.6547934	4.574482	0.06	3	100	0	6546	-3.241113	3.471906	-22.56806	
14:57:30	-6.728683	38.94615	124.635	0.6547934	4.574482	0	3	100	0	6546	-3.120577	3.501063	-22.52684	
14:57:31	-6.728683	38.94615	124.633	0.6547934	4.574482	0.02	3	100	0	6546	-3.154797	3.47167	-22.50941	
14:57:31	-6.728683	38.94615	124.641	0.7067978	3.817038	0.09	3	100	0	6547	-3.163038	3.471786	-22.49372	
14:57:31	-6.728683	38.94615	124.654	0.7067978	3.817038	0.17	3	100	0	6547	-3.078535	3.458434	-22.46058	
14:57:31	-6.728683	38.94615	124.617	0.7067978	3.817038	0.14	3	100	0	6547	-3.01619	3.450507	-22.43151	
14:57:31	-6.728683	38.94615	124.644	0.7067978	3.817038	0.16	3	100	0	6547	-3.051941	3.446572	-22.44162	
14:57:32	-6.728683	38.94615	124.637	0.7067978	3.817038	0.22	3	100	0	6547	-3.045603	3.435666	-22.39909	
14:57:32	-6.728683	38.94615	124.653	0.5677662	-3.203236	0.19	3	100	0	6546	-2.961471	3.41694	-22.49625	
14:57:32	-6.728683	38.94615	124.634	0.5677662	-3.203236	0.04	3	100	0	6546	-2.994941	3.45	-22.54165	
14:57:32	-6.728683	38.94615	124.673	0.5677662	-3.203236	0.08	3	100	0	6546	-3.230806	3.473459	-22.5819	
14:57:32	-6.728683	38.94615	124.737	0.5677662	-3.203236	0.16	3	100	0	6546	-3.154567	3.552391	-22.58239	
14:57:33	-6.728683	38.94615	124.679	0.5677662	-3.203236	0.02	3	100	0	6546	-3.113222	3.383103	-22.53767	
14:57:33	-6.728683	38.94615	124.692	0.6882849	3.763891	0.13	3	100	0	6546	-3.268849	3.491154	-22.54436	
14:57:33	-6.728683	38.94615	124.706	0.6882849	3.763891	0.21	3	100	0	6546	-3.376433	3.563087	-22.54816	
14:57:33	-6.728683	38.94615	124.762	0.6882849	3.763891	0.04	3	100	0	6546	-3.500501	3.563039	-22.56921	
14:57:33	-6.728683	38.94615	124.723	0.6882849	3.763891	0.14	3	100	0	6546	-3.340198	3.553311	-22.51374	
14:57:34	-6.728683	38.94615	124.649	0.6882849	3.763891	0.13	3	100	0	6546	-3.480786	3.634707	-22.49798	
14:57:34	-6.728684	38.94615	124.59	0.648118	-0.3324431	0.06	3	100	0	6546	-3.288905	3.693929	-22.42084	
14:57:34	-6.728684	38.94615	124.583	0.648118	-0.3324431	0.09	3	100	0	6546	-3.264563	3.622385	-22.40128	
14:57:34	-6.728684	38.94615	124.659	0.648118	-0.3324431	0.18	3	100	0	6546	-3.212452	3.59602	-22.38199	
14:57:34	-6.728684	38.94615	124.619	0.648118	-0.3324431	0.09	3	100	0	6546	-3.570951	3.588519	-22.42585	
14:57:35	-6.728684	38.94615	124.64	0.648118	-0.3324431	0.08	3	100	0	6546	-3.371239	3.539602	-22.40408	
14:57:35	-6.728685	38.94615	124.586	0.5195788	-6.289001	0.14	3	100	0	6546	-3.373008	3.505889	-22.40773	
14:57:35	-6.728685	38.94615	124.58	0.5195788	-6.289001	0.09	3	100	0	6546	-3.290949	3.535183	-22.36371	
14:57:35	-6.728685	38.94615	124.592	0.5195788	-6.289001	0.11	3	100	0	6546	-3.357127	3.502705	-22.321	
14:57:36	-6.728685	38.94615	124.672	0.5195788	-6.289001	0.16	3	100	0	6546	-3.304186	3.56134	-22.31511	
14:57:36	-6.728685	38.94615	124.617	0.5195788	-6.289001	0.12	3	100	0	6546	-3.335667	3.696251	-22.32723	
14:57:36	-6.728685	38.94615	124.629	0.3983687	-8.805253	0.02	3	100	0	6546	-3.339958	3.394928	-22.33974	
14:57:36	-6.728685	38.94615	124.664	0.3983687	-8.805253	0.09	3	100	0	6546	-3.361148	3.442672	-22.41136	
14:57:36	-6.728685	38.94615	124.706	0.3983687	-8.805253	0.11	3	100	0	6546	-3.436152	3.367992	-22.36121	
14:57:37	-6.728685	38.94615	124.666	0.3983687	-8.805253	0.02	3	100	0	6546	-3.485816	3.406988	-22.34468	
14:57:37	-6.728685	38.94615	124.709	0.3983687	-8.805253	0.09	3	100	0	6546	-3.377655	3.446598	-22.29266	
14:57:37	-6.728685	38.94615	124.676	0.8357806	10.74715	0.01	3	100	0	6546	-3.451944	3.433835	-22.27273	
14:57:37	-6.728685	38.94615	124.696	0.8357806	10.74715	0.11	3	100	0	6546	-3.340517	3.468015	-22.23004	
14:57:37	-6.728685	38.94615	124.708	0.8357806	10.74715	0.06	3	100	0	6546	-3.378808	3.372291	-22.14409	
14:57:37	-6.728685	38.94615	124.705	0.8357806	10.74715	0.04	3	100	0	6546	-3.295133	3.491084	-22.2187	
14:57:38	-6.728685	38.94615	124.74	0.8357806	10.74715	0.04	3	100	0	6546	-3.251684	3.440347	-22.27873	
14:57:38	-6.728685	38.94615	124.775	0.8357806	10.74715	0.06	3	100	0	6546	-3.255109	3.433568	-22.25852	
14:57:38	-6.728685	38.94615	124.855	0.8357806	10.74715	0.14	3	100	0	6546	-3.294551	3.482831	-22.29824	
14:57:38	-6.728685	38.94615	124.881	0.8357806	10.74715	0.06	3	100	0	6546	-3.181872	3.282765	-22.27793	
14:57:39	-6.728685	38.94615	124.878	0.8357806	10.74715	0.03	3	100	0	6546	-3.300925	3.486381	-22.31388	
14:57:39	-6.728685	38.94615	124.935	0.8357806	10.74715	0.07	3	100	0	6546	-3.278957	3.391005	-22.24801	
14:57:39	-6.728685	38.94615	125.007	1.033705	12.56289	0.09	3	100	0	6546	-3.284071	3.48857	-22.28337	
14:57:39	-6.728685	38.94615	125.012	1.033705	12.56289	0.09	3	100	0	6546	-3.244499	3.312486	-22.39154	
14:57:39	-6.728685	38.94615	124.999	1.033705	12.56289	0.07	3	100	0	6546	-3.17126	3.437666	-22.36139	
14:57:39	-6.728685	38.94615	124.958	1.033705	12.56289	0.07	3	100	0	6546	-3.203784	3.458886	-22.31314	
14:57:40	-6.728685	38.94615	124.969	1.033705	12.56289	0.09	3	100	0	6546	-3.189375	3.427509	-22.37926	
14:57:40	-6.728685	38.94615	125.018	1.1497	8.505926	0.08	3	100	0	6546	-3.210923	3.306034	-22.39534	
14:57:40	-6.728685	38.94615	125.05	1.1497	8.505926	0.07	3	100	0	6546	-3.223318	3.481751	-22.37373	
14:57:40	-6.728685	38.94615	125.173	1.1497	8.505926	0.07	3	100	0	6546	-3.274736	3.35417	-22.28585	
14:57:40	-6.728685	38.94615	125.27	1.1497	8.505926	0.14	3	100	0	6546	-3.319343	3.422103	-22.30262	
14:57:41	-6.728685	38.94615	125.338	1.1497	8.505926	0.06	3	100	0	6546	-3.134247	3.260086	-22.32921	
14:57:41	-6.728685	38.94615	125.348	0.8762739	-7.193942	0.07	3	100	0	6546	-3.290654	3.376579	-22.25552	
14:57:41	-6.728685	38.94615	125.322	0.8762739	-7.193942	0.03	3	100	0	6546	-3.291193	3.358195	-22.19111	
14:57:41	-6.728685	38.94615	125.379	0.8762739	-7.193942	0.03	3	100	0	6546	-3.204299	3.431179	-22.16778	
14:57:41	-6.728685	38.94615	125.387	0.8762739	-7.193942	0.08	3	100	0	6546	-3.262267	3.4089	-22.19942	
14:57:42	-6.728685	38.94615	125.342	0.8762739	-7.193942	0.06	3	100	0	6546	-3.193736	3.320946	-22.12268	
14:57:42	-6.728685	38.94615	125.328	0.4862587	-21.43206	0.08	3	100	0	6546	-3.161796	3.373703	-22.14664	
14:57:42	-6.728685	38.94615	125.351	0.4862587	-21.43206	0.08	3	100	0	6546	-3.126717	3.358823	-22.1522	
14:57:42	-6.728685	38.94616	125.4	0.4862587	-21.43206	0.06	3	100	0	6546	-3.211358	3.301668	-22.13419	
14:57:42	-6.728685	38.94616	125.438	0.4862587	-21.43206	0.04	3	100	0	6546	-3.188936	3.344394	-22.14889	
14:57:43	-6.728685	38.94616	125.439	0.4862587	-21.43206	0.02	3	100	0	6546	-3.225102	3.341933	-22.19088	
14:57:43	-6.728685	38.94616	125.472	0.3510249	-20.19016	0.06	3	100	0	6546	-3.238554	3.401225	-22.21197	
14:57:43	-6.728685	38.94616	125.512	0.3510249	-20.19016	0.01	3	100	0	6546	-3.297587	3.38788	-22.17435	
14:57:43	-6.728685	38.94616	125.568	0.3510249	-20.19016	0.04	3	100	0	6546	-3.229648	3.356937	-22.08132	
14:57:43	-6.728685	38.94616	125.671	0.3510249	-20.19016	0.08	3	100	0	6546	-3.241799	3.317008	-22.10474	
14:57:44	-6.728685	38.94616	125.708	0.3510249	-20.19016	0.04	3	100	0	6546	-3.263053	3.371027	-22.18759	
14:57:44	-6.728685	38.94616	125.743	0.3009832	-15.12772	0.06	3	100	0	6546	-3.259386	3.319152	-22.16043	
14:57:44	-6.728685	38.94616	125.783	0.3009832	-15.12772	0.03	3	100	0	6546	-3.13474	3.320772	-22.1936	
14:57:44	-6.728685	38.94616	125.811	0.3009832	-15.12772	0.06	3	100	0	6546	-3.18788	3.284326	-22.26672	
14:57:44	-6.728685	38.94616	125.881	0.3009832	-15.12772	0.07	3	100	0	6546	-3.209223	3.382151	-22.25237	
14:57:45	-6.728685	38.94616	125.93	0.3009832	-15.12772	0.04	3	100	0	6546	-3.154815	3.364	-22.19904	
14:57:45	-6.728685	38.94616	125.94	0.3130995	-8.655284	0.02	3	100	0	6546	-3.184611	3.308583	-22.24438	
14:57:45	-6.728685	38.94616	125.956	0.3130995	-8.655284	0.04	3	100	0	6546	-3.217075	3.308069	-22.20454	
14:57:45	-6.728685	38.94616	126.014	0.3130995	-8.655284	0.04	3	100	0	6546	-3.195298	3.316558	-22.19216	
14:57:45	-6.728685	38.94616	126.054	0.3130995	-8.655284	0.11	3	100	0	6546	-3.212654	3.230563	-22.16393	
14:57:46	-6.728685	38.94616	126.112	0.3130995	-8.655284	0.08	3	100	0	6546	-3.311819	3.180418	-22.22642	
14:57:46	-6.728686	38.94616	126.205	0.4802153	2.177549	0.01	3	100	0	6546	-3.265395	3.33248	-22.21111	
14:57:46	-6.728686	38.94616	126.301	0.4802153	2.177549	0.11	3	100	0	6546	-3.241369	3.237693	-22.18376	
14:57:46	-6.728686	38.94616	126.369	0.4802153	2.177549	0.06	3	100	0	6546	-3.276682	3.302748	-22.18746	
14:57:47	-6.728686	38.94616	126.435	0.4802153	2.177549	0.09	3	100	0	6546	-3.127315	3.144668	-22.1628	
14:57:47	-6.728687	38.94616	126.487	0.4802153	2.177549	0.04	3	100	0	6546	-3.059528	3.165562	-22.14418	
14:57:47	-6.728687	38.94616	126.48	0.6068009	5.738842	0.04	3	100	0	6546	-3.115415	3.25596	-22.12504	
14:57:47	-6.728687	38.94616	126.46	0.6068009	5.738842	0.07	3	100	0	6546	-3.146932	3.181172	-22.09048	
14:57:48	-6.728688	38.94616	126.522	0.6068009	5.738842	0.01	3	100	0	6546	-3.045033	3.20589	-22.08163	
14:57:48	-6.728688	38.94616	126.52	0.6068009	5.738842	0.04	3	100	0	6546	-3.106854	3.229399	-22.08334	
14:57:48	-6.728688	38.94616	126.453	0.6068009	5.738842	0.02	3	100	0	6546	-3.119009	3.301308	-22.00458	
14:57:48	-6.728688	38.94616	126.437	0.6172182	3.12694	0.03	3	100	0	6546	-3.119197	3.278877	-22.05626	
14:57:48	-6.728689	38.94616	126.473	0.6172182	3.12694	0.04	3	100	0	6546	-3.100567	3.305476	-22.07121	
14:57:48	-6.728689	38.94616	126.484	0.6172182	3.12694	0.09	3	100	0	6546	-3.145137	3.301246	-22.16012	
14:57:48	-6.728689	38.94616	126.414	0.6172182	3.12694	0.03	3	100	0	6546	-3.137768	3.363224	-22.10353	
14:57:49	-6.72869	38.94616	126.409	0.6172182	3.12694	0.04	3	100	0	6546	-3.119169	3.28157	-22.16609	
14:57:49	-6.72869	38.94616	126.412	0.5484402	-0.5576137	0.07	3	100	0	6546	-3.123851	3.277502	-22.19964	
14:57:49	-6.72869	38.94616	126.38	0.5484402	-0.5576137	0.03	3	100	0	6546	-3.05755	3.231213	-22.27449	
14:57:49	-6.72869	38.94616	126.396	0.5484402	-0.5576137	0.02	3	100	0	6546	-3.103628	3.282707	-22.24199	
14:57:49	-6.72869	38.94616	126.395	0.5484402	-0.5576137	0.09	3	100	0	6546	-3.124948	3.318806	-22.29242	
14:57:50	-6.72869	38.94616	126.326	0.5484402	-0.5576137	0.04	3	100	0	6546	-3.185831	3.354016	-22.2787	
14:57:50	-6.72869	38.94616	126.324	0.5448515	-0.2596511	0.14	3	100	0	6545	-3.128316	3.354715	-22.25093	
14:57:50	-6.72869	38.94616	126.296	0.5448515	-0.2596511	0.09	3	100	0	6545	-3.077693	3.456365	-22.26266	
14:57:50	-6.728691	38.94616	126.297	0.5448515	-0.2596511	0.07	3	100	0	6545	-3.140337	3.359488	-22.24446	
14:57:50	-6.728691	38.94616	126.317	0.5448515	-0.2596511	0.11	3	100	0	6545	-3.091836	3.257432	-22.21676	
14:57:51	-6.728691	38.94616	126.364	0.5448515	-0.2596511	0.03	3	100	0	6545	-3.114085	3.36316	-22.27713	
14:57:51	-6.728691	38.94616	126.297	0.5755123	1.046828	0.09	3	100	0	6546	-3.054845	3.30483	-22.25916	
14:57:51	-6.728691	38.94616	126.265	0.5755123	1.046828	0.11	3	100	0	6546	-3.136568	3.274159	-22.20888	
14:57:51	-6.728691	38.94616	126.238	0.5755123	1.046828	0.07	3	100	0	6546	-3.147762	3.285609	-22.26897	
14:57:51	-6.728691	38.94616	126.229	0.5755123	1.046828	0.08	3	100	0	6546	-3.096098	3.298737	-22.18695	
14:57:52	-6.728691	38.94616	126.231	0.5755123	1.046828	0.02	3	100	0	6546	-3.086178	3.274949	-22.17542	
14:57:52	-6.728691	38.94616	126.171	0.4320749	-6.042953	0.16	3	100	0	6546	-3.043294	3.306138	-22.21594	
14:57:52	-6.728691	38.94616	126.171	0.4320749	-6.042953	0.08	3	100	0	6546	-3.180779	3.329243	-22.22122	
14:57:52	-6.728691	38.94616	126.145	0.4320749	-6.042953	0.12	3	100	0	6546	-3.0524	3.39348	-22.17997	
14:57:53	-6.728691	38.94616	126.138	0.4320749	-6.042953	0.09	3	100	0	6546	-3.122685	3.24946	-22.25529	
14:57:53	-6.728691	38.94616	126.141	0.4320749	-6.042953	0.17	3	100	0	6546	-3.081381	3.402764	-22.22075	
14:57:53	-6.728691	38.94616	126.024	0.2531269	-11.26766	0.04	3	100	0	6546	-3.247367	3.302588	-22.16283	
14:57:53	-6.728691	38.94616	125.957	0.2531269	-11.26766	0.19	3	100	0	6546	-3.163999	3.300426	-22.18437	
14:57:53	-6.728691	38.94616	125.96	0.2531269	-11.26766	0.06	3	100	0	6546	-3.314	3.397408	-22.19916	
14:57:54	-6.728691	38.94616	125.963	0.2531269	-11.26766	0.03	3	100	0	6546	-3.192168	3.334504	-22.12663	
14:57:54	-6.728691	38.94616	125.989	0.2531269	-11.26766	0.08	3	100	0	6546	-3.152359	3.342468	-22.03619	
14:57:54	-6.728691	38.94616	125.956	0.4734176	3.873693	0.14	3	100	0	6546	-3.214643	3.302558	-22.0113	
14:57:54	-6.728691	38.94616	125.959	0.4734176	3.873693	0.04	3	100	0	6546	-3.225353	3.420592	-22.00145	
14:57:55	-6.728691	38.94616	125.992	0.4734176	3.873693	0.01	3	100	0	6546	-3.103341	3.322845	-21.99409	
14:57:55	-6.728691	38.94616	125.987	0.4734176	3.873693	0.12	3	100	0	6546	-3.159206	3.324173	-21.97913	
14:57:55	-6.728691	38.94616	126.025	0.4734176	3.873693	0.06	3	100	0	6546	-3.250248	3.310093	-21.94631	
14:57:55	-6.728691	38.94616	125.993	0.5860592	5.486804	0.02	3	100	0	6546	-3.1643	3.394819	-21.97065	
14:57:55	-6.728691	38.94616	125.99	0.5860592	5.486804	0.04	3	100	0	6546	-3.147887	3.379821	-21.98403	
14:57:56	-6.728691	38.94616	126.006	0.5860592	5.486804	0.04	3	100	0	6546	-3.184883	3.393114	-21.95202	
14:57:56	-6.728691	38.94616	126.008	0.5860592	5.486804	0.02	3	100	0	6546	-3.16361	3.396028	-21.96801	
14:57:56	-6.728691	38.94616	126.003	0.5860592	5.486804	0.04	3	100	0	6546	-3.14716	3.372138	-21.93647	
14:57:56	-6.728691	38.94616	126.02	0.4628093	-3.01969	0.03	3	100	0	6546	-3.130265	3.402184	-21.92452	
14:57:56	-6.728691	38.94616	126.061	0.4628093	-3.01969	0.08	3	100	0	6546	-3.133075	3.383471	-21.90202	
14:57:56	-6.728691	38.94616	126.054	0.4628093	-3.01969	0.04	3	100	0	6546	-3.067955	3.376272	-21.86661	
14:57:56	-6.728691	38.94616	126.111	0.4628093	-3.01969	0.11	3	100	0	6546	-3.124202	3.3398	-21.84194	
14:57:57	-6.728691	38.94616	126.147	0.4628093	-3.01969	0.08	3	100	0	6546	-3.025877	3.399518	-21.88117	
14:57:57	-6.728691	38.94616	126.166	0.3138479	-8.366188	0.04	3	100	0	6546	-3.073518	3.319959	-21.98236	
14:57:57	-6.728691	38.94616	126.152	0.3138479	-8.366188	0.06	3	100	0	6546	-3.140362	3.354697	-22.03445	
14:57:57	-6.728691	38.94616	126.24	0.3138479	-8.366188	0.04	3	100	0	6546	-3.171588	3.293113	-22.00646	
14:57:58	-6.728691	38.94616	126.237	0.3138479	-8.366188	0.12	3	100	0	6546	-3.235627	3.383864	-22.04757	
14:57:58	-6.728691	38.94616	126.264	0.3138479	-8.366188	0.11	3	100	0	6546	-3.308656	3.375251	-22.10966	
14:57:58	-6.728691	38.94616	126.264	0.1167819	-13.50356	0.04	3	100	0	6546	-3.278879	3.341523	-22.04345	
14:57:58	-6.728691	38.94616	126.21	0.1167819	-13.50356	0.03	3	100	0	6546	-3.171881	3.345258	-22.06146	
14:57:58	-6.728691	38.94616	126.184	0.1167819	-13.50356	0.02	3	100	0	6546	-3.167444	3.301191	-22.0718	
14:57:58	-6.728691	38.94616	126.118	0.1167819	-13.50356	0.04	3	100	0	6546	-3.155712	3.338263	-22.09545	
14:57:59	-6.728691	38.94616	126.092	0.1167819	-13.50356	0.11	3	100	0	6546	-3.13109	3.270913	-22.16393	
14:57:59	-6.728691	38.94616	126.079	0.156991	-5.633124	0.06	3	100	0	6546	-3.067518	3.271602	-22.13309	
14:57:59	-6.728691	38.94616	126.092	0.156991	-5.633124	0.03	3	100	0	6546	-3.133156	3.249669	-22.18457	
14:57:59	-6.728691	38.94616	126.067	0.156991	-5.633124	0.07	3	100	0	6546	-3.125308	3.279379	-22.16851	
14:58:00	-6.728691	38.94616	126.022	0.156991	-5.633124	0.11	3	100	0	6546	-3.073211	3.292903	-22.21013	
14:58:00	-6.728691	38.94616	126.028	0.156991	-5.633124	0.09	3	100	0	6546	-3.051451	3.322192	-22.1781	
14:58:00	-6.728691	38.94616	125.999	0.3376751	4.174743	0.09	3	100	0	6546	-3.088565	3.266837	-22.21447	
14:58:00	-6.728691	38.94616	125.919	0.3376751	4.174743	0.03	3	100	0	6546	-3.202465	3.198947	-22.22695	
14:58:00	-6.728691	38.94616	125.902	0.3376751	4.174743	0.09	3	100	0	6546	-3.151327	3.24767	-22.31439	
14:58:01	-6.728691	38.94616	125.881	0.3376751	4.174743	0.09	3	100	0	6546	-3.073948	3.223045	-22.26567	
14:58:01	-6.728691	38.94616	125.909	0.3376751	4.174743	0.04	3	100	0	6546	-3.046523	3.300439	-22.24389	
14:58:01	-6.728691	38.94616	125.938	0.4671246	8.424866	0.08	3	100	0	6546	-3.090318	3.31405	-22.191	
14:58:01	-6.728691	38.94616	125.892	0.4671246	8.424866	0.12	3	100	0	6546	-3.069108	3.330574	-22.19642	
14:58:01	-6.728691	38.94616	125.88	0.4671246	8.424866	0.02	3	100	0	6546	-3.120956	3.428817	-22.16845	
14:58:02	-6.728691	38.94616	125.836	0.4671246	8.424866	0.06	3	100	0	6546	-3.166572	3.332392	-22.2543	
14:58:02	-6.728691	38.94616	125.835	0.4671246	8.424866	0.13	3	100	0	6546	-3.164667	3.373776	-22.27098	
14:58:02	-6.728691	38.94616	125.815	0.3162106	-1.645149	0.03	3	100	0	6546	-3.082743	3.399691	-22.3107	
14:58:02	-6.728691	38.94616	125.832	0.3162106	-1.645149	0.04	3	100	0	6546	-3.097522	3.299997	-22.27419	
14:58:02	-6.728691	38.94616	125.85	0.3162106	-1.645149	0.06	3	100	0	6546	-3.148786	3.275225	-22.29198	
14:58:02	-6.728691	38.94616	125.855	0.3162106	-1.645149	0.03	3	100	0	6546	-3.165889	3.331339	-22.32597	
14:58:03	-6.728691	38.94616	125.813	0.3162106	-1.645149	0.06	3	100	0	6546	-3.101536	3.272405	-22.28277	
14:58:03	-6.728691	38.94616	125.752	0.4374112	5.600704	0.02	3	100	0	6546	-3.060235	3.269272	-22.262	
14:58:03	-6.728691	38.94616	125.768	0.4374112	5.600704	0	3	100	0	6546	-3.111927	3.29165	-22.33986	
14:58:03	-6.728691	38.94616	125.752	0.4374112	5.600704	0.09	3	100	0	6546	-3.10024	3.269268	-22.35608	
14:58:04	-6.728691	38.94616	125.701	0.4374112	5.600704	0.02	3	100	0	6546	-3.112533	3.225925	-22.36157	
14:58:04	-6.728691	38.94616	125.697	0.4374112	5.600704	0.09	3	100	0	6546	-3.068299	3.268169	-22.31928	
14:58:04	-6.728691	38.94616	125.734	0.5886555	9.726424	0.04	3	100	0	6546	-3.068109	3.249318	-22.33971	
14:58:04	-6.728691	38.94616	125.739	0.5886555	9.726424	0.07	3	100	0	6546	-3.119367	3.291337	-22.30164	
14:58:05	-6.728691	38.94616	125.744	0.5886555	9.726424	0.04	3	100	0	6546	-3.139428	3.307904	-22.32198	
14:58:05	-6.728691	38.94616	125.747	0.5886555	9.726424	0.04	3	100	0	6546	-3.119268	3.365182	-22.41093	
14:58:05	-6.728691	38.94616	125.705	0.5886555	9.726424	0.09	3	100	0	6546	-3.126313	3.346198	-22.39818	
14:58:05	-6.728691	38.94616	125.713	0.3458719	-5.099916	0.04	3	100	0	6546	-3.194234	3.201731	-22.47182	
14:58:05	-6.728691	38.94616	125.713	0.3458719	-5.099916	0.04	3	100	0	6546	-3.171876	3.286776	-22.45787	
14:58:05	-6.728691	38.94616	125.677	0.3458719	-5.099916	0.02	3	100	0	6546	-3.125197	3.360653	-22.43966	
14:58:05	-6.728691	38.94616	125.614	0.3458719	-5.099916	0.04	3	100	0	6546	-3.148691	3.320276	-22.48127	
14:58:06	-6.728691	38.94616	125.57	0.3458719	-5.099916	0.08	3	100	0	6546	-3.176883	3.315135	-22.45417	
14:58:06	-6.728691	38.94616	125.586	0.6373849	11.82949	0.07	3	100	0	6546	-3.175718	3.342533	-22.50569	
14:58:06	-6.728691	38.94616	125.542	0.6373849	11.82949	0.11	3	100	0	6546	-3.226581	3.242223	-22.58952	
14:58:06	-6.728691	38.94616	125.515	0.6373849	11.82949	0.04	3	100	0	6546	-3.218266	3.279466	-22.62078	
14:58:07	-6.728691	38.94616	125.471	0.6373849	11.82949	0.04	3	100	0	6546	-3.145574	3.297601	-22.59879	
14:58:07	-6.728691	38.94616	125.467	0.6373849	11.82949	0.07	3	100	0	6546	-3.12496	3.291075	-22.59802	
14:58:07	-6.728692	38.94616	125.454	0.8597991	16.43665	0.01	3	100	0	6546	-3.080644	3.335339	-22.61915	
14:58:07	-6.728692	38.94616	125.483	0.8597991	16.43665	0.06	3	100	0	6546	-3.105585	3.301135	-22.60516	
14:58:07	-6.728692	38.94616	125.52	0.8597991	16.43665	0.03	3	100	0	6546	-3.096344	3.27486	-22.67501	
14:58:08	-6.728691	38.94616	125.55	0.8597991	16.43665	0.08	3	100	0	6546	-3.07277	3.259845	-22.68816	
14:58:08	-6.728691	38.94616	125.579	0.8597991	16.43665	0.11	3	100	0	6546	-3.077128	3.237291	-22.66911	
14:58:08	-6.728691	38.94616	125.563	0.8137345	7.821177	0.02	3	100	0	6546	-3.112915	3.277009	-22.73005	
14:58:08	-6.728691	38.94616	125.619	0.8137345	7.821177	0.04	3	100	0	6546	-3.094173	3.391257	-22.73284	
14:58:09	-6.728691	38.94616	125.655	0.8137345	7.821177	0.04	3	100	0	6546	-3.090412	3.413936	-22.64125	
14:58:09	-6.728691	38.94616	125.685	0.8137345	7.821177	0.04	3	100	0	6546	-3.043719	3.411429	-22.67891	
14:58:09	-6.728691	38.94616	125.691	0.8137345	7.821177	0.02	3	100	0	6546	-3.017728	3.381453	-22.62576	
14:58:09	-6.728691	38.94616	125.73	0.7966164	4.000373	0.03	3	100	0	6546	-3.042454	3.337253	-22.65349	
14:58:09	-6.728691	38.94616	125.749	0.7966164	4.000373	0.04	3	100	0	6546	-3.021154	3.34196	-22.70804	
14:58:09	-6.728691	38.94616	125.745	0.7966164	4.000373	0.06	3	100	0	6546	-3.074785	3.364361	-22.79885	
14:58:10	-6.728691	38.94616	125.809	0.7966164	4.000373	0.04	3	100	0	6546	-3.099334	3.328723	-22.81857	
14:58:10	-6.728691	38.94616	125.88	0.7966164	4.000373	0.04	3	100	0	6546	-3.033937	3.339192	-22.79521	
14:58:10	-6.728691	38.94616	125.881	0.7414739	0.03302039	0.04	3	100	0	6546	-3.035349	3.354172	-22.76974	
14:58:10	-6.728691	38.94616	125.99	0.7414739	0.03302039	0.09	3	100	0	6546	-3.105138	3.376291	-22.70117	
14:58:10	-6.728691	38.94616	126.015	0.7414739	0.03302039	0.04	3	100	0	6546	-3.089823	3.394166	-22.71815	
14:58:11	-6.728691	38.94616	126.028	0.7414739	0.03302039	0.02	3	100	0	6546	-3.035793	3.348378	-22.80819	
14:58:11	-6.728691	38.94616	126.031	0.7414739	0.03302039	0.07	3	100	0	6546	-3.025885	3.386516	-22.76529	
14:58:11	-6.728691	38.94616	126.023	0.6164399	-5.844434	0.04	3	100	0	6546	-3.021194	3.384333	-22.75871	
14:58:11	-6.728691	38.94616	126.006	0.6164399	-5.844434	0.04	3	100	0	6546	-3.060769	3.308313	-22.78222	
14:58:11	-6.728691	38.94616	126.009	0.6164399	-5.844434	0.04	3	100	0	6546	-3.052027	3.30452	-22.74846	
14:58:12	-6.728691	38.94616	126.04	0.6164399	-5.844434	0.08	3	100	0	6546	-3.042753	3.353207	-22.78017	
14:58:12	-6.728691	38.94616	126.071	0.6164399	-5.844434	0.09	3	100	0	6546	-3.033658	3.410975	-22.7483	
14:58:12	-6.728691	38.94616	126.091	0.3023376	-15.86205	0.04	3	100	0	6546	-3.067893	3.352533	-22.74474	
14:58:12	-6.728691	38.94616	126.164	0.3023376	-15.86205	0.11	3	100	0	6546	-3.013022	3.21794	-22.76744	
14:58:12	-6.728691	38.94616	126.197	0.3023376	-15.86205	0.08	3	100	0	6546	-3.011067	3.185179	-22.8117	
