Date	Latitude(deg) 	Longitude(deg)	hamsl(m)	hafl(m)	climbrate(cm/s)	GroundSpeed(m/s)	Airspeed(m/s)	Mav_Link(%)	Rssi_Link(%)	Throttle	Roll(deg)	Pitch(deg)	Yaw(deg)
17:01:08	0	0	0	0	0	0	0	100	0	0	0	0	0	
17:01:09	0	0	0	0	0	0	0	100	0	0	0.01663922	-0.887871	4.671201	
17:01:09	0	0	0	0	0	0	0	100	0	0	2.625678E-05	-0.9000981	4.702993	
17:01:09	0	0	0	0	0	0	0	100	0	0	-0.001840876	-0.9246645	4.79706	
17:01:09	0	0	0	0	0	0	0	100	0	0	-0.01227812	-0.9425677	4.782793	
17:01:09	0	0	0	0.2644252	5.548079	0	3	100	0	50	-0.01787493	-0.9700024	4.732949	
17:01:10	0	0	0	0.2644252	5.548079	0	3	100	0	50	-0.01064243	-0.9674948	4.672548	
17:01:10	0	0	0	0.2644252	5.548079	0	3	100	0	50	0.02211294	-0.9264194	4.7377	
17:01:10	0	0	0	0.2644252	5.548079	0	3	100	0	50	0.03670137	-0.9407005	4.745749	
17:01:10	0	0	0	0.2644252	5.548079	0	3	100	0	50	0.03247857	-0.9476052	4.661434	
17:01:10	0	0	0	0.8737084	10.57315	0	3	100	0	50	0.01593104	-0.9393551	4.735848	
17:01:11	0	0	0	0.8737084	10.57315	0	3	100	0	50	0.001857953	-0.9237361	4.7155	
17:01:11	0	0	0	0.8737084	10.57315	0	3	100	0	50	0.03596456	-0.9315868	4.752046	
17:01:11	0	0	0	0.8737084	10.57315	0	3	100	0	50	0.03226845	-0.9196512	4.83287	
17:01:11	0	0	0	0.8737084	10.57315	0	3	100	0	50	0.04912949	-0.8861318	4.817992	
17:01:11	0	0	0	0.1233047	-40.28716	0	3	100	0	50	0.06237064	-0.8961765	4.817212	
17:01:12	0	0	0	0.1233047	-40.28716	0	3	100	0	50	0.03382989	-0.9259469	4.785407	
17:01:12	0	0	0	0.1233047	-40.28716	0	3	100	0	50	0.02134506	-0.9094428	4.738267	
17:01:12	0	0	0	0.1233047	-40.28716	0	3	100	0	50	-4.127981E-05	-0.9090164	4.682654	
17:01:12	0	0	0	0.1233047	-40.28716	0	3	100	0	50	0.0143125	-0.9063291	4.676619	
17:01:12	0	0	0	-0.615334	-65.94675	0	3	100	0	50	0.01336325	-0.9010822	4.705354	
17:01:13	0	0	0	-0.615334	-65.94675	0	3	100	0	50	-0.008525118	-0.916265	4.78826	
17:01:13	0	0	0	-0.615334	-65.94675	0	3	100	0	50	0.01092348	-0.8808326	4.802294	
17:01:13	0	0	0	-0.615334	-65.94675	0	3	100	0	50	0.03435553	-0.8779639	4.754196	
17:01:13	0	0	0	-0.615334	-65.94675	0	3	100	0	50	0.04188293	-0.8745335	4.757707	
17:01:13	0	0	0	-0.7238369	-53.57949	0	3	100	0	50	0.03733711	-0.8831902	4.766682	
17:01:14	0	0	0	-0.7238369	-53.57949	0	3	100	0	50	0.03427136	-0.8693924	4.772849	
17:01:14	0	0	0	-0.7238369	-53.57949	0	3	100	0	50	0.03388409	-0.8688659	4.7743	
17:01:14	0	0	0	-0.7238369	-53.57949	0	3	100	0	50	0.01635363	-0.8929268	4.792869	
17:01:14	0	0	0	-0.7238369	-53.57949	0	3	100	0	50	0.0153874	-0.891502	4.807429	
17:01:14	0	0	0	-0.6117032	-37.19644	0	3	100	0	50	0.01129756	-0.902456	4.798727	
17:01:15	0	0	0	-0.6117032	-37.19644	0	3	100	0	50	0.01295054	-0.9156941	4.807661	
17:01:15	0	0	0	-0.6117032	-37.19644	0	3	100	0	50	0.01062621	-0.920972	4.81659	
17:01:15	0	0	0	-0.6117032	-37.19644	0	3	100	0	50	0.01166058	-0.9144586	4.824732	
17:01:15	0	0	0	-0.6117032	-37.19644	0	3	100	0	50	0.007222589	-0.9103242	4.829989	
17:01:15	0	0	0	-0.5403032	-29.12814	0	3	100	0	50	0.01543059	-0.8966929	4.837139	
17:01:16	0	0	0	-0.5403032	-29.12814	0	3	100	0	50	0.02002998	-0.9299127	4.822801	
17:01:16	0	0	0	-0.5403032	-29.12814	0	3	100	0	50	0.02405871	-0.9222531	4.819222	
17:01:16	0	0	0	-0.5403032	-29.12814	0	3	100	0	50	0.03422118	-0.9114339	4.82215	
17:01:16	0	0	0	-0.5403032	-29.12814	0	3	100	0	50	0.02415243	-0.9091125	4.813918	
17:01:16	0	0	0	-0.5751472	-28.73394	0	3	100	0	50	0.0372523	-0.8998716	4.811217	
17:01:17	0	0	0	-0.5751472	-28.73394	0	3	100	0	50	0.01430239	-0.8962386	4.797734	
17:01:17	0	0	0	-0.5751472	-28.73394	0	3	100	0	50	0.02824058	-0.8976808	4.804999	
17:01:17	0	0	0	-0.5751472	-28.73394	0	3	100	0	50	0.01073951	-0.8994017	4.800729	
17:01:17	0	0	0	-0.5751472	-28.73394	0	3	100	0	50	0.01916176	-0.8992351	4.798484	
17:01:18	0	0	0	-0.6869515	-28.8772	0	3	100	0	50	0.01507236	-0.9075336	4.790362	
17:01:18	0	0	0	-0.6869515	-28.8772	0	3	100	0	50	0.02771396	-0.9056419	4.793855	
17:01:18	0	0	0	-0.6869515	-28.8772	0	3	100	0	50	0.02677083	-0.9215623	4.774625	
17:01:18	0	0	0	-0.6869515	-28.8772	0	3	100	0	50	0.02831903	-0.9266547	4.782251	
17:01:18	0	0	0	-0.6869515	-28.8772	0	3	100	0	50	0.02382882	-0.9393631	4.780882	
17:01:19	0	0	0	-0.7483363	-26.54186	0	3	100	0	50	0.01873507	-0.9442214	4.784575	
17:01:19	0	0	0	-0.7483363	-26.54186	0	3	100	0	50	0.02673012	-0.9469573	4.783036	
17:01:19	0	0	0	-0.7483363	-26.54186	0	3	100	0	50	0.03842058	-0.9427596	4.7914	
17:01:19	0	0	0	-0.7483363	-26.54186	0	3	100	0	50	0.04361895	-0.959653	4.795087	
17:01:19	0	0	0	-0.7483363	-26.54186	0	3	100	0	50	0.02357809	-0.9710357	4.791092	
17:01:20	0	0	0	-0.8339334	-26.60857	0	3	100	0	50	0.02924226	-0.9664097	4.789214	
17:01:20	0	0	0	-0.8339334	-26.60857	0	3	100	0	50	0.00455773	-0.9751238	4.791559	
17:01:20	0	0	0	-0.8339334	-26.60857	0	3	100	0	50	0.0184848	-0.9702297	4.794088	
17:01:20	0	0	0	-0.8339334	-26.60857	0	3	100	0	50	0.008029349	-0.9642044	4.784147	
17:01:20	0	0	0	-0.8339334	-26.60857	0	3	100	0	50	0.008371895	-0.9614259	4.785201	
17:01:21	0	0	0	-0.937048	-27.29083	0	3	100	0	50	0.02083846	-0.9731395	4.773264	
17:01:21	0	0	0	-0.937048	-27.29083	0	3	100	0	50	0.02482881	-0.9782383	4.764116	
17:01:21	0	0	0	-0.937048	-27.29083	0	3	100	0	50	0.02196121	-1.00245	4.757987	
17:01:21	0	0	0	-0.937048	-27.29083	0	3	100	0	50	0.01662701	-1.014313	4.76342	
17:01:21	0	0	0	-0.937048	-27.29083	0	3	100	0	50	0.01199483	-1.019057	4.767478	
17:01:22	0	0	0	-0.9700598	-23.03068	0	3	100	0	50	0.02336598	-1.013012	4.772799	
17:01:22	0	0	0	-0.9700598	-23.03068	0	3	100	0	50	0.02694308	-1.029477	4.773451	
17:01:22	0	0	0	-0.9700598	-23.03068	0	3	100	0	50	0.01847333	-1.03288	4.76885	
17:01:22	0	0	0	-0.9700598	-23.03068	0	3	100	0	50	0.02271153	-1.018248	4.775654	
17:01:22	0	0	0	-0.9700598	-23.03068	0	3	100	0	50	0.02821094	-1.025397	4.779919	
17:01:23	0	0	0	-0.790062	-11.94495	0	3	100	0	50	0.02223384	-1.03422	4.762882	
17:01:23	0	0	0	-0.790062	-11.94495	0	3	100	0	50	0.02145553	-1.035673	4.753132	
17:01:23	0	0	0	-0.790062	-11.94495	0	3	100	0	50	0.02032612	-1.037328	4.7375	
17:01:23	0	0	0	-0.790062	-11.94495	0	3	100	0	50	0.02344714	-1.021913	4.746229	
17:01:23	0	0	0	-0.790062	-11.94495	0	3	100	0	50	0.02578808	-1.010511	4.749905	
17:01:24	0	0	0	-0.713742	-10.2738	0	3	100	0	50	0.02149354	-1.001859	4.756304	
17:01:24	0	0	0	-0.713742	-10.2738	0	3	100	0	50	0.01305098	-1.002723	4.741354	
17:01:24	0	0	0	-0.713742	-10.2738	0	3	100	0	50	0.01974497	-0.985378	4.748078	
17:01:24	0	0	0	-0.713742	-10.2738	0	3	100	0	50	0.02887335	-0.984054	4.748868	
17:01:24	0	0	0	-0.713742	-10.2738	0	3	100	0	50	-0.06654842	-0.9984339	4.748361	
17:01:25	0	0	0	-0.755788	-13.26995	0	3	100	0	50	-0.07036009	-1.01027	4.761076	
17:01:25	0	0	0	-0.755788	-13.26995	0	3	100	0	50	-0.07138252	-1.014595	4.765994	
17:01:25	0	0	0	-0.755788	-13.26995	0	3	100	0	50	-0.03750884	-1.008408	4.757098	
17:01:25	0	0	0	-0.755788	-13.26995	0	3	100	0	50	-0.01302454	-1.015122	4.754216	
17:01:25	0	0	0	-0.755788	-13.26995	0	3	100	0	50	-0.007386065	-1.028776	4.754118	
17:01:26	0	0	0	-0.6960185	-9.306888	0	3	100	0	50	-6.835956E-05	-1.027291	4.754971	
17:01:26	0	0	0	-0.6960185	-9.306888	0	3	100	0	50	-0.01030913	-1.033843	4.761171	
17:01:26	0	0	0	-0.6960185	-9.306888	0	3	100	0	50	-0.01217183	-1.035795	4.781124	
17:01:26	0	0	0	-0.6960185	-9.306888	0	3	100	0	50	-0.0209052	-1.039803	4.791087	
17:01:26	0	0	0	-0.6960185	-9.306888	0	3	100	0	50	-0.004061834	-1.011834	4.357923	
17:01:27	0	0	0	-0.4560558	0.4343047	0	3	100	0	50	0.02678243	-1.0178	3.442085	
17:01:27	0	0	0	-0.4560558	0.4343047	0	3	100	0	50	0.06620397	-1.01538	2.461727	
17:01:27	0	0	0	-0.4560558	0.4343047	0	3	100	0	50	0.0862544	-0.998199	1.998075	
17:01:27	0	0	0	-0.4560558	0.4343047	0	3	100	0	50	0.1048661	-0.9751067	1.459206	
17:01:27	0	0	0	-0.4560558	0.4343047	0	3	100	0	50	0.1046795	-0.9563469	1.385828	
17:01:28	0	0	0	-0.5415915	-10.36217	0	3	100	0	50	0.1445176	-0.960282	1.362667	
17:01:28	0	0	0	-0.5415915	-10.36217	0	3	100	0	50	0.09980863	-0.9437115	1.342009	
17:01:28	0	0	0	-0.5415915	-10.36217	0	3	100	0	50	0.1028311	-0.9368773	1.326386	
17:01:28	0	0	0	-0.5415915	-10.36217	0	3	100	0	50	0.1074145	-0.9138269	1.306446	
17:01:28	0	0	0	-0.5415915	-10.36217	0	3	100	0	50	0.1135353	-0.8980787	1.301411	
17:01:29	0	0	0	-0.5562314	-9.786717	0	3	100	0	50	0.105349	-0.8911607	1.297587	
17:01:29	0	0	0	-0.5562314	-9.786717	0	3	100	0	50	0.1002724	-0.9002244	1.290791	
17:01:29	0	0	0	-0.5562314	-9.786717	0	3	100	0	50	0.09984005	-0.8959575	1.284243	
17:01:29	0	0	0	-0.5562314	-9.786717	0	3	100	0	50	0.1920811	-0.8681906	0.5491014	
17:01:29	0	0	0	-0.5562314	-9.786717	0	3	100	0	50	0.1509338	-0.8514065	0.5263011	
17:01:30	0	0	0	-0.3434666	1.28755	0	3	100	0	50	0.1481686	-0.8493736	0.5119551	
17:01:30	0	0	0	-0.3434666	1.28755	0	3	100	0	50	0.1614422	-0.8397256	0.4847476	
17:01:30	0	0	0	-0.3434666	1.28755	0	3	100	0	50	0.1574486	-0.8304448	0.4731947	
17:01:30	0	0	0	-0.3434666	1.28755	0	3	100	0	50	0.1603469	-0.8257107	0.4564054	
17:01:30	0	0	0	-0.3434666	1.28755	0	3	100	0	50	0.1496595	-0.835157	0.434509	
17:01:31	0	0	0	-0.2707625	0.9575331	0	3	100	0	50	0.1416418	-0.852056	0.4097651	
17:01:31	0	0	0	-0.2707625	0.9575331	0	3	100	0	50	0.1399916	-0.8659198	0.3944775	
17:01:31	0	0	0	-0.2707625	0.9575331	0	3	100	0	50	0.1397728	-0.8683637	0.3906858	
17:01:31	0	0	0	-0.2707625	0.9575331	0	3	100	0	50	0.1379864	-0.8680152	0.3671944	
17:01:31	0	0	0	-0.2707625	0.9575331	0	3	100	0	50	0.1261554	-0.8834322	0.3680126	
17:01:32	0	0	0	-0.1438773	2.789633	0	3	100	0	50	0.1189868	-0.8847542	0.3640276	
17:01:32	0	0	0	-0.1438773	2.789633	0	3	100	0	50	0.1136882	-0.8864965	0.3440921	
17:01:32	0	0	0	-0.1438773	2.789633	0	3	100	0	50	0.1040572	-0.8829738	0.3335856	
17:01:32	0	0	0	-0.1438773	2.789633	0	3	100	0	50	0.0978557	-0.8761965	0.3268757	
17:01:33	0	0	0	-0.1438773	2.789633	0	3	100	0	50	0.09468948	-0.8869451	0.3196245	
17:01:33	0	0	0	-0.1463834	-2.199313	0	3	100	0	50	0.1033359	-0.8731173	0.3160239	
17:01:33	0	0	0	-0.1463834	-2.199313	0	3	100	0	50	0.09679019	-0.8819812	0.3195772	
17:01:33	0	0	0	-0.1463834	-2.199313	0	3	100	0	50	0.05193734	-0.8906919	0.3080758	
17:01:33	0	0	0	-0.1463834	-2.199313	0	3	100	0	50	0.02356606	-0.8933095	0.2999758	
17:01:34	0	0	0	-0.1463834	-2.199313	0	3	100	0	50	0.03733111	-0.875587	0.3052781	
17:01:34	0	0	0	-0.3884819	-13.48252	0	3	100	0	50	0.03059017	-0.8871859	0.2983069	
17:01:34	0	0	0	-0.3884819	-13.48252	0	3	100	0	50	0.02663853	-0.8689417	0.2888481	
17:01:34	0	0	0	-0.3884819	-13.48252	0	3	100	0	50	0.06357177	-0.8436134	0.3041468	
17:01:34	0	0	0	-0.3884819	-13.48252	0	3	100	0	50	0.07526691	-0.8480496	0.301271	
17:01:35	0	0	0	-0.3884819	-13.48252	0	3	100	0	50	0.08324518	-0.8386701	0.2985984	
17:01:35	0	0	0	-0.4950002	-16.15498	0	3	100	0	50	0.09892967	-0.8327142	0.2822876	
17:01:35	0	0	0	-0.4950002	-16.15498	0	3	100	0	50	0.1080616	-0.8178332	0.2616216	
17:01:35	0	0	0	-0.4950002	-16.15498	0	3	100	0	50	0.1062021	-0.81177	0.2574771	
17:01:35	0	0	0	-0.4950002	-16.15498	0	3	100	0	50	0.1143971	-0.783913	0.2594249	
17:01:36	0	0	0	-0.4950002	-16.15498	0	3	100	0	50	0.1239396	-0.7630093	0.2688565	
17:01:36	0	0	0	-0.2645062	-2.180726	0	3	100	0	50	0.1245473	-0.7528757	0.2462176	
17:01:36	0	0	0	-0.2645062	-2.180726	0	3	100	0	50	0.118751	-0.7498027	0.2335605	
17:01:36	0	0	0	-0.2645062	-2.180726	0	3	100	0	50	0.1124911	-0.7354279	0.2229361	
17:01:36	0	0	0	-0.2645062	-2.180726	0	3	100	0	50	0.1235533	-0.7302047	0.2280176	
17:01:37	0	0	0	-0.2645062	-2.180726	0	3	100	0	50	0.1161639	-0.7458314	0.2144883	
17:01:37	0	0	0	-0.1199717	2.107313	0	3	100	0	50	0.1211157	-0.738737	0.2091561	
17:01:37	0	0	0	-0.1199717	2.107313	0	3	100	0	50	0.1149684	-0.7498533	0.1924575	
17:01:37	0	0	0	-0.1199717	2.107313	0	3	100	0	50	0.1214199	-0.7521804	0.1991082	
17:01:37	0	0	0	-0.1199717	2.107313	0	3	100	0	50	0.1175783	-0.7541618	0.2021876	
17:01:38	0	0	0	-0.1199717	2.107313	0	3	100	0	50	0.1314271	-0.7515434	0.2041929	
17:01:38	0	0	0	-0.3406372	-10.37114	0	3	100	0	50	0.1281703	-0.7493104	0.1844787	
17:01:38	0	0	0	-0.3406372	-10.37114	0	3	100	0	50	0.1241317	-0.7509093	0.1668371	
17:01:38	0	0	0	-0.3406372	-10.37114	0	3	100	0	50	0.116012	-0.7670633	0.1691622	
17:01:38	0	0	0	-0.3406372	-10.37114	0	3	100	0	50	0.114628	-0.7676243	0.1639492	
17:01:39	0	0	0	-0.3406372	-10.37114	0	3	100	0	50	0.1158222	-0.7773507	0.1650294	
17:01:39	0	0	0	-0.5192807	-16.57158	0	3	100	0	50	0.1156816	-0.7812738	0.14274	
17:01:39	0	0	0	-0.5192807	-16.57158	0	3	100	0	50	0.1185433	-0.7797716	0.1373944	
17:01:39	0	0	0	-0.5192807	-16.57158	0	3	100	0	50	0.1148887	-0.781477	0.1281742	
17:01:39	0	0	0	-0.5192807	-16.57158	0	3	100	0	50	0.1160567	-0.7741425	0.1253567	
17:01:40	0	0	0	-0.5192807	-16.57158	0	3	100	0	50	0.1122963	-0.7617303	0.1119638	
17:01:40	0	0	0	-0.5026837	-11.66123	0	3	100	0	50	0.1546766	-0.765802	0.1219415	
17:01:40	0	0	0	-0.5026837	-11.66123	0	3	100	0	50	0.1521071	-0.7708622	0.1233828	
17:01:40	0	0	0	-0.5026837	-11.66123	0	3	100	0	50	0.1668207	-0.7425917	0.1357981	
17:01:40	0	0	0	-0.5026837	-11.66123	0	3	100	0	50	0.1559132	-0.7510101	0.1367495	
17:01:41	0	0	0	-0.5026837	-11.66123	0	3	100	0	50	0.1557811	-0.7626665	0.1376706	
17:01:41	0	0	0	-0.3300505	-0.8526749	0	3	100	0	50	0.1485825	-0.7586376	0.1384597	
17:01:41	0	0	0	-0.3300505	-0.8526749	0	3	100	0	50	0.1500682	-0.7510824	0.141667	
17:01:41	0	0	0	-0.3300505	-0.8526749	0	3	100	0	50	0.1454985	-0.7454295	0.137296	
17:01:41	0	0	0	-0.3300505	-0.8526749	0	3	100	0	50	0.1445259	-0.7528432	0.1408242	
17:01:42	0	0	0	-0.3300505	-0.8526749	0	3	100	0	50	0.1390672	-0.7551218	0.1265145	
17:01:42	0	0	0	-0.396887	-6.02985	0	3	100	0	50	0.1414133	-0.7589186	0.121846	
17:01:42	0	0	0	-0.396887	-6.02985	0	3	100	0	50	0.1417328	-0.7512316	0.1096955	
17:01:42	0	0	0	-0.396887	-6.02985	0	3	100	0	50	0.1474052	-0.7465445	0.1052365	
17:01:42	0	0	0	-0.396887	-6.02985	0	3	100	0	50	0.1522679	-0.7430667	0.07672567	
17:01:43	0	0	0	-0.396887	-6.02985	0	3	100	0	50	0.1475378	-0.7475659	0.0619171	
17:01:43	0	0	0	-0.4288235	-7.460935	0	3	100	0	50	0.1539617	-0.7388597	0.06188009	
17:01:43	0	0	0	-0.4288235	-7.460935	0	3	100	0	50	0.1578044	-0.7234285	0.06589019	
17:01:43	0	0	0	-0.4288235	-7.460935	0	3	100	0	50	0.1648011	-0.7064146	0.07309025	
17:01:43	0	0	0	-0.4288235	-7.460935	0	3	100	0	50	0.1629331	-0.6960483	0.0573763	
17:01:44	0	0	0	-0.4288235	-7.460935	0	3	100	0	50	0.1525306	-0.6940984	0.04926095	
17:01:44	0	0	0	-0.5994288	-12.57287	0	3	100	0	50	0.1465638	-0.6866618	0.048691	
17:01:44	0	0	0	-0.5994288	-12.57287	0	3	100	0	50	0.1441394	-0.6766169	0.05856424	
17:01:44	0	0	0	-0.5994288	-12.57287	0	3	100	0	50	0.1148964	-0.6712344	0.04929182	
17:01:44	0	0	0	-0.5994288	-12.57287	0	3	100	0	50	0.1185264	-0.6725321	0.04547456	
17:01:45	0	0	0	-0.5994288	-12.57287	0	3	100	0	50	0.104919	-0.6843723	0.01257009	
17:01:45	0	0	0	-0.5853444	-8.426271	0	3	100	0	50	0.1066246	-0.6832266	-0.008587862	
17:01:45	0	0	0	-0.5853444	-8.426271	0	3	100	0	50	0.08955847	-0.6893126	-0.008815587	
17:01:45	0	0	0	-0.5853444	-8.426271	0	3	100	0	50	0.08193705	-0.6790077	-0.0164476	
17:01:45	0	0	0	-0.5853444	-8.426271	0	3	100	0	50	0.0935095	-0.6857131	-0.02182749	
17:01:46	0	0	0	-0.5853444	-8.426271	0	3	100	0	50	0.04185229	-0.6770768	-0.01884294	
17:01:46	0	0	0	-0.471748	0.9715278	0	3	100	0	50	0.02771295	-0.6938899	-0.02321481	
17:01:46	0	0	0	-0.471748	0.9715278	0	3	100	0	50	0.04047239	-0.6970975	-0.02554591	
17:01:46	0	0	0	-0.471748	0.9715278	0	3	100	0	50	0.03866625	-0.6873404	0.0007880481	
17:01:46	0	0	0	-0.471748	0.9715278	0	3	100	0	50	0.03745873	-0.6920327	-0.002606719	
17:01:47	0	0	0	-0.471748	0.9715278	0	3	100	0	50	0.02971037	-0.6990601	-0.01312112	
17:01:47	0	0	0	-0.3775602	2.336323	0	3	100	0	50	0.02539976	-0.7129545	-0.006526119	
17:01:47	0	0	0	-0.3775602	2.336323	0	3	100	0	50	0.0322672	-0.6940995	-0.009795596	
17:01:47	0	0	0	-0.3775602	2.336323	0	3	100	0	50	0.02643646	-0.7146843	-0.004985543	
17:01:47	0	0	0	-0.3775602	2.336323	0	3	100	0	50	0.04118497	-0.7063557	-0.001400477	
17:01:48	0	0	0	-0.3775602	2.336323	0	3	100	0	50	0.04453484	-0.7156532	-0.003679666	
17:01:48	0	0	0	-0.3947734	-0.6158032	0	3	100	0	50	0.05609205	-0.7061856	0.002607318	
17:01:48	0	0	0	-0.3947734	-0.6158032	0	3	100	0	50	0.05214455	-0.7026427	0.01176916	
17:01:48	0	0	0	-0.3947734	-0.6158032	0	3	100	0	50	0.05123859	-0.7007239	0.01304308	
17:01:49	0	0	0	-0.3947734	-0.6158032	0	3	100	0	50	0.06214252	-0.692678	0.03208958	
17:01:49	0	0	0	-0.3947734	-0.6158032	0	3	100	0	50	0.14761	-0.6783975	0.05206387	
17:01:49	0	0	0	-0.2486976	5.370979	0	3	100	0	50	0.06353999	-0.6412042	0.02771314	
17:01:49	0	0	0	-0.2486976	5.370979	0	3	100	0	50	0.08526241	-0.6285644	0.01295052	
17:01:49	0	0	0	-0.2486976	5.370979	0	3	100	0	50	0.09493677	-0.6100698	0.01654598	
17:01:50	0	0	0	-0.2486976	5.370979	0	3	100	0	50	0.105847	-0.614208	0.01073182	
17:01:50	0	0	0	-0.2486976	5.370979	0	3	100	0	50	0.1106278	-0.6194651	0.01771425	
17:01:50	0	0	0	0.1365294	19.63654	0	3	100	0	50	0.1064655	-0.6388953	0.02658058	
17:01:50	0	0	0	0.1365294	19.63654	0	3	100	0	50	0.1098126	-0.6376885	0.02436064	
17:01:50	0	0	0	0.1365294	19.63654	0	3	100	0	50	0.1224019	-0.6349829	0.03752066	
17:01:51	0	0	0	0.1365294	19.63654	0	3	100	0	50	0.1217819	-0.6330799	0.04152365	
17:01:51	0	0	0	0.1365294	19.63654	0	3	100	0	50	0.1192574	-0.6430016	0.04626877	
17:01:51	0	0	0	0.2640047	15.14129	0	3	100	0	50	0.126066	-0.6331955	0.05181495	
17:01:51	0	0	0	0.2640047	15.14129	0	3	100	0	50	0.131777	-0.6275741	0.05680566	
17:01:51	0	0	0	0.2640047	15.14129	0	3	100	0	50	0.1266193	-0.6316454	0.06486729	
17:01:52	0	0	0	0.2640047	15.14129	0	3	100	0	50	0.1291	-0.6291818	0.05594628	
17:01:52	0	0	0	0.2640047	15.14129	0	3	100	0	50	0.1249823	-0.6384277	0.03783308	
17:01:52	0	0	0	0.00908662	-2.847889	0	3	100	0	50	0.1179207	-0.6465437	0.032972	
17:01:52	0	0	0	0.00908662	-2.847889	0	3	100	0	50	0.1112734	-0.6616723	0.0323684	
17:01:52	0	0	0	0.00908662	-2.847889	0	3	100	0	50	0.1145994	-0.6643912	0.04980842	
17:01:53	0	0	0	0.00908662	-2.847889	0	3	100	0	50	0.1193919	-0.6401042	0.06006362	
17:01:53	0	0	0	0.00908662	-2.847889	0	3	100	0	50	0.1332667	-0.6148013	0.05717359	
17:01:53	0	0	0	-0.1760816	-9.359862	0	3	100	0	50	0.130638	-0.61996	0.05272264	
17:01:53	0	0	0	-0.1760816	-9.359862	0	3	100	0	50	0.1321882	-0.6300001	0.05692904	
17:01:53	0	0	0	-0.1760816	-9.359862	0	3	100	0	50	0.1341081	-0.6316565	0.04390382	
17:01:54	0	0	0	-0.1760816	-9.359862	0	3	100	0	50	0.1291392	-0.6336548	0.03698948	
17:01:54	0	0	0	-0.1760816	-9.359862	0	3	100	0	50	0.1290849	-0.6300852	0.03610744	
17:01:54	0	0	0	-0.1485548	-5.372439	0	3	100	0	50	0.1197758	-0.6449094	0.03976372	
17:01:54	0	0	0	-0.1485548	-5.372439	0	3	100	0	50	0.1023946	-0.6638873	0.02973215	
17:01:54	0	0	0	-0.1485548	-5.372439	0	3	100	0	50	0.1033437	-0.6575748	0.03487914	
17:01:55	0	0	0	-0.1485548	-5.372439	0	3	100	0	50	0.1049832	-0.6480427	0.03415422	
17:01:55	0	0	0	-0.1485548	-5.372439	0	3	100	0	50	0.1125764	-0.6371373	0.03694949	
17:01:55	0	0	0	-0.06310195	0.2589202	0	3	100	0	50	0.1160559	-0.634189	0.05529718	
17:01:55	0	0	0	-0.06310195	0.2589202	0	3	100	0	50	0.11551	-0.6408017	0.04933801	
17:01:55	0	0	0	-0.06310195	0.2589202	0	3	100	0	50	0.1157593	-0.6546192	0.05111007	
17:01:56	0	0	0	-0.06310195	0.2589202	0	3	100	0	50	0.1193863	-0.6706086	0.03693095	
17:01:56	0	0	0	-0.06310195	0.2589202	0	3	100	0	50	0.1222937	-0.6875648	0.03073103	
17:01:56	0	0	0	-0.08414672	-2.115689	0	3	100	0	50	0.1166885	-0.6850106	0.04787015	
17:01:56	0	0	0	-0.08414672	-2.115689	0	3	100	0	50	0.1168038	-0.6941615	0.04648432	
17:01:56	0	0	0	-0.08414672	-2.115689	0	3	100	0	50	0.1209455	-0.7004616	0.03540101	
17:01:57	0	0	0	-0.08414672	-2.115689	0	3	100	0	50	0.1167415	-0.6972992	0.02579596	
17:01:57	0	0	0	-0.08414672	-2.115689	0	3	100	0	50	0.1143475	-0.7024078	0.02573799	
17:01:57	0	0	0	-0.3327711	-12.42777	0	3	100	0	50	0.1071461	-0.7121267	0.02895994	
17:01:57	0	0	0	-0.3327711	-12.42777	0	3	100	0	50	0.1140802	-0.7209447	0.03400487	
17:01:57	0	0	0	-0.3327711	-12.42777	0	3	100	0	50	0.1082761	-0.7206312	0.02879768	
17:01:58	0	0	0	-0.3327711	-12.42777	0	3	100	0	50	0.1113542	-0.723038	0.03489029	
17:01:58	0	0	0	-0.3327711	-12.42777	0	3	100	0	50	0.1137461	-0.7238399	0.01654654	
17:01:58	0	0	0	-0.2887925	-4.199528	0	3	100	0	50	0.1167867	-0.7320665	0.01213209	
17:01:58	0	0	0	-0.2887925	-4.199528	0	3	100	0	50	0.1111813	-0.7575555	0.01472758	
17:01:58	0	0	0	-0.2887925	-4.199528	0	3	100	0	50	0.1116845	-0.7729055	0.01512396	
17:01:59	0	0	0	-0.2887925	-4.199528	0	3	100	0	50	0.1097859	-0.781027	0.01777794	
17:01:59	0	0	0	-0.2887925	-4.199528	0	3	100	0	50	0.1144327	-0.7808132	0.007604059	
17:01:59	0	0	0	-0.220143	-0.2780862	0	3	100	0	50	0.1235141	-0.7644505	0.01157003	
17:01:59	0	0	0	-0.220143	-0.2780862	0	3	100	0	50	0.1215578	-0.7525727	0.008472894	
17:01:59	0	0	0	-0.220143	-0.2780862	0	3	100	0	50	0.1227081	-0.7434434	0.01482524	
17:02:00	0	0	0	-0.220143	-0.2780862	0	3	100	0	50	0.1250213	-0.7432154	0.02407143	
17:02:00	0	0	0	-0.220143	-0.2780862	0	3	100	0	50	0.1057792	-0.7443	0.01514729	
17:02:00	0	0	0	-0.3695396	-7.179239	0	3	100	0	50	0.1060348	-0.7531474	0.008121571	
17:02:00	0	0	0	-0.3695396	-7.179239	0	3	100	0	50	0.09936114	-0.7648141	-0.004402331	
17:02:00	0	0	0	-0.3695396	-7.179239	0	3	100	0	50	0.1024333	-0.7544286	-0.004062603	
17:02:01	0	0	0	-0.3695396	-7.179239	0	3	100	0	50	0.09932774	-0.7669442	0.004252761	
17:02:01	0	0	0	-0.3695396	-7.179239	0	3	100	0	50	0.1045751	-0.7681352	0.004358713	
17:02:01	0	0	0	-0.3582979	-2.532091	0	3	100	0	50	0.1010749	-0.7862571	0.01414858	
17:02:01	0	0	0	-0.3582979	-2.532091	0	3	100	0	50	0.09309594	-0.7876496	0.005497883	
17:02:01	0	0	0	-0.3582979	-2.532091	0	3	100	0	50	0.09167665	-0.7674627	0.001003798	
17:02:02	0	0	0	-0.3582979	-2.532091	0	3	100	0	50	0.09681337	-0.7649524	-0.001700882	
17:02:02	0	0	0	-0.3582979	-2.532091	0	3	100	0	50	0.110526	-0.7541856	-0.001442376	
17:02:02	0	0	0	-0.2338527	3.908107	0	3	100	0	50	0.1179649	-0.77504	-0.01775147	
17:02:02	0	0	0	-0.2338527	3.908107	0	3	100	0	50	0.1217743	-0.7884889	-0.02622041	
17:02:02	0	0	0	-0.2338527	3.908107	0	3	100	0	50	0.1164213	-0.8047305	-0.02994711	
17:02:03	0	0	0	-0.2338527	3.908107	0	3	100	0	50	0.1196675	-0.7990534	-0.02467489	
17:02:03	0	0	0	-0.2338527	3.908107	0	3	100	0	50	0.1332426	-0.7921329	-0.02522604	
17:02:03	0	0	0	-0.1864385	4.40839	0	3	100	0	50	0.1316177	-0.8045463	-0.01646201	
17:02:03	0	0	0	-0.1864385	4.40839	0	3	100	0	50	0.1339971	-0.7912661	-0.01465655	
17:02:04	0	0	0	-0.1864385	4.40839	0	3	100	0	50	0.1399794	-0.7938756	-0.00308003	
17:02:04	0	0	0	-0.1864385	4.40839	0	3	100	0	50	0.1275135	-0.794645	0.01685438	
17:02:04	0	0	0	-0.1864385	4.40839	0	3	100	0	50	0.1290998	-0.8016931	0.01398149	
17:02:04	0	0	0	-0.1410205	4.452542	0	3	100	0	50	0.1334561	-0.796845	0.008269914	
17:02:04	0	0	0	-0.1410205	4.452542	0	3	100	0	50	0.1293787	-0.811896	0.01331318	
17:02:05	0	0	0	-0.1410205	4.452542	0	3	100	0	50	0.1310432	-0.8142914	0.02531466	
17:02:05	0	0	0	-0.1410205	4.452542	0	3	100	0	50	0.1414738	-0.8051221	0.0428917	
17:02:05	0	0	0	-0.1410205	4.452542	0	3	100	0	50	0.1461238	-0.7928801	0.05677702	
17:02:05	0	0	0	-0.3007437	-4.771938	0	3	100	0	50	0.1552468	-0.7698822	0.05631289	
17:02:05	0	0	0	-0.3007437	-4.771938	0	3	100	0	50	0.1516388	-0.7654298	0.04383727	
17:02:06	0	0	0	-0.3007437	-4.771938	0	3	100	0	50	0.1492168	-0.7644316	0.04041914	
17:02:06	0	0	0	-0.3007437	-4.771938	0	3	100	0	50	0.1426082	-0.7739919	0.03458941	
17:02:06	0	0	0	-0.3007437	-4.771938	0	3	100	0	50	0.1443845	-0.7774156	0.05777521	
17:02:06	0	0	0	-0.4381953	-8.897638	0	3	100	0	50	0.1370652	-0.7857811	0.05083089	
17:02:06	0	0	0	-0.4381953	-8.897638	0	3	100	0	50	0.1337382	-0.7967285	0.04092521	
17:02:07	0	0	0	-0.4381953	-8.897638	0	3	100	0	50	0.1275414	-0.8101969	0.03917183	
17:02:07	0	0	0	-0.4381953	-8.897638	0	3	100	0	50	0.1271422	-0.8132967	0.04946121	
17:02:07	0	0	0	-0.4381953	-8.897638	0	3	100	0	50	0.1195637	-0.8016607	0.04983832	
17:02:07	0	0	0	-0.4256499	-4.155024	0	3	100	0	50	0.1215829	-0.8024102	0.0527067	
17:02:07	0	0	0	-0.4256499	-4.155024	0	3	100	0	50	0.1118433	-0.8111153	0.05131983	
17:02:08	0	0	0	-0.4256499	-4.155024	0	3	100	0	50	0.1099987	-0.8141363	0.05913179	
17:02:08	0	0	0	-0.4256499	-4.155024	0	3	100	0	50	0.09212652	-0.8313837	0.06339055	
17:02:08	0	0	0	-0.4256499	-4.155024	0	3	100	0	50	0.08033682	-0.8573028	0.07470557	
17:02:08	0	0	0	-0.4484749	-4.217176	0	3	100	0	50	0.07993082	-0.8512084	0.07639495	
17:02:08	0	0	0	-0.4484749	-4.217176	0	3	100	0	50	0.07416885	-0.8595765	0.09158108	
17:02:09	0	0	0	-0.4484749	-4.217176	0	3	100	0	50	0.0773646	-0.8545218	0.0942681	
17:02:09	0	0	0	-0.4484749	-4.217176	0	3	100	0	50	0.08072815	-0.8347396	0.1034355	
17:02:09	0	0	0	-0.4484749	-4.217176	0	3	100	0	50	0.07616688	-0.8303367	0.1070133	
17:02:09	0	0	0	-0.5687636	-7.215381	0	3	100	0	50	0.02266989	-0.830313	0.1020496	
17:02:09	0	0	0	-0.5687636	-7.215381	0	3	100	0	50	0.02706152	-0.8245574	0.1004606	
17:02:10	0	0	0	-0.5687636	-7.215381	0	3	100	0	50	0.02766234	-0.8124682	0.1143646	
17:02:10	0	0	0	-0.5687636	-7.215381	0	3	100	0	50	0.04148396	-0.7905603	0.1247733	
17:02:10	0	0	0	-0.5687636	-7.215381	0	3	100	0	50	0.05196091	-0.8019355	0.1488471	
17:02:10	0	0	0	-0.5385837	-1.481786	0	3	100	0	50	0.06077738	-0.7960672	0.134512	
17:02:10	0	0	0	-0.5385837	-1.481786	0	3	100	0	50	0.06449377	-0.7879795	0.1267198	
17:02:11	0	0	0	-0.5385837	-1.481786	0	3	100	0	50	0.06875631	-0.7759802	0.1281941	
17:02:11	0	0	0	-0.5385837	-1.481786	0	3	100	0	50	0.07882592	-0.7732046	0.1430971	
17:02:11	0	0	0	-0.5385837	-1.481786	0	3	100	0	50	0.08609794	-0.7655446	0.151473	
17:02:11	0	0	0	-0.5135701	-0.8113682	0	3	100	0	50	0.08205947	-0.7755933	0.1455575	
17:02:11	0	0	0	-0.5135701	-0.8113682	0	3	100	0	50	0.08073784	-0.7853938	0.1338171	
17:02:12	0	0	0	-0.5135701	-0.8113682	0	3	100	0	50	0.08337516	-0.7857903	0.1279698	
17:02:12	0	0	0	-0.5135701	-0.8113682	0	3	100	0	50	0.08655464	-0.7953954	0.1190792	
17:02:12	0	0	0	-0.5135701	-0.8113682	0	3	100	0	50	0.08212826	-0.8047494	0.1172763	
17:02:12	0	0	0	-0.4520185	2.565289	0	3	100	0	50	0.08735979	-0.8074924	0.1198993	
17:02:12	0	0	0	-0.4520185	2.565289	0	3	100	0	50	0.09283262	-0.817556	0.1087321	
17:02:13	0	0	0	-0.4520185	2.565289	0	3	100	0	50	0.09997403	-0.8060585	0.09405576	
17:02:13	0	0	0	-0.4520185	2.565289	0	3	100	0	50	0.1119701	-0.7966393	0.1030188	
17:02:13	0	0	0	-0.4520185	2.565289	0	3	100	0	50	0.1153984	-0.8008277	0.1017316	
17:02:13	0	0	0	-0.6410256	-7.26303	0	3	100	0	50	0.1276244	-0.7862904	0.1229549	
17:02:13	0	0	0	-0.6410256	-7.26303	0	3	100	0	50	0.1284331	-0.7795474	0.119098	
17:02:14	0	0	0	-0.6410256	-7.26303	0	3	100	0	50	0.1308767	-0.7905297	0.1216612	
17:02:14	0	0	0	-0.6410256	-7.26303	0	3	100	0	50	0.1283189	-0.7855837	0.1185001	
17:02:14	0	0	0	-0.6410256	-7.26303	0	3	100	0	50	0.1145304	-0.7777184	0.1186524	
17:02:14	0	0	0	-0.7181661	-8.21529	0	3	100	0	50	0.09764268	-0.7977655	0.1192926	
17:02:14	0	0	0	-0.7181661	-8.21529	0	3	100	0	50	0.1065975	-0.7930357	0.1196305	
17:02:15	0	0	0	-0.7181661	-8.21529	0	3	100	0	50	0.1266976	-0.797673	0.125754	
17:02:15	0	0	0	-0.7181661	-8.21529	0	3	100	0	50	0.1150418	-0.7975284	0.12883	
17:02:15	0	0	0	-0.7181661	-8.21529	0	3	100	0	50	0.1127171	-0.7961457	0.1262971	
17:02:15	0	0	0	-0.6033711	-0.2102501	0	3	100	0	50	0.09977204	-0.7902003	0.1302691	
17:02:15	0	0	0	-0.6033711	-0.2102501	0	3	100	0	50	0.09656946	-0.7717535	0.1462697	
17:02:16	0	0	0	-0.6033711	-0.2102501	0	3	100	0	50	0.1018467	-0.7689496	0.1459089	
17:02:16	0	0	0	-0.6033711	-0.2102501	0	3	100	0	50	0.08980709	-0.7795485	0.1502911	
17:02:16	0	0	0	-0.6033711	-0.2102501	0	3	100	0	50	0.08028956	-0.7931544	0.1571001	
17:02:16	0	0	0	-0.6978937	-4.774701	0	3	100	0	50	0.07243486	-0.7862942	0.1664891	
17:02:16	0	0	0	-0.6978937	-4.774701	0	3	100	0	50	0.08446361	-0.7788542	0.164054	
17:02:17	0	0	0	-0.6978937	-4.774701	0	3	100	0	50	0.09183638	-0.7762747	0.1642309	
17:02:17	0	0	0	-0.6978937	-4.774701	0	3	100	0	50	0.0941773	-0.7740365	0.1544962	
17:02:17	0	0	0	-0.6978937	-4.774701	0	3	100	0	50	0.09426597	-0.7740905	0.1447428	
17:02:17	0	0	0	-0.8347572	-8.832197	0	3	100	0	50	0.09894069	-0.7859976	0.1463288	
17:02:17	0	0	0	-0.8347572	-8.832197	0	3	100	0	50	0.1077029	-0.7803769	0.1444039	
17:02:18	0	0	0	-0.8347572	-8.832197	0	3	100	0	50	0.1137154	-0.7994252	0.1447293	
17:02:18	0	0	0	-0.8347572	-8.832197	0	3	100	0	50	0.109378	-0.793245	0.1569249	
17:02:18	0	0	0	-0.8347572	-8.832197	0	3	100	0	50	0.1139131	-0.7956032	0.1654595	
17:02:18	0	0	0	-0.5968831	3.61685	0	3	100	0	50	0.104709	-0.8019531	0.1516978	
17:02:18	0	0	0	-0.5968831	3.61685	0	3	100	0	50	0.1092216	-0.8050006	0.1544576	
17:02:19	0	0	0	-0.5968831	3.61685	0	3	100	0	50	0.1012339	-0.8133417	0.153073	
17:02:19	0	0	0	-0.5968831	3.61685	0	3	100	0	50	0.1072509	-0.8049542	0.1477074	
17:02:19	0	0	0	-0.5968831	3.61685	0	3	100	0	50	0.1068209	-0.8193265	0.1485468	
17:02:19	0	0	0	-0.667397	0.07491627	0	3	100	0	50	0.09319423	-0.8268365	0.1433749	
17:02:19	0	0	0	-0.667397	0.07491627	0	3	100	0	50	0.07512092	-0.829416	0.1221093	
17:02:20	0	0	0	-0.667397	0.07491627	0	3	100	0	50	0.01367452	-0.8633723	0.1155507	
17:02:20	0	0	0	-0.667397	0.07491627	0	3	100	0	50	0.007211765	-0.8708863	0.1004248	
17:02:20	0	0	0	-0.667397	0.07491627	0	3	100	0	50	-0.03549319	-0.8743738	0.101514	
17:02:20	0	0	0	-0.5791574	4.998654	0	3	100	0	50	-0.03843558	-0.8854775	0.118389	
17:02:21	0	0	0	-0.5791574	4.998654	0	3	100	0	50	-0.03687783	-0.9050331	0.1242148	
17:02:21	0	0	0	-0.5791574	4.998654	0	3	100	0	50	-0.03112446	-0.907208	0.1351475	
17:02:21	0	0	0	-0.5791574	4.998654	0	3	100	0	50	-0.01653706	-0.8927674	0.1653887	
17:02:21	0	0	0	-0.5791574	4.998654	0	3	100	0	50	0.0267711	-0.894274	0.181016	
17:02:21	0	0	0	-0.5232825	4.597963	0	3	100	0	50	0.03953927	-0.8796846	0.1910889	
17:02:22	0	0	0	-0.5232825	4.597963	0	3	100	0	50	0.04717083	-0.8732314	0.1953608	
17:02:22	0	0	0	-0.5232825	4.597963	0	3	100	0	50	0.05699261	-0.8575544	0.1979832	
17:02:22	0	0	0	-0.5232825	4.597963	0	3	100	0	50	0.068668	-0.8748832	0.2028686	
17:02:22	0	0	0	-0.5232825	4.597963	0	3	100	0	50	0.07870596	-0.8725307	0.202441	
17:02:22	0	0	0	-0.5047846	2.785331	0	3	100	0	50	0.07890189	-0.8839605	0.192493	
17:02:23	0	0	0	-0.5047846	2.785331	0	3	100	0	50	0.07905848	-0.8796552	0.1780391	
17:02:23	0	0	0	-0.5047846	2.785331	0	3	100	0	50	0.08209094	-0.8790038	0.1657308	
17:02:23	0	0	0	-0.5047846	2.785331	0	3	100	0	50	0.08586501	-0.8721963	0.1583081	
17:02:23	0	0	0	-0.5047846	2.785331	0	3	100	0	50	0.08693982	-0.8933862	0.1552539	
17:02:23	0	0	0	-0.3599445	8.479354	0	3	100	0	50	0.09571408	-0.8971048	0.1484469	
17:02:24	0	0	0	-0.3599445	8.479354	0	3	100	0	50	0.09154031	-0.9076985	0.1442738	
17:02:24	0	0	0	-0.3599445	8.479354	0	3	100	0	50	0.09310757	-0.9087753	0.1371036	
17:02:24	0	0	0	-0.3599445	8.479354	0	3	100	0	50	0.08488093	-0.9025069	0.1277078	
17:02:24	0	0	0	-0.3599445	8.479354	0	3	100	0	50	0.0929703	-0.8895831	0.1283187	
17:02:24	0	0	0	-0.1558661	16.39139	0	3	100	0	50	0.09117746	-0.8968903	0.1156161	
17:02:25	0	0	0	-0.1558661	16.39139	0	3	100	0	50	0.08623189	-0.9046739	0.1009489	
17:02:25	0	0	0	-0.1558661	16.39139	0	3	100	0	50	0.08136002	-0.9067722	0.09277447	
17:02:25	0	0	0	-0.1558661	16.39139	0	3	100	0	50	0.08081461	-0.9142224	0.08607496	
17:02:25	0	0	0	-0.1558661	16.39139	0	3	100	0	50	0.08919062	-0.9018095	0.08884148	
17:02:25	0	0	0	-0.1153374	10.07185	0	3	100	0	50	0.09178596	-0.9106226	0.07552288	
17:02:26	0	0	0	-0.1153374	10.07185	0	3	100	0	50	0.09864807	-0.9151092	0.0648206	
17:02:26	0	0	0	-0.1153374	10.07185	0	3	100	0	50	0.09191477	-0.9290473	0.08556803	
17:02:26	0	0	0	-0.1153374	10.07185	0	3	100	0	50	0.09279004	-0.9306485	0.08931039	
17:02:26	0	0	0	-0.1153374	10.07185	0	3	100	0	50	0.08302974	-0.93244	0.09223342	
17:02:26	0	0	0	-0.2317962	1.025188	0	3	100	0	50	0.08167624	-0.9405357	0.08699656	
17:02:27	0	0	0	-0.2317962	1.025188	0	3	100	0	50	0.0638174	-0.9350516	0.08017281	
17:02:27	0	0	0	-0.2317962	1.025188	0	3	100	0	50	0.0256975	-0.9353881	0.07115301	
17:02:27	0	0	0	-0.2317962	1.025188	0	3	100	0	50	-0.001660923	-0.9395978	0.07673088	
17:02:27	0	0	0	-0.2317962	1.025188	0	3	100	0	50	0.1754681	-1.010424	0.09142129	
17:02:27	0	0	0	-0.2236146	2.095587	0	3	100	0	50	0.2143801	-0.98756	0.09438289	
17:02:28	0	0	0	-0.2236146	2.095587	0	3	100	0	50	0.191995	-0.9764552	0.07968794	
17:02:28	0	0	0	-0.2236146	2.095587	0	3	100	0	50	0.1730549	-0.9688666	0.06890364	
17:02:28	0	0	0	-0.2236146	2.095587	0	3	100	0	50	0.1748978	-0.9486594	0.07087526	
17:02:28	0	0	0	-0.2236146	2.095587	0	3	100	0	50	0.1542208	-0.9442639	0.06619931	
17:02:28	0	0	0	-0.5319846	-11.20216	0	3	100	0	50	0.1453811	-0.939297	0.0614246	
17:02:29	0	0	0	-0.5319846	-11.20216	0	3	100	0	50	0.138802	-0.935185	0.05142912	
17:02:29	0	0	0	-0.5319846	-11.20216	0	3	100	0	50	0.1482883	-0.921577	0.04680353	
17:02:29	0	0	0	-0.5319846	-11.20216	0	3	100	0	50	0.142904	-0.9210663	0.05738848	
17:02:29	0	0	0	-0.5319846	-11.20216	0	3	100	0	50	0.1497291	-0.8972304	0.05175177	
17:02:29	0	0	0	-0.7556682	-15.39096	0	3	100	0	50	0.1266237	-0.8992614	0.05636958	
17:02:30	0	0	0	-0.7556682	-15.39096	0	3	100	0	50	0.1060922	-0.8922085	0.03220214	
17:02:30	0	0	0	-0.7556682	-15.39096	0	3	100	0	50	0.1042463	-0.8812772	0.03122615	
17:02:30	0	0	0	-0.7556682	-15.39096	0	3	100	0	50	0.1036489	-0.8680241	0.02135221	
17:02:30	0	0	0	-0.7556682	-15.39096	0	3	100	0	50	0.09027985	-0.8622652	0.02410547	
17:02:30	0	0	0	-0.5566545	-0.5561598	0	3	100	0	50	0.07998952	-0.8586237	0.02975955	
17:02:31	0	0	0	-0.5566545	-0.5561598	0	3	100	0	50	0.08894932	-0.8518111	0.04876221	
17:02:31	0	0	0	-0.5566545	-0.5561598	0	3	100	0	50	0.08690682	-0.8564392	0.05115436	
17:02:31	0	0	0	-0.5566545	-0.5561598	0	3	100	0	50	0.07652076	-0.8484778	0.05488981	
17:02:31	0	0	0	-0.5566545	-0.5561598	0	3	100	0	50	0.06486401	-0.8521073	0.05638313	
17:02:31	0	0	0	-0.5910577	-2.570971	0	3	100	0	50	0.05429637	-0.8592421	0.06182905	
17:02:32	0	0	0	-0.5910577	-2.570971	0	3	100	0	50	0.05542421	-0.8365842	0.08113842	
17:02:32	0	0	0	-0.5910577	-2.570971	0	3	100	0	50	0.05469358	-0.8226449	0.08789484	
17:02:32	0	0	0	-0.5910577	-2.570971	0	3	100	0	50	0.05644411	-0.7998174	0.09420463	
17:02:32	0	0	0	-0.5910577	-2.570971	0	3	100	0	50	0.05179565	-0.7886744	0.1066969	
17:02:32	0	0	0	-0.4750751	1.602379	0	3	100	0	50	0.04890254	-0.7905323	0.09699711	
17:02:33	0	0	0	-0.4750751	1.602379	0	3	100	0	50	0.05834787	-0.7687061	0.1197761	
17:02:33	0	0	0	-0.4750751	1.602379	0	3	100	0	50	0.0476375	-0.774911	0.1224605	
17:02:33	0	0	0	-0.4750751	1.602379	0	3	100	0	50	0.04567702	-0.7565397	0.124911	
17:02:33	0	0	0	-0.4750751	1.602379	0	3	100	0	50	0.04122914	-0.7604502	0.1249925	
17:02:33	0	0	0	-0.7470911	-10.68591	0	3	100	0	50	0.04011946	-0.7532563	0.1313164	
17:02:34	0	0	0	-0.7470911	-10.68591	0	3	100	0	50	0.04415949	-0.7521501	0.1310276	
17:02:34	0	0	0	-0.7470911	-10.68591	0	3	100	0	50	0.04010187	-0.7588	0.1325881	
17:02:34	0	0	0	-0.7470911	-10.68591	0	3	100	0	50	0.03886389	-0.7638829	0.142904	
17:02:34	0	0	0	-0.7470911	-10.68591	0	3	100	0	50	0.05048409	-0.7503966	0.159876	
17:02:34	0	0	0	-0.8968767	-13.94686	0	3	100	0	50	0.04958687	-0.742788	0.1783907	
17:02:35	0	0	0	-0.8968767	-13.94686	0	3	100	0	50	0.06060889	-0.7240858	0.1827017	
17:02:35	0	0	0	-0.8968767	-13.94686	0	3	100	0	50	0.06020324	-0.7126477	0.174725	
17:02:35	0	0	0	-0.8968767	-13.94686	0	3	100	0	50	0.07055953	-0.6964082	0.1835032	
17:02:35	0	0	0	-0.8968767	-13.94686	0	3	100	0	50	0.07484748	-0.6809489	0.1709415	
17:02:35	0	0	0	-1.001326	-14.09896	0	3	100	0	50	0.0705261	-0.6795022	0.1636993	
17:02:36	0	0	0	-1.001326	-14.09896	0	3	100	0	50	0.02657343	-0.6712531	0.1764211	
17:02:36	0	0	0	-1.001326	-14.09896	0	3	100	0	50	-0.04913939	-0.6872871	0.2138685	
17:02:36	0	0	0	-1.001326	-14.09896	0	3	100	0	50	-0.01704699	-0.6843049	0.2669667	
17:02:36	0	0	0	-1.001326	-14.09896	0	3	100	0	50	0.01857063	-0.6965861	0.2934501	
17:02:37	0	0	0	-0.8296499	-0.1409587	0	3	100	0	50	0.02405798	-0.7028433	0.3236842	
17:02:37	0	0	0	-0.8296499	-0.1409587	0	3	100	0	50	0.0225167	-0.7099739	0.3519334	
17:02:37	0	0	0	-0.8296499	-0.1409587	0	3	100	0	50	0.02226598	-0.7098848	0.3868733	
17:02:37	0	0	0	-0.8296499	-0.1409587	0	3	100	0	50	0.0256979	-0.7067512	0.4304009	
17:02:37	0	0	0	-0.8296499	-0.1409587	0	3	100	0	50	0.03386107	-0.6971099	0.4863456	
17:02:38	0	0	0	-0.4200014	16.89593	0	3	100	0	50	0.03346785	-0.6966198	0.53304	
17:02:38	0	0	0	-0.4200014	16.89593	0	3	100	0	50	0.01936637	-0.7043159	0.5700072	
17:02:38	0	0	0	-0.4200014	16.89593	0	3	100	0	50	0.007624974	-0.7181118	0.6168025	
17:02:38	0	0	0	-0.4200014	16.89593	0	3	100	0	50	0.00509083	-0.7082461	0.6841154	
17:02:38	0	0	0	-0.4200014	16.89593	0	3	100	0	50	-0.01070036	-0.7267955	0.7373317	
17:02:39	0	0	0	-0.2881402	15.72391	0	3	100	0	50	-0.01416903	-0.7326667	0.7821878	
17:02:39	0	0	0	-0.2881402	15.72391	0	3	100	0	50	-0.004469494	-0.7253338	0.8375928	
17:02:39	0	0	0	-0.2881402	15.72391	0	3	100	0	50	-0.005442269	-0.7348028	0.8907739	
17:02:39	0	0	0	-0.2881402	15.72391	0	3	100	0	50	-0.02061022	-0.7524763	0.9226692	
17:02:39	0	0	0	-0.2881402	15.72391	0	3	100	0	50	-0.04696506	-0.7566037	0.9607953	
17:02:40	0	0	0	-0.3304337	7.105573	0	3	100	0	50	-0.0414147	-0.7613131	0.9944336	
17:02:40	0	0	0	-0.3304337	7.105573	0	3	100	0	50	-0.03936268	-0.7514054	1.019161	
17:02:40	0	0	0	-0.3304337	7.105573	0	3	100	0	50	-0.03978065	-0.7705224	1.034269	
17:02:40	0	0	0	-0.3304337	7.105573	0	3	100	0	50	-0.02880039	-0.7693818	1.0512	
17:02:40	0	0	0	-0.3304337	7.105573	0	3	100	0	50	-0.03496935	-0.7853014	1.076465	
17:02:41	0	0	0	-0.6105933	-7.064491	0	3	100	0	50	-0.02314658	-0.765506	1.09752	
17:02:41	0	0	0	-0.6105933	-7.064491	0	3	100	0	50	-0.01884937	-0.7629194	1.117524	
17:02:41	0	0	0	-0.6105933	-7.064491	0	3	100	0	50	-0.02355489	-0.7581937	0.9808977	
17:02:41	0	0	0	-0.6105933	-7.064491	0	3	100	0	50	-0.01016837	-0.7500572	0.9930144	
17:02:41	0	0	0	-0.6105933	-7.064491	0	3	100	0	50	0.01556148	-0.7470957	1.026498	
17:02:42	0	0	0	-0.656593	-6.529581	0	3	100	0	50	0.01029391	-0.7423019	1.022859	
17:02:42	0	0	0	-0.656593	-6.529581	0	3	100	0	50	-0.01545936	-0.7532922	0.9908971	
17:02:42	0	0	0	-0.656593	-6.529581	0	3	100	0	50	-0.007950411	-0.760529	1.014817	
17:02:42	0	0	0	-0.656593	-6.529581	0	3	100	0	50	-0.0324049	-0.7603267	1.197002	
17:02:42	0	0	0	-0.656593	-6.529581	0	3	100	0	50	-0.02617321	-0.7875987	1.219887	
17:02:43	0	0	0	-0.5775954	-0.6863827	0	3	100	0	50	-0.03727105	-0.7969775	1.213518	
17:02:43	0	0	0	-0.5775954	-0.6863827	0	3	100	0	50	-0.03134794	-0.8002443	1.235	
17:02:43	0	0	0	-0.5775954	-0.6863827	0	3	100	0	50	-0.02179013	-0.783604	1.249228	
17:02:43	0	0	0	-0.5775954	-0.6863827	0	3	100	0	50	-0.02661215	-0.7733526	1.274532	
17:02:43	0	0	0	-0.5775954	-0.6863827	0	3	100	0	50	-0.02762371	-0.7699357	1.312887	
17:02:44	0	0	0	-0.4512212	5.277015	0	3	100	0	50	-0.03195988	-0.7567067	1.337292	
17:02:44	0	0	0	-0.4512212	5.277015	0	3	100	0	50	-0.03085405	-0.757134	1.398126	
17:02:44	0	0	0	-0.4512212	5.277015	0	3	100	0	50	-0.03204117	-0.7637336	1.480993	
17:02:44	0	0	0	-0.4512212	5.277015	0	3	100	0	50	-0.03757372	-0.7867398	1.537463	
17:02:44	0	0	0	-0.4512212	5.277015	0	3	100	0	50	-0.04040112	-0.79009	1.607344	
17:02:45	0	0	0	-0.3686442	6.54751	0	3	100	0	50	-0.05185596	-0.7989153	1.659298	
17:02:45	0	0	0	-0.3686442	6.54751	0	3	100	0	50	-0.05334418	-0.7890271	1.721084	
17:02:45	0	0	0	-0.3686442	6.54751	0	3	100	0	50	-0.06347214	-0.7889878	1.789934	
17:02:45	0	0	0	-0.3686442	6.54751	0	3	100	0	50	-0.06241125	-0.7909861	1.835033	
17:02:45	0	0	0	-0.3686442	6.54751	0	3	100	0	50	-0.05798401	-0.7893336	1.891438	
17:02:46	0	0	0	-0.4416644	0.1259425	0	3	100	0	50	-0.08268598	-0.7989376	1.938249	
17:02:46	0	0	0	-0.4416644	0.1259425	0	3	100	0	50	-0.0811194	-0.8296919	1.986006	
17:02:46	0	0	0	-0.4416644	0.1259425	0	3	100	0	50	-0.05700698	-0.8070626	2.030318	
17:02:46	0	0	0	-0.4416644	0.1259425	0	3	100	0	50	0.02102654	-0.7454395	1.653201	
17:02:46	0	0	0	-0.4416644	0.1259425	0	3	100	0	50	0.01689566	-0.745022	1.696909	
17:02:47	0	0	0	-0.3924693	3.604274	0	3	100	0	50	0.03763603	-0.7123611	1.74168	
17:02:47	0	0	0	-0.3924693	3.604274	0	3	100	0	50	0.09776129	-0.673686	1.384964	
17:02:47	0	0	0	-0.3924693	3.604274	0	3	100	0	50	0.1049399	-0.678717	1.318404	
17:02:47	0	0	0	-0.3924693	3.604274	0	3	100	0	50	0.09590071	-0.6685781	1.25513	
17:02:47	0	0	0	-0.3924693	3.604274	0	3	100	0	50	0.09442443	-0.6651359	1.298666	
17:02:48	0	0	0	-0.2931415	6.084661	0	3	100	0	50	0.09285031	-0.6666197	1.346546	
17:02:48	0	0	0	-0.2931415	6.084661	0	3	100	0	50	0.1140446	-0.6600207	1.375308	
17:02:48	0	0	0	-0.2931415	6.084661	0	3	100	0	50	0.1287715	-0.6489273	1.242904	
17:02:48	0	0	0	-0.2931415	6.084661	0	3	100	0	50	0.1526958	-0.6480555	0.9935149	
17:02:48	0	0	0	-0.2931415	6.084661	0	3	100	0	50	0.1519529	-0.6454831	0.9546555	
17:02:49	0	0	0	-0.3282467	1.715979	0	3	100	0	50	0.1076712	-0.6526769	0.9827845	
17:02:49	0	0	0	-0.3282467	1.715979	0	3	100	0	50	0.09399497	-0.6461636	1.034583	
17:02:49	0	0	0	-0.3282467	1.715979	0	3	100	0	50	0.09010878	-0.6805571	1.064797	
17:02:49	0	0	0	-0.3282467	1.715979	0	3	100	0	50	0.09226258	-0.6766841	1.09716	
17:02:49	0	0	0	-0.3282467	1.715979	0	3	100	0	50	0.09488539	-0.6896634	1.14135	
17:02:50	0	0	0	-0.385822	-0.8388098	0	3	100	0	50	0.07973699	-0.7000597	1.157478	
17:02:50	0	0	0	-0.385822	-0.8388098	0	3	100	0	50	0.08045348	-0.6896339	1.191217	
17:02:50	0	0	0	-0.385822	-0.8388098	0	3	100	0	50	0.1072554	-0.6493933	1.202563	
17:02:50	0	0	0	-0.385822	-0.8388098	0	3	100	0	50	0.1210925	-0.6439152	1.2233	
17:02:50	0	0	0	-0.385822	-0.8388098	0	3	100	0	50	0.1332143	-0.6127777	0.4776451	
17:02:51	0	0	0	-0.4032072	-2.214936	0	3	100	0	50	0.1404451	-0.6257367	0.4952045	
17:02:51	0	0	0	-0.4032072	-2.214936	0	3	100	0	50	0.1200093	-0.6406235	0.5168245	
17:02:51	0	0	0	-0.4032072	-2.214936	0	3	100	0	50	0.1286982	-0.6336742	0.5454665	
17:02:51	0	0	0	-0.4032072	-2.214936	0	3	100	0	50	0.1220452	-0.6327338	0.565212	
17:02:52	0	0	0	-0.4032072	-2.214936	0	3	100	0	50	0.1246334	-0.6333798	0.5848333	
17:02:52	0	0	0	-0.6799198	-13.32975	0	3	100	0	50	0.1298592	-0.6338806	0.6079457	
17:02:52	0	0	0	-0.6799198	-13.32975	0	3	100	0	50	0.1276599	-0.6356804	0.6264019	
17:02:52	0	0	0	-0.6799198	-13.32975	0	3	100	0	50	0.1265846	-0.6314121	0.6441274	
17:02:52	0	0	0	-0.6799198	-13.32975	0	3	100	0	50	0.126817	-0.6362554	0.6627194	
17:02:53	0	0	0	-0.6799198	-13.32975	0	3	100	0	50	0.1256965	-0.6365436	0.6957929	
17:02:53	0	0	0	-0.6356373	-5.644896	0	3	100	0	50	0.1513287	-0.6308128	0.7109496	
17:02:53	0	0	0	-0.6356373	-5.644896	0	3	100	0	50	0.1787766	-0.6200491	0.7266404	
17:02:53	0	0	0	-0.6356373	-5.644896	0	3	100	0	50	0.1787308	-0.6243146	0.4596126	
17:02:53	0	0	0	-0.6356373	-5.644896	0	3	100	0	50	0.1704894	-0.6264895	0.4972588	
17:02:54	0	0	0	-0.6356373	-5.644896	0	3	100	0	50	0.1459262	-0.6666406	0.5182613	
17:02:54	0	0	0	-0.6253893	-3.832434	0	3	100	0	50	0.1220808	-0.6867202	0.5349794	
17:02:54	0	0	0	-0.6253893	-3.832434	0	3	100	0	50	0.1112639	-0.6936447	0.5461571	
17:02:54	0	0	0	-0.6253893	-3.832434	0	3	100	0	50	0.1015645	-0.7013727	0.5800799	
17:02:54	0	0	0	-0.6253893	-3.832434	0	3	100	0	50	0.0999419	-0.6894729	0.5951864	
17:02:55	0	0	0	-0.6253893	-3.832434	0	3	100	0	50	0.08381544	-0.69817	0.6172901	
17:02:55	0	0	0	-0.4656874	4.930589	0	3	100	0	50	0.09366705	-0.7003567	0.6351299	
17:02:55	0	0	0	-0.4656874	4.930589	0	3	100	0	50	0.1194052	-0.6816728	0.652765	
17:02:55	0	0	0	-0.4656874	4.930589	0	3	100	0	50	0.1451369	-0.659287	0.667622	
17:02:55	0	0	0	-0.4656874	4.930589	0	3	100	0	50	0.1433136	-0.6790165	0.683942	
17:02:56	0	0	0	-0.4656874	4.930589	0	3	100	0	50	0.1646748	-0.6697353	0.6910443	
17:02:56	0	0	0	-0.2389055	11.53495	0	3	100	0	50	0.1647182	-0.6637703	0.709097	
17:02:56	0	0	0	-0.2389055	11.53495	0	3	100	0	50	0.1601208	-0.6580146	0.7127877	
17:02:56	0	0	0	-0.2389055	11.53495	0	3	100	0	50	0.1492388	-0.6651909	0.7338259	
17:02:56	0	0	0	-0.2389055	11.53495	0	3	100	0	50	0.1335857	-0.6848873	0.7573	
17:02:57	0	0	0	-0.2389055	11.53495	0	3	100	0	50	0.1347812	-0.6773075	0.7674237	
17:02:57	0	0	0	-0.04629837	14.64452	0	3	100	0	50	0.1618668	-0.6524925	0.7728027	
17:02:57	0	0	0	-0.04629837	14.64452	0	3	100	0	50	0.1703468	-0.6478805	0.7738799	
17:02:57	0	0	0	-0.04629837	14.64452	0	3	100	0	50	0.1686716	-0.633682	0.7749127	
17:02:57	0	0	0	-0.04629837	14.64452	0	3	100	0	50	0.164735	-0.6407151	0.761823	
17:02:58	0	0	0	-0.04629837	14.64452	0	3	100	0	50	0.1648605	-0.6504858	0.7578949	
17:02:58	0	0	0	0.04403008	13.93788	0	3	100	0	50	0.1648863	-0.6676602	0.7522145	
17:02:58	0	0	0	0.04403008	13.93788	0	3	100	0	50	0.1663345	-0.6461937	0.7595894	
17:02:58	0	0	0	0.04403008	13.93788	0	3	100	0	50	0.1767113	-0.6454682	0.6371199	
17:02:58	0	0	0	0.04403008	13.93788	0	3	100	0	50	0.1692107	-0.6525709	0.6089611	
17:02:59	0	0	0	0.04403008	13.93788	0	3	100	0	50	0.178514	-0.6420128	0.4107062	
17:02:59	0	0	0	0.01015568	6.283402	0	3	100	0	50	0.1984962	-0.648398	0.2660063	
17:02:59	0	0	0	0.01015568	6.283402	0	3	100	0	50	0.2061597	-0.6598521	0.2797761	
17:02:59	0	0	0	0.01015568	6.283402	0	3	100	0	50	0.219771	-0.6560687	0.0399979	
17:02:59	0	0	0	0.01015568	6.283402	0	3	100	0	50	0.1903239	-0.6706129	0.04830855	
17:03:00	0	0	0	0.01015568	6.283402	0	3	100	0	50	0.1737229	-0.6669731	0.04373445	
17:03:00	0	0	0	-0.1250024	-1.086149	0	3	100	0	50	0.151532	-0.6701803	0.04874083	
17:03:00	0	0	0	-0.1250024	-1.086149	0	3	100	0	50	0.1352328	-0.6857959	0.0498708	
17:03:00	0	0	0	-0.1250024	-1.086149	0	3	100	0	50	0.1181436	-0.6892891	0.0489646	
17:03:00	0	0	0	-0.1250024	-1.086149	0	3	100	0	50	0.09490574	-0.721092	0.04900021	
17:03:01	0	0	0	-0.1250024	-1.086149	0	3	100	0	50	0.05724139	-0.7570664	0.05554986	
17:03:01	0	0	0	-0.04602504	3.211953	0	3	100	0	50	0.05919107	-0.7489596	0.07098646	
17:03:01	0	0	0	-0.04602504	3.211953	0	3	100	0	50	0.0278049	-0.7433989	0.0951007	
17:03:01	0	0	0	-0.04602504	3.211953	0	3	100	0	50	0.03186955	-0.7266849	0.1183775	
17:03:01	0	0	0	-0.04602504	3.211953	0	3	100	0	50	0.02107073	-0.73204	0.1427075	
17:03:02	0	0	0	-0.04602504	3.211953	0	3	100	0	50	0.08032974	-0.7018706	0.165169	
17:03:02	0	0	0	-0.1650873	-4.051485	0	3	100	0	50	0.1318347	-0.6833965	0.1748505	
17:03:02	0	0	0	-0.1650873	-4.051485	0	3	100	0	50	0.1616482	-0.6657291	0.1783227	
17:03:02	0	0	0	-0.1650873	-4.051485	0	3	100	0	50	0.1452591	-0.6797705	0.171218	
17:03:02	0	0	0	-0.1650873	-4.051485	0	3	100	0	50	0.09898084	-0.677181	0.1750789	
17:03:03	0	0	0	-0.1650873	-4.051485	0	3	100	0	50	0.03862961	-0.7174476	0.1842404	
17:03:03	0	0	0	-0.4441228	-13.73697	0	3	100	0	50	0.01700434	-0.7497367	0.2052525	
17:03:03	0	0	0	-0.4441228	-13.73697	0	3	100	0	50	0.005880922	-0.7579449	0.202461	
17:03:03	0	0	0	-0.4441228	-13.73697	0	3	100	0	50	-0.02512564	-0.7691503	0.2096547	
17:03:03	0	0	0	-0.4441228	-13.73697	0	3	100	0	50	-0.01993049	-0.761755	0.2196971	
17:03:04	0	0	0	-0.4441228	-13.73697	0	3	100	0	50	-0.02269931	-0.7613066	0.2202447	
17:03:04	0	0	0	-0.4783505	-9.251101	0	3	100	0	50	-0.02032535	-0.7412944	0.2191211	
17:03:04	0	0	0	-0.4783505	-9.251101	0	3	100	0	50	-0.01826822	-0.7433465	0.2125788	
17:03:04	0	0	0	-0.4783505	-9.251101	0	3	100	0	50	-0.01516521	-0.7405692	0.2045218	
17:03:04	0	0	0	-0.4783505	-9.251101	0	3	100	0	50	0.000820354	-0.7436127	0.2018348	
17:03:05	0	0	0	-0.4783505	-9.251101	0	3	100	0	50	0.003038823	-0.7411084	0.1978773	
17:03:05	0	0	0	-0.4398289	-4.578593	0	3	100	0	50	-0.0008211492	-0.7380615	0.1885027	
17:03:05	0	0	0	-0.4398289	-4.578593	0	3	100	0	50	-0.007543754	-0.745908	0.1883579	
17:03:05	0	0	0	-0.4398289	-4.578593	0	3	100	0	50	-0.01159955	-0.7590662	0.2014821	
17:03:05	0	0	0	-0.4398289	-4.578593	0	3	100	0	50	-0.01263297	-0.7498485	0.1851311	
17:03:06	0	0	0	-0.4398289	-4.578593	0	3	100	0	50	-0.0129166	-0.7608083	0.1883135	
17:03:06	0	0	0	-0.510117	-6.414548	0	3	100	0	50	-0.02150377	-0.7646077	0.1857681	
17:03:06	0	0	0	-0.510117	-6.414548	0	3	100	0	50	-0.02125738	-0.7550294	0.1949608	
17:03:06	0	0	0	-0.510117	-6.414548	0	3	100	0	50	-0.006994117	-0.7563224	0.1953161	
17:03:07	0	0	0	-0.510117	-6.414548	0	3	100	0	50	-0.007599794	-0.7477822	0.1910506	
17:03:07	0	0	0	-0.510117	-6.414548	0	3	100	0	50	-0.004109778	-0.7454135	0.1991692	
17:03:07	0	0	0	-0.6218603	-9.536428	0	3	100	0	50	-0.006107371	-0.7311946	0.1859282	
17:03:07	0	0	0	-0.6218603	-9.536428	0	3	100	0	50	0.005807011	-0.715584	0.1869534	
17:03:07	0	0	0	-0.6218603	-9.536428	0	3	100	0	50	0.004457397	-0.728205	0.1895637	
17:03:08	0	0	0	-0.6218603	-9.536428	0	3	100	0	50	0.01034106	-0.7369146	0.1911158	
17:03:08	0	0	0	-0.6218603	-9.536428	0	3	100	0	50	0.009306533	-0.7533128	0.1893218	
17:03:08	0	0	0	-0.5095384	-1.881531	0	3	100	0	50	0.002840578	-0.7692275	0.1943322	
17:03:08	0	0	0	-0.5095384	-1.881531	0	3	100	0	50	0.005816809	-0.7645816	0.2047414	
17:03:08	0	0	0	-0.5095384	-1.881531	0	3	100	0	50	0.003413856	-0.7754499	0.2204137	
17:03:09	0	0	0	-0.5095384	-1.881531	0	3	100	0	50	0.007148854	-0.760989	0.2172932	
17:03:09	0	0	0	-0.5095384	-1.881531	0	3	100	0	50	0.004626927	-0.7521058	0.2246853	
17:03:09	0	0	0	-0.4625025	1.05954	0	3	100	0	50	0.01618412	-0.7288208	0.2115959	
17:03:09	0	0	0	-0.4625025	1.05954	0	3	100	0	50	0.02605481	-0.7050833	0.2074943	
17:03:09	0	0	0	-0.4625025	1.05954	0	3	100	0	50	0.01866166	-0.7160203	0.2092041	
17:03:10	0	0	0	-0.4625025	1.05954	0	3	100	0	50	0.02090423	-0.7095669	0.2054698	
17:03:10	0	0	0	-0.4625025	1.05954	0	3	100	0	50	0.02451362	-0.7067538	0.200921	
17:03:10	0	0	0	-0.5554321	-3.039989	0	3	100	0	50	0.02422517	-0.7053835	0.1890079	
17:03:10	0	0	0	-0.5554321	-3.039989	0	3	100	0	50	0.01356954	-0.7091193	0.1769526	
17:03:10	0	0	0	-0.5554321	-3.039989	0	3	100	0	50	0.01078398	-0.7170444	0.1598746	
17:03:11	0	0	0	-0.5554321	-3.039989	0	3	100	0	50	0.01361601	-0.7160786	0.1699164	
17:03:11	0	0	0	-0.5554321	-3.039989	0	3	100	0	50	0.01795459	-0.7058135	0.1538058	
17:03:11	0	0	0	-0.4880486	1.850136	0	3	100	0	50	0.02553373	-0.6976455	0.1542597	
17:03:11	0	0	0	-0.4880486	1.850136	0	3	100	0	50	0.03557055	-0.7002171	0.152256	
17:03:11	0	0	0	-0.4880486	1.850136	0	3	100	0	50	0.04163685	-0.6914488	0.1313666	
17:03:12	0	0	0	-0.4880486	1.850136	0	3	100	0	50	0.05130163	-0.6970822	0.1196933	
17:03:12	0	0	0	-0.4880486	1.850136	0	3	100	0	50	0.05686888	-0.700941	0.112356	
17:03:12	0	0	0	-0.4825575	1.836272	0	3	100	0	50	0.06233215	-0.694577	0.1178124	
17:03:12	0	0	0	-0.4825575	1.836272	0	3	100	0	50	0.06343032	-0.7028515	0.1233859	
17:03:12	0	0	0	-0.4825575	1.836272	0	3	100	0	50	0.06689388	-0.7064318	0.101234	
17:03:13	0	0	0	-0.4825575	1.836272	0	3	100	0	50	0.05673956	-0.7104837	0.08555982	
17:03:13	0	0	0	-0.4825575	1.836272	0	3	100	0	50	0.05172333	-0.7153091	0.06760133	
17:03:13	0	0	0	-0.6281558	-3.879063	0	3	100	0	50	0.05888033	-0.7119963	0.05755053	
17:03:13	0	0	0	-0.6281558	-3.879063	0	3	100	0	50	0.06529149	-0.7132332	0.05422305	
17:03:13	0	0	0	-0.6281558	-3.879063	0	3	100	0	50	0.08571435	-0.7218269	0.07591302	
17:03:14	0	0	0	-0.6281558	-3.879063	0	3	100	0	50	0.06737196	-0.7364005	0.06251743	
17:03:14	0	0	0	-0.6281558	-3.879063	0	3	100	0	50	0.06015266	-0.737184	0.03970198	
17:03:14	0	0	0	-0.2231427	13.66354	0	3	100	0	50	0.09156792	-0.7323261	0.04052981	
17:03:14	0	0	0	-0.2231427	13.66354	0	3	100	0	50	0.1042567	-0.7157549	0.03567304	
17:03:14	0	0	0	-0.2231427	13.66354	0	3	100	0	50	0.1055667	-0.7280367	0.02001386	
17:03:15	0	0	0	-0.2231427	13.66354	0	3	100	0	50	0.09508696	-0.7256679	0.004577104	
17:03:15	0	0	0	-0.2231427	13.66354	0	3	100	0	50	0.09602641	-0.7117827	-0.002372205	
17:03:15	0	0	0	-0.2661786	5.465975	0	3	100	0	50	0.08912822	-0.70656	-0.0006720325	
17:03:15	0	0	0	-0.2661786	5.465975	0	3	100	0	50	0.0799554	-0.7140223	-0.01843389	
17:03:15	0	0	0	-0.2661786	5.465975	0	3	100	0	50	0.07766631	-0.707582	-0.04721057	
17:03:16	0	0	0	-0.2661786	5.465975	0	3	100	0	50	0.06328815	-0.7120219	-0.03559604	
17:03:16	0	0	0	-0.2661786	5.465975	0	3	100	0	50	0.05284622	-0.7034526	-0.03850777	
17:03:16	0	0	0	-0.46444	-4.895115	0	3	100	0	50	0.05294629	-0.7027427	-0.04375863	
17:03:16	0	0	0	-0.46444	-4.895115	0	3	100	0	50	0.05234437	-0.7139554	-0.04073881	
17:03:16	0	0	0	-0.46444	-4.895115	0	3	100	0	50	0.06264067	-0.6993707	-0.02939312	
17:03:17	0	0	0	-0.46444	-4.895115	0	3	100	0	50	0.0661954	-0.7001622	-0.03872148	
17:03:17	0	0	0	-0.46444	-4.895115	0	3	100	0	50	0.06580221	-0.6901183	-0.03862954	
17:03:17	0	0	0	-0.5889313	-6.709517	0	3	100	0	50	0.06735715	-0.6860439	-0.05010451	
17:03:17	0	0	0	-0.5889313	-6.709517	0	3	100	0	50	0.06235063	-0.7126863	-0.06723277	
17:03:17	0	0	0	-0.5889313	-6.709517	0	3	100	0	50	0.05980649	-0.7077655	-0.06270783	
17:03:18	0	0	0	-0.5889313	-6.709517	0	3	100	0	50	0.06161507	-0.7129093	-0.05338167	
17:03:18	0	0	0	-0.5889313	-6.709517	0	3	100	0	50	0.06561101	-0.7057693	-0.06686525	
17:03:18	0	0	0	-0.6573606	-7.048289	0	3	100	0	50	0.06618477	-0.7064109	-0.08399208	
17:03:18	0	0	0	-0.6573606	-7.048289	0	3	100	0	50	0.07045086	-0.6960166	-0.0884776	
17:03:18	0	0	0	-0.6573606	-7.048289	0	3	100	0	50	0.05768497	-0.7045411	-0.08773119	
17:03:19	0	0	0	-0.6573606	-7.048289	0	3	100	0	50	0.05151418	-0.6998237	-0.08633348	
17:03:19	0	0	0	-0.6573606	-7.048289	0	3	100	0	50	0.05209181	-0.7016657	-0.09364432	
17:03:19	0	0	0	-0.7418202	-7.475794	0	3	100	0	50	0.05986986	-0.6996456	-0.1056753	
17:03:19	0	0	0	-0.7418202	-7.475794	0	3	100	0	50	0.02039711	-0.7218055	-0.1216279	
17:03:19	0	0	0	-0.7418202	-7.475794	0	3	100	0	50	-0.01752165	-0.7493656	-0.1166414	
17:03:20	0	0	0	-0.7418202	-7.475794	0	3	100	0	50	0.02400514	-0.7395677	-0.1226817	
17:03:20	0	0	0	-0.7418202	-7.475794	0	3	100	0	50	0.06366914	-0.7260262	-0.1265557	
17:03:20	0	0	0	-0.7343479	-5.258377	0	3	100	0	50	0.09902372	-0.7173948	-0.1252832	
17:03:20	0	0	0	-0.7343479	-5.258377	0	3	100	0	50	0.08516137	-0.7324512	-0.1495888	
17:03:20	0	0	0	-0.7343479	-5.258377	0	3	100	0	50	0.09316126	-0.7354584	-0.1599066	
17:03:21	0	0	0	-0.7343479	-5.258377	0	3	100	0	50	0.09521827	-0.7365647	-0.1611378	
17:03:21	0	0	0	-0.7343479	-5.258377	0	3	100	0	50	0.09065411	-0.7322509	-0.1553463	
17:03:21	0	0	0	-1.029979	-15.17235	0	3	100	0	50	0.09996209	-0.7567773	-0.1612249	
17:03:21	0	0	0	-1.029979	-15.17235	0	3	100	0	50	0.1029966	-0.7582301	-0.1594546	
17:03:22	0	0	0	-1.029979	-15.17235	0	3	100	0	50	0.09999813	-0.7533329	-0.1771677	
17:03:22	0	0	0	-1.029979	-15.17235	0	3	100	0	50	0.08905523	-0.7658203	-0.1753757	
17:03:22	0	0	0	-1.029979	-15.17235	0	3	100	0	50	0.09162354	-0.7708741	-0.173887	
17:03:22	0	0	0	-0.6928712	3.21933	0	3	100	0	50	0.0936939	-0.7826071	-0.1758506	
17:03:22	0	0	0	-0.6928712	3.21933	0	3	100	0	50	0.09988668	-0.7767533	-0.1948516	
17:03:23	0	0	0	-0.6928712	3.21933	0	3	100	0	50	0.1021446	-0.7818023	-0.205318	
17:03:23	0	0	0	-0.6928712	3.21933	0	3	100	0	50	0.1062439	-0.7726268	-0.2103781	
17:03:23	0	0	0	-0.6928712	3.21933	0	3	100	0	50	0.07672745	-0.778357	-0.2186874	
17:03:23	0	0	0	-0.5542271	7.954575	0	3	100	0	50	0.09928421	-0.7747076	-0.2319123	
17:03:23	0	0	0	-0.5542271	7.954575	0	3	100	0	50	0.08344907	-0.7777677	-0.2368294	
17:03:24	0	0	0	-0.5542271	7.954575	0	3	100	0	50	0.09495667	-0.7630262	-0.2267928	
17:03:24	0	0	0	-0.5542271	7.954575	0	3	100	0	50	0.08759697	-0.7491734	-0.2302049	
17:03:24	0	0	0	-0.5542271	7.954575	0	3	100	0	50	0.1035761	-0.7278256	-0.2368693	
17:03:24	0	0	0	-0.6529157	0.9052323	0	3	100	0	50	0.09631026	-0.7039983	-0.2476215	
17:03:24	0	0	0	-0.6529157	0.9052323	0	3	100	0	50	0.1091163	-0.6883178	-0.2324851	
17:03:25	0	0	0	-0.6529157	0.9052323	0	3	100	0	50	0.09870555	-0.6933545	-0.2448836	
17:03:25	0	0	0	-0.6529157	0.9052323	0	3	100	0	50	0.1113342	-0.6899846	-0.2574148	
17:03:25	0	0	0	-0.6529157	0.9052323	0	3	100	0	50	0.09684985	-0.6906579	-0.2748185	
17:03:25	0	0	0	-0.7314448	-2.80122	0	3	100	0	50	0.10817	-0.6858136	-0.2901205	
17:03:25	0	0	0	-0.7314448	-2.80122	0	3	100	0	50	0.09696776	-0.6771468	-0.3025103	
17:03:26	0	0	0	-0.7314448	-2.80122	0	3	100	0	50	0.1163147	-0.6772357	-0.3009124	
17:03:26	0	0	0	-0.7314448	-2.80122	0	3	100	0	50	0.1003673	-0.6613679	-0.3010715	
17:03:26	0	0	0	-0.7314448	-2.80122	0	3	100	0	50	0.08873097	-0.6659182	-0.3125966	
17:03:26	0	0	0	-0.6047156	4.026876	0	3	100	0	50	0.08535807	-0.6776563	-0.3439332	
17:03:26	0	0	0	-0.6047156	4.026876	0	3	100	0	50	0.09181441	-0.6800501	-0.3566093	
17:03:27	0	0	0	-0.6047156	4.026876	0	3	100	0	50	0.07358527	-0.6971378	-0.371634	
17:03:27	0	0	0	-0.6047156	4.026876	0	3	100	0	50	0.08068275	-0.6943649	-0.3808903	
17:03:27	0	0	0	-0.6047156	4.026876	0	3	100	0	50	0.07526074	-0.7154415	-0.376754	
17:03:27	0	0	0	-0.6561161	0.392547	0	3	100	0	50	0.0798118	-0.7221606	-0.3808815	
17:03:27	0	0	0	-0.6561161	0.392547	0	3	100	0	50	0.08302219	-0.7243015	-0.3898129	
17:03:28	0	0	0	-0.6561161	0.392547	0	3	100	0	50	0.09412375	-0.7144006	-0.3906381	
17:03:28	0	0	0	-0.6561161	0.392547	0	3	100	0	50	0.09215564	-0.7162189	-0.3940606	
17:03:28	0	0	0	-0.6561161	0.392547	0	3	100	0	50	0.08572875	-0.7340076	-0.4165798	
17:03:28	0	0	0	-0.7453265	-3.09977	0	3	100	0	50	0.08588904	-0.7411882	-0.4207315	
17:03:28	0	0	0	-0.7453265	-3.09977	0	3	100	0	50	0.08609281	-0.7340242	-0.4210666	
17:03:29	0	0	0	-0.7453265	-3.09977	0	3	100	0	50	0.09199021	-0.7118036	-0.4169352	
17:03:29	0	0	0	-0.7453265	-3.09977	0	3	100	0	50	0.07528804	-0.7124036	-0.4163009	
17:03:29	0	0	0	-0.7453265	-3.09977	0	3	100	0	50	0.08295603	-0.72598	-0.408108	
17:03:29	0	0	0	-0.6424286	4.324232	0	3	100	0	50	0.07837752	-0.7287877	-0.4251884	
17:03:29	0	0	0	-0.6424286	4.324232	0	3	100	0	50	0.07256526	-0.745597	-0.4076265	
17:03:30	0	0	0	-0.6424286	4.324232	0	3	100	0	50	0.06916428	-0.7562739	-0.4137284	
17:03:30	0	0	0	-0.6424286	4.324232	0	3	100	0	50	0.06173025	-0.7488561	-0.4178847	
17:03:30	0	0	0	-0.6424286	4.324232	0	3	100	0	50	0.03648638	-0.750294	-0.4096918	
17:03:30	0	0	0	-0.3177466	16.46534	0	3	100	0	50	0.0582151	-0.7510198	-0.4186747	
17:03:30	0	0	0	-0.3177466	16.46534	0	3	100	0	50	0.06611779	-0.7523271	-0.420105	
17:03:31	0	0	0	-0.3177466	16.46534	0	3	100	0	50	0.07210265	-0.761111	-0.4013964	
17:03:31	0	0	0	-0.3177466	16.46534	0	3	100	0	50	0.07853331	-0.754988	-0.3904162	
17:03:31	0	0	0	-0.3177466	16.46534	0	3	100	0	50	0.07447847	-0.7695929	-0.3896797	
17:03:31	0	0	0	-0.3935505	6.45554	0	3	100	0	50	0.06142003	-0.7731218	-0.4062833	
17:03:31	0	0	0	-0.3935505	6.45554	0	3	100	0	50	0.0675263	-0.7714325	-0.4070978	
17:03:32	0	0	0	-0.3935505	6.45554	0	3	100	0	50	0.05804469	-0.778966	-0.4191071	
17:03:32	0	0	0	-0.3935505	6.45554	0	3	100	0	50	0.06773525	-0.7831122	-0.4251609	
17:03:32	0	0	0	-0.3935505	6.45554	0	3	100	0	50	0.07261373	-0.7795995	-0.431042	
17:03:32	0	0	0	-0.4335607	3.480488	0	3	100	0	50	0.08525388	-0.7756551	-0.4222299	
17:03:32	0	0	0	-0.4335607	3.480488	0	3	100	0	50	0.09288912	-0.759179	-0.4280811	
17:03:33	0	0	0	-0.4335607	3.480488	0	3	100	0	50	0.1007609	-0.7539495	-0.4313176	
17:03:33	0	0	0	-0.4335607	3.480488	0	3	100	0	50	0.0987341	-0.7570422	-0.4307037	
17:03:33	0	0	0	-0.4335607	3.480488	0	3	100	0	50	0.1051876	-0.7466032	-0.4198908	
17:03:33	0	0	0	-0.3273767	5.539151	0	3	100	0	50	0.1173163	-0.7249945	-0.4211592	
17:03:33	0	0	0	-0.3273767	5.539151	0	3	100	0	50	0.1186858	-0.7296256	-0.4200789	
17:03:34	0	0	0	-0.3273767	5.539151	0	3	100	0	50	0.1259311	-0.7204508	-0.4303499	
17:03:34	0	0	0	-0.3273767	5.539151	0	3	100	0	50	0.1395066	-0.7120495	-0.4435098	
17:03:34	0	0	0	-0.3273767	5.539151	0	3	100	0	50	0.1347497	-0.7131338	-0.4443746	
17:03:34	0	0	0	-0.2679602	6.573964	0	3	100	0	50	0.1324238	-0.7172276	-0.4524373	
17:03:34	0	0	0	-0.2679602	6.573964	0	3	100	0	50	0.1379407	-0.7209057	-0.4682773	
17:03:35	0	0	0	-0.2679602	6.573964	0	3	100	0	50	0.1373814	-0.7193055	-0.4894822	
17:03:35	0	0	0	-0.2679602	6.573964	0	3	100	0	50	0.1299291	-0.702548	-0.4923932	
17:03:35	0	0	0	-0.2679602	6.573964	0	3	100	0	50	0.1256074	-0.7080182	-0.495915	
17:03:35	0	0	0	-0.4173109	-3.261709	0	3	100	0	50	0.1222185	-0.706466	-0.4943459	
17:03:36	0	0	0	-0.4173109	-3.261709	0	3	100	0	50	0.1258737	-0.6966754	-0.4916283	
17:03:36	0	0	0	-0.4173109	-3.261709	0	3	100	0	50	0.1242687	-0.7019981	-0.4931664	
17:03:36	0	0	0	-0.4173109	-3.261709	0	3	100	0	50	0.1222758	-0.7093653	-0.4858918	
17:03:36	0	0	0	-0.4173109	-3.261709	0	3	100	0	50	0.09069958	-0.7326908	-0.4694474	
17:03:36	0	0	0	-0.7708717	-17.11265	0	3	100	0	50	0.07130436	-0.74186	-0.4530252	
17:03:37	0	0	0	-0.7708717	-17.11265	0	3	100	0	50	0.09089523	-0.7434011	-0.4472357	
17:03:37	0	0	0	-0.7708717	-17.11265	0	3	100	0	50	0.08583637	-0.7535815	-0.4548559	
17:03:37	0	0	0	-0.7708717	-17.11265	0	3	100	0	50	0.09124696	-0.7663689	-0.4556397	
17:03:37	0	0	0	-0.7708717	-17.11265	0	3	100	0	50	0.0847991	-0.7797118	-0.4423326	
17:03:37	0	0	0	-0.7610699	-11.14903	0	3	100	0	50	0.08159397	-0.7875564	-0.4464793	
17:03:38	0	0	0	-0.7610699	-11.14903	0	3	100	0	50	0.07797607	-0.7819918	-0.4558397	
17:03:38	0	0	0	-0.7610699	-11.14903	0	3	100	0	50	0.07219212	-0.7838926	-0.4667521	
