Date	Latitude(deg) 	Longitude(deg)	hamsl(m)	hafl(m)	climbrate(cm/s)	GroundSpeed(m/s)	Airspeed(m/s)	Mav_Link(%)	Rssi_Link(%)	Throttle	Roll(deg)	Pitch(deg)	Yaw(deg)
08:01:28	0	0	0	0	0	0	0	100	0	0	-16.59643	-6.624409	52.32944	
08:01:28	0	0	0	0.1945095	-4.562952	0	3	100	0	6545	-16.57006	-6.587835	52.58083	
08:01:28	0	0	0	0.1945095	-4.562952	0	3	100	0	6545	-16.17367	-6.503947	52.82848	
08:01:28	0	0	0	0.1945095	-4.562952	0	3	100	0	6545	-15.36936	-6.413599	52.97408	
08:01:28	0	0	0	0.1945095	-4.562952	0	3	100	0	6545	-14.79291	-6.350827	53.07927	
08:01:29	0	0	0	0.1945095	-4.562952	0	3	100	0	6545	-14.33677	-6.267058	53.19554	
08:01:29	0	0	0	0.7919675	9.776148	0	3	100	0	6546	-13.52534	-6.207491	53.31522	
08:01:29	0	0	0	0.7919675	9.776148	0	3	100	0	6546	-13.24863	-6.189393	53.35836	
08:01:29	0	0	0	0.7919675	9.776148	0	3	100	0	6546	-13.1788	-6.147624	53.38435	
08:01:29	0	0	0	0.7919675	9.776148	0	3	100	0	6546	-12.3181	-6.088257	53.4641	
08:01:30	0	0	0	0.7919675	9.776148	0	3	100	0	6546	-11.32644	-6.057875	53.40401	
08:01:30	0	0	0	1.064924	6.632283	0	3	100	0	6546	-10.58485	-5.99618	53.40732	
08:01:30	0	0	0	1.064924	6.632283	0	3	100	0	6546	-9.854723	-5.993483	53.31339	
08:01:30	0	0	0	1.064924	6.632283	0	3	100	0	6546	-9.280536	-5.992056	53.12919	
08:01:30	0	0	0	1.064924	6.632283	0	3	100	0	6546	-8.724236	-5.987884	53.00893	
08:01:31	0	0	0	1.064924	6.632283	0	3	100	0	6546	-8.193306	-6.008034	52.81373	
08:01:31	0	0	0	0.5570142	-16.68118	0	3	100	0	6546	-7.894156	-5.957327	52.64256	
08:01:31	0	0	0	0.5570142	-16.68118	0	3	100	0	6546	-7.73445	-5.958616	52.54184	
08:01:31	0	0	0	0.5570142	-16.68118	0	3	100	0	6546	-7.981846	-5.98256	52.30614	
08:01:31	0	0	0	0.5570142	-16.68118	0	3	100	0	6546	-7.194447	-5.949806	52.14562	
08:01:32	0	0	0	0.5570142	-16.68118	0	3	100	0	6546	-6.89582	-5.876225	51.88224	
08:01:32	0	0	0	0.191225	-17.21789	0	3	100	0	6546	-6.987036	-5.960023	51.6909	
08:01:32	0	0	0	0.191225	-17.21789	0	3	100	0	6546	-7.227807	-5.893014	51.41744	
08:01:32	0	0	0	0.191225	-17.21789	0	3	100	0	6546	-6.701889	-5.975126	51.13691	
08:01:32	0	0	0	0.191225	-17.21789	0	3	100	0	6546	-6.181401	-5.934916	50.95432	
08:01:33	0	0	0	0.191225	-17.21789	0	3	100	0	6546	-6.12615	-5.934202	50.83949	
08:01:33	0	0	0	0.08601317	-4.011735	0	3	100	0	6546	-5.999809	-5.942235	50.56004	
08:01:33	0	0	0	0.08601317	-4.011735	0	3	100	0	6546	-5.780042	-5.912255	50.29815	
08:01:33	0	0	0	0.08601317	-4.011735	0	3	100	0	6546	-5.490127	-5.911444	50.1254	
08:01:33	0	0	0	0.08601317	-4.011735	0	3	100	0	6546	-5.472399	-5.917736	49.92986	
08:01:34	0	0	0	0.08601317	-4.011735	0	3	100	0	6546	-5.662802	-5.946622	49.63805	
08:01:34	0	0	0	0.1881693	9.998121	0	3	100	0	6546	-5.465934	-5.956681	49.34978	
08:01:34	0	0	0	0.1881693	9.998121	0	3	100	0	6546	-4.825366	-5.965886	48.98067	
08:01:34	0	0	0	0.1881693	9.998121	0	3	100	0	6546	-4.506767	-6.001642	48.65213	
08:01:34	0	0	0	0.1881693	9.998121	0	3	100	0	6546	-4.558528	-6.076624	48.327	
08:01:35	0	0	0	0.1881693	9.998121	0	3	100	0	6546	-4.287749	-6.065568	47.87136	
08:01:35	0	0	0	-0.1866296	1.579255	0	3	100	0	6546	-3.765809	-6.019363	47.43711	
08:01:35	0	0	0	-0.1866296	1.579255	0	3	100	0	6546	-3.544863	-5.979495	47.09788	
08:01:35	0	0	0	-0.1866296	1.579255	0	3	100	0	6546	-3.56443	-5.994905	46.61707	
08:01:35	0	0	0	-0.1866296	1.579255	0	3	100	0	6546	-3.300495	-6.011239	46.10819	
08:01:36	0	0	0	-0.1866296	1.579255	0	3	100	0	6546	-3.097901	-6.042173	45.82165	
08:01:36	0	0	0	-0.3073237	6.328323	0	3	100	0	6546	-3.154801	-6.108522	45.30195	
08:01:36	0	0	0	-0.3073237	6.328323	0	3	100	0	6546	-2.875213	-6.068967	44.93896	
08:01:36	0	0	0	-0.3073237	6.328323	0	3	100	0	6546	-1.989752	-5.99779	44.47552	
08:01:37	0	0	0	-0.3073237	6.328323	0	3	100	0	6546	-1.006683	-6.007066	43.89618	
08:01:37	0	0	0	-0.3073237	6.328323	0	3	100	0	6546	-0.2165205	-5.880891	43.43244	
08:01:37	0	0	0	-0.1022266	23.865	0	3	100	0	6546	0.3127929	-5.96625	42.99466	
08:01:37	0	0	0	-0.1022266	23.865	0	3	100	0	6546	0.536459	-6.034614	42.21796	
08:01:37	0	0	0	-0.1022266	23.865	0	3	100	0	6546	-0.357742	-6.07992	41.54806	
08:01:38	0	0	0	-0.1022266	23.865	0	3	100	0	6546	-1.427973	-6.109049	41.28555	
08:01:38	0	0	0	-0.1022266	23.865	0	3	100	0	6546	-1.235137	-5.977883	40.91985	
08:01:38	0	0	0	-0.009930154	30.01244	0	3	100	0	6546	0.3972983	-4.955307	40.42831	
08:01:38	0	0	0	-0.009930154	30.01244	0	3	100	0	6546	1.942117	-4.939493	39.84035	
08:01:38	0	0	0	-0.009930154	30.01244	0	3	100	0	6546	1.990402	-4.927446	39.21721	
08:01:38	0	0	0	-0.009930154	30.01244	0	3	100	0	6546	2.070935	-5.43058	38.35642	
08:01:39	0	0	0	-0.009930154	30.01244	0	3	100	0	6546	3.889832	-3.766098	38.05698	
08:01:39	0	0	0	-0.1609231	28.88125	0	3	100	0	6546	3.697293	-2.966771	37.85563	
08:01:39	0	0	0	-0.1609231	28.88125	0	3	100	0	6546	3.066847	-2.748706	37.50082	
08:01:39	0	0	0	-0.1609231	28.88125	0	3	100	0	6546	1.837744	-3.839484	36.8188	
08:01:40	0	0	0	-0.1609231	28.88125	0	3	100	0	6546	0.5014639	-4.49125	35.95029	
08:01:40	0	0	0	-0.1609231	28.88125	0	3	100	0	6546	0.3516885	-4.92273	35.74937	
08:01:40	0	0	0	-0.1473602	27.11999	0	3	100	0	6546	0.2619144	-5.26776	35.49752	
08:01:40	0	0	0	-0.1473602	27.11999	0	3	100	0	6546	0.07863253	-5.53581	35.06919	
08:01:40	0	0	0	-0.1473602	27.11999	0	3	100	0	6546	0.69291	-5.495783	34.48973	
08:01:40	0	0	0	-0.1473602	27.11999	0	3	100	0	6546	1.361091	-5.454266	33.9738	
08:01:41	0	0	0	-0.1473602	27.11999	0	3	100	0	6546	1.674632	-5.480427	33.33855	
08:01:41	0	0	0	-0.3125266	17.08417	0	3	100	0	6546	1.12974	-5.891536	32.92628	
08:01:41	0	0	0	-0.3125266	17.08417	0	3	100	0	6546	0.09409958	-6.169344	32.43045	
08:01:41	0	0	0	-0.3125266	17.08417	0	3	100	0	6546	-0.2082338	-6.226038	32.03885	
08:01:41	0	0	0	-0.3125266	17.08417	0	3	100	0	6546	-0.4806997	-6.126331	31.54188	
08:01:42	0	0	0	-0.3125266	17.08417	0	3	100	0	6546	0.2110272	-6.190864	31.31235	
08:01:42	0	0	0	-0.2521174	19.66068	0	3	100	0	6546	0.8149667	-6.264269	30.83225	
08:01:42	0	0	0	-0.2521174	19.66068	0	3	100	0	6546	1.082522	-6.29108	30.4345	
08:01:42	0	0	0	-0.2521174	19.66068	0	3	100	0	6546	1.124193	-6.30097	30.02561	
08:01:42	0	0	0	-0.2521174	19.66068	0	3	100	0	6546	1.219748	-6.341233	29.56317	
08:01:43	0	0	0	-0.2521174	19.66068	0	3	100	0	6546	1.293124	-6.35451	29.19234	
08:01:43	0	0	0	-0.2521174	19.66068	0	3	100	0	6546	1.400242	-6.352221	28.86019	
08:01:43	0	0	0	-0.2521174	19.66068	0	3	100	0	6546	1.434156	-6.343513	28.32059	
08:01:43	0	0	0	-0.2521174	19.66068	0	3	100	0	6546	1.118266	-6.349164	27.96908	
08:01:44	0	0	0	-0.2521174	19.66068	0	3	100	0	6546	0.9532669	-6.349549	27.78631	
08:01:44	0	0	0	-0.2521174	19.66068	0	3	100	0	6546	0.972259	-6.346184	27.36386	
08:01:44	0	0	0	-0.1084226	22.54848	0	3	100	0	6546	1.281612	-6.338121	27.10105	
08:01:44	0	0	0	-0.1084226	22.54848	0	3	100	0	6546	1.707919	-6.328187	26.65937	
08:01:45	0	0	0	-0.1084226	22.54848	0	3	100	0	6546	1.799252	-6.308944	26.24264	
08:01:45	0	0	0	-0.1084226	22.54848	0	3	100	0	6546	1.82281	-6.282985	25.84539	
08:01:45	0	0	0	-0.1084226	22.54848	0	3	100	0	6546	1.970821	-6.270914	25.53489	
08:01:45	0	0	0	0.3538394	40.79581	0	3	100	0	6546	2.109491	-6.288704	25.19525	
08:01:45	0	0	0	0.3538394	40.79581	0	3	100	0	6546	2.005333	-6.266353	24.74302	
08:01:45	0	0	0	0.3538394	40.79581	0	3	100	0	6546	2.124043	-6.241619	24.29095	
08:01:46	0	0	0	0.3538394	40.79581	0	3	100	0	6546	2.140948	-6.239217	23.95228	
08:01:46	0	0	0	0.3538394	40.79581	0	3	100	0	6546	2.161937	-6.228876	23.59458	
08:01:46	0	0	0	0.4971957	34.96821	0	3	100	0	6546	2.105723	-6.255081	23.33919	
08:01:47	0	0	0	0.4971957	34.96821	0	3	100	0	6546	2.083404	-6.248589	23.15093	
08:01:47	0	0	0	0.4971957	34.96821	0	3	100	0	6546	2.248058	-6.242264	22.86614	
08:01:47	0	0	0	0.4971957	34.96821	0	3	100	0	6546	2.421267	-6.224452	22.70009	
08:01:47	0	0	0	0.4971957	34.96821	0	3	100	0	6546	2.549886	-6.180028	22.29741	
08:01:47	0	0	0	0.4423265	24.84912	0	3	100	0	6546	2.531389	-6.171656	22.13618	
08:01:47	0	0	0	0.4423265	24.84912	0	3	100	0	6546	2.529973	-6.146043	21.7451	
08:01:48	0	0	0	0.4423265	24.84912	0	3	100	0	6546	2.588998	-6.150718	21.25407	
08:01:48	0	0	0	0.4423265	24.84912	0	3	100	0	6546	2.621148	-6.140077	20.93966	
08:01:48	0	0	0	0.4423265	24.84912	0	3	100	0	6546	2.564739	-6.137428	20.69079	
08:01:48	0	0	0	0.1414535	8.64783	0	3	100	0	6546	2.649937	-6.132818	20.26376	
08:01:48	0	0	0	0.1414535	8.64783	0	3	100	0	6546	2.76824	-6.120457	19.94658	
08:01:48	0	0	0	0.1414535	8.64783	0	3	100	0	6546	2.650884	-6.104767	19.65496	
08:01:49	0	0	0	0.1414535	8.64783	0	3	100	0	6546	2.56465	-6.109119	19.38745	
08:01:49	0	0	0	0.1414535	8.64783	0	3	100	0	6546	2.447747	-6.065334	19.17673	
08:01:49	0	0	0	0.3111355	18.84638	0	3	100	0	6546	2.492264	-6.054233	18.94998	
08:01:49	0	0	0	0.3111355	18.84638	0	3	100	0	6546	2.557354	-6.069182	18.80446	
08:01:50	0	0	0	0.3111355	18.84638	0	3	100	0	6546	2.501547	-6.071658	18.66578	
08:01:50	0	0	0	0.3111355	18.84638	0	3	100	0	6546	2.375245	-6.059051	18.62804	
08:01:50	0	0	0	0.3111355	18.84638	0	3	100	0	6546	2.355944	-6.040992	18.5511	
08:01:50	0	0	0	0.3233004	18.07113	0	3	100	0	6546	2.473245	-6.05841	18.39618	
08:01:50	0	0	0	0.3233004	18.07113	0	3	100	0	6546	2.575083	-6.059856	18.09747	
08:01:50	0	0	0	0.3233004	18.07113	0	3	100	0	6546	2.376629	-6.061019	18.05939	
08:01:51	0	0	0	0.3233004	18.07113	0	3	100	0	6546	2.373144	-6.095889	17.87915	
08:01:51	0	0	0	0.3233004	18.07113	0	3	100	0	6546	2.358235	-6.087334	17.74831	
08:01:51	0	0	0	0.3539547	15.77778	0	3	100	0	6546	2.230996	-6.105553	17.63951	
08:01:51	0	0	0	0.3539547	15.77778	0	3	100	0	6546	1.971322	-6.079631	17.46168	
08:01:51	0	0	0	0.3539547	15.77778	0	3	100	0	6546	1.922955	-6.115721	17.4122	
08:01:52	0	0	0	0.3539547	15.77778	0	3	100	0	6546	1.981795	-6.115748	17.27985	
08:01:52	0	0	0	0.3539547	15.77778	0	3	100	0	6546	2.090643	-6.172016	17.30294	
08:01:52	0	0	0	0.08037074	3.384617	0	3	100	0	6546	2.205062	-6.141638	17.00205	
08:01:52	0	0	0	0.08037074	3.384617	0	3	100	0	6546	2.050267	-6.172269	16.97648	
08:01:52	0	0	0	0.08037074	3.384617	0	3	100	0	6546	1.829695	-6.175829	16.96144	
08:01:52	0	0	0	0.08037074	3.384617	0	3	100	0	6546	1.855981	-6.175748	17.04582	
08:01:53	0	0	0	0.08037074	3.384617	0	3	100	0	6546	2.013698	-6.13915	16.79538	
08:01:53	0	0	0	0.002132893	3.054166	0	3	100	0	6546	2.200463	-6.136936	16.69312	
08:01:53	0	0	0	0.002132893	3.054166	0	3	100	0	6546	2.286661	-6.14439	16.65844	
08:01:53	0	0	0	0.002132893	3.054166	0	3	100	0	6546	2.505267	-6.135163	16.74353	
08:01:54	0	0	0	0.002132893	3.054166	0	3	100	0	6546	2.543639	-6.154146	16.61142	
08:01:54	0	0	0	0.002132893	3.054166	0	3	100	0	6546	2.250507	-6.148148	16.55073	
08:01:54	0	0	0	0.1999302	15.94843	0	3	100	0	6546	2.218581	-6.162721	16.63712	
08:01:54	0	0	0	0.1999302	15.94843	0	3	100	0	6546	2.316835	-6.172093	16.67346	
08:01:54	0	0	0	0.1999302	15.94843	0	3	100	0	6546	2.322798	-6.187509	16.78615	
08:01:54	0	0	0	0.1999302	15.94843	0	3	100	0	6546	2.270107	-6.177899	16.55551	
08:01:55	0	0	0	0.1999302	15.94843	0	3	100	0	6546	2.047952	-6.176521	16.35394	
08:01:55	0	0	0	0.4659443	26.83212	0	3	100	0	6546	2.034921	-6.155015	16.15607	
08:01:55	0	0	0	0.4659443	26.83212	0	3	100	0	6546	2.211631	-6.167296	16.11281	
08:01:55	0	0	0	0.4659443	26.83212	0	3	100	0	6546	2.354806	-6.181041	15.88912	
08:01:55	0	0	0	0.4659443	26.83212	0	3	100	0	6546	2.063527	-6.209682	15.88835	
08:01:56	0	0	0	0.4659443	26.83212	0	3	100	0	6546	1.705493	-6.20305	15.96007	
08:01:56	0	0	0	0.6333912	28.42365	0	3	100	0	6546	1.677502	-6.273198	16.06307	
08:01:56	0	0	0	0.6333912	28.42365	0	3	100	0	6546	2.206497	-6.297392	16.15608	
08:01:56	0	0	0	0.6333912	28.42365	0	3	100	0	6546	2.456033	-6.272333	16.17846	
08:01:56	0	0	0	0.6333912	28.42365	0	3	100	0	6546	2.282444	-6.243426	16.0285	
08:01:57	0	0	0	0.6333912	28.42365	0	3	100	0	6546	1.934708	-6.250065	15.93648	
08:01:57	0	0	0	0.3515443	9.781803	0	3	100	0	6548	1.921198	-6.243693	15.9852	
08:01:57	0	0	0	0.3515443	9.781803	0	3	100	0	6548	1.961886	-6.24109	16.07671	
08:01:57	0	0	0	0.3515443	9.781803	0	3	100	0	6548	1.88838	-6.230726	16.03253	
08:01:57	0	0	0	0.3515443	9.781803	0	3	100	0	6548	1.777461	-6.238652	15.94796	
08:01:58	0	0	0	0.3515443	9.781803	0	3	100	0	6548	1.711401	-6.240992	16.11055	
08:01:58	0	0	0	0.1651436	1.04345	0	3	100	0	6546	1.783489	-6.269658	16.14058	
08:01:58	0	0	0	0.1651436	1.04345	0	3	100	0	6546	1.742523	-6.257761	16.21039	
08:01:58	0	0	0	0.1651436	1.04345	0	3	100	0	6546	1.666243	-6.268578	16.31897	
08:01:59	0	0	0	0.1651436	1.04345	0	3	100	0	6546	1.821984	-6.257859	16.45359	
08:01:59	0	0	0	0.1651436	1.04345	0	3	100	0	6546	1.820039	-6.277306	16.42153	
08:01:59	0	0	0	0.08255055	-0.5217357	0	3	100	0	6546	1.78697	-6.265495	16.45744	
08:01:59	0	0	0	0.08255055	-0.5217357	0	3	100	0	6546	1.692692	-6.283314	16.63667	
08:01:59	0	0	0	0.08255055	-0.5217357	0	3	100	0	6546	1.744668	-6.310349	16.61949	
08:01:59	0	0	0	0.08255055	-0.5217357	0	3	100	0	6546	1.824935	-6.318592	16.66575	
08:02:00	0	0	0	0.08255055	-0.5217357	0	3	100	0	6546	1.851456	-6.364655	16.612	
08:02:00	0	0	0	0.03924005	2.754855	0	3	100	0	6546	1.8761	-6.352829	16.67101	
08:02:00	0	0	0	0.03924005	2.754855	0	3	100	0	6546	1.995869	-6.324715	16.74492	
08:02:00	0	0	0	0.03924005	2.754855	0	3	100	0	6546	2.097892	-6.322548	16.75191	
08:02:00	0	0	0	0.03924005	2.754855	0	3	100	0	6546	2.006291	-6.317258	16.78287	
08:02:01	0	0	0	0.03924005	2.754855	0	3	100	0	6546	1.820302	-6.335405	16.86911	
08:02:01	0	0	0	0.2556127	16.02981	0	3	100	0	6546	1.840137	-6.364379	16.97221	
08:02:01	0	0	0	0.2556127	16.02981	0	3	100	0	6546	1.611767	-6.352226	17.03181	
08:02:01	0	0	0	0.2556127	16.02981	0	3	100	0	6546	1.620402	-6.371981	17.12848	
08:02:01	0	0	0	0.2556127	16.02981	0	3	100	0	6546	1.611305	-6.40125	17.11136	
08:02:02	0	0	0	0.2556127	16.02981	0	3	100	0	6546	2.00447	-6.39922	17.16266	
08:02:02	0	0	0	0.2627295	14.53325	0	3	100	0	6546	2.517019	-6.36349	17.14643	
08:02:02	0	0	0	0.2627295	14.53325	0	3	100	0	6546	2.11434	-6.368403	17.2665	
08:02:02	0	0	0	0.2627295	14.53325	0	3	100	0	6546	2.255877	-6.361624	17.38594	
08:02:02	0	0	0	0.2627295	14.53325	0	3	100	0	6546	2.079755	-6.326549	17.36249	
08:02:03	0	0	0	0.2627295	14.53325	0	3	100	0	6546	2.334078	-6.326069	17.23857	
08:02:03	0	0	0	0.1815203	9.679306	0	3	100	0	6546	2.44108	-6.305692	17.31705	
08:02:03	0	0	0	0.1815203	9.679306	0	3	100	0	6546	2.457099	-6.288435	17.31843	
08:02:03	0	0	0	0.1815203	9.679306	0	3	100	0	6546	2.483589	-6.291922	17.30844	
08:02:03	0	0	0	0.1815203	9.679306	0	3	100	0	6546	2.752271	-6.298045	17.30654	
08:02:04	0	0	0	0.1815203	9.679306	0	3	100	0	6546	2.377061	-6.274626	17.44329	
08:02:04	0	0	0	0.2853747	15.18669	0	3	100	0	6546	2.228978	-6.294963	17.51381	
08:02:04	0	0	0	0.2853747	15.18669	0	3	100	0	6546	2.015785	-6.326748	17.61468	
08:02:04	0	0	0	0.2853747	15.18669	0	3	100	0	6546	1.829116	-6.313774	17.63545	
08:02:05	0	0	0	0.2853747	15.18669	0	3	100	0	6546	2.132687	-6.29705	17.78658	
08:02:05	0	0	0	0.2853747	15.18669	0	3	100	0	6546	2.34009	-6.334368	17.95345	
08:02:05	0	0	0	0.2970959	13.08404	0	3	100	0	6546	2.025513	-6.354125	18.02318	
08:02:05	0	0	0	0.2970959	13.08404	0	3	100	0	6546	1.886082	-6.293366	18.10657	
08:02:05	0	0	0	0.2970959	13.08404	0	3	100	0	6546	2.082105	-6.416311	18.08352	
08:02:06	0	0	0	0.2970959	13.08404	0	3	100	0	6546	1.887794	-6.489173	18.34586	
08:02:06	0	0	0	0.2970959	13.08404	0	3	100	0	6546	1.180648	-6.442281	18.43063	
08:02:06	0	0	0	0.2433988	9.227763	0	3	100	0	6546	0.9629781	-6.482489	18.6213	
08:02:06	0	0	0	0.2433988	9.227763	0	3	100	0	6546	0.9778085	-6.506505	18.7271	
08:02:06	0	0	0	0.2433988	9.227763	0	3	100	0	6546	0.990774	-6.508998	18.98075	
08:02:07	0	0	0	0.2433988	9.227763	0	3	100	0	6546	0.5995268	-6.549452	19.06939	
08:02:07	0	0	0	0.2433988	9.227763	0	3	100	0	6546	0.4477252	-6.508755	19.36624	
08:02:07	0	0	0	0.08286158	1.497443	0	3	100	0	4	0.4592995	-6.521846	19.56773	
08:02:07	0	0	0	0.08286158	1.497443	0	3	100	0	4	0.4582911	-6.531394	19.81962	
08:02:07	0	0	0	0.08286158	1.497443	0	3	100	0	4	0.7728914	-6.52913	20.07873	
08:02:07	0	0	0	0.08286158	1.497443	0	3	100	0	4	0.9272076	-6.579588	20.08678	
08:02:08	0	0	0	0.08286158	1.497443	0	3	100	0	4	0.8498639	-6.56241	20.1297	
08:02:08	0	0	0	0.09275676	3.540622	0	3	100	0	4	0.4054815	-6.571001	20.33921	
08:02:08	0	0	0	0.09275676	3.540622	0	3	100	0	4	0.2737328	-6.559165	20.48852	
08:02:08	0	0	0	0.09275676	3.540622	0	3	100	0	4	0.2421542	-6.559348	20.56842	
08:02:09	0	0	0	0.09275676	3.540622	0	3	100	0	4	0.2445324	-6.559441	20.71572	
08:02:09	0	0	0	0.09275676	3.540622	0	3	100	0	4	0.1860972	-6.532393	20.91246	
08:02:09	0	0	0	0.1062428	1.99456	0	3	100	0	4	0.2170345	-6.499459	21.0858	
08:02:09	0	0	0	0.1062428	1.99456	0	3	100	0	4	0.2906107	-6.478271	21.31475	
08:02:09	0	0	0	0.1062428	1.99456	0	3	100	0	4	0.32274	-6.457654	21.52935	
08:02:09	0	0	0	0.1062428	1.99456	0	3	100	0	4	0.03330826	-6.486671	21.3826	
08:02:10	0	0	0	0.1062428	1.99456	0	3	100	0	4	0.1574327	-6.497916	21.48357	
08:02:10	0	0	0	0.1580003	15.70415	0	3	100	0	8	0.7575377	-6.466841	21.5982	
08:02:10	0	0	0	0.1580003	15.70415	0	3	100	0	8	0.8474069	-6.464621	21.56606	
08:02:10	0	0	0	0.1580003	15.70415	0	3	100	0	8	0.7336938	-6.46865	21.68513	
08:02:10	0	0	0	0.1580003	15.70415	0	3	100	0	8	0.6814715	-6.519404	21.69629	
08:02:11	0	0	0	0.1580003	15.70415	0	3	100	0	8	0.914724	-6.455086	21.59636	
08:02:11	0	0	0	0.03425189	-9.124853	0	3	100	0	42	0.7001522	-6.426409	21.47483	
08:02:11	0	0	0	0.03425189	-9.124853	0	3	100	0	42	0.4681861	-6.44485	21.28842	
08:02:11	0	0	0	0.03425189	-9.124853	0	3	100	0	42	0.5783752	-6.393787	21.28665	
08:02:11	0	0	0	0.03425189	-9.124853	0	3	100	0	42	0.8952144	-6.376818	21.47797	
08:02:12	0	0	0	0.03425189	-9.124853	0	3	100	0	42	0.9807059	-6.374363	21.52897	
08:02:12	0	0	0	0.136847	13.41976	0	3	100	0	4	0.9097195	-6.344174	21.80548	
08:02:12	0	0	0	0.136847	13.41976	0	3	100	0	4	0.4867087	-6.327745	21.97079	
08:02:12	0	0	0	0.136847	13.41976	0	3	100	0	4	0.2852943	-6.326044	22.08121	
08:02:12	0	0	0	0.136847	13.41976	0	3	100	0	4	0.2366655	-6.295148	22.21704	
08:02:13	0	0	0	0.136847	13.41976	0	3	100	0	4	0.1391807	-6.255476	22.29061	
08:02:13	0	0	0	0.3117283	15.46544	0	3	100	0	4	0.2522423	-6.281722	22.5332	
08:02:13	0	0	0	0.3117283	15.46544	0	3	100	0	4	0.06482096	-6.257842	22.66454	
08:02:13	0	0	0	0.3117283	15.46544	0	3	100	0	4	0.2426092	-6.298152	22.90319	
08:02:14	0	0	0	0.3117283	15.46544	0	3	100	0	4	0.4200714	-6.307516	22.87594	
08:02:14	0	0	0	0.3117283	15.46544	0	3	100	0	4	0.2805136	-6.294794	23.11409	
08:02:14	0	0	0	0.2791865	9.715476	0	3	100	0	6546	0.1971207	-6.352408	23.15347	
08:02:14	0	0	0	0.2791865	9.715476	0	3	100	0	6546	-0.3766035	-6.355591	23.3071	
08:02:14	0	0	0	0.2791865	9.715476	0	3	100	0	6546	-1.203364	-6.386869	23.39386	
08:02:14	0	0	0	0.2791865	9.715476	0	3	100	0	6546	-1.338593	-6.398717	23.54316	
08:02:15	0	0	0	0.2791865	9.715476	0	3	100	0	6546	-1.080762	-6.379671	23.78094	
08:02:15	0	0	0	0.174583	1.00719	0	3	100	0	6546	-0.6307455	-6.34181	24.12649	
08:02:15	0	0	0	0.174583	1.00719	0	3	100	0	6546	-0.1821915	-6.353145	24.08341	
08:02:15	0	0	0	0.174583	1.00719	0	3	100	0	6546	-0.2611129	-6.351867	24.19965	
08:02:15	0	0	0	0.174583	1.00719	0	3	100	0	6546	-0.2094191	-6.401729	24.28951	
08:02:16	0	0	0	0.174583	1.00719	0	3	100	0	6546	-0.1205641	-6.402835	24.3667	
08:02:16	0	0	0	0.1326845	-0.2034881	0	3	100	0	6546	-0.1545454	-6.419797	24.41922	
08:02:16	0	0	0	0.1326845	-0.2034881	0	3	100	0	6546	-0.3520074	-6.412706	24.53908	
08:02:16	0	0	0	0.1326845	-0.2034881	0	3	100	0	6546	-0.4539781	-6.39996	24.81584	
08:02:16	0	0	0	0.1326845	-0.2034881	0	3	100	0	6546	-0.2019549	-6.417856	24.86753	
08:02:17	0	0	0	0.1326845	-0.2034881	0	3	100	0	6546	0.2578006	-6.366548	24.91525	
08:02:17	0	0	0	0.191499	1.795604	0	3	100	0	6546	1.930388	-6.259019	24.93869	
08:02:17	0	0	0	0.191499	1.795604	0	3	100	0	6546	4.164929	-6.253388	24.7926	
08:02:17	0	0	0	0.191499	1.795604	0	3	100	0	6546	4.885292	-6.19799	24.33113	
08:02:18	0	0	0	0.191499	1.795604	0	3	100	0	6546	4.887098	-6.195879	24.00105	
08:02:18	0	0	0	0.191499	1.795604	0	3	100	0	6546	4.185749	-6.172142	23.55658	
08:02:18	0	0	0	0.2916675	9.900976	0	3	100	0	6546	3.444616	-6.15767	23.49952	
08:02:18	0	0	0	0.2916675	9.900976	0	3	100	0	6546	2.916684	-6.169584	23.3116	
08:02:18	0	0	0	0.2916675	9.900976	0	3	100	0	6546	2.410611	-6.160778	23.33467	
08:02:18	0	0	0	0.2916675	9.900976	0	3	100	0	6546	1.689136	-6.182559	23.34241	
08:02:19	0	0	0	0.2916675	9.900976	0	3	100	0	6546	0.932988	-6.175469	23.3776	
08:02:19	0	0	0	0.2944354	8.829784	0	3	100	0	6546	0.406066	-6.178419	23.57312	
08:02:19	0	0	0	0.2944354	8.829784	0	3	100	0	6546	-0.1314899	-6.186992	23.8119	
08:02:19	0	0	0	0.2944354	8.829784	0	3	100	0	6546	-0.7157755	-6.249058	24.02563	
08:02:20	0	0	0	0.2944354	8.829784	0	3	100	0	6546	-1.006696	-6.29202	24.15198	
08:02:20	0	0	0	0.2944354	8.829784	0	3	100	0	6546	-0.705449	-6.263149	24.33761	
08:02:20	0	0	0	0.2844898	4.297616	0	3	100	0	6546	-0.2154642	-6.259738	24.5816	
08:02:20	0	0	0	0.2844898	4.297616	0	3	100	0	6546	0.2827449	-6.228409	24.73007	
08:02:20	-6.735374	38.95311	-319.55	0.2844898	4.297616	0	3	100	0	6546	0.9766285	-6.212695	24.90451	
08:02:21	-6.735374	38.95311	-319.55	0.2844898	4.297616	0.47	3	100	0	6546	1.555719	-6.206505	24.81082	
08:02:21	-6.735326	38.95313	-305.854	0.2844898	4.297616	0.14	3	100	0	6546	1.494178	-6.243698	24.74426	
08:02:21	-6.735285	38.95313	-294.46	0.1916089	-0.1761746	0.19	3	100	0	6546	1.662332	-6.23916	24.67364	
08:02:21	-6.735255	38.95314	-286.712	0.1916089	-0.1761746	1.17	3	100	0	6546	1.241479	-6.273441	24.78638	
08:02:21	-6.735239	38.95315	-282.31	0.1916089	-0.1761746	0.29	3	100	0	6546	0.5819625	-6.228449	24.69477	
08:02:22	-6.735237	38.95315	-281.596	0.1916089	-0.1761746	0.25	3	100	0	6546	-0.3579385	-6.060982	24.96122	
08:02:22	-6.735233	38.95315	-280.268	0.1916089	-0.1761746	0.7	3	100	0	6546	-0.255217	-5.997067	24.96287	
08:02:22	-6.735219	38.95315	-276.137	0.1639437	0.356777	1.76	3	100	0	6546	-0.443372	-6.052316	25.17831	
08:02:22	-6.735219	38.95315	-276.137	0.1639437	0.356777	1.55	3	100	0	6546	-1.088409	-6.225729	25.36898	
08:02:22	-6.735223	38.95315	-277.784	0.1639437	0.356777	0.88	3	100	0	6546	-1.414977	-6.19383	25.55368	
08:02:23	-6.735223	38.95315	-277.784	0.1639437	0.356777	0.85	3	100	0	6546	-1.061145	-6.118707	25.72628	
08:02:23	-6.73522	38.95315	-277.486	0.1639437	0.356777	0.77	3	100	0	6546	-1.65731	-6.134191	26.02894	
08:02:23	-6.735208	38.95315	-274.66	0.2251811	1.039239	0.76	3	100	0	6546	-2.590404	-6.233784	26.18655	
08:02:23	-6.735201	38.95316	-273.224	0.2251811	1.039239	0.9	3	100	0	6546	-3.104915	-6.271443	26.35109	
08:02:23	-6.735195	38.95316	-272.047	0.2251811	1.039239	0.58	3	100	0	6546	-2.307878	-6.26369	26.63987	
08:02:24	-6.735187	38.95316	-270.233	0.2251811	1.039239	1.06	3	100	0	6546	-1.999613	-6.192516	26.75789	
08:02:24	-6.735181	38.95317	-269.08	0.2251811	1.039239	0.48	3	100	0	6546	-2.092484	-6.219944	27.05451	
08:02:24	-6.735178	38.95317	-268.558	0.161975	0.4138519	0.34	3	100	0	6546	-1.790632	-6.206904	27.18142	
08:02:24	-6.735169	38.95317	-266.794	0.161975	0.4138519	0.36	3	100	0	6546	-1.127053	-6.142475	27.1941	
08:02:24	-6.735162	38.95317	-264.869	0.161975	0.4138519	0.18	3	100	0	6546	-0.9831222	-6.158875	27.37587	
08:02:24	-6.735154	38.95317	-262.846	0.161975	0.4138519	0.24	3	100	0	6546	-1.025523	-6.202038	27.45135	
08:02:25	-6.735137	38.95318	-258.776	0.161975	0.4138519	0.57	3	100	0	6546	-1.072488	-6.20982	27.59513	
08:02:25	-6.735137	38.95318	-258.776	0.3060604	5.79995	0.69	3	100	0	6546	-0.9410254	-6.215003	27.63103	
08:02:25	-6.735123	38.95318	-254.7	0.3060604	5.79995	0.45	3	100	0	6546	-1.008096	-6.285287	27.75633	
08:02:26	-6.73511	38.95319	-251.141	0.3060604	5.79995	0.22	3	100	0	6546	-0.9976724	-6.21574	27.93408	
08:02:26	-6.735105	38.95319	-249.735	0.3060604	5.79995	0.37	3	100	0	6546	-1.016983	-6.234706	28.06949	
08:02:26	-6.735094	38.95319	-246.455	0.3060604	5.79995	0.78	3	100	0	6546	-0.9883822	-6.223521	28.26514	
08:02:26	-6.735086	38.95319	-244.403	0.2920317	0.2130444	0.69	3	100	0	6546	-1.021121	-6.214005	28.4395	
08:02:26	-6.735075	38.95319	-241.329	0.2920317	0.2130444	0.29	3	100	0	6546	-0.9758391	-6.206711	28.65904	
08:02:27	-6.735061	38.9532	-237.177	0.2920317	0.2130444	0.72	3	100	0	6546	-0.9310097	-6.213051	28.82193	
08:02:27	-6.735042	38.9532	-232.139	0.2920317	0.2130444	0.19	3	100	0	6546	-0.8317776	-6.235557	28.87108	
08:02:27	-6.735029	38.95321	-228.682	0.2920317	0.2130444	0.82	3	100	0	6546	-0.799598	-6.259025	28.90736	
08:02:27	-6.735008	38.95321	-222.99	0.1613069	-6.584169	0.51	3	100	0	6546	-0.9000152	-6.286191	29.05154	
08:02:27	-6.734991	38.95322	-218.067	0.1613069	-6.584169	0.56	3	100	0	6546	-0.803647	-6.299963	29.04105	
08:02:27	-6.734967	38.95322	-212.034	0.1613069	-6.584169	0.38	3	100	0	6546	-0.8079566	-6.314899	29.01584	
08:02:28	-6.734948	38.95323	-206.609	0.1613069	-6.584169	0.72	3	100	0	6546	-0.4882544	-6.249588	29.12414	
08:02:28	-6.73493	38.95324	-201.655	0.1613069	-6.584169	0.9	3	100	0	6546	-0.5181393	-6.249455	29.04673	
08:02:28	-6.734909	38.95324	-196.201	0.1406405	-4.585859	0.95	3	100	0	6546	-0.431983	-6.259654	29.12449	
08:02:28	-6.734891	38.95325	-191.843	0.1406405	-4.585859	0.52	3	100	0	6546	-0.7591894	-6.310919	29.26318	
08:02:28	-6.734873	38.95325	-187.156	0.1406405	-4.585859	0.79	3	100	0	6546	-0.2835028	-6.252819	29.33092	
08:02:29	-6.734856	38.95326	-182.732	0.1406405	-4.585859	0.58	3	100	0	6546	0.7624336	-6.24917	29.2947	
08:02:29	-6.734838	38.95327	-178.151	0.1406405	-4.585859	0.74	3	100	0	6546	1.149238	-6.222581	29.26676	
08:02:29	-6.734822	38.95327	-174.283	0.1300846	-3.040213	1.16	3	100	0	6546	0.6199092	-6.284598	29.23578	
08:02:29	-6.734795	38.95328	-167.252	0.1300846	-3.040213	1.35	3	100	0	6546	0.2898172	-6.276571	29.26097	
08:02:30	-6.734795	38.95328	-167.252	0.1300846	-3.040213	0.82	3	100	0	6546	-0.01663424	-6.261432	29.17808	
08:02:30	-6.734786	38.95328	-165.061	0.1300846	-3.040213	1.03	3	100	0	6546	-0.1891074	-6.261937	29.11495	
08:02:30	-6.734786	38.95328	-165.427	0.1300846	-3.040213	1.43	3	100	0	6546	-0.04851015	-6.278436	29.27746	
08:02:30	-6.73477	38.95329	-162.265	0.1096697	-4.41484	1	3	100	0	6545	-0.2500187	-6.284294	29.34023	
08:02:30	-6.734752	38.95329	-158.346	0.1096697	-4.41484	0.81	3	100	0	6545	-0.3351562	-6.267722	29.20398	
08:02:30	-6.734744	38.95329	-156.647	0.1096697	-4.41484	1.2	3	100	0	6545	-0.7635439	-6.249058	29.18781	
08:02:31	-6.734733	38.9533	-154.355	0.1096697	-4.41484	0.79	3	100	0	6545	-1.077984	-6.176793	29.1681	
08:02:31	-6.734721	38.9533	-151.333	0.1096697	-4.41484	0.9	3	100	0	6545	-2.025586	-6.338387	29.31557	
08:02:31	-6.734705	38.9533	-147.92	0.1284558	-3.626781	0.79	3	100	0	6546	-3.164909	-6.38572	29.34324	
08:02:31	-6.734692	38.95331	-144.675	0.1284558	-3.626781	0.44	3	100	0	6546	-4.834064	-6.515569	29.6585	
08:02:32	-6.73468	38.95331	-141.614	0.1284558	-3.626781	0.14	3	100	0	6546	-6.247582	-6.640872	29.90665	
08:02:32	-6.734675	38.95332	-140.626	0.1284558	-3.626781	0.29	3	100	0	6546	-7.012707	-6.70023	30.19357	
08:02:32	-6.734672	38.95332	-139.458	0.1284558	-3.626781	1.29	3	100	0	6546	-7.779692	-6.685339	30.70389	
08:02:32	-6.734664	38.95332	-137.054	0.05065305	-7.277558	1.73	3	100	0	6546	-9.517469	-6.758128	31.28755	
08:02:32	-6.734657	38.95332	-135.083	0.05065305	-7.277558	1.39	3	100	0	6546	-11.93235	-6.94535	31.89189	
08:02:33	-6.734653	38.95332	-134.422	0.05065305	-7.277558	1.67	3	100	0	6546	-13.6954	-6.710354	32.61206	
08:02:33	-6.734652	38.95332	-134.09	0.05065305	-7.277558	1.52	3	100	0	6546	-13.54576	-6.48694	33.26543	
08:02:33	-6.734645	38.95332	-132.781	0.05065305	-7.277558	0.97	3	100	0	6546	-14.71728	-6.102959	34.06792	
08:02:33	-6.734641	38.95332	-131.758	-0.03948513	-5.73408	1.04	3	100	0	6546	-14.69455	-5.945362	34.72424	
08:02:33	-6.734631	38.95333	-128.981	-0.03948513	-5.73408	0.66	3	100	0	6546	-14.8428	-5.795579	35.47201	
08:02:34	-6.734599	38.95334	-120.832	-0.03948513	-5.73408	0.65	3	100	0	6546	-14.89412	-5.672119	36.10052	
08:02:34	-6.734599	38.95334	-120.832	-0.03948513	-5.73408	0.22	3	100	0	6546	-14.93968	-5.577885	36.68915	
08:02:34	-6.734576	38.95335	-114.083	-0.03948513	-5.73408	0.63	3	100	0	6546	-14.96707	-5.479863	37.26591	
08:02:34	-6.734576	38.95335	-114.083	-0.0198705	0.9074647	0.82	3	100	0	6546	-15.00079	-5.381744	37.86381	
08:02:34	-6.734566	38.95335	-111.272	-0.0198705	0.9074647	0.29	3	100	0	6546	-15.01111	-5.288855	38.4674	
08:02:34	-6.734567	38.95335	-111.424	-0.0198705	0.9074647	0.66	3	100	0	6546	-15.06329	-5.210728	39.01657	
08:02:35	-6.734566	38.95335	-111.425	-0.0198705	0.9074647	0.68	3	100	0	6546	-15.07051	-5.110439	39.62848	
08:02:35	-6.734565	38.95335	-110.71	-0.0198705	0.9074647	0.97	3	100	0	6546	-15.10661	-5.050125	40.1165	
08:02:35	-6.734562	38.95335	-109.428	0.01449556	4.20345	1.79	3	100	0	6546	-15.12992	-4.990392	40.6888	
08:02:35	-6.73455	38.95336	-106.046	0.01449556	4.20345	0.7	3	100	0	6546	-15.1315	-4.951359	41.19589	
08:02:35	-6.734539	38.95336	-103.463	0.01449556	4.20345	0.02	3	100	0	6546	-15.13901	-4.891826	41.70277	
08:02:36	-6.734524	38.95337	-100.141	0.01449556	4.20345	1.87	3	100	0	6546	-15.15361	-4.845989	42.11985	
08:02:36	-6.73452	38.95337	-100.08	0.01449556	4.20345	2.53	3	100	0	6546	-15.15036	-4.782557	42.67165	
08:02:36	-6.734506	38.95337	-97.351	-0.04952348	0.975112	2.87	3	100	0	6546	-15.18224	-4.725037	43.19899	
08:02:36	-6.734504	38.95337	-96.877	-0.04952348	0.975112	1.99	3	100	0	6546	-15.1921	-4.643598	43.88448	
08:02:36	-6.734512	38.95337	-98.259	-0.04952348	0.975112	1.24	3	100	0	6546	-15.19626	-4.604737	44.48603	
08:02:37	-6.734519	38.95336	-98.712	-0.04952348	0.975112	0.93	3	100	0	6546	-15.20853	-4.568078	45.05058	
08:02:37	-6.734522	38.95336	-98.556	-0.04952348	0.975112	1.82	3	100	0	6546	-15.22999	-4.517576	45.60648	
08:02:37	-6.734522	38.95336	-98.23	-0.1609811	-2.930379	1.45	3	100	0	6546	-15.26252	-4.457038	46.15617	
08:02:37	-6.734519	38.95336	-96.192	-0.1609811	-2.930379	1.58	3	100	0	6546	-15.29321	-4.439511	46.67834	
08:02:37	-6.734502	38.95336	-92.677	-0.1609811	-2.930379	0.52	3	100	0	6546	-15.30418	-4.43491	47.1363	
08:02:38	-6.734481	38.95337	-87.19	-0.1609811	-2.930379	0.96	3	100	0	6546	-15.30587	-4.428943	47.58966	
08:02:38	-6.734478	38.95336	-85.775	-0.1609811	-2.930379	0.26	3	100	0	6546	-15.28096	-4.459839	48.01651	
08:02:38	-6.734478	38.95335	-84.718	-0.3738933	-8.846922	0.79	3	100	0	6546	-15.28426	-4.449442	48.46618	
08:02:38	-6.734462	38.95335	-79.589	-0.3738933	-8.846922	0.47	3	100	0	6546	-15.29238	-4.46917	48.89451	
08:02:38	-6.734273	38.95341	-31.648	-0.3738933	-8.846922	0.07	3	100	0	6546	-15.29328	-4.490596	49.20101	
08:02:39	-6.734142	38.95345	1.874	-0.3738933	-8.846922	0.29	3	100	0	6546	-15.26379	-4.545713	49.45075	
08:02:39	-6.734053	38.95347	25.144	-0.3738933	-8.846922	0.42	3	100	0	6546	-15.30841	-4.567859	49.83175	
08:02:39	-6.733968	38.9535	47.402	-0.2838236	0.6666292	0.5	3	100	0	6546	-15.26739	-4.604783	50.19432	
08:02:39	-6.733897	38.95351	66.247	-0.2838236	0.6666292	0.63	3	100	0	6546	-15.25982	-4.600535	50.54477	
08:02:40	-6.733846	38.95353	80.393	-0.2838236	0.6666292	0.48	3	100	0	6546	-15.24611	-4.615832	50.94137	
08:02:40	-6.733795	38.95354	94.156	-0.2838236	0.6666292	0.45	3	100	0	6546	-15.23532	-4.629216	51.22423	
08:02:40	-6.733749	38.95354	106.733	-0.2838236	0.6666292	0.66	3	100	0	6546	-15.2247	-4.645585	51.54794	
08:02:40	-6.733706	38.95355	118.981	-0.1770801	6.487042	0.79	3	100	0	6546	-15.2071	-4.653012	51.8935	
08:02:40	-6.733665	38.95356	130.716	-0.1770801	6.487042	0.63	3	100	0	6546	-15.18324	-4.692611	52.15475	
08:02:41	-6.73362	38.95357	143.707	-0.1770801	6.487042	1.01	3	100	0	6546	-15.17489	-4.713896	52.39838	
08:02:41	-6.733539	38.95358	167.16	-0.1770801	6.487042	0.93	3	100	0	6546	-15.13739	-4.754678	52.61258	
08:02:41	-6.733507	38.95358	176.175	-0.1770801	6.487042	0.29	3	100	0	6546	-15.1467	-4.783404	52.8595	
08:02:41	-6.733507	38.95358	176.175	0.09518865	18.20113	0.29	3	100	0	6546	-15.13176	-4.834759	53.09676	
08:02:41	-6.733442	38.95359	195.244	0.09518865	18.20113	0.97	3	100	0	6546	-15.12767	-4.902162	53.34078	
08:02:42	-6.733407	38.9536	205.182	0.09518865	18.20113	1.78	3	100	0	6546	-15.12484	-4.953966	53.59396	
08:02:42	-6.733374	38.9536	214.337	0.09518865	18.20113	1.88	3	100	0	6546	-15.11247	-5.010923	53.8216	
08:02:42	-6.733337	38.9536	224.466	0.09518865	18.20113	2.91	3	100	0	6546	-15.08146	-5.061327	54.07798	
08:02:42	-6.733313	38.95361	231.14	0.1877757	17.23765	2.12	3	100	0	6546	-15.03987	-5.127749	54.20457	
08:02:42	-6.733283	38.95361	240.432	0.1877757	17.23765	1.25	3	100	0	6546	-15.02521	-5.167584	54.44241	
08:02:42	-6.733251	38.95361	249.023	0.1877757	17.23765	2.22	3	100	0	6546	-15.01595	-5.205913	54.63229	
08:02:43	-6.733226	38.95361	256.357	0.1877757	17.23765	2.11	3	100	0	6546	-15.04041	-5.297192	54.69316	
08:02:43	-6.733202	38.95361	263.973	0.1877757	17.23765	1.32	3	100	0	6546	-15.0318	-5.36147	54.83259	
08:02:43	-6.733181	38.95362	270.023	0.2659726	16.61113	1.51	3	100	0	6546	-15.01693	-5.42595	55.03041	
08:02:43	-6.733161	38.95362	275.78	0.2659726	16.61113	1.51	3	100	0	6546	-15.00882	-5.449274	55.22431	
08:02:44	-6.733131	38.95362	284.507	0.2659726	16.61113	2.14	3	100	0	6546	-14.97004	-5.530299	55.35629	
08:02:44	-6.733106	38.95362	292.119	0.2659726	16.61113	2.49	3	100	0	6546	-14.96002	-5.582729	55.50119	
08:02:44	-6.733088	38.95362	296.761	0.2659726	16.61113	2.22	3	100	0	6546	-14.92102	-5.638387	55.64323	
08:02:44	-6.733061	38.95362	304.68	0.2729454	11.88287	2.53	3	100	0	6546	-14.89726	-5.661602	55.85831	
08:02:44	-6.733037	38.95362	311.459	0.2729454	11.88287	2.58	3	100	0	6546	-14.87685	-5.740949	55.9013	
08:02:45	-6.733013	38.95363	318.284	0.2729454	11.88287	2.15	3	100	0	6546	-14.84826	-5.816361	55.95226	
08:02:45	-6.732988	38.95363	325.568	0.2729454	11.88287	2.36	3	100	0	6546	-14.90693	-5.869288	55.99569	
08:02:45	-6.732965	38.95363	332.349	0.2729454	11.88287	1.83	3	100	0	6546	-14.87947	-5.933857	56.04216	
08:02:45	-6.732944	38.95363	338.322	0.3590021	13.90455	2.67	3	100	0	6546	-14.82657	-5.951659	56.1405	
08:02:45	-6.732918	38.95363	346.087	0.3590021	13.90455	1.83	3	100	0	6546	-14.7955	-6.025246	56.16289	
08:02:46	-6.732897	38.95364	352.134	0.3590021	13.90455	2.51	3	100	0	6546	-14.80011	-6.054508	56.2626	
08:02:46	-6.73287	38.95364	360.062	0.3590021	13.90455	2.56	3	100	0	6546	-14.79042	-6.096302	56.32258	
08:02:46	-6.732851	38.95364	365.586	0.3590021	13.90455	2.39	3	100	0	6546	-14.763	-6.154293	56.41167	
08:02:46	-6.732823	38.95364	373.375	0.1913899	1.743311	2.63	3	100	0	6546	-14.73254	-6.21855	56.39367	
08:02:46	-6.732797	38.95364	380.952	0.1913899	1.743311	2.62	3	100	0	6546	-14.73978	-6.276678	56.47495	
08:02:47	-6.732779	38.95364	386.031	0.1913899	1.743311	2.12	3	100	0	6546	-14.71408	-6.340131	56.48329	
08:02:47	-6.732761	38.95364	390.709	0.1913899	1.743311	2.14	3	100	0	6546	-14.68374	-6.435355	56.42429	
08:02:47	-6.732743	38.95364	395.653	0.1913899	1.743311	2.12	3	100	0	6546	-14.66788	-6.526847	56.37269	
08:02:47	-6.73272	38.95364	402.218	-0.06843623	-9.027759	2.26	3	100	0	6546	-14.6718	-6.596537	56.45835	
08:02:47	-6.732689	38.95365	410.993	-0.06843623	-9.027759	2.39	3	100	0	6546	-14.67708	-6.665545	56.36302	
08:02:48	-6.732666	38.95365	417.654	-0.06843623	-9.027759	2.48	3	100	0	6546	-14.63502	-6.735958	56.23907	
08:02:48	-6.732653	38.95365	421.139	-0.06843623	-9.027759	2.49	3	100	0	6546	-14.64113	-6.785477	56.19963	
08:02:48	-6.732627	38.95365	428.489	-0.06843623	-9.027759	2.64	3	100	0	6546	-14.62652	-6.880064	56.1324	
08:02:48	-6.732607	38.95365	434.185	0.03246735	1.393371	2.58	3	100	0	6546	-14.58898	-6.936699	56.11484	
08:02:48	-6.732581	38.95365	441.877	0.03246735	1.393371	3.09	3	100	0	6546	-14.54967	-7.017074	55.95862	
08:02:49	-6.732561	38.95365	447.343	0.03246735	1.393371	3.16	3	100	0	6546	-14.34859	-7.405249	54.67836	
08:02:49	-6.732541	38.95366	453.092	0.03246735	1.393371	3.08	3	100	0	6546	-14.21357	-7.752471	53.51708	
08:02:49	-6.732522	38.95366	458.753	0.03246735	1.393371	3.01	3	100	0	6546	-14.10487	-8.103304	52.29973	
08:02:49	-6.732507	38.95366	462.788	0.1803631	7.809221	2.96	3	100	0	6546	-13.93409	-8.379986	51.21852	
08:02:49	-6.732475	38.95366	472.264	0.1803631	7.809221	2.53	3	100	0	6546	-13.96885	-8.345504	51.2805	
08:02:50	-6.732475	38.95366	472.264	0.1803631	7.809221	2.61	3	100	0	6546	-13.99276	-8.329543	51.2553	
08:02:50	-6.732458	38.95366	477.265	0.1803631	7.809221	2.38	3	100	0	6546	-14.05194	-8.310814	51.23493	
08:02:50	-6.732434	38.95366	484.115	0.1803631	7.809221	2.76	3	100	0	6546	-14.0513	-8.289682	51.27509	
08:02:50	-6.732416	38.95366	489.44	0.02490496	-1.652582	2.2	3	100	0	6546	-14.05208	-8.298194	51.2553	
08:02:50	-6.732392	38.95366	496.639	0.02490496	-1.652582	2.74	3	100	0	6546	-14.06476	-8.283676	51.31526	
08:02:51	-6.732367	38.95366	504.31	0.02490496	-1.652582	2.67	3	100	0	6546	-14.05857	-8.253972	51.33404	
08:02:51	-6.732344	38.95366	511.054	0.02490496	-1.652582	2.79	3	100	0	6546	-14.06365	-8.244946	51.33068	
08:02:51	-6.732317	38.95366	518.888	0.02490496	-1.652582	2.64	3	100	0	6546	-14.04942	-8.25151	51.24337	
08:02:51	-6.732296	38.95366	525.286	-0.2020285	-8.754809	2.35	3	100	0	6546	-14.06237	-8.214855	51.29168	
08:02:51	-6.732275	38.95366	531.574	-0.2020285	-8.754809	2.6	3	100	0	6546	-14.04801	-8.199578	51.33452	
08:02:52	-6.73225	38.95366	538.957	-0.2020285	-8.754809	2.39	3	100	0	6546	-14.05144	-8.189279	51.2765	
08:02:52	-6.732225	38.95367	545.889	-0.2020285	-8.754809	2.46	3	100	0	6546	-14.04083	-8.222904	51.0528	
08:02:52	-6.7322	38.95367	553.345	-0.2020285	-8.754809	2.88	3	100	0	6546	-14.05702	-8.211503	50.98896	
08:02:52	-6.732148	38.95367	568.832	-0.1229126	0.1858682	2.33	3	100	0	6546	-14.04915	-8.219508	50.90641	
08:02:52	-6.732121	38.95367	576.671	-0.1229126	0.1858682	2.7	3	100	0	6546	-14.07057	-8.206142	50.94059	
08:02:53	-6.732121	38.95367	576.671	-0.1229126	0.1858682	2.33	3	100	0	6546	-14.05834	-8.218255	50.87436	
08:02:53	-6.732099	38.95367	583.601	-0.1229126	0.1858682	2.31	3	100	0	6546	-14.08932	-8.211709	50.78051	
08:02:53	-6.732077	38.95367	590.248	-0.1229126	0.1858682	2.45	3	100	0	6546	-14.1008	-8.201062	50.82138	
08:02:53	-6.732061	38.95367	594.92	0.06316915	9.908648	1.93	3	100	0	6546	-14.09915	-8.175529	50.77154	
08:02:54	-6.732043	38.95367	600.561	0.06316915	9.908648	2.23	3	100	0	6546	-14.10479	-8.172503	50.69922	
08:02:54	-6.732018	38.95367	608.098	0.06316915	9.908648	2.22	3	100	0	6546	-14.08662	-8.160786	50.65859	
08:02:54	-6.732004	38.95367	612.341	0.06316915	9.908648	2.74	3	100	0	6546	-14.10401	-8.162012	50.59221	
08:02:54	-6.731987	38.95367	617.294	0.06316915	9.908648	2.5	3	100	0	6546	-14.06384	-8.176936	50.48261	
08:02:54	-6.73197	38.95367	622.258	0.1075378	10.10274	2.3	3	100	0	6546	-14.08201	-8.188798	50.41091	
08:02:54	-6.731958	38.95367	626.022	0.1075378	10.10274	2.29	3	100	0	6546	-14.07059	-8.193409	50.3826	
08:02:55	-6.73193	38.95366	634.699	0.1075378	10.10274	2.16	3	100	0	6546	-14.06498	-8.224043	50.22634	
08:02:55	-6.731915	38.95366	639.688	0.1075378	10.10274	1.65	3	100	0	6546	-14.06402	-8.232793	50.17863	
08:02:55	-6.731915	38.95366	639.688	0.1075378	10.10274	1.92	3	100	0	6546	-14.06774	-8.221507	50.22436	
08:02:56	-6.731903	38.95366	643.258	-0.06893884	-0.4390189	2.36	3	100	0	6546	-14.08151	-8.196294	50.28272	
08:02:56	-6.731892	38.95366	646.747	-0.06893884	-0.4390189	1.94	3	100	0	6546	-14.076	-8.21207	50.19434	
08:02:56	-6.73188	38.95366	650.377	-0.06893884	-0.4390189	2.32	3	100	0	6546	-14.11326	-8.189081	50.25946	
08:02:56	-6.73187	38.95366	653.914	-0.06893884	-0.4390189	1.56	3	100	0	6546	-14.09112	-8.212685	50.19529	
08:02:56	-6.73186	38.95366	656.949	-0.06893884	-0.4390189	1.48	3	100	0	6546	-14.10549	-8.221603	50.16574	
08:02:56	-6.731851	38.95366	660.046	-0.1356933	-0.2784442	1.93	3	100	0	6546	-14.09606	-8.23166	50.08207	
08:02:56	-6.731838	38.95366	663.571	-0.1356933	-0.2784442	2.28	3	100	0	6546	-14.12529	-8.245415	50.03781	
08:02:57	-6.731829	38.95366	666.423	-0.1356933	-0.2784442	1.83	3	100	0	6546	-14.14224	-8.239172	49.93668	
08:02:57	-6.731819	38.95366	669.375	-0.1356933	-0.2784442	2.18	3	100	0	6546	-14.1678	-8.251287	49.81572	
08:02:57	-6.731811	38.95366	672.176	-0.1356933	-0.2784442	1.61	3	100	0	6546	-14.18267	-8.250882	49.81446	
08:02:57	-6.731801	38.95366	675.246	-0.2331608	-5.919889	1.66	3	100	0	6546	-14.18911	-8.252424	49.71678	
08:02:57	-6.731789	38.95366	678.971	-0.2331608	-5.919889	1.64	3	100	0	6546	-14.22801	-8.240413	49.7294	
08:02:58	-6.731778	38.95366	683.063	-0.2331608	-5.919889	1.27	3	100	0	6546	-14.23581	-8.24693	49.63818	
08:02:58	-6.731778	38.95366	683.063	-0.2331608	-5.919889	0.91	3	100	0	6546	-14.19819	-8.263682	49.47168	
08:02:58	-6.731768	38.95366	686.175	-0.2331608	-5.919889	1.05	3	100	0	6546	-14.22736	-8.276958	49.41523	
08:02:58	-6.731759	38.95366	689.362	-0.2800015	-4.5856	0.93	3	100	0	6546	-14.25698	-8.254876	49.41375	
08:02:58	-6.731752	38.95366	691.753	-0.2800015	-4.5856	0.83	3	100	0	6546	-14.23688	-8.259142	49.27026	
08:02:59	-6.731749	38.95366	692.826	-0.2800015	-4.5856	0.79	3	100	0	6546	-14.25607	-8.238805	49.23584	
08:02:59	-6.731743	38.95366	694.753	-0.2800015	-4.5856	1.59	3	100	0	6546	-14.25401	-8.217327	49.14787	
08:02:59	-6.731735	38.95366	697.495	-0.2800015	-4.5856	1.3	3	100	0	6546	-14.25274	-8.198476	49.1522	
08:02:59	-6.73173	38.95366	699.035	-0.3932543	-8.5336	1.13	3	100	0	6546	-14.25943	-8.18764	49.11473	
08:02:59	-6.731721	38.95366	702.085	-0.3932543	-8.5336	1.33	3	100	0	6546	-14.28113	-8.182056	49.06648	
08:03:00	-6.731716	38.95366	703.847	-0.3932543	-8.5336	1.29	3	100	0	6546	-14.26588	-8.137233	49.11789	
08:03:00	-6.731707	38.95366	706.562	-0.3932543	-8.5336	1.33	3	100	0	6546	-14.2852	-8.145112	49.04735	
08:03:00	-6.731698	38.95366	709.658	-0.3932543	-8.5336	1.4	3	100	0	6546	-14.28654	-8.151587	48.97393	
08:03:00	-6.731688	38.95366	712.404	-0.5273536	-11.5907	1.86	3	100	0	6546	-14.30754	-8.125103	48.99398	
08:03:01	-6.731683	38.95366	713.723	-0.5273536	-11.5907	2.03	3	100	0	6546	-14.27065	-8.122318	48.92208	
08:03:01	-6.731675	38.95366	715.923	-0.5273536	-11.5907	1.8	3	100	0	6546	-14.283	-8.114142	48.90591	
08:03:01	-6.731667	38.95366	718.391	-0.5273536	-11.5907	1.3	3	100	0	6546	-14.30236	-8.092967	48.90426	
08:03:01	-6.731662	38.95366	719.882	-0.5273536	-11.5907	1.33	3	100	0	6546	-14.29743	-8.101563	48.83418	
08:03:01	-6.731657	38.95366	721.292	-0.5224473	-5.982449	1.13	3	100	0	6546	-14.3173	-8.075238	48.84052	
08:03:01	-6.73165	38.95366	723.126	-0.5224473	-5.982449	1.17	3	100	0	6546	-14.3084	-8.06198	48.85857	
08:03:02	-6.731648	38.95366	723.984	-0.5224473	-5.982449	0.88	3	100	0	6546	-14.31124	-8.053836	48.80289	
08:03:02	-6.731646	38.95366	724.614	-0.5224473	-5.982449	0.83	3	100	0	6546	-14.31593	-8.040265	48.74566	
08:03:02	-6.731645	38.95366	724.825	-0.5224473	-5.982449	1.02	3	100	0	6546	-14.34049	-8.010221	48.74633	
08:03:02	-6.731644	38.95366	725.076	-0.3500683	4.045095	0.71	3	100	0	6546	-14.34017	-8.00479	48.7069	
08:03:03	-6.731637	38.95366	726.868	-0.3500683	4.045095	0.91	3	100	0	6546	-14.32054	-7.996609	48.64359	
08:03:03	-6.731632	38.95366	728.679	-0.3500683	4.045095	0.83	3	100	0	6546	-14.31369	-7.953785	48.65064	
08:03:03	-6.731627	38.95366	729.952	-0.3500683	4.045095	0.9	3	100	0	6546	-14.32629	-7.92511	48.67934	
08:03:03	-6.731621	38.95366	731.783	-0.3500683	4.045095	0.52	3	100	0	6546	-14.33367	-7.912157	48.58882	
08:03:03	-6.731614	38.95366	734.32	-0.1802676	9.483288	0.55	3	100	0	6546	-14.36983	-7.869136	48.66805	
08:03:04	-6.73161	38.95366	735.582	-0.1802676	9.483288	0.53	3	100	0	6546	-14.36654	-7.840237	48.6807	
08:03:04	-6.731605	38.95366	736.791	-0.1802676	9.483288	0.5	3	100	0	6546	-14.37186	-7.822262	48.71291	
08:03:04	-6.7316	38.95366	738.148	-0.1802676	9.483288	0.41	3	100	0	6546	-14.39834	-7.783488	48.7658	
08:03:04	-6.731591	38.95366	740.756	-0.1802676	9.483288	0.04	3	100	0	6546	-14.40514	-7.758479	48.72777	
08:03:04	-6.731582	38.95366	743.634	0.1130756	19.08707	0.13	3	100	0	6545	-14.41533	-7.74487	48.74063	
08:03:04	-6.731582	38.95366	743.634	0.1130756	19.08707	0.53	3	100	0	6545	-14.40821	-7.754451	48.63978	
08:03:05	-6.731571	38.95366	746.771	0.1130756	19.08707	0.69	3	100	0	6545	-14.41344	-7.761763	48.58875	
08:03:05	-6.731563	38.95366	749.306	0.1130756	19.08707	0.91	3	100	0	6545	-14.43112	-7.760056	48.58404	
08:03:05	-6.731549	38.95366	753.673	0.1130756	19.08707	0.58	3	100	0	6545	-14.44585	-7.750639	48.63511	
08:03:05	-6.731541	38.95366	755.755	0.1593098	14.62154	0.52	3	100	0	6546	-14.46284	-7.721983	48.74617	
08:03:06	-6.73153	38.95366	758.979	0.1593098	14.62154	0.81	3	100	0	6546	-14.47274	-7.706878	48.69592	
08:03:06	-6.731513	38.95366	764.263	0.1593098	14.62154	0.75	3	100	0	6546	-14.47868	-7.691285	48.78215	
08:03:06	-6.731503	38.95366	767.302	0.1593098	14.62154	0.35	3	100	0	6546	-14.46631	-7.707444	48.6983	
08:03:06	-6.731485	38.95366	772.809	0.1593098	14.62154	0.78	3	100	0	6546	-14.44862	-7.693985	48.73333	
08:03:06	-6.731474	38.95366	776.365	-0.01088115	2.02498	0.9	3	100	0	6546	-14.43622	-7.678886	48.77251	
08:03:06	-6.731462	38.95366	780.139	-0.01088115	2.02498	1.33	3	100	0	6546	-14.43005	-7.701429	48.71573	
08:03:07	-6.731462	38.95366	780.139	-0.01088115	2.02498	1.33	3	100	0	6546	-14.45892	-7.681055	48.72741	
08:03:07	-6.731432	38.95366	789.186	-0.01088115	2.02498	1.26	3	100	0	6546	-14.47102	-7.687513	48.65438	
08:03:07	-6.731432	38.95366	789.186	-0.01088115	2.02498	1.26	3	100	0	6546	-14.51894	-7.654995	48.73793	
08:03:07	-6.731402	38.95366	798.76	-0.1650011	-2.576119	1.04	3	100	0	6546	-14.52479	-7.631278	48.74778	
08:03:08	-6.731382	38.95367	805	-0.1650011	-2.576119	1.57	3	100	0	6546	-14.50327	-7.588036	48.81	
08:03:08	-6.731372	38.95367	807.9	-0.1650011	-2.576119	1.58	3	100	0	6546	-14.50461	-7.572265	48.83324	
08:03:08	-6.731363	38.95367	810.631	-0.1650011	-2.576119	1.61	3	100	0	6546	-14.50448	-7.595078	48.78701	
08:03:08	-6.73135	38.95367	814.375	-0.1650011	-2.576119	0.95	3	100	0	6546	-14.51964	-7.589582	48.80806	
08:03:08	-6.731342	38.95367	817.13	-0.05162491	4.123873	0.65	3	100	0	6546	-14.52891	-7.554454	48.88923	
08:03:09	-6.731327	38.95367	821.81	-0.05162491	4.123873	1	3	100	0	6546	-14.54811	-7.496122	48.96785	
08:03:09	-6.731314	38.95367	825.948	-0.05162491	4.123873	1.36	3	100	0	6546	-14.53488	-7.464358	48.95802	
08:03:09	-6.731302	38.95367	829.163	-0.05162491	4.123873	1.02	3	100	0	6546	-14.53453	-7.488935	48.98072	
08:03:09	-6.731289	38.95367	833.464	-0.05162491	4.123873	1.03	3	100	0	6546	-14.49986	-7.462608	49.02667	
08:03:09	-6.731277	38.95367	837.291	-0.07078065	2.407306	0.37	3	100	0	6546	-14.51474	-7.463943	48.98348	
08:03:10	-6.731261	38.95368	842.361	-0.07078065	2.407306	1.14	3	100	0	6546	-14.51588	-7.457472	48.9604	
08:03:10	-6.731245	38.95368	847.243	-0.07078065	2.407306	0.72	3	100	0	6546	-14.52881	-7.435345	48.97868	
08:03:10	-6.731225	38.95368	853.062	-0.07078065	2.407306	1.06	3	100	0	6546	-14.52616	-7.422501	48.9854	
08:03:10	-6.731205	38.95368	859.376	-0.07078065	2.407306	1.27	3	100	0	6546	-14.55275	-7.381194	49.0167	
08:03:10	-6.731187	38.95368	864.568	-0.2120057	-3.11226	1.45	3	100	0	6546	-14.56183	-7.374753	49.04353	
08:03:10	-6.731169	38.95368	870.132	-0.2120057	-3.11226	1.66	3	100	0	6546	-14.57169	-7.345961	49.05727	
08:03:11	-6.731156	38.95368	874.15	-0.2120057	-3.11226	1.12	3	100	0	6546	-14.53003	-7.354911	48.9324	
08:03:11	-6.731132	38.95368	881.352	-0.2120057	-3.11226	1.67	3	100	0	6546	-14.54424	-7.354891	48.98932	
08:03:11	-6.731118	38.95368	885.439	-0.2120057	-3.11226	1.42	3	100	0	6546	-14.54874	-7.342599	48.98502	
08:03:11	-6.731095	38.95369	892.288	-0.1928645	-1.067654	1.71	3	100	0	6546	-14.56268	-7.320857	49.02987	
08:03:12	-6.73108	38.95369	896.913	-0.1928645	-1.067654	1.48	3	100	0	6546	-14.57065	-7.318167	49.06198	
08:03:12	-6.731064	38.95369	901.782	-0.1928645	-1.067654	1.35	3	100	0	6546	-14.59479	-7.300006	49.08783	
08:03:12	-6.731034	38.95369	910.747	-0.1928645	-1.067654	1.44	3	100	0	6546	-14.60721	-7.300676	49.04038	
08:03:12	-6.731021	38.95369	914.829	-0.1928645	-1.067654	1.71	3	100	0	6546	-14.64806	-7.293085	49.04573	
08:03:12	-6.731021	38.95369	914.829	-0.3537841	-8.517864	1.25	3	100	0	6546	-14.66894	-7.271348	49.04706	
08:03:13	-6.730999	38.95369	921.527	-0.3537841	-8.517864	1.43	3	100	0	6546	-14.67061	-7.25289	49.09165	
08:03:13	-6.730978	38.9537	927.801	-0.3537841	-8.517864	1.36	3	100	0	6546	-14.65947	-7.250298	49.07302	
08:03:13	-6.730962	38.9537	932.884	-0.3537841	-8.517864	1.25	3	100	0	6546	-14.66584	-7.253779	49.05655	
08:03:13	-6.730942	38.9537	938.691	-0.3537841	-8.517864	1.64	3	100	0	6546	-14.67682	-7.23456	49.12989	
08:03:13	-6.730927	38.9537	943.448	-0.3639382	-4.783817	1.26	3	100	0	6546	-14.64748	-7.224728	49.12117	
08:03:14	-6.73091	38.9537	948.825	-0.3639382	-4.783817	1.94	3	100	0	6546	-14.68826	-7.216176	49.23262	
08:03:14	-6.730874	38.9537	959.434	-0.3639382	-4.783817	1.56	3	100	0	6546	-14.68721	-7.232168	49.138	
08:03:14	-6.730874	38.9537	959.434	-0.3639382	-4.783817	1.94	3	100	0	6546	-14.70125	-7.23258	49.14749	
08:03:14	-6.730853	38.9537	965.679	-0.3639382	-4.783817	2.1	3	100	0	6546	-14.67816	-7.235947	49.11602	
08:03:14	-6.730841	38.9537	969.302	-0.2930576	1.602504	1.69	3	100	0	6546	-14.67397	-7.219242	49.11745	
08:03:15	-6.730832	38.95371	972.212	-0.2930576	1.602504	1.25	3	100	0	6546	-14.66925	-7.215858	49.12141	
08:03:15	-6.730816	38.95371	977.114	-0.2930576	1.602504	1.54	3	100	0	6546	-14.68136	-7.173432	49.1627	
08:03:15	-6.730802	38.95371	981.235	-0.2930576	1.602504	1.67	3	100	0	6546	-14.69262	-7.156683	49.13831	
08:03:15	-6.73079	38.95371	985.101	-0.2930576	1.602504	1.58	3	100	0	6546	-14.69818	-7.112879	49.21723	
08:03:15	-6.730778	38.95371	988.723	-0.1834025	6.109245	1.46	3	100	0	6546	-14.71207	-7.106765	49.26503	
08:03:16	-6.730771	38.95372	990.947	-0.1834025	6.109245	1.33	3	100	0	6546	-14.72125	-7.102128	49.25539	
08:03:16	-6.730765	38.95372	992.741	-0.1834025	6.109245	0.76	3	100	0	6546	-14.72625	-7.085341	49.31679	
08:03:16	-6.730742	38.95372	999.657	-0.1834025	6.109245	1.26	3	100	0	6546	-14.73146	-7.051003	49.38231	
08:03:16	-6.730731	38.95372	1003.309	-0.1834025	6.109245	1.41	3	100	0	6546	-14.7489	-7.066273	49.36381	
08:03:16	-6.730711	38.95372	1009.519	-0.07991821	8.958324	1.69	3	100	0	6546	-14.76224	-7.028735	49.50268	
08:03:17	-6.730697	38.95372	1013.984	-0.07991821	8.958324	1.37	3	100	0	6546	-14.79332	-7.010302	49.54197	
08:03:17	-6.73067	38.95372	1022.391	-0.07991821	8.958324	1.54	3	100	0	6546	-14.79439	-7.006767	49.50845	
08:03:17	-6.73067	38.95372	1022.391	-0.07991821	8.958324	1.76	3	100	0	6546	-14.76705	-6.990231	49.55665	
08:03:17	-6.730662	38.95372	1024.836	-0.07991821	8.958324	1.03	3	100	0	6546	-14.75932	-6.969648	49.54747	
08:03:17	-6.730648	38.95372	1029.453	-0.08311645	5.078998	1.5	3	100	0	6546	-14.77069	-6.967667	49.52541	
08:03:17	-6.730627	38.95373	1035.579	-0.08311645	5.078998	2.42	3	100	0	6546	-14.80402	-6.970184	49.58025	
08:03:18	-6.730619	38.95373	1037.917	-0.08311645	5.078998	1.38	3	100	0	6546	-14.80853	-6.980323	49.61927	
08:03:18	-6.730612	38.95373	1040.208	-0.08311645	5.078998	1.31	3	100	0	6546	-14.82922	-6.957201	49.70343	
08:03:18	-6.730607	38.95373	1041.908	-0.08311645	5.078998	1.04	3	100	0	6546	-14.83366	-6.944392	49.71961	
08:03:18	-6.730598	38.95373	1044.72	-0.0852713	4.201781	1.32	3	100	0	6546	-14.82907	-6.945693	49.73508	
08:03:19	-6.730584	38.95374	1049.168	-0.0852713	4.201781	1.39	3	100	0	6546	-14.83131	-6.903591	49.79778	
08:03:19	-6.730569	38.95374	1053.785	-0.0852713	4.201781	1.5	3	100	0	6546	-14.8237	-6.874873	49.83704	
08:03:19	-6.730559	38.95374	1057.145	-0.0852713	4.201781	1.59	3	100	0	6546	-14.82044	-6.867008	49.83611	
08:03:19	-6.73055	38.95374	1059.998	-0.0852713	4.201781	1.54	3	100	0	6546	-14.82977	-6.87668	49.89222	
08:03:19	-6.730533	38.95374	1065.321	-0.10317	0.9996923	1.49	3	100	0	6546	-14.80224	-6.889959	49.87571	
08:03:20	-6.730523	38.95374	1068.441	-0.10317	0.9996923	1.63	3	100	0	6546	-14.82685	-6.914826	49.85968	
08:03:20	-6.730523	38.95374	1068.441	-0.10317	0.9996923	1.83	3	100	0	6546	-14.83534	-6.919659	49.90104	
08:03:20	-6.730508	38.95374	1072.701	-0.10317	0.9996923	2.04	3	100	0	6546	-14.85481	-6.885241	50.00837	
08:03:20	-6.730498	38.95374	1075.772	-0.10317	0.9996923	1.83	3	100	0	6546	-14.85248	-6.88718	49.93053	
08:03:20	-6.730492	38.95374	1077.443	0.04327159	7.690006	1.59	3	100	0	6546	-14.84867	-6.870053	49.97483	
08:03:21	-6.730479	38.95375	1081.438	0.04327159	7.690006	1.42	3	100	0	6546	-14.86051	-6.858657	50.08195	
08:03:21	-6.730476	38.95375	1082.61	0.04327159	7.690006	0.83	3	100	0	6546	-14.87418	-6.871214	50.03485	
08:03:21	-6.730466	38.95375	1085.474	0.04327159	7.690006	1.22	3	100	0	6546	-14.88099	-6.891466	49.98605	
08:03:21	-6.730459	38.95375	1087.728	0.04327159	7.690006	1.3	3	100	0	6546	-14.8961	-6.905019	49.96527	
08:03:21	-6.730438	38.95375	1093.888	0.08197553	6.422097	1.33	3	100	0	6546	-14.90761	-6.927621	50.0075	
08:03:22	-6.730438	38.95375	1093.888	0.08197553	6.422097	1.32	3	100	0	6546	-14.91522	-6.894001	50.06093	
08:03:22	-6.730432	38.95375	1095.702	0.08197553	6.422097	1.88	3	100	0	6546	-14.9276	-6.852296	50.15704	
08:03:22	-6.730426	38.95375	1097.4	0.08197553	6.422097	0.79	3	100	0	6546	-14.93481	-6.865611	50.18266	
08:03:22	-6.730416	38.95375	1100.529	0.08197553	6.422097	1.12	3	100	0	6546	-14.94349	-6.858785	50.25409	
08:03:22	-6.730415	38.95375	1100.662	0.1081056	4.735761	0.85	3	100	0	6546	-14.94851	-6.85724	50.31454	
08:03:23	-6.730408	38.95375	1102.709	0.1081056	4.735761	0.79	3	100	0	6546	-14.93218	-6.867712	50.25165	
08:03:23	-6.730406	38.95375	1103.619	0.1081056	4.735761	0.36	3	100	0	6546	-14.91578	-6.880577	50.27396	
08:03:23	-6.730402	38.95376	1104.445	0.1081056	4.735761	0.85	3	100	0	6546	-14.87127	-6.856489	50.40555	
08:03:23	-6.730399	38.95376	1104.649	0.1081056	4.735761	1.2	3	100	0	6546	-14.85224	-6.870307	50.34462	
08:03:23	-6.730392	38.95376	1106.635	-0.1593478	-9.754086	1.11	3	100	0	6546	-14.83168	-6.874372	50.3898	
08:03:24	-6.730393	38.95376	1106.101	-0.1593478	-9.754086	0.75	3	100	0	6546	-14.82442	-6.880597	50.37374	
08:03:24	-6.730391	38.95376	1106.31	-0.1593478	-9.754086	0.82	3	100	0	6546	-14.83741	-6.88899	50.34948	
08:03:24	-6.730386	38.95376	1107.045	-0.1593478	-9.754086	1.33	3	100	0	6546	-14.83957	-6.897826	50.32815	
08:03:24	-6.73038	38.95376	1107.887	-0.1593478	-9.754086	1.8	3	100	0	6546	-14.8401	-6.908983	50.28102	
08:03:24	-6.730378	38.95376	1107.483	-0.3440232	-14.59755	1.61	3	100	0	6546	-14.83309	-6.915687	50.31963	
08:03:25	-6.730379	38.95376	1106.647	-0.3440232	-14.59755	1.01	3	100	0	6546	-14.82252	-6.911112	50.31749	
08:03:25	-6.73038	38.95376	1105.516	-0.3440232	-14.59755	0.29	3	100	0	6546	-14.81817	-6.933591	50.31752	
08:03:25	-6.730374	38.95376	1106.565	-0.3440232	-14.59755	0.85	3	100	0	6546	-14.79284	-6.960867	50.2893	
08:03:25	-6.730374	38.95376	1106.888	-0.3440232	-14.59755	0.82	3	100	0	6546	-14.84251	-6.961389	50.29767	
08:03:25	-6.730383	38.95376	1104.984	-0.3412666	-7.897334	2.62	3	100	0	6546	-14.84847	-6.963184	50.27739	
08:03:26	-6.730391	38.95376	1103.74	-0.3412666	-7.897334	4.02	3	100	0	6546	-14.8644	-6.923276	50.42671	
08:03:26	-6.730391	38.95376	1103.324	-0.3412666	-7.897334	3.12	3	100	0	6546	-14.92297	-6.79663	50.89497	
08:03:26	-6.730391	38.95376	1102.739	-0.3412666	-7.897334	1.95	3	100	0	6546	-14.95233	-6.709033	51.18387	
08:03:26	-6.730375	38.95376	1106.451	-0.3412666	-7.897334	0.74	3	100	0	6546	-14.95649	-6.680764	51.27181	
08:03:27	-6.730372	38.95376	1107.034	-0.2677678	-1.718068	0.76	3	100	0	6546	-14.95213	-6.680459	51.24064	
08:03:27	-6.730372	38.95376	1107.034	-0.2677678	-1.718068	0.08	3	100	0	6546	-15.00295	-6.665622	51.32101	
08:03:27	-6.730359	38.95376	1110.689	-0.2677678	-1.718068	0.36	3	100	0	6546	-14.9979	-6.683398	51.2726	
08:03:27	-6.730359	38.95376	1110.689	-0.2677678	-1.718068	0.76	3	100	0	6546	-15.00872	-6.671159	51.32725	
08:03:27	-6.730354	38.95376	1111.935	-0.2677678	-1.718068	0.16	3	100	0	6546	-14.99735	-6.695494	51.29732	
08:03:27	-6.730351	38.95376	1113.025	-0.3089287	-1.937221	0.66	3	100	0	6546	-15.00314	-6.713296	51.30272	
08:03:28	-6.730346	38.95377	1114.2	-0.3089287	-1.937221	0.22	3	100	0	6546	-15.00316	-6.740939	51.24228	
08:03:28	-6.730342	38.95377	1115.508	-0.3089287	-1.937221	0.57	3	100	0	6546	-14.99081	-6.766349	51.19085	
08:03:28	-6.730348	38.95376	1114.078	-0.3089287	-1.937221	1.77	3	100	0	6546	-15.00156	-6.759451	51.21468	
08:03:28	-6.73035	38.95376	1113.601	-0.3089287	-1.937221	2.83	3	100	0	6546	-14.98686	-6.746318	51.23288	
08:03:29	-6.730343	38.95376	1115.448	-0.1070532	7.457601	1.61	3	100	0	6546	-14.98284	-6.757612	51.20568	
08:03:29	-6.730339	38.95376	1115.869	-0.1070532	7.457601	0.09	3	100	0	6546	-14.98262	-6.762755	51.30569	
08:03:29	-6.730346	38.95376	1113.966	-0.1070532	7.457601	0.81	3	100	0	6546	-14.9853	-6.781139	51.29704	
08:03:29	-6.73035	38.95377	1112.114	-0.1070532	7.457601	0.48	3	100	0	6546	-14.98809	-6.79594	51.25807	
08:03:29	-6.73035	38.95377	1112.114	-0.1070532	7.457601	0.52	3	100	0	6546	-14.98054	-6.78925	51.27113	
08:03:29	-6.730349	38.95377	1112.178	0.04517589	12.33995	0.21	3	100	0	6546	-14.96699	-6.817922	51.28939	
08:03:30	-6.730346	38.95377	1112.685	0.04517589	12.33995	0.21	3	100	0	6546	-14.95877	-6.83036	51.25395	
08:03:30	-6.730339	38.95377	1113.728	0.04517589	12.33995	0.66	3	100	0	6546	-14.97067	-6.854253	51.17282	
08:03:30	-6.730334	38.95377	1114.882	0.04517589	12.33995	0.97	3	100	0	6546	-14.94209	-6.821295	51.18893	
08:03:30	-6.730326	38.95377	1116.949	0.04517589	12.33995	0.84	3	100	0	6546	-14.94684	-6.825445	51.16111	
08:03:30	-6.730321	38.95377	1118.001	0.2990653	18.95911	0.58	3	100	0	6546	-14.93608	-6.84408	51.14282	
08:03:31	-6.730315	38.95378	1119.508	0.2990653	18.95911	0.65	3	100	0	6546	-14.91718	-6.872644	51.0638	
08:03:31	-6.730318	38.95378	1118.718	0.2990653	18.95911	0.14	3	100	0	6546	-14.92065	-6.881866	51.07681	
08:03:31	-6.730316	38.95378	1118.973	0.2990653	18.95911	0.26	3	100	0	6546	-14.91012	-6.904036	51.02514	
08:03:31	-6.730312	38.95378	1120.056	0.2990653	18.95911	0.42	3	100	0	6546	-14.913	-6.885451	51.08407	
08:03:31	-6.730299	38.95378	1123.192	0.2457749	9.35354	0.14	3	100	0	6546	-14.90009	-6.91274	51.00027	
08:03:32	-6.730299	38.95378	1123.192	0.2457749	9.35354	0.48	3	100	0	6546	-14.89112	-6.934627	50.98859	
08:03:32	-6.730287	38.95378	1126.307	0.2457749	9.35354	0.58	3	100	0	6546	-14.88617	-6.964487	50.88734	
08:03:32	-6.730287	38.95378	1126.307	0.2457749	9.35354	0.36	3	100	0	6546	-14.90222	-6.966382	50.88447	
08:03:32	-6.730278	38.95378	1128.72	0.2457749	9.35354	0.62	3	100	0	6546	-14.88773	-6.953148	50.94718	
08:03:33	-6.730259	38.95378	1133.408	0.4165807	12.52024	0.57	3	100	0	6546	-14.86201	-6.977864	50.96731	
08:03:33	-6.730252	38.95378	1135.728	0.4165807	12.52024	0.74	3	100	0	6546	-14.83623	-6.982869	50.99916	
08:03:33	-6.730241	38.95378	1138.212	0.4165807	12.52024	0.83	3	100	0	6546	-14.85058	-7.010233	50.86233	
08:03:33	-6.730241	38.95378	1138.212	0.4165807	12.52024	0.83	3	100	0	6546	-14.8363	-7.017798	50.86251	
08:03:33	-6.730225	38.95379	1141.843	0.4165807	12.52024	0.81	3	100	0	6546	-14.81273	-7.015879	50.78061	
08:03:33	-6.730217	38.95379	1143.732	0.2402444	0.4090972	0.29	3	100	0	6546	-14.82123	-7.020812	50.76805	
08:03:34	-6.73021	38.95379	1145.901	0.2402444	0.4090972	0.45	3	100	0	6546	-14.80875	-7.031655	50.69601	
08:03:34	-6.730199	38.95379	1149.102	0.2402444	0.4090972	0.39	3	100	0	6546	-14.79946	-7.032586	50.73082	
08:03:34	-6.730196	38.95379	1149.877	0.2402444	0.4090972	0.26	3	100	0	6546	-14.79649	-7.043809	50.68283	
08:03:34	-6.730187	38.95379	1152.089	0.2402444	0.4090972	1.24	3	100	0	6546	-14.79455	-7.041767	50.67163	
08:03:34	-6.730182	38.9538	1153.518	0.1405451	-4.05525	0.63	3	100	0	6546	-14.77219	-7.05887	50.60936	
08:03:35	-6.730182	38.9538	1153.781	0.1405451	-4.05525	0.19	3	100	0	6546	-14.79011	-7.086515	50.56958	
08:03:35	-6.730182	38.95379	1153.839	0.1405451	-4.05525	0.82	3	100	0	6546	-14.7897	-7.100706	50.5472	
08:03:35	-6.730181	38.9538	1154.235	0.1405451	-4.05525	0.56	3	100	0	6546	-14.79071	-7.111798	50.52631	
08:03:35	-6.730182	38.9538	1153.718	0.1405451	-4.05525	0.44	3	100	0	6546	-14.78752	-7.126142	50.52563	
08:03:36	-6.730181	38.9538	1154.087	-0.1629796	-14.53265	0.56	3	100	0	6546	-14.79699	-7.121964	50.50477	
08:03:36	-6.730178	38.9538	1154.753	-0.1629796	-14.53265	0.19	3	100	0	6546	-14.80433	-7.123457	50.52341	
08:03:36	-6.730175	38.9538	1155.838	-0.1629796	-14.53265	0.55	3	100	0	6546	-14.82634	-7.120964	50.51067	
08:03:36	-6.73017	38.9538	1157.544	-0.1629796	-14.53265	0.35	3	100	0	6546	-14.82848	-7.131468	50.45341	
08:03:36	-6.730162	38.9538	1159.493	-0.1629796	-14.53265	0.84	3	100	0	6546	-14.81922	-7.129006	50.40374	
