Date	Latitude(deg) 	Longitude(deg)	hamsl(m)	hafl(m)	climbrate(cm/s)	GroundSpeed(m/s)	Airspeed(m/s)	Mav_Link(%)	Rssi_Link(%)	Throttle	Roll(deg)	Pitch(deg)	Yaw(deg)
18:01:57	0	0	0	-0.3382619	-0.2209118	0	3	100	0	50	-0.1661546	-0.9800211	-68.08941	
18:01:57	0	0	0	-0.3382619	-0.2209118	0	3	100	0	50	-0.1596726	-0.9864645	-68.10502	
18:01:57	0	0	0	-0.3382619	-0.2209118	0	3	100	0	50	-0.1487828	-0.9908471	-68.11342	
18:01:57	0	0	0	-0.3382619	-0.2209118	0	3	100	0	50	-0.1471262	-0.9814094	-68.11175	
18:01:58	0	0	0	-0.3382619	-0.2209118	0	3	100	0	50	-0.1446614	-0.9906482	-68.11371	
18:01:58	0	0	0	0.7088574	46.59166	0	3	100	0	50	-0.1449599	-0.9974469	-68.1319	
18:01:58	0	0	0	0.7088574	46.59166	0	3	100	0	50	-0.139177	-0.989107	-68.14841	
18:01:58	0	0	0	0.7088574	46.59166	0	3	100	0	50	-0.1354418	-0.9761279	-68.1697	
18:01:58	0	0	0	0.7088574	46.59166	0	3	100	0	50	-0.1286772	-0.9766611	-68.16966	
18:01:59	0	0	0	0.7088574	46.59166	0	3	100	0	50	-0.1220096	-0.9789345	-68.18159	
18:01:59	0	0	0	1.545272	56.40297	0	3	100	0	50	-0.1245026	-0.9683361	-68.18671	
18:01:59	0	0	0	1.545272	56.40297	0	3	100	0	50	-0.1340552	-0.9678884	-68.17735	
18:01:59	0	0	0	1.545272	56.40297	0	3	100	0	50	-0.1333244	-0.9606601	-68.16618	
18:01:59	0	0	0	1.545272	56.40297	0	3	100	0	50	-0.1770427	-0.9707947	-68.17758	
18:02:00	0	0	0	1.545272	56.40297	0	3	100	0	50	-0.249608	-0.9405693	-68.1882	
18:02:00	0	0	0	0.9501147	2.228029	0	3	100	0	50	-0.2337778	-0.9461668	-68.16833	
18:02:00	0	0	0	0.9501147	2.228029	0	3	100	0	50	-0.2286894	-0.9460267	-68.16919	
18:02:00	0	0	0	0.9501147	2.228029	0	3	100	0	50	-0.2105296	-0.957829	-68.17384	
18:02:00	0	0	0	0.9501147	2.228029	0	3	100	0	50	-0.171999	-0.9719277	-68.16129	
18:02:01	0	0	0	0.9501147	2.228029	0	3	100	0	50	-0.1488209	-0.9841735	-68.15998	
18:02:01	0	0	0	0.3544352	-27.30132	0	3	100	0	50	-0.1401866	-0.9735399	-68.17327	
18:02:01	0	0	0	0.3544352	-27.30132	0	3	100	0	50	-0.1359708	-0.9741201	-68.15045	
18:02:01	0	0	0	0.3544352	-27.30132	0	3	100	0	50	-0.1328143	-0.9676774	-68.14278	
18:02:01	0	0	0	0.3544352	-27.30132	0	3	100	0	50	-0.135689	-0.9805716	-68.14166	
18:02:02	0	0	0	0.3544352	-27.30132	0	3	100	0	50	-0.141432	-0.976463	-68.12816	
18:02:02	0	0	0	0.1171749	-29.80042	0	3	100	0	50	-0.1353644	-0.9774737	-68.12376	
18:02:02	0	0	0	0.1171749	-29.80042	0	3	100	0	50	-0.1385554	-0.9539332	-68.11774	
18:02:02	0	0	0	0.1171749	-29.80042	0	3	100	0	50	-0.1283367	-0.9537136	-68.09846	
18:02:03	0	0	0	0.1171749	-29.80042	0	3	100	0	50	-0.1099104	-0.9416336	-68.07322	
18:02:03	0	0	0	0.1171749	-29.80042	0	3	100	0	50	-0.1111313	-0.9420904	-68.04678	
18:02:03	0	0	0	0.06967469	-22.22581	0	3	100	0	50	-0.09564186	-0.9569221	-68.04245	
18:02:03	0	0	0	0.06967469	-22.22581	0	3	100	0	50	-0.1033626	-0.9556053	-68.03194	
18:02:03	0	0	0	0.06967469	-22.22581	0	3	100	0	50	-0.09617933	-0.9532164	-68.02794	
18:02:04	0	0	0	0.06967469	-22.22581	0	3	100	0	50	-0.08396551	-0.929018	-68.01843	
18:02:04	0	0	0	0.06967469	-22.22581	0	3	100	0	50	-0.09259826	-0.9031196	-67.99226	
18:02:04	0	0	0	-0.1089345	-24.16745	0	3	100	0	50	-0.09446916	-0.8998267	-67.97385	
18:02:04	0	0	0	-0.1089345	-24.16745	0	3	100	0	50	-0.09725268	-0.9202536	-67.9935	
18:02:04	0	0	0	-0.1089345	-24.16745	0	3	100	0	50	-0.1064551	-0.9211105	-67.99941	
18:02:05	0	0	0	-0.1089345	-24.16745	0	3	100	0	50	-0.09416489	-0.9090961	-68.00468	
18:02:05	0	0	0	-0.1089345	-24.16745	0	3	100	0	50	-0.1149532	-0.8988684	-67.98034	
18:02:05	0	0	0	-0.1744858	-20.17228	0	3	100	0	50	-0.1869855	-0.8685969	-67.97984	
18:02:05	0	0	0	-0.1744858	-20.17228	0	3	100	0	50	-0.2068283	-0.8571697	-67.96108	
18:02:05	0	0	0	-0.1744858	-20.17228	0	3	100	0	50	-0.1971869	-0.8803506	-67.95069	
18:02:06	0	0	0	-0.1744858	-20.17228	0	3	100	0	50	-0.1843389	-0.9010506	-67.94977	
18:02:06	0	0	0	-0.1744858	-20.17228	0	3	100	0	50	-0.1832562	-0.9232651	-67.95867	
18:02:06	0	0	0	-0.09471053	-10.48009	0	3	100	0	50	-0.1657033	-0.9428021	-67.9697	
18:02:06	0	0	0	-0.09471053	-10.48009	0	3	100	0	50	-0.166378	-0.9568551	-67.97657	
18:02:06	0	0	0	-0.09471053	-10.48009	0	3	100	0	50	-0.1699501	-0.9432893	-67.98249	
18:02:07	0	0	0	-0.09471053	-10.48009	0	3	100	0	50	-0.1564403	-0.9387977	-68.00397	
18:02:07	0	0	0	-0.09471053	-10.48009	0	3	100	0	50	-0.1351949	-0.9306469	-67.99641	
18:02:07	0	0	0	-0.1060114	-8.260898	0	3	100	0	50	-0.1229704	-0.9408932	-67.99052	
18:02:07	0	0	0	-0.1060114	-8.260898	0	3	100	0	50	-0.1110177	-0.9399815	-67.99047	
18:02:07	0	0	0	-0.1060114	-8.260898	0	3	100	0	50	-0.1064235	-0.9490223	-67.99117	
18:02:08	0	0	0	-0.1060114	-8.260898	0	3	100	0	50	-0.09835294	-0.952213	-67.99554	
18:02:08	0	0	0	-0.1060114	-8.260898	0	3	100	0	50	-0.1026276	-0.926956	-67.98991	
18:02:08	0	0	0	-0.08604041	-5.820498	0	3	100	0	50	-0.09885496	-0.9285274	-67.99135	
18:02:08	0	0	0	-0.08604041	-5.820498	0	3	100	0	50	-0.08613461	-0.9339288	-68.00716	
18:02:08	0	0	0	-0.08604041	-5.820498	0	3	100	0	50	-0.09090231	-0.9275506	-68.00198	
18:02:09	0	0	0	-0.08604041	-5.820498	0	3	100	0	50	-0.08614095	-0.9305983	-68.02518	
18:02:09	0	0	0	-0.08604041	-5.820498	0	3	100	0	50	-0.0885504	-0.9132629	-68.00888	
18:02:09	0	0	0	-0.02568129	-2.248674	0	3	100	0	50	-0.07358764	-0.9035531	-68.00832	
18:02:09	0	0	0	-0.02568129	-2.248674	0	3	100	0	50	-0.07467776	-0.8972586	-68.01624	
18:02:09	0	0	0	-0.02568129	-2.248674	0	3	100	0	50	-0.05129751	-0.8776808	-68.01671	
18:02:10	0	0	0	-0.02568129	-2.248674	0	3	100	0	50	-0.04994624	-0.8682967	-68.02898	
18:02:10	0	0	0	-0.02568129	-2.248674	0	3	100	0	50	-0.05240931	-0.868412	-68.03381	
18:02:10	0	0	0	-0.1153833	-6.531204	0	3	100	0	50	-0.05188692	-0.8793343	-68.04324	
18:02:10	0	0	0	-0.1153833	-6.531204	0	3	100	0	50	-0.04835229	-0.8833806	-68.03706	
18:02:10	0	0	0	-0.1153833	-6.531204	0	3	100	0	50	-0.03890171	-0.8927594	-68.03809	
18:02:11	0	0	0	-0.1153833	-6.531204	0	3	100	0	50	-0.04625063	-0.8836374	-68.04153	
18:02:11	0	0	0	-0.1153833	-6.531204	0	3	100	0	50	-0.04873281	-0.882334	-68.03389	
18:02:11	0	0	0	-0.1561659	-7.600359	0	3	100	0	50	-0.04224658	-0.8967038	-68.02645	
18:02:11	0	0	0	-0.1561659	-7.600359	0	3	100	0	50	-0.04142981	-0.8884091	-68.01969	
18:02:11	0	0	0	-0.1561659	-7.600359	0	3	100	0	50	-0.03705093	-0.8807929	-68.02409	
18:02:12	0	0	0	-0.1561659	-7.600359	0	3	100	0	50	-0.03696499	-0.8873239	-68.02584	
18:02:12	0	0	0	-0.1561659	-7.600359	0	3	100	0	50	-0.03215346	-0.8859321	-68.03697	
18:02:12	0	0	0	-0.2569745	-9.428176	0	3	100	0	50	-0.03270677	-0.8945805	-68.01588	
18:02:12	0	0	0	-0.2569745	-9.428176	0	3	100	0	50	-0.03071618	-0.8967767	-68.00008	
18:02:12	0	0	0	-0.2569745	-9.428176	0	3	100	0	50	-0.03646991	-0.8856319	-67.99134	
18:02:13	0	0	0	-0.2569745	-9.428176	0	3	100	0	50	-0.04355253	-0.8657181	-67.97413	
18:02:13	0	0	0	-0.2569745	-9.428176	0	3	100	0	50	-0.04990491	-0.866913	-67.95647	
18:02:13	0	0	0	-0.387332	-12.42998	0	3	100	0	50	-0.04692897	-0.876601	-67.94976	
18:02:13	0	0	0	-0.387332	-12.42998	0	3	100	0	50	-0.05117534	-0.8972018	-67.95148	
18:02:13	0	0	0	-0.387332	-12.42998	0	3	100	0	50	-0.0474772	-0.8919231	-67.9509	
18:02:14	0	0	0	-0.387332	-12.42998	0	3	100	0	50	-0.05009259	-0.8833894	-67.9424	
18:02:14	0	0	0	-0.387332	-12.42998	0	3	100	0	50	-0.0640271	-0.8779144	-67.92278	
18:02:14	0	0	0	-0.4647327	-12.1554	0	3	100	0	50	-0.05640668	-0.8563659	-67.91299	
18:02:14	0	0	0	-0.4647327	-12.1554	0	3	100	0	50	-0.05140749	-0.8387842	-67.91434	
18:02:14	0	0	0	-0.4647327	-12.1554	0	3	100	0	50	-0.04102286	-0.8333522	-67.90302	
18:02:15	0	0	0	-0.4647327	-12.1554	0	3	100	0	50	-0.03614555	-0.8355663	-67.91749	
18:02:15	0	0	0	-0.4647327	-12.1554	0	3	100	0	50	-0.04373568	-0.8341788	-67.92582	
18:02:15	0	0	0	-0.3688991	-5.039425	0	3	100	0	50	-0.04894186	-0.8375524	-67.90309	
18:02:15	0	0	0	-0.3688991	-5.039425	0	3	100	0	50	-0.04823647	-0.8396722	-67.90752	
18:02:15	0	0	0	-0.3688991	-5.039425	0	3	100	0	50	-0.04569606	-0.8259927	-67.91998	
18:02:16	0	0	0	-0.3688991	-5.039425	0	3	100	0	50	-0.04151058	-0.8221046	-67.92155	
18:02:16	0	0	0	-0.3688991	-5.039425	0	3	100	0	50	-0.04302699	-0.8070405	-67.90428	
18:02:16	0	0	0	-0.1426269	7.527286	0	3	100	0	50	-0.05308604	-0.7993103	-67.91066	
18:02:16	0	0	0	-0.1426269	7.527286	0	3	100	0	50	-0.06464006	-0.8061936	-67.92731	
18:02:16	0	0	0	-0.1426269	7.527286	0	3	100	0	50	-0.07774541	-0.8032224	-67.92908	
18:02:17	0	0	0	-0.1426269	7.527286	0	3	100	0	50	-0.0714427	-0.802968	-67.9388	
18:02:17	0	0	0	-0.1426269	7.527286	0	3	100	0	50	-0.06990746	-0.8053632	-67.94041	
18:02:17	0	0	0	-0.2973131	-3.267997	0	3	100	0	50	-0.07444947	-0.813987	-67.94896	
18:02:17	0	0	0	-0.2973131	-3.267997	0	3	100	0	50	-0.07506417	-0.8036599	-67.93169	
18:02:17	0	0	0	-0.2973131	-3.267997	0	3	100	0	50	-0.06806377	-0.7927094	-67.93354	
18:02:18	0	0	0	-0.2973131	-3.267997	0	3	100	0	50	-0.0580054	-0.7791256	-67.9375	
18:02:18	0	0	0	-0.2973131	-3.267997	0	3	100	0	50	-0.05964826	-0.7743462	-67.92468	
18:02:18	0	0	0	-0.2334891	0.125815	0	3	100	0	50	-0.05747025	-0.7568153	-67.89887	
18:02:18	0	0	0	-0.2334891	0.125815	0	3	100	0	50	-0.06296998	-0.7666814	-67.87746	
18:02:18	0	0	0	-0.2334891	0.125815	0	3	100	0	50	-0.06843348	-0.7890773	-67.87004	
18:02:19	0	0	0	-0.2334891	0.125815	0	3	100	0	50	-0.07349021	-0.8042269	-67.87527	
18:02:19	0	0	0	-0.2334891	0.125815	0	3	100	0	50	-0.06872515	-0.7986584	-67.87011	
18:02:19	0	0	0	-0.5658538	-15.46303	0	3	100	0	50	-0.06239402	-0.8155622	-67.86143	
18:02:19	0	0	0	-0.5658538	-15.46303	0	3	100	0	50	-0.06197101	-0.810175	-67.85361	
18:02:19	0	0	0	-0.5658538	-15.46303	0	3	100	0	50	-0.06327486	-0.8175061	-67.85312	
18:02:20	0	0	0	-0.5658538	-15.46303	0	3	100	0	50	-0.05970528	-0.8285347	-67.85291	
18:02:20	0	0	0	-0.5658538	-15.46303	0	3	100	0	50	-0.05534033	-0.8344601	-67.85649	
18:02:20	0	0	0	-0.5119668	-6.605532	0	3	100	0	50	-0.05049472	-0.8435004	-67.84529	
18:02:20	0	0	0	-0.5119668	-6.605532	0	3	100	0	50	-0.04824103	-0.8398874	-67.81846	
18:02:20	0	0	0	-0.5119668	-6.605532	0	3	100	0	50	-0.03597669	-0.8381824	-67.81616	
18:02:21	0	0	0	-0.5119668	-6.605532	0	3	100	0	50	-0.04195857	-0.8369114	-67.81834	
18:02:21	0	0	0	-0.5119668	-6.605532	0	3	100	0	50	-0.04458573	-0.8585759	-67.83435	
18:02:21	0	0	0	-0.3234638	2.320793	0	3	100	0	50	-0.04512089	-0.8620264	-67.85224	
18:02:21	0	0	0	-0.3234638	2.320793	0	3	100	0	50	-0.05754723	-0.8439964	-67.83694	
18:02:21	0	0	0	-0.3234638	2.320793	0	3	100	0	50	-0.04275671	-0.8607179	-67.82504	
18:02:22	0	0	0	-0.3234638	2.320793	0	3	100	0	50	-0.04842426	-0.8751481	-67.7998	
18:02:22	0	0	0	-0.3234638	2.320793	0	3	100	0	50	-0.03918687	-0.8934055	-67.80554	
18:02:22	0	0	0	-0.4660351	-5.608328	0	3	100	0	50	-0.04453849	-0.9090199	-67.71284	
18:02:22	0	0	0	-0.4660351	-5.608328	0	3	100	0	50	-0.05756566	-0.9056476	-67.72665	
18:02:22	0	0	0	-0.4660351	-5.608328	0	3	100	0	50	-0.04504928	-0.9153911	-67.75076	
18:02:23	0	0	0	-0.4660351	-5.608328	0	3	100	0	50	-0.04921768	-0.9242246	-67.76426	
18:02:23	0	0	0	-0.4660351	-5.608328	0	3	100	0	50	-0.03853764	-0.9251015	-67.79004	
18:02:23	0	0	0	-0.38071	-0.5826611	0	3	100	0	50	-0.03289194	-0.9249247	-67.81858	
18:02:23	0	0	0	-0.38071	-0.5826611	0	3	100	0	50	-0.03233657	-0.9332894	-67.83588	
18:02:23	0	0	0	-0.38071	-0.5826611	0	3	100	0	50	-0.02217625	-0.9302694	-67.85133	
18:02:24	0	0	0	-0.38071	-0.5826611	0	3	100	0	50	-0.02846213	-0.92072	-67.86423	
18:02:24	0	0	0	-0.38071	-0.5826611	0	3	100	0	50	-0.02674206	-0.9230919	-67.87807	
18:02:24	0	0	0	-0.4873993	-5.193953	0	3	100	0	50	-0.02653298	-0.9103991	-67.89162	
18:02:24	0	0	0	-0.4873993	-5.193953	0	3	100	0	50	-0.02357714	-0.8997902	-67.90461	
18:02:24	0	0	0	-0.4873993	-5.193953	0	3	100	0	50	-0.02986568	-0.9141474	-67.91987	
18:02:25	0	0	0	-0.4873993	-5.193953	0	3	100	0	50	-0.02816848	-0.9130709	-67.9116	
18:02:25	0	0	0	-0.4873993	-5.193953	0	3	100	0	50	-0.02567898	-0.9020502	-67.90959	
18:02:25	0	0	0	-0.5794572	-7.226055	0	3	100	0	50	-0.02792118	-0.8967003	-67.91234	
18:02:25	0	0	0	-0.5794572	-7.226055	0	3	100	0	50	-0.04668307	-0.8918443	-67.90984	
18:02:25	0	0	0	-0.5794572	-7.226055	0	3	100	0	50	-0.04237598	-0.8830847	-67.89707	
18:02:26	0	0	0	-0.5794572	-7.226055	0	3	100	0	50	-0.04160709	-0.8827463	-67.89418	
18:02:26	0	0	0	-0.5794572	-7.226055	0	3	100	0	50	-0.04403922	-0.8800773	-67.9031	
18:02:26	0	0	0	-0.5742945	-5.613996	0	3	100	0	50	-0.03975835	-0.8837332	-67.90995	
18:02:26	0	0	0	-0.5742945	-5.613996	0	3	100	0	50	-0.03100962	-0.8707068	-67.90622	
18:02:26	0	0	0	-0.5742945	-5.613996	0	3	100	0	50	-0.02651254	-0.8968559	-67.90829	
18:02:27	0	0	0	-0.5742945	-5.613996	0	3	100	0	50	-0.03021099	-0.90366	-67.89766	
18:02:27	0	0	0	-0.5742945	-5.613996	0	3	100	0	50	-0.05459037	-0.8900526	-67.90502	
18:02:27	0	0	0	-0.5922103	-4.031231	0	3	100	0	50	-0.01818562	-0.91547	-67.92564	
18:02:27	0	0	0	-0.5922103	-4.031231	0	3	100	0	50	0.002633559	-0.9129832	-67.912	
18:02:27	0	0	0	-0.5922103	-4.031231	0	3	100	0	50	0.01530453	-0.951167	-67.90212	
18:02:28	0	0	0	-0.5922103	-4.031231	0	3	100	0	50	-0.0213131	-0.9176675	-67.90635	
18:02:28	0	0	0	-0.5922103	-4.031231	0	3	100	0	50	-0.03545859	-0.9249973	-67.92436	
18:02:28	0	0	0	-0.3775423	5.735773	0	3	100	0	50	-0.03600315	-0.9305739	-67.94136	
18:02:28	0	0	0	-0.3775423	5.735773	0	3	100	0	50	-0.02996082	-0.9291427	-67.9435	
18:02:28	0	0	0	-0.3775423	5.735773	0	3	100	0	50	-0.04658131	-0.9389068	-67.9268	
18:02:29	0	0	0	-0.3775423	5.735773	0	3	100	0	50	-0.06676242	-0.9339235	-67.93485	
18:02:29	0	0	0	-0.3775423	5.735773	0	3	100	0	50	-0.06590716	-0.9301308	-67.90321	
18:02:29	0	0	0	-0.1750417	11.19845	0	3	100	0	50	-0.06870805	-0.9499314	-67.89912	
18:02:29	0	0	0	-0.1750417	11.19845	0	3	100	0	50	-0.06708948	-0.9550327	-67.89574	
18:02:29	0	0	0	-0.1750417	11.19845	0	3	100	0	50	-0.07741927	-0.9277748	-67.88873	
18:02:30	0	0	0	-0.1750417	11.19845	0	3	100	0	50	-0.08487108	-0.9369964	-67.89664	
18:02:30	0	0	0	-0.1750417	11.19845	0	3	100	0	50	-0.08108026	-0.944239	-67.90333	
18:02:30	0	0	0	-0.05607103	11.04884	0	3	100	0	50	-0.09136762	-0.9579361	-67.9157	
18:02:30	0	0	0	-0.05607103	11.04884	0	3	100	0	50	-0.08160563	-0.9436353	-67.92068	
18:02:30	0	0	0	-0.05607103	11.04884	0	3	100	0	50	-0.07373393	-0.9530691	-67.91405	
18:02:31	0	0	0	-0.05607103	11.04884	0	3	100	0	50	-0.07212675	-0.9508609	-67.91614	
18:02:31	0	0	0	-0.05607103	11.04884	0	3	100	0	50	-0.07521827	-0.9564506	-67.91771	
18:02:31	0	0	0	0.001151884	6.811111	0	3	100	0	50	-0.07368694	-0.9473932	-67.90501	
18:02:31	0	0	0	0.001151884	6.811111	0	3	100	0	50	-0.069865	-0.9428827	-67.88676	
18:02:31	0	0	0	0.001151884	6.811111	0	3	100	0	50	-0.06772121	-0.9345315	-67.87133	
18:02:32	0	0	0	0.001151884	6.811111	0	3	100	0	50	-0.06267694	-0.916155	-67.87045	
18:02:32	0	0	0	0.001151884	6.811111	0	3	100	0	50	-0.05917789	-0.9078462	-67.8645	
18:02:32	0	0	0	-0.2686174	-7.894392	0	3	100	0	50	-0.04989197	-0.9157228	-67.86449	
18:02:32	0	0	0	-0.2686174	-7.894392	0	3	100	0	50	-0.03830535	-0.9087204	-67.8437	
18:02:32	0	0	0	-0.2686174	-7.894392	0	3	100	0	50	-0.02605591	-0.9011543	-67.83653	
18:02:33	0	0	0	-0.2686174	-7.894392	0	3	100	0	50	-0.04050577	-0.9044915	-67.84927	
18:02:33	0	0	0	-0.2686174	-7.894392	0	3	100	0	50	-0.02942079	-0.8887376	-67.85132	
18:02:33	0	0	0	-0.3593401	-10.45888	0	3	100	0	50	-0.01611758	-0.8810919	-67.85133	
18:02:33	0	0	0	-0.3593401	-10.45888	0	3	100	0	50	-0.01585744	-0.8876132	-67.83459	
18:02:33	0	0	0	-0.3593401	-10.45888	0	3	100	0	50	-0.01601446	-0.8968771	-67.83061	
18:02:34	0	0	0	-0.3593401	-10.45888	0	3	100	0	50	-0.02160111	-0.8957635	-67.81878	
18:02:34	0	0	0	-0.3593401	-10.45888	0	3	100	0	50	-0.02521145	-0.8741831	-67.80945	
18:02:34	0	0	0	-0.427462	-9.717778	0	3	100	0	50	-0.02413757	-0.8692852	-67.81107	
18:02:34	0	0	0	-0.427462	-9.717778	0	3	100	0	50	-0.01983632	-0.8487149	-67.80326	
18:02:34	0	0	0	-0.427462	-9.717778	0	3	100	0	50	-0.01066978	-0.8254572	-67.78905	
18:02:35	0	0	0	-0.427462	-9.717778	0	3	100	0	50	3.93845E-05	-0.8362703	-67.79355	
18:02:35	0	0	0	-0.427462	-9.717778	0	3	100	0	50	-0.003896818	-0.8306449	-67.78224	
18:02:35	0	0	0	-0.2637844	0.8979799	0	3	100	0	50	-0.006199435	-0.8555688	-67.76715	
18:02:35	0	0	0	-0.2637844	0.8979799	0	3	100	0	50	-0.004974073	-0.8506557	-67.76461	
18:02:35	0	0	0	-0.2637844	0.8979799	0	3	100	0	50	-0.00113268	-0.8420007	-67.75569	
18:02:36	0	0	0	-0.2637844	0.8979799	0	3	100	0	50	0.007059604	-0.8428688	-67.7534	
18:02:36	0	0	0	-0.2637844	0.8979799	0	3	100	0	50	0.0164867	-0.8474681	-67.75304	
18:02:36	0	0	0	-0.3182782	-2.014791	0	3	100	0	50	0.005843387	-0.8309635	-67.75748	
18:02:36	0	0	0	-0.3182782	-2.014791	0	3	100	0	50	0.01010401	-0.8336136	-67.75488	
18:02:36	0	0	0	-0.3182782	-2.014791	0	3	100	0	50	0.01836417	-0.8138185	-67.7609	
18:02:37	0	0	0	-0.3182782	-2.014791	0	3	100	0	50	0.01852276	-0.8107377	-67.76666	
18:02:37	0	0	0	-0.3182782	-2.014791	0	3	100	0	50	0.02931589	-0.8144963	-67.79153	
18:02:37	0	0	0	-0.4502039	-6.267733	0	3	100	0	50	0.04027765	-0.8238437	-67.79301	
18:02:37	0	0	0	-0.4502039	-6.267733	0	3	100	0	50	0.04128049	-0.8133327	-67.78265	
18:02:37	0	0	0	-0.4502039	-6.267733	0	3	100	0	50	0.02756431	-0.8191823	-67.7812	
18:02:38	0	0	0	-0.4502039	-6.267733	0	3	100	0	50	0.03155255	-0.8341653	-67.78903	
18:02:38	0	0	0	-0.4502039	-6.267733	0	3	100	0	50	0.03307114	-0.8464682	-67.78947	
18:02:38	0	0	0	-0.4101515	-2.390697	0	3	100	0	50	0.03601918	-0.8498397	-67.77617	
18:02:38	0	0	0	-0.4101515	-2.390697	0	3	100	0	50	0.03020003	-0.8617138	-67.77907	
18:02:38	0	0	0	-0.4101515	-2.390697	0	3	100	0	50	0.03262618	-0.8533541	-67.78816	
18:02:39	0	0	0	-0.4101515	-2.390697	0	3	100	0	50	0.03881457	-0.8487399	-67.78995	
18:02:39	0	0	0	-0.4101515	-2.390697	0	3	100	0	50	0.03467354	-0.8382902	-67.78393	
18:02:39	0	0	0	-0.4314069	-2.087171	0	3	100	0	50	0.04726172	-0.821907	-67.77273	
18:02:39	0	0	0	-0.4314069	-2.087171	0	3	100	0	50	0.04872336	-0.8228686	-67.7665	
18:02:39	0	0	0	-0.4314069	-2.087171	0	3	100	0	50	0.04591063	-0.8369711	-67.75717	
18:02:40	0	0	0	-0.4314069	-2.087171	0	3	100	0	50	0.0464573	-0.8585589	-67.76313	
18:02:40	0	0	0	-0.4314069	-2.087171	0	3	100	0	50	0.04588119	-0.8644796	-67.76244	
18:02:40	0	0	0	-0.4338903	-2.275374	0	3	100	0	50	0.04051087	-0.8604345	-67.75101	
18:02:40	0	0	0	-0.4338903	-2.275374	0	3	100	0	50	0.03628473	-0.8552513	-67.75832	
18:02:41	0	0	0	-0.4338903	-2.275374	0	3	100	0	50	0.0410592	-0.8512764	-67.75447	
18:02:41	0	0	0	-0.4338903	-2.275374	0	3	100	0	50	0.04543865	-0.8680989	-67.75698	
18:02:41	0	0	0	-0.4338903	-2.275374	0	3	100	0	50	0.03831068	-0.8645827	-67.76349	
18:02:41	0	0	0	-0.3381773	3.006228	0	3	100	0	50	0.04216073	-0.842898	-67.75529	
18:02:41	0	0	0	-0.3381773	3.006228	0	3	100	0	50	0.04945157	-0.8470719	-67.75946	
18:02:42	0	0	0	-0.3381773	3.006228	0	3	100	0	50	0.05576576	-0.8391423	-67.75526	
18:02:42	0	0	0	-0.3381773	3.006228	0	3	100	0	50	0.06306933	-0.826081	-67.72944	
18:02:42	0	0	0	-0.3381773	3.006228	0	3	100	0	50	0.05602854	-0.8490501	-67.73496	
18:02:42	0	0	0	-0.2596022	3.943774	0	3	100	0	50	0.06434142	-0.8553649	-67.73369	
18:02:42	0	0	0	-0.2596022	3.943774	0	3	100	0	50	0.05813431	-0.8630098	-67.73686	
18:02:43	0	0	0	-0.2596022	3.943774	0	3	100	0	50	0.05774057	-0.8450831	-67.7559	
18:02:43	0	0	0	-0.2596022	3.943774	0	3	100	0	50	0.06162744	-0.8475288	-67.74877	
18:02:43	0	0	0	-0.2596022	3.943774	0	3	100	0	50	0.06988925	-0.8334325	-67.75546	
18:02:43	0	0	0	-0.340283	-1.091015	0	3	100	0	50	0.06828921	-0.8473702	-67.75635	
18:02:43	0	0	0	-0.340283	-1.091015	0	3	100	0	50	0.05774322	-0.8392994	-67.74692	
18:02:44	0	0	0	-0.340283	-1.091015	0	3	100	0	50	0.05282429	-0.8208793	-67.73678	
18:02:44	0	0	0	-0.340283	-1.091015	0	3	100	0	50	0.0585168	-0.7893971	-67.73547	
18:02:44	0	0	0	-0.340283	-1.091015	0	3	100	0	50	0.06291512	-0.7950828	-67.73031	
18:02:44	0	0	0	-0.396291	-4.043187	0	3	100	0	50	0.05982726	-0.7832425	-67.731	
18:02:44	0	0	0	-0.396291	-4.043187	0	3	100	0	50	0.05737868	-0.797625	-67.72567	
18:02:45	0	0	0	-0.396291	-4.043187	0	3	100	0	50	0.04469483	-0.7963952	-67.72966	
18:02:45	0	0	0	-0.396291	-4.043187	0	3	100	0	50	0.04940021	-0.7953341	-67.73512	
18:02:45	0	0	0	-0.396291	-4.043187	0	3	100	0	50	0.04309835	-0.7935975	-67.73267	
18:02:45	0	0	0	-0.4765004	-5.723103	0	3	100	0	50	0.0298952	-0.7825376	-67.72506	
18:02:45	0	0	0	-0.4765004	-5.723103	0	3	100	0	50	0.03024692	-0.7742136	-67.71806	
18:02:46	0	0	0	-0.4765004	-5.723103	0	3	100	0	50	0.01843005	-0.7895991	-67.70036	
18:02:46	0	0	0	-0.4765004	-5.723103	0	3	100	0	50	0.008327039	-0.7934248	-67.70531	
18:02:46	0	0	0	-0.4765004	-5.723103	0	3	100	0	50	0.01239702	-0.7950302	-67.70327	
18:02:46	0	0	0	-0.3217823	3.31101	0	3	100	0	50	0.01824263	-0.7900258	-67.69327	
18:02:46	0	0	0	-0.3217823	3.31101	0	3	100	0	50	0.01781034	-0.8074043	-67.69674	
18:02:47	0	0	0	-0.3217823	3.31101	0	3	100	0	50	0.02530987	-0.7919278	-67.69953	
18:02:47	0	0	0	-0.3217823	3.31101	0	3	100	0	50	0.02507276	-0.8049692	-67.72274	
18:02:47	0	0	0	-0.3217823	3.31101	0	3	100	0	50	0.01383698	-0.836224	-67.74623	
18:02:47	0	0	0	-0.2905768	2.436953	0	3	100	0	50	0.009433072	-0.8377644	-67.75265	
18:02:47	0	0	0	-0.2905768	2.436953	0	3	100	0	50	0.004726273	-0.8350682	-67.74569	
18:02:48	0	0	0	-0.2905768	2.436953	0	3	100	0	50	-0.008992225	-0.8085731	-67.74838	
18:02:48	0	0	0	-0.2905768	2.436953	0	3	100	0	50	-0.00734483	-0.8038889	-67.76446	
18:02:48	0	0	0	-0.2905768	2.436953	0	3	100	0	50	-0.004803229	-0.8146679	-67.78086	
18:02:48	0	0	0	-0.2097969	5.388968	0	3	100	0	50	0.002546211	-0.8149912	-67.80245	
18:02:48	0	0	0	-0.2097969	5.388968	0	3	100	0	50	0.01178862	-0.8014603	-67.80427	
18:02:49	0	0	0	-0.2097969	5.388968	0	3	100	0	50	0.01648023	-0.8040801	-67.80631	
18:02:49	0	0	0	-0.2097969	5.388968	0	3	100	0	50	0.02250428	-0.7921516	-67.81776	
18:02:49	0	0	0	-0.2097969	5.388968	0	3	100	0	50	0.02320363	-0.7699984	-67.81247	
18:02:49	0	0	0	-0.2939378	-1.666291	0	3	100	0	50	0.02517875	-0.7372621	-67.82289	
18:02:49	0	0	0	-0.2939378	-1.666291	0	3	100	0	50	0.03207488	-0.7181879	-67.81508	
18:02:50	0	0	0	-0.2939378	-1.666291	0	3	100	0	50	0.02581754	-0.7163058	-67.81111	
18:02:50	0	0	0	-0.2939378	-1.666291	0	3	100	0	50	0.02449173	-0.7184891	-67.78736	
18:02:50	0	0	0	-0.2939378	-1.666291	0	3	100	0	50	0.03102576	-0.7364025	-67.77814	
18:02:50	0	0	0	-0.500736	-11.58897	0	3	100	0	50	0.03418265	-0.7484302	-67.76467	
18:02:50	0	0	0	-0.500736	-11.58897	0	3	100	0	50	0.05008302	-0.7513663	-67.7696	
18:02:51	0	0	0	-0.500736	-11.58897	0	3	100	0	50	0.0588243	-0.7604913	-67.76772	
18:02:51	0	0	0	-0.500736	-11.58897	0	3	100	0	50	0.06255525	-0.7481601	-67.75909	
18:02:51	0	0	0	-0.500736	-11.58897	0	3	100	0	50	0.05369764	-0.7471412	-67.76221	
18:02:51	0	0	0	-0.6193772	-12.17882	0	3	100	0	50	0.05815448	-0.7641364	-67.75632	
18:02:51	0	0	0	-0.6193772	-12.17882	0	3	100	0	50	0.07052487	-0.775423	-67.75423	
18:02:52	0	0	0	-0.6193772	-12.17882	0	3	100	0	50	0.07525598	-0.7590345	-67.74841	
18:02:52	0	0	0	-0.6193772	-12.17882	0	3	100	0	50	0.0610865	-0.7720873	-67.74007	
18:02:52	0	0	0	-0.6193772	-12.17882	0	3	100	0	50	0.06191427	-0.7642381	-67.73095	
18:02:52	0	0	0	-0.6104457	-5.910162	0	3	100	0	50	0.05926389	-0.7680436	-67.71455	
18:02:52	0	0	0	-0.6104457	-5.910162	0	3	100	0	50	0.06236814	-0.7656785	-67.7087	
18:02:53	0	0	0	-0.6104457	-5.910162	0	3	100	0	50	0.06623047	-0.7671136	-67.7106	
18:02:53	0	0	0	-0.6104457	-5.910162	0	3	100	0	50	0.06912433	-0.7520565	-67.70837	
18:02:53	0	0	0	-0.6104457	-5.910162	0	3	100	0	50	0.06835598	-0.7319246	-67.69768	
18:02:53	0	0	0	-0.5620151	-1.332295	0	3	100	0	50	0.07713388	-0.727191	-67.69155	
18:02:53	0	0	0	-0.5620151	-1.332295	0	3	100	0	50	0.0809698	-0.7225152	-67.66173	
18:02:54	0	0	0	-0.5620151	-1.332295	0	3	100	0	50	0.08841876	-0.7079086	-67.65993	
18:02:54	0	0	0	-0.5620151	-1.332295	0	3	100	0	50	0.08763891	-0.7175039	-67.66984	
18:02:54	0	0	0	-0.5620151	-1.332295	0	3	100	0	50	0.0888298	-0.7083845	-67.65359	
18:02:54	0	0	0	-0.5944456	-2.680944	0	3	100	0	50	0.09489268	-0.6967824	-67.6486	
18:02:54	0	0	0	-0.5944456	-2.680944	0	3	100	0	50	0.1083448	-0.6893247	-67.63242	
18:02:55	0	0	0	-0.5944456	-2.680944	0	3	100	0	50	0.1120274	-0.6897681	-67.62573	
18:02:55	0	0	0	-0.5944456	-2.680944	0	3	100	0	50	0.1029048	-0.7321241	-67.62776	
18:02:55	0	0	0	-0.5944456	-2.680944	0	3	100	0	50	0.09791014	-0.7451437	-67.633	
18:02:55	0	0	0	-0.5122204	2.565655	0	3	100	0	50	0.09769538	-0.7671755	-67.6349	
18:02:55	0	0	0	-0.5122204	2.565655	0	3	100	0	50	0.08155575	-0.7720357	-67.63046	
18:02:56	0	0	0	-0.5122204	2.565655	0	3	100	0	50	0.07855174	-0.7750103	-67.6069	
18:02:56	0	0	0	-0.5122204	2.565655	0	3	100	0	50	0.08058897	-0.7755325	-67.60703	
18:02:56	0	0	0	-0.5122204	2.565655	0	3	100	0	50	0.07165921	-0.7545722	-67.60349	
18:02:56	0	0	0	-0.491993	0.8199878	0	3	100	0	50	0.07158935	-0.7564414	-67.61119	
18:02:56	0	0	0	-0.491993	0.8199878	0	3	100	0	50	0.06034922	-0.7566453	-67.61171	
18:02:57	0	0	0	-0.491993	0.8199878	0	3	100	0	50	0.06746122	-0.7629557	-67.6082	
18:02:57	0	0	0	-0.491993	0.8199878	0	3	100	0	50	0.07562453	-0.7563065	-67.61422	
18:02:57	0	0	0	-0.491993	0.8199878	0	3	100	0	50	0.07641246	-0.7461702	-67.61245	
18:02:57	0	0	0	-0.3148584	6.770998	0	3	100	0	50	0.07223143	-0.7568118	-67.63946	
18:02:57	0	0	0	-0.3148584	6.770998	0	3	100	0	50	0.06523168	-0.7492613	-67.63597	
18:02:58	0	0	0	-0.3148584	6.770998	0	3	100	0	50	0.07337219	-0.7572839	-67.64336	
18:02:58	0	0	0	-0.3148584	6.770998	0	3	100	0	50	0.0743947	-0.7543361	-67.64481	
18:02:58	0	0	0	-0.3148584	6.770998	0	3	100	0	50	0.07822588	-0.7524796	-67.64609	
18:02:58	0	0	0	-0.3119522	3.439898	0	3	100	0	50	0.07789408	-0.767844	-67.65166	
18:02:58	0	0	0	-0.3119522	3.439898	0	3	100	0	50	0.07199016	-0.772322	-67.63468	
18:02:59	0	0	0	-0.3119522	3.439898	0	3	100	0	50	0.08466975	-0.7549055	-67.65344	
18:02:59	0	0	0	-0.3119522	3.439898	0	3	100	0	50	0.08527742	-0.7587308	-67.67751	
18:02:59	0	0	0	-0.3119522	3.439898	0	3	100	0	50	0.08811661	-0.7299818	-67.67951	
18:02:59	0	0	0	-0.5358232	-7.510763	0	3	100	0	50	0.08248277	-0.7389972	-67.67645	
18:02:59	0	0	0	-0.5358232	-7.510763	0	3	100	0	50	0.08050293	-0.7240404	-67.68311	
18:03:00	0	0	0	-0.5358232	-7.510763	0	3	100	0	50	0.08277433	-0.7374393	-67.69418	
18:03:00	0	0	0	-0.5358232	-7.510763	0	3	100	0	50	0.07402705	-0.7331542	-67.70763	
18:03:00	0	0	0	-0.5358232	-7.510763	0	3	100	0	50	0.06993029	-0.7291846	-67.71796	
18:03:00	0	0	0	-0.6882865	-9.433953	0	3	100	0	50	0.07265875	-0.7209231	-67.70799	
18:03:00	0	0	0	-0.6882865	-9.433953	0	3	100	0	50	0.05828712	-0.7078475	-67.71694	
18:03:01	0	0	0	-0.6882865	-9.433953	0	3	100	0	50	0.05346975	-0.6883828	-67.70398	
18:03:01	0	0	0	-0.6882865	-9.433953	0	3	100	0	50	0.04816119	-0.698855	-67.7057	
18:03:01	0	0	0	-0.6882865	-9.433953	0	3	100	0	50	0.05318722	-0.7117644	-67.71252	
18:03:01	0	0	0	-0.6230832	-1.92034	0	3	100	0	50	0.04855046	-0.7105804	-67.70402	
18:03:01	0	0	0	-0.6230832	-1.92034	0	3	100	0	50	0.05860067	-0.7055261	-67.70282	
18:03:02	0	0	0	-0.6230832	-1.92034	0	3	100	0	50	0.0694324	-0.718705	-67.69861	
18:03:02	0	0	0	-0.6230832	-1.92034	0	3	100	0	50	0.06473008	-0.7159305	-67.70085	
18:03:02	0	0	0	-0.6230832	-1.92034	0	3	100	0	50	0.06786315	-0.7371244	-67.7141	
18:03:02	0	0	0	-0.270897	15.37217	0	3	100	0	50	0.05229317	-0.7225781	-67.71573	
18:03:02	0	0	0	-0.270897	15.37217	0	3	100	0	50	0.04729462	-0.7294416	-67.72239	
18:03:03	0	0	0	-0.270897	15.37217	0	3	100	0	50	0.035763	-0.7396249	-67.7387	
18:03:03	0	0	0	-0.270897	15.37217	0	3	100	0	50	0.0156644	-0.748019	-67.73817	
18:03:03	0	0	0	-0.270897	15.37217	0	3	100	0	50	0.01825401	-0.7623975	-67.72997	
18:03:03	0	0	0	-0.08246072	16.70321	0	3	100	0	50	0.01595361	-0.7558588	-67.7076	
18:03:03	0	0	0	-0.08246072	16.70321	0	3	100	0	50	0.02229689	-0.7695228	-67.69822	
18:03:04	0	0	0	-0.08246072	16.70321	0	3	100	0	50	0.02717808	-0.7746322	-67.71057	
18:03:04	0	0	0	-0.08246072	16.70321	0	3	100	0	50	0.03422023	-0.7708695	-67.70351	
18:03:04	0	0	0	-0.08246072	16.70321	0	3	100	0	50	0.02922229	-0.7770665	-67.70053	
18:03:04	0	0	0	-0.04994831	11.03175	0	3	100	0	50	0.03684377	-0.7727363	-67.67902	
18:03:04	0	0	0	-0.04994831	11.03175	0	3	100	0	50	0.04302948	-0.7571759	-67.69555	
18:03:05	0	0	0	-0.04994831	11.03175	0	3	100	0	50	0.04289754	-0.7430317	-67.71427	
18:03:05	0	0	0	-0.04994831	11.03175	0	3	100	0	50	0.05134051	-0.7413117	-67.73566	
18:03:05	0	0	0	-0.04994831	11.03175	0	3	100	0	50	0.05308919	-0.730805	-67.75055	
18:03:05	0	0	0	-0.09895117	4.094353	0	3	100	0	50	0.04657033	-0.7246007	-67.7757	
18:03:05	0	0	0	-0.09895117	4.094353	0	3	100	0	50	0.0379919	-0.7482305	-67.77028	
18:03:06	0	0	0	-0.09895117	4.094353	0	3	100	0	50	0.02757938	-0.7825922	-67.77012	
18:03:06	0	0	0	-0.09895117	4.094353	0	3	100	0	50	0.01886448	-0.7970515	-67.77618	
18:03:06	0	0	0	-0.09895117	4.094353	0	3	100	0	50	0.02228837	-0.8061614	-67.78036	
18:03:06	0	0	0	-0.363252	-9.230584	0	3	100	0	50	0.02758575	-0.7809194	-67.79506	
18:03:06	0	0	0	-0.363252	-9.230584	0	3	100	0	50	0.02674524	-0.7687172	-67.8059	
18:03:07	0	0	0	-0.363252	-9.230584	0	3	100	0	50	0.02505805	-0.7720646	-67.79572	
18:03:07	0	0	0	-0.363252	-9.230584	0	3	100	0	50	0.01894471	-0.764626	-67.78542	
18:03:07	0	0	0	-0.363252	-9.230584	0	3	100	0	50	0.02198165	-0.7398295	-67.79117	
18:03:07	0	0	0	-0.343467	-3.313344	0	3	100	0	50	0.004368705	-0.7483482	-67.79253	
18:03:07	0	0	0	-0.343467	-3.313344	0	3	100	0	50	0.003751927	-0.7387968	-67.81104	
18:03:08	0	0	0	-0.343467	-3.313344	0	3	100	0	50	-0.002460505	-0.7241799	-67.81146	
18:03:08	0	0	0	-0.343467	-3.313344	0	3	100	0	50	0.005706498	-0.7305805	-67.80622	
18:03:08	0	0	0	-0.343467	-3.313344	0	3	100	0	50	0.01794801	-0.7145807	-67.83248	
18:03:08	0	0	0	-0.3227258	-1.053875	0	3	100	0	50	0.02947103	-0.7088057	-67.8443	
18:03:08	0	0	0	-0.3227258	-1.053875	0	3	100	0	50	0.02105386	-0.6991337	-67.83963	
18:03:09	0	0	0	-0.3227258	-1.053875	0	3	100	0	50	0.02773552	-0.696409	-67.84566	
18:03:09	0	0	0	-0.3227258	-1.053875	0	3	100	0	50	0.03455853	-0.6806339	-67.84687	
18:03:09	0	0	0	-0.3227258	-1.053875	0	3	100	0	50	0.03382704	-0.6788911	-67.80962	
18:03:09	0	0	0	-0.3158789	-0.001393579	0	3	100	0	50	0.03093104	-0.6842869	-67.81743	
18:03:09	0	0	0	-0.3158789	-0.001393579	0	3	100	0	50	0.01777998	-0.692157	-67.79694	
18:03:10	0	0	0	-0.3158789	-0.001393579	0	3	100	0	50	0.0322581	-0.7251653	-67.79618	
18:03:10	0	0	0	-0.3158789	-0.001393579	0	3	100	0	50	0.03074849	-0.7318405	-67.78854	
18:03:10	0	0	0	-0.3158789	-0.001393579	0	3	100	0	50	0.02565273	-0.7542884	-67.78493	
18:03:10	0	0	0	-0.4419788	-5.697082	0	3	100	0	50	0.009514771	-0.7903489	-67.79079	
18:03:10	0	0	0	-0.4419788	-5.697082	0	3	100	0	50	-0.01386209	-0.7890503	-67.77286	
18:03:11	0	0	0	-0.4419788	-5.697082	0	3	100	0	50	-0.01772536	-0.8090931	-67.77528	
18:03:11	0	0	0	-0.4419788	-5.697082	0	3	100	0	50	-0.03765213	-0.8150304	-67.76296	
18:03:11	0	0	0	-0.4419788	-5.697082	0	3	100	0	50	-0.02137358	-0.819856	-67.7691	
18:03:11	0	0	0	-0.7707998	-17.494	0	3	100	0	50	-0.01090302	-0.8262118	-67.77074	
18:03:11	0	0	0	-0.7707998	-17.494	0	3	100	0	50	-0.02027463	-0.8238527	-67.77435	
18:03:12	0	0	0	-0.7707998	-17.494	0	3	100	0	50	-0.01770894	-0.8380217	-67.7821	
18:03:12	0	0	0	-0.7707998	-17.494	0	3	100	0	50	-0.03952613	-0.8326138	-67.77874	
18:03:12	0	0	0	-0.7707998	-17.494	0	3	100	0	50	-0.02950799	-0.837144	-67.7812	
18:03:12	0	0	0	-0.547906	-0.5637391	0	3	100	0	50	-0.0312647	-0.85493	-67.79324	
18:03:12	0	0	0	-0.547906	-0.5637391	0	3	100	0	50	-0.03074569	-0.8596085	-67.80773	
18:03:13	0	0	0	-0.547906	-0.5637391	0	3	100	0	50	-0.03855034	-0.8557373	-67.81602	
18:03:13	0	0	0	-0.547906	-0.5637391	0	3	100	0	50	-0.04397884	-0.8487844	-67.81602	
18:03:13	0	0	0	-0.547906	-0.5637391	0	3	100	0	50	-0.04773647	-0.8530443	-67.84002	
18:03:13	0	0	0	-0.4378822	4.351865	0	3	100	0	50	-0.05758855	-0.839627	-67.8468	
18:03:13	0	0	0	-0.4378822	4.351865	0	3	100	0	50	-0.04780901	-0.8327852	-67.93593	
