Date	Latitude(deg) 	Longitude(deg)	hamsl(m)	hafl(m)	climbrate(cm/s)	GroundSpeed(m/s)	Airspeed(m/s)	Mav_Link(%)	Rssi_Link(%)	Throttle	Roll(deg)	Pitch(deg)	Yaw(deg)
16:39:36	0	0	0	0	0	0	0	100	0	0	-1.378901	1.051605	118.5758	
16:39:36	0	0	0	0	0	0	0	100	0	0	-1.372172	1.049822	118.7322	
16:39:37	0	0	0	0	0	0	0	100	0	0	-1.351154	1.038521	118.7908	
16:39:37	0	0	0	0.1842645	-8.551553	0	3	100	0	50	-1.314678	1.024666	118.8168	
16:39:37	0	0	0	0.1842645	-8.551553	0	3	100	0	50	-1.343441	1.035734	118.8506	
16:39:37	0	0	0	0.1842645	-8.551553	0	3	100	0	50	-1.379211	1.073082	118.9867	
16:39:37	0	0	0	0.1842645	-8.551553	0	3	100	0	50	-1.376677	1.070301	119.0251	
16:39:38	0	0	0	0.1842645	-8.551553	0	3	100	0	50	-1.386879	1.064088	119.0221	
16:39:38	0	0	0	0.9056371	24.64116	0	3	100	0	50	-1.375681	1.05392	118.928	
16:39:38	0	0	0	0.9056371	24.64116	0	3	100	0	50	-1.369561	1.059619	118.9414	
16:39:38	0	0	0	0.9056371	24.64116	0	3	100	0	50	-1.373609	1.095567	119.0345	
16:39:38	0	0	0	0.9056371	24.64116	0	3	100	0	50	-1.395744	1.105262	119.0384	
16:39:39	0	0	0	0.9056371	24.64116	0	3	100	0	50	-1.415971	1.109248	118.9073	
16:39:39	0	0	0	0.6882715	6.100712	0	3	100	0	50	-1.435594	1.11416	118.9116	
16:39:39	0	0	0	0.6882715	6.100712	0	3	100	0	50	-1.441356	1.067219	118.9665	
16:39:39	0	0	0	0.6882715	6.100712	0	3	100	0	50	-1.414792	1.049025	118.9472	
16:39:39	0	0	0	0.6882715	6.100712	0	3	100	0	50	-1.400643	1.054518	119.0094	
16:39:40	0	0	0	0.6882715	6.100712	0	3	100	0	50	-1.417894	1.058664	119.1272	
16:39:40	0	0	0	0.1433204	-18.5176	0	3	100	0	50	-1.429232	1.0599	119.2807	
16:39:40	0	0	0	0.1433204	-18.5176	0	3	100	0	50	-1.43951	1.060256	119.422	
16:39:40	0	0	0	0.1433204	-18.5176	0	3	100	0	50	-1.44383	1.087149	119.5555	
16:39:40	0	0	0	0.1433204	-18.5176	0	3	100	0	50	-1.453972	1.067823	119.6521	
16:39:41	0	0	0	0.1433204	-18.5176	0	3	100	0	50	-1.462984	1.076634	119.7745	
16:39:41	0	0	0	-0.1893222	-25.05611	0	3	100	0	50	-1.467122	1.098555	119.8752	
16:39:41	0	0	0	-0.1893222	-25.05611	0	3	100	0	50	-1.472315	1.107603	119.985	
16:39:41	0	0	0	-0.1893222	-25.05611	0	3	100	0	50	-1.488903	1.109359	120.0907	
16:39:41	0	0	0	-0.1893222	-25.05611	0	3	100	0	50	-1.497352	1.118746	120.1787	
16:39:42	0	0	0	-0.1893222	-25.05611	0	3	100	0	50	-1.508695	1.111497	120.2597	
16:39:42	0	0	0	-0.1909284	-13.56762	0	3	100	0	50	-1.507216	1.108049	120.3546	
16:39:42	0	0	0	-0.1909284	-13.56762	0	3	100	0	50	-1.521231	1.11309	120.4441	
16:39:42	0	0	0	-0.1909284	-13.56762	0	3	100	0	50	-1.51822	1.121978	120.5389	
16:39:42	0	0	0	-0.1909284	-13.56762	0	3	100	0	50	-1.525755	1.110548	120.6156	
16:39:43	0	0	0	-0.1909284	-13.56762	0	3	100	0	50	-1.532882	1.129189	120.6955	
16:39:43	0	0	0	0.06039163	4.849325	0	3	100	0	50	-1.544049	1.142209	120.762	
16:39:43	0	0	0	0.06039163	4.849325	0	3	100	0	50	-1.556859	1.153214	120.8322	
16:39:43	0	0	0	0.06039163	4.849325	0	3	100	0	50	-1.554103	1.143506	120.8783	
16:39:43	0	0	0	0.06039163	4.849325	0	3	100	0	50	-1.557783	1.152544	120.9505	
16:39:44	0	0	0	0.06039163	4.849325	0	3	100	0	50	-1.566422	1.157485	121.0012	
16:39:44	0	0	0	0.199482	9.824913	0	3	100	0	50	-1.579704	1.171971	121.0662	
16:39:44	0	0	0	0.199482	9.824913	0	3	100	0	50	-1.578321	1.188959	121.116	
16:39:44	0	0	0	0.199482	9.824913	0	3	100	0	50	-1.584063	1.175567	121.1751	
16:39:44	0	0	0	0.199482	9.824913	0	3	100	0	50	-1.583169	1.172942	121.2202	
16:39:45	0	0	0	0.199482	9.824913	0	3	100	0	50	-1.591447	1.180718	121.2789	
16:39:45	0	0	0	0.2256147	7.440009	0	3	100	0	50	-1.595205	1.189245	121.3238	
16:39:45	0	0	0	0.2256147	7.440009	0	3	100	0	50	-1.59663	1.19921	121.3878	
16:39:45	0	0	0	0.2256147	7.440009	0	3	100	0	50	-1.598824	1.225979	121.426	
16:39:45	0	0	0	0.2256147	7.440009	0	3	100	0	50	-1.595131	1.235303	121.4832	
16:39:46	0	0	0	0.2256147	7.440009	0	3	100	0	50	-1.582518	1.225755	121.5311	
16:39:46	0	0	0	0.1426273	0.9655966	0	3	100	0	50	-1.560006	1.221008	121.5676	
16:39:46	0	0	0	0.1426273	0.9655966	0	3	100	0	50	-1.546465	1.228567	121.6197	
16:39:46	0	0	0	0.1426273	0.9655966	0	3	100	0	50	-1.559441	1.23081	121.6671	
16:39:46	0	0	0	0.1426273	0.9655966	0	3	100	0	50	-1.56053	1.257912	121.6899	
16:39:47	0	0	0	0.1426273	0.9655966	0	3	100	0	50	-1.563918	1.258308	121.7119	
16:39:47	0	0	0	-0.2490477	-15.30248	0	3	100	0	50	-1.562432	1.269325	121.7213	
16:39:47	0	0	0	-0.2490477	-15.30248	0	3	100	0	50	-1.564305	1.292479	121.7597	
16:39:47	0	0	0	-0.2490477	-15.30248	0	3	100	0	50	-1.56543	1.306265	121.7644	
16:39:47	0	0	0	-0.2490477	-15.30248	0	3	100	0	50	-1.569106	1.323852	121.7799	
16:39:48	0	0	0	-0.2490477	-15.30248	0	3	100	0	50	-1.558439	1.342276	121.7977	
16:39:48	0	0	0	-0.09473078	-2.250102	0	3	100	0	50	-1.558703	1.34892	121.8093	
16:39:48	0	0	0	-0.09473078	-2.250102	0	3	100	0	50	-1.557911	1.347569	121.833	
16:39:48	0	0	0	-0.09473078	-2.250102	0	3	100	0	50	-1.565719	1.350733	121.8642	
16:39:48	0	0	0	-0.09473078	-2.250102	0	3	100	0	50	-1.559471	1.360371	121.8734	
16:39:49	0	0	0	-0.09473078	-2.250102	0	3	100	0	50	-1.553131	1.352443	121.8823	
16:39:49	0	0	0	-0.07353242	-0.04277445	0	3	100	0	50	-1.546282	1.337725	121.8768	
16:39:49	0	0	0	-0.07353242	-0.04277445	0	3	100	0	50	-1.542924	1.342829	121.8938	
16:39:49	0	0	0	-0.07353242	-0.04277445	0	3	100	0	50	-1.542724	1.34605	121.9255	
16:39:49	0	0	0	-0.07353242	-0.04277445	0	3	100	0	50	-1.541333	1.351181	121.9373	
16:39:50	0	0	0	-0.07353242	-0.04277445	0	3	100	0	50	-1.538857	1.33027	121.9484	
16:39:50	0	0	0	0.1222889	9.69665	0	3	100	0	50	-1.537222	1.326742	121.9614	
16:39:50	0	0	0	0.1222889	9.69665	0	3	100	0	50	-1.547338	1.317354	121.985	
16:39:50	0	0	0	0.1222889	9.69665	0	3	100	0	50	-1.549536	1.300821	121.9814	
16:39:50	0	0	0	0.1222889	9.69665	0	3	100	0	50	-1.554335	1.288323	121.989	
16:39:51	0	0	0	0.1222889	9.69665	0	3	100	0	50	-1.539868	1.287098	121.9919	
16:39:51	0	0	0	0.0621038	3.87574	0	3	100	0	50	-1.520955	1.294692	122.0071	
