Date	Latitude(deg) 	Longitude(deg)	hamsl(m)	hafl(m)	climbrate(cm/s)	GroundSpeed(m/s)	Airspeed(m/s)	Mav_Link(%)	Rssi_Link(%)	Throttle	Roll(deg)	Pitch(deg)	Yaw(deg)
12:31:15	47.46343	-122.3077	0.02	0.02	0	0	3	100	0	6546	-6.982352E-05	9.129025E-05	-5.562544E-11	
12:31:15	47.46343	-122.3077	0.02	0.02	0	0	3	100	0	6546	-6.982352E-05	9.129025E-05	-5.562544E-11	
12:31:15	47.46343	-122.3077	0.02	0.02	0	0	3	100	0	6546	-6.982352E-05	9.129025E-05	-5.562544E-11	
12:31:15	47.46343	-122.3077	0.02	0.02	0	0	3	100	0	6546	-6.982352E-05	9.129025E-05	-5.562544E-11	
12:31:16	47.46343	-122.3077	0.02	0.02	0	0	3	100	0	6546	-6.982352E-05	9.129025E-05	-5.562544E-11	
12:31:16	47.46343	-122.3077	0.02	0.02	0	0	3	100	0	6546	-6.982352E-05	9.129025E-05	-5.562544E-11	
12:31:16	47.46343	-122.3077	0.02	0.02	0	0	3	100	0	6546	-6.982352E-05	9.129025E-05	-5.562544E-11	
12:31:16	47.46343	-122.3077	0.02	0.02	0	0	3	100	0	6546	-6.982352E-05	9.129025E-05	-5.562544E-11	
12:31:17	47.46343	-122.3077	0.02	0.02	0	0	3	100	0	6546	-6.982352E-05	9.129025E-05	-5.562544E-11	
12:31:17	47.46343	-122.3077	0.02	0.02	0	0	3	100	0	6546	-6.982352E-05	9.129025E-05	-5.562544E-11	
12:31:17	0	0	0	0.02	0	0	3	100	0	6546	-6.982352E-05	9.129025E-05	-5.562544E-11	
12:31:17	0	0	0	0.02	0	0	3	100	0	6546	0.001497706	0.002121818	8.891129	
12:31:17	0	0	0	0.02	0	0	3	100	0	6546	0.003048623	0.002408813	24.68568	
12:31:17	47.46343	-122.3077	0.02	0.02	0	0	3	100	0	6546	0.003798741	0.001616395	42.01821	
12:31:18	47.46343	-122.3077	0.02	0.02	0	0	3	100	0	6546	0.003584513	0.0009329035	59.42823	
12:31:18	47.46343	-122.3077	0.02	-0.106817	-18.6234	0	3	100	0	6546	0.002983772	0.002388908	75.28127	
12:31:18	47.46343	-122.3077	0.02	-0.106817	-18.6234	0	3	100	0	6546	0.002909997	0.002436256	88.73977	
12:31:18	47.46343	-122.3077	0.02	-0.106817	-18.6234	0	3	100	0	6546	0.002437225	0.0004711199	99.34305	
12:31:18	47.46343	-122.3077	0.02	-0.106817	-18.6234	0	3	100	0	6546	0.002041408	0.001901472	107.5035	
12:31:19	47.46343	-122.3077	0.02	-0.106817	-18.6234	0	3	100	0	6546	0.0009932176	0.0008042549	113.4501	
12:31:19	47.46343	-122.3077	0.02	-0.1183276	-11.41746	0	3	100	0	6546	0.0008307033	-0.002761409	117.8296	
12:31:19	47.46343	-122.3077	0.02	-0.1183276	-11.41746	0	3	100	0	6546	0.0004238008	-0.002403168	121.1331	
12:31:19	47.46343	-122.3077	0.02	-0.1183276	-11.41746	0	3	100	0	6546	-7.878209E-05	-0.006274693	123.5648	
12:31:19	47.46343	-122.3077	0.02	-0.1183276	-11.41746	0	3	100	0	6546	-0.0008018018	-0.007774071	125.2984	
12:31:20	47.46343	-122.3077	0.02	-0.1183276	-11.41746	0	3	100	0	6546	-0.0007856674	-0.003438279	126.5471	
12:31:20	47.46343	-122.3077	0.02	-0.07584903	-4.634289	0	3	100	0	6546	-0.0004162931	-0.00580117	127.4457	
12:31:20	47.46343	-122.3077	0.02	-0.07584903	-4.634289	0	3	100	0	6546	-0.0008443908	-0.0047718	128.0904	
12:31:20	47.46343	-122.3077	0.02	-0.07584903	-4.634289	0	3	100	0	6546	-0.0009876461	-0.002193334	128.5593	
12:31:20	47.46343	-122.3077	0.02	-0.07584903	-4.634289	0	3	100	0	6546	-0.0007498066	-0.001829581	128.8939	
12:31:21	47.46343	-122.3077	0.02	-0.07584903	-4.634289	0	3	100	0	6546	-0.001042796	-0.00261543	129.1372	
12:31:21	47.46343	-122.3077	0.02	-0.02725941	-0.3847428	0	3	100	0	6546	-0.0005323897	-0.002291949	129.31	
12:31:21	47.46343	-122.3077	0.02	-0.02725941	-0.3847428	0	3	100	0	6546	-0.0003815487	-0.0001494919	129.4505	
12:31:21	47.46343	-122.3077	0.02	-0.02725941	-0.3847428	0	3	100	0	6546	-0.0002254007	0.001992604	129.5941	
12:31:21	47.46343	-122.3077	0.02	-0.02725941	-0.3847428	0	3	100	0	6546	-6.375372E-05	0.004134308	129.7402	
12:31:22	47.46343	-122.3077	0.02	-0.02725941	-0.3847428	0	3	100	0	6546	-0.0002021011	0.007094325	129.8184	
12:31:22	47.46343	-122.3077	0.02	0.00787771	1.563515	0	3	100	0	6546	0.0005148201	0.005546078	129.8056	
12:31:22	47.46343	-122.3077	0.02	0.00787771	1.563515	0	3	100	0	6546	0.0007457978	0.004336065	129.7883	
12:31:22	47.46343	-122.3077	0.02	0.00787771	1.563515	0	3	100	0	6546	0.0003145717	0.001772204	129.7815	
12:31:23	47.46343	-122.3077	0.02	0.00787771	1.563515	0	3	100	0	6546	0.0004461009	-0.002349999	129.7754	
12:31:23	47.46343	-122.3077	0.02	0.00787771	1.563515	0	3	100	0	6546	-0.0004272511	-0.003763404	129.7703	
12:31:23	47.46343	-122.3077	0.02	0.02918309	2.279384	0	3	100	0	6546	-0.0002378816	-0.003989473	129.7679	
12:31:23	47.46343	-122.3077	0.02	0.02918309	2.279384	0	3	100	0	6546	-0.0004062545	-0.004943418	129.7667	
12:31:23	47.46343	-122.3077	0.02	0.02918309	2.279384	0	3	100	0	6546	9.412374E-05	-0.006049433	129.7658	
12:31:23	47.46343	-122.3077	0.02	0.02918309	2.279384	0	3	100	0	6546	0.0003924488	-0.006247306	129.7664	
12:31:24	47.46343	-122.3077	0.02	0.02918309	2.279384	0	3	100	0	6546	0.0006479844	-0.00611147	129.7669	
12:31:24	47.46343	-122.3077	0.02	0.03644025	1.847955	0	3	100	0	6546	0.0006078086	-0.006879746	129.7829	
12:31:24	47.46343	-122.3077	0.02	0.03644025	1.847955	0	3	100	0	6546	0.0009011609	-0.007323921	129.7817	
12:31:24	47.46343	-122.3077	0.02	0.03644025	1.847955	0	3	100	0	6546	0.0005804063	-0.007235176	129.7842	
12:31:24	47.46343	-122.3077	0.02	0.03644025	1.847955	0	3	100	0	6546	0.0003261054	-0.005558215	129.7921	
12:31:25	47.46343	-122.3077	0.02	0.03644025	1.847955	0	3	100	0	6546	-0.000370041	-0.0004824029	129.7945	
12:31:25	47.46343	-122.3077	0.02	0.03559371	1.292577	0	3	100	0	6546	-0.0008431778	0.0007329762	129.7904	
12:31:25	47.46343	-122.3077	0.02	0.03559371	1.292577	0	3	100	0	6546	-0.0008981961	0.0009193446	129.7954	
12:31:25	47.46343	-122.3077	0.02	0.03559371	1.292577	0	3	100	0	6546	-0.0007236693	-0.003057104	129.8245	
12:31:25	47.46343	-122.3077	0.02	0.03559371	1.292577	0	3	100	0	6546	-0.0005542425	-0.007033261	129.8879	
12:31:26	47.46343	-122.3077	0.02	0.03559371	1.292577	0	3	100	0	6546	-0.0003932424	-0.01100939	129.9766	
12:31:26	47.46343	-122.3077	0.02	0.03185694	0.7571622	0	3	100	0	6546	-0.0002426643	-0.01498566	130.084	
12:31:26	47.46343	-122.3077	0.02	0.03185694	0.7571622	0	3	100	0	6546	7.165861E-05	-0.01705166	130.1139	
12:31:26	47.46343	-122.3077	0.02	0.03185694	0.7571622	0	3	100	0	6546	0.0004111861	-0.01675273	130.0491	
12:31:26	47.46343	-122.3077	0.02	0.03185694	0.7571622	0	3	100	0	6546	0.0007325606	-0.01287205	129.9872	
12:31:27	47.46343	-122.3077	0.02	0.03185694	0.7571622	0	3	100	0	6546	0.0004209146	-0.008455226	129.937	
12:31:27	47.46343	-122.3077	0.02	0.0283052	0.6489155	0	3	100	0	6546	0.0002340247	-0.00387554	129.8983	
12:31:27	47.46343	-122.3077	0.02	0.0283052	0.6489155	0	3	100	0	6546	0.0004648381	0.002245395	129.8722	
12:31:27	47.46343	-122.3077	0.02	0.0283052	0.6489155	0	3	100	0	6546	0.0004796063	0.002302591	129.8514	
12:31:27	47.46343	-122.3077	0.02	0.0283052	0.6489155	0	3	100	0	6546	0.0007318186	0.005542537	129.8318	
12:31:28	47.46343	-122.3077	0.02	0.0283052	0.6489155	0	3	100	0	6546	0.0004136866	0.005716525	129.8166	
12:31:28	47.46343	-122.3077	0.02	0.0261935	0.4069586	0	3	100	0	6546	0.0005015745	0.005961451	129.804	
12:31:28	47.46343	-122.3077	0.02	0.0261935	0.4069586	0	3	100	0	6546	-0.0001387587	0.001943634	129.7949	
12:31:28	47.46343	-122.3077	0.02	0.0261935	0.4069586	0	3	100	0	6546	7.038226E-05	-0.0007914143	129.7924	
12:31:28	47.46343	-122.3077	0.02	0.0261935	0.4069586	0	3	100	0	6546	-4.516234E-05	-0.0001710155	129.7894	
12:31:29	47.46343	-122.3077	0.02	0.0261935	0.4069586	0	3	100	0	6546	0.0005781248	0.001282135	129.787	
12:31:29	47.46343	-122.3077	0.02	0.02423531	0.2602821	0	3	100	0	6546	0.0007944344	0.003086697	129.7863	
12:31:29	47.46343	-122.3077	0.02	0.02423531	0.2602821	0	3	100	0	6546	0.0006489774	0.004734607	129.7847	
12:31:29	47.46343	-122.3077	0.02	0.02423531	0.2602821	0	3	100	0	6546	0.0005012034	0.003141629	129.7776	
12:31:30	47.46343	-122.3077	0.02	0.02423531	0.2602821	0	3	100	0	6546	0.0004067019	0.002545455	129.7733	
12:31:30	47.46343	-122.3077	0.02	0.02423531	0.2602821	0	3	100	0	6546	1.520988E-05	0.000576739	129.7682	
12:31:30	47.46343	-122.3077	0.02	0.0237856	0.3759521	0	3	100	0	6546	-0.000127402	-0.001955055	129.7651	
12:31:30	47.46343	-122.3077	0.02	0.0237856	0.3759521	0	3	100	0	6546	-0.0006897454	-0.004539407	129.7649	
12:31:30	47.46343	-122.3077	0.02	0.0237856	0.3759521	0	3	100	0	6546	-0.001200838	-0.006373022	129.767	
12:31:31	47.46343	-122.3077	0.02	0.0237856	0.3759521	0	3	100	0	6546	-0.001246524	-0.006613479	129.7714	
12:31:31	47.46343	-122.3077	0.02	0.0237856	0.3759521	0	3	100	0	6546	-0.0006037851	-0.002695588	129.7708	
12:31:31	47.46343	-122.3077	0.02	0.02345077	0.2904493	0	3	100	0	6546	-0.0001735262	-0.003720093	129.7705	
12:31:31	47.46343	-122.3077	0.02	0.02345077	0.2904493	0	3	100	0	6546	2.481738E-05	-0.004884954	129.7715	
12:31:31	47.46343	-122.3077	0.02	0.02345077	0.2904493	0	3	100	0	6546	-0.0002829255	-0.004422879	129.7721	
12:31:32	47.46343	-122.3077	0.02	0.02345077	0.2904493	0	3	100	0	6546	-0.0002676484	-0.003379202	129.7708	
12:31:32	47.46343	-122.3077	0.02	0.02345077	0.2904493	0	3	100	0	6546	-0.0001974139	-0.004037966	129.7719	
12:31:32	47.46343	-122.3077	0.02	0.02363178	0.5049485	0	3	100	0	6546	-0.0002430941	-0.001626743	129.789	
12:31:32	47.46343	-122.3077	0.02	0.02363178	0.5049485	0	3	100	0	6546	-0.0002630162	-0.004884508	129.9203	
12:31:32	47.46343	-122.3077	0.02	0.02363178	0.5049485	0	3	100	0	6546	-4.175903E-05	-0.005270458	130.047	
12:31:33	47.46343	-122.3077	0.02	0.02363178	0.5049485	0	3	100	0	6546	0.0002557294	-0.007097817	130.1687	
12:31:33	47.46343	-122.3077	0.02	0.02363178	0.5049485	0	3	100	0	6546	0.0001388658	-0.008635956	130.2861	
12:31:33	47.46343	-122.3077	0.02	0.02511742	0.5760156	0	3	100	0	6546	8.441437E-06	-0.009228956	130.4	
12:31:33	47.46343	-122.3077	0.02	0.02511742	0.5760156	0	3	100	0	6546	-0.0001235262	-0.00904716	130.5111	
12:31:33	47.46343	-122.3077	0.02	0.02511742	0.5760156	0	3	100	0	6546	7.00111E-05	-0.009942692	130.6162	
12:31:34	47.46343	-122.3077	0.02	0.02511742	0.5760156	0	3	100	0	6546	-0.0001565157	-0.01142524	130.7168	
12:31:34	47.46343	-122.3077	0.02	0.02511742	0.5760156	0	3	100	0	6546	-0.0003249425	-0.01275846	130.8153	
12:31:34	47.46343	-122.3077	0.02	0.02473895	0.3670648	0	3	100	0	6546	-0.0001225032	-0.01293072	130.9105	
12:31:34	47.46343	-122.3077	0.02	0.02473895	0.3670648	0	3	100	0	6546	-0.0002181929	-0.01124619	131.0046	
12:31:34	47.46343	-122.3077	0.02	0.02473895	0.3670648	0	3	100	0	6546	0.0002068562	-0.01273304	131.0917	
12:31:35	47.46343	-122.3077	0.02	0.02473895	0.3670648	0	3	100	0	6546	-0.0001186228	-0.01560169	131.1737	
12:31:35	47.46343	-122.3077	0.02	0.02473895	0.3670648	0	3	100	0	6546	-0.0002577663	-0.01560019	131.2459	
12:31:35	47.46343	-122.3077	0.02	0.02340382	0.2009436	0	3	100	0	6546	-0.0006452653	-0.01619175	131.3142	
12:31:35	47.46343	-122.3077	0.02	0.02340382	0.2009436	0	3	100	0	6546	-0.0001121457	-0.01408128	131.3811	
12:31:35	47.46343	-122.3077	0.02	0.02340382	0.2009436	0	3	100	0	6546	-0.0003609945	-0.01457683	131.4442	
12:31:36	47.46343	-122.3077	0.02	0.02340382	0.2009436	0	3	100	0	6546	-0.0002703353	-0.01567582	131.5056	
12:31:36	47.46343	-122.3077	0.02	0.02340382	0.2009436	0	3	100	0	6546	0.0001565332	-0.01449474	131.5656	
12:31:36	47.46343	-122.3077	0.02	0.02210275	0.09957501	0	3	100	0	6546	0.0002668118	-0.01503146	131.6228	
12:31:36	47.46343	-122.3077	0.02	0.02210275	0.09957501	0	3	100	0	6546	0.0004106168	-0.01772052	131.6783	
12:31:36	47.46343	-122.3077	0.02	0.02210275	0.09957501	0	3	100	0	6546	8.257341E-05	-0.02026368	131.7301	
12:31:37	47.46343	-122.3077	0.02	0.02210275	0.09957501	0	3	100	0	6546	-5.440389E-05	-0.02034598	131.7914	
12:31:37	47.46343	-122.3077	0.02	0.02210275	0.09957501	0	3	100	0	6546	-0.0004906755	-0.01655668	131.8415	
12:31:37	47.46343	-122.3077	0.02	0.02220635	0.2258293	0	3	100	0	6546	-0.0003829929	-0.01360615	131.8888	
12:31:37	47.46343	-122.3077	0.02	0.02220635	0.2258293	0	3	100	0	6546	-0.0003729244	-0.01214851	131.9324	
12:31:37	47.46343	-122.3077	0.02	0.02220635	0.2258293	0	3	100	0	6546	-6.643801E-05	-0.009015062	131.9749	
12:31:38	47.46343	-122.3077	0.02	0.02220635	0.2258293	0	3	100	0	6546	3.49278E-05	-0.005789524	132.0146	
12:31:38	47.46343	-122.3077	0.02	0.02220635	0.2258293	0	3	100	0	6546	-0.0003193585	-0.003618527	132.0519	
12:31:38	47.46343	-122.3077	0.02	0.02192209	0.1433957	0	3	100	0	6546	-0.0002927043	-0.004696406	132.09	
12:31:38	47.46343	-122.3077	0.02	0.02192209	0.1433957	0	3	100	0	6546	0.0002178821	-0.005973076	132.1258	
12:31:38	47.46343	-122.3077	0.02	0.02192209	0.1433957	0	3	100	0	6546	0.0006620971	-0.003826968	132.1598	
12:31:39	47.46343	-122.3077	0.02	0.02192209	0.1433957	0	3	100	0	6546	0.001166219	-0.004178145	132.1923	
12:31:39	47.46343	-122.3077	0.02	0.02192209	0.1433957	0	3	100	0	6546	0.001467266	-0.001736598	132.2225	
12:31:39	47.46343	-122.3077	0.02	0.02222759	0.2165991	0	3	100	0	6546	0.001843002	0.0002703247	132.2554	
12:31:39	47.46343	-122.3077	0.02	0.02222759	0.2165991	0	3	100	0	6546	0.001716467	-0.002432547	132.2831	
12:31:39	47.46343	-122.3077	0.02	0.02222759	0.2165991	0	3	100	0	6546	0.001913385	-0.002669354	132.3119	
12:31:40	47.46343	-122.3077	0.02	0.02222759	0.2165991	0	3	100	0	6546	0.002015446	-0.00143865	132.3273	
12:31:40	47.46343	-122.3077	0.02	0.02222759	0.2165991	0	3	100	0	6546	0.001641693	-0.002678161	132.3278	
12:31:40	47.46343	-122.3077	0.02	0.02182364	0.1226641	0	3	100	0	6546	0.002092663	-0.002153684	132.331	
12:31:40	47.46343	-122.3077	0.02	0.02182364	0.1226641	0	3	100	0	6546	0.002112707	-0.003259768	132.3327	
12:31:40	47.46343	-122.3077	0.02	0.02182364	0.1226641	0	3	100	0	6546	0.001712388	-0.00384479	132.3323	
12:31:41	47.46343	-122.3077	0.02	0.02182364	0.1226641	0	3	100	0	6546	0.001831104	-0.002535416	132.3328	
12:31:41	47.46343	-122.3077	0.02	0.02182364	0.1226641	0	3	100	0	6546	0.001760917	-0.002201041	132.3328	
12:31:41	47.46343	-122.3077	0.02	0.02117343	0.05546092	0	3	100	0	6546	0.002124894	-0.003197004	132.3332	
12:31:41	47.46343	-122.3077	0.02	0.02117343	0.05546092	0	3	100	0	6546	0.002326367	-0.001522803	132.3348	
12:31:41	47.46343	-122.3077	0.02	0.02117343	0.05546092	0	3	100	0	6546	0.00221288	-0.002651113	132.3344	
12:31:42	47.46343	-122.3077	0.02	0.02117343	0.05546092	0	3	100	0	6546	0.00245546	-0.003163412	132.3346	
12:31:42	47.46343	-122.3077	0.02	0.02117343	0.05546092	0	3	100	0	6546	0.002099209	-0.005443436	132.3345	
12:31:42	47.46343	-122.3077	0.02	0.02063526	0.01911155	0	3	100	0	6546	0.001857791	-0.006280599	132.334	
12:31:42	47.46343	-122.3077	0.02	0.02063526	0.01911155	0	3	100	0	6546	0.00180344	-0.006937036	132.339	
12:31:42	47.46343	-122.3077	0.02	0.02063526	0.01911155	0	3	100	0	6546	0.001807762	-0.004374962	132.3387	
12:31:43	47.46343	-122.3077	0.02	0.02063526	0.01911155	0	3	100	0	6546	0.001451266	-0.005262929	132.3389	
12:31:43	47.46343	-122.3077	0.02	0.02063526	0.01911155	0	3	100	0	6546	0.0015417	-0.007857371	132.3385	
12:31:43	47.46343	-122.3077	0.02	0.02028835	0.004677739	0	3	100	0	6546	0.001023263	-0.00971085	132.3393	
12:31:43	47.46343	-122.3077	0.02	0.02028835	0.004677739	0	3	100	0	6546	0.001125643	-0.01021275	132.3421	
12:31:43	47.46343	-122.3077	0.02	0.02028835	0.004677739	0	3	100	0	6546	0.0009443364	-0.007682354	132.3446	
12:31:44	47.46343	-122.3077	0.02	0.02028835	0.004677739	0	3	100	0	6546	0.001144797	-0.01174574	132.346	
12:31:44	47.46343	-122.3077	0.02	0.02028835	0.004677739	0	3	100	0	6546	0.00115701	-0.01235611	132.3454	
12:31:44	47.46343	-122.3077	0.02	0.0204993	0.07397513	0	3	100	0	6546	0.001656029	-0.01209063	132.3458	
12:31:44	47.46343	-122.3077	0.02	0.0204993	0.07397513	0	3	100	0	6546	0.00180112	-0.01021618	132.3477	
12:31:44	47.46343	-122.3077	0.02	0.0204993	0.07397513	0	3	100	0	6546	0.001792668	-0.008171305	132.3494	
12:31:45	47.46343	-122.3077	0.02	0.0204993	0.07397513	0	3	100	0	6546	0.001374113	-0.006794543	132.3485	
12:31:45	47.46343	-122.3077	0.02	0.0204993	0.07397513	0	3	100	0	6546	0.001470414	-0.007054329	132.326	
12:31:45	47.46343	-122.3077	0.02	0.02057164	0.07088811	0	3	100	0	6546	0.001467334	-0.005857312	132.2955	
12:31:45	47.46343	-122.3077	0.02	0.02057164	0.07088811	0	3	100	0	6546	0.00132516	-0.004229379	132.265	
12:31:45	47.46343	-122.3077	0.02	0.02057164	0.07088811	0	3	100	0	6546	0.001320173	-0.003869123	132.2367	
12:31:46	47.46343	-122.3077	0.02	0.02057164	0.07088811	0	3	100	0	6546	0.00163531	-0.004145503	132.2094	
12:31:46	47.46343	-122.3077	0.02	0.02057164	0.07088811	0	3	100	0	6546	0.001681676	-0.001424463	132.1831	
12:31:46	47.46343	-122.3077	0.02	0.02090206	0.09239131	0	3	100	0	6546	0.001296372	-6.484068E-05	132.1573	
12:31:46	47.46343	-122.3077	0.02	0.02090206	0.09239131	0	3	100	0	6546	0.001260921	-0.001185285	132.1336	
12:31:46	47.46343	-122.3077	0.02	0.02090206	0.09239131	0	3	100	0	6546	0.001167808	0.0002090105	132.1117	
12:31:47	47.46343	-122.3077	0.02	0.02090206	0.09239131	0	3	100	0	6546	0.001415107	0.001949316	132.0904	
12:31:47	47.46343	-122.3077	0.02	0.02090206	0.09239131	0	3	100	0	6546	0.0007523774	0.007395925	132.0654	
12:31:47	47.46343	-122.3077	0.02	0.02119974	0.1259247	0	3	100	0	6545	0.0003995635	0.0113053	132.0404	
12:31:47	47.46343	-122.3077	0.02	0.02119974	0.1259247	0	3	100	0	6545	0.0004672784	0.00888974	132.0212	
12:31:48	47.46343	-122.3077	0.02	0.02119974	0.1259247	0	3	100	0	6545	0.0004648278	0.007257684	132.0033	
12:31:48	47.46343	-122.3077	0.02	0.02119974	0.1259247	0	3	100	0	6545	0.0007123968	0.006095269	131.9869	
12:31:48	47.46343	-122.3077	0.02	0.02119974	0.1259247	0	3	100	0	6545	0.0006504323	0.00116856	131.9697	
12:31:48	47.46343	-122.3077	0.02	0.02209967	0.3376811	0	3	100	0	6546	0.000236367	-8.338627E-05	131.952	
12:31:48	47.46343	-122.3077	0.02	0.02209967	0.3376811	0	3	100	0	6546	-6.127467E-05	0.001091604	131.9348	
12:31:49	47.46343	-122.3077	0.02	0.02209967	0.3376811	0	3	100	0	6546	-0.0002810351	-0.0003529304	131.9203	
12:31:49	47.46343	-122.3077	0.02	0.02209967	0.3376811	0	3	100	0	6546	-0.0006080387	-0.002745957	131.9076	
12:31:49	47.46343	-122.3077	0.02	0.02209967	0.3376811	0	3	100	0	6546	-0.0002292197	-0.002868539	131.8921	
12:31:49	47.46343	-122.3077	0.02	0.02320471	0.3839091	0	3	100	0	6546	0.0004191793	-0.001341497	131.8789	
12:31:49	47.46343	-122.3077	0.02	0.02320471	0.3839091	0	3	100	0	6546	0.0002468867	-0.00168299	131.8642	
12:31:50	47.46343	-122.3077	0.02	0.02320471	0.3839091	0	3	100	0	6546	0.0006767937	-0.001988775	131.851	
12:31:50	47.46343	-122.3077	0.02	0.02320471	0.3839091	0	3	100	0	6546	0.001065728	-0.003692447	131.8402	
12:31:50	47.46343	-122.3077	0.02	0.02320471	0.3839091	0	3	100	0	6546	0.0004957372	-0.002578101	131.7994	
12:31:50	47.46343	-122.3077	0.02	0.02377018	0.4307023	0	3	100	0	6546	0.0004990351	-0.001693193	131.7595	
12:31:50	47.46343	-122.3077	0.02	0.02377018	0.4307023	0	3	100	0	6546	0.000269456	-0.001781466	131.7215	
12:31:51	47.46343	-122.3077	0.02	0.02377018	0.4307023	0	3	100	0	6546	0.0002821211	-0.00362945	131.6853	
12:31:51	47.46343	-122.3077	0.02	0.02377018	0.4307023	0	3	100	0	6546	0.0004872599	-0.007272356	131.6528	
12:31:51	47.46343	-122.3077	0.02	0.02377018	0.4307023	0	3	100	0	6546	-3.10629E-05	-0.006867693	131.6196	
12:31:51	47.46343	-122.3077	0.02	0.02357319	0.245963	0	3	100	0	6546	-0.000155722	-0.006015981	131.5876	
12:31:51	47.46343	-122.3077	0.02	0.02357319	0.245963	0	3	100	0	6546	-0.000536683	-0.007779301	131.5562	
12:31:52	47.46343	-122.3077	0.02	0.02357319	0.245963	0	3	100	0	6546	-0.0006873845	-0.007621224	131.5263	
12:31:52	47.46343	-122.3077	0.02	0.02357319	0.245963	0	3	100	0	6546	-0.0009457557	-0.006542037	131.4996	
12:31:52	47.46343	-122.3077	0.02	0.02357319	0.245963	0	3	100	0	6546	-0.00100945	-0.005854958	131.4726	
12:31:52	47.46343	-122.3077	0.02	0.0222283	0.08479728	0	3	100	0	6546	-0.001031204	-0.007171463	131.4463	
12:31:52	47.46343	-122.3077	0.02	0.0222283	0.08479728	0	3	100	0	6546	-0.000977808	-0.004136453	131.4202	
12:31:53	47.46343	-122.3077	0.02	0.0222283	0.08479728	0	3	100	0	6546	-0.001271732	-0.003049727	131.3953	
12:31:53	47.46343	-122.3077	0.02	0.0222283	0.08479728	0	3	100	0	6546	-0.00110215	-0.004112208	131.373	
12:31:53	47.46343	-122.3077	0.02	0.0222283	0.08479728	0	3	100	0	6546	-0.0008544668	-0.003943586	131.3508	
12:31:53	47.46343	-122.3077	0.02	0.02125551	0.06261998	0	3	100	0	6546	-0.0006942029	-0.004920834	131.3288	
12:31:53	47.46343	-122.3077	0.02	0.02125551	0.06261998	0	3	100	0	6546	-0.0003011644	-0.00576386	131.3073	
12:31:54	47.46343	-122.3077	0.02	0.02125551	0.06261998	0	3	100	0	6546	-0.00022222	-0.00825944	131.2865	
12:31:54	47.46343	-122.3077	0.02	0.02125551	0.06261998	0	3	100	0	6546	-0.000428644	-0.008406279	131.2678	
12:31:54	47.46343	-122.3077	0.02	0.02125551	0.06261998	0	3	100	0	6546	-0.0004109686	-0.008563929	131.2496	
12:31:54	47.46343	-122.3077	0.02	0.0204487	-0.03942981	0	3	100	0	6546	-0.0002961765	-0.007429569	131.2315	
12:31:54	47.46343	-122.3077	0.02	0.0204487	-0.03942981	0	3	100	0	6546	-0.00019305	-0.007639854	131.214	
12:31:55	47.46343	-122.3077	0.02	0.0204487	-0.03942981	0	3	100	0	6546	-0.0001440989	-0.00788243	131.1967	
12:31:55	47.46343	-122.3077	0.02	0.0204487	-0.03942981	0	3	100	0	6546	-0.0006378471	-0.007002635	131.1787	
12:31:55	47.46343	-122.3077	0.02	0.0204487	-0.03942981	0	3	100	0	6546	-0.0008700326	-0.00475651	131.1426	
12:31:55	47.46343	-122.3077	0.02	0.01966825	-0.0972809	0	3	100	0	6546	-0.0007076654	-0.003892432	131.1067	
12:31:55	47.46343	-122.3077	0.02	0.01966825	-0.0972809	0	3	100	0	6546	-0.0004043201	-0.004072297	131.0723	
12:31:56	47.46343	-122.3077	0.02	0.01966825	-0.0972809	0	3	100	0	6546	-0.0006853975	-0.002745609	131.0388	
12:31:56	47.46343	-122.3077	0.02	0.01966825	-0.0972809	0	3	100	0	6546	-0.0009088185	-0.002053369	131.0072	
12:31:56	47.46343	-122.3077	0.02	0.01966825	-0.0972809	0	3	100	0	6546	-0.0007786	-0.0006021194	130.9766	
12:31:56	47.46343	-122.3077	0.02	0.01916645	-0.1177994	0	3	100	0	6546	-0.0005601661	-0.001859835	130.947	
12:31:56	47.46343	-122.3077	0.02	0.01916645	-0.1177994	0	3	100	0	6546	-0.0005860599	-0.00278973	130.9186	
12:31:57	47.46343	-122.3077	0.02	0.01916645	-0.1177994	0	3	100	0	6546	-0.0002724144	-0.004022569	130.8912	
12:31:57	47.46343	-122.3077	0.02	0.01916645	-0.1177994	0	3	100	0	6546	-0.0001634151	-0.004678659	130.8651	
12:31:57	47.46343	-122.3077	0.02	0.01916645	-0.1177994	0	3	100	0	6546	-0.0004819677	-0.002761455	130.8406	
12:31:57	47.46343	-122.3077	0.02	0.01894584	-0.1157837	0	3	100	0	6546	-0.0004316573	-0.00153568	130.8165	
12:31:57	47.46343	-122.3077	0.02	0.01894584	-0.1157837	0	3	100	0	6546	0.0002327267	-0.003982274	130.793	
12:31:58	47.46343	-122.3077	0.02	0.01894584	-0.1157837	0	3	100	0	6546	-0.0003602779	-0.005631085	130.7704	
12:31:58	47.46343	-122.3077	0.02	0.01894584	-0.1157837	0	3	100	0	6546	-0.0002208105	-0.005892195	130.7497	
12:31:58	47.46343	-122.3077	0.02	0.01894584	-0.1157837	0	3	100	0	6546	5.764744E-05	-0.00669914	130.7285	
12:31:58	47.46343	-122.3077	0.02	0.01892064	-0.1041177	0	3	100	0	6546	-0.0001687981	-0.004774042	130.7107	
12:31:58	47.46343	-122.3077	0.02	0.01892064	-0.1041177	0	3	100	0	6546	-1.83157E-05	-0.002971154	130.6909	
12:31:59	47.46343	-122.3077	0.02	0.01892064	-0.1041177	0	3	100	0	6546	-7.638585E-05	-0.001600426	130.6719	
12:31:59	47.46343	-122.3077	0.02	0.01892064	-0.1041177	0	3	100	0	6546	0.0001114973	-0.002448076	130.654	
12:31:59	47.46343	-122.3077	0.02	0.01892064	-0.1041177	0	3	100	0	6546	0.0002653029	-0.001594596	130.6366	
12:31:59	47.46343	-122.3077	0.02	0.01914954	0.02496003	0	3	100	0	6546	0.0002901151	-0.001198504	130.6202	
12:31:59	47.46343	-122.3077	0.02	0.01914954	0.02496003	0	3	100	0	6546	0.000564719	-0.0009159241	130.6041	
12:32:00	47.46343	-122.3077	0.02	0.01914954	0.02496003	0	3	100	0	6546	0.0003057399	-0.002563846	130.5887	
12:32:00	47.46343	-122.3077	0.02	0.01914954	0.02496003	0	3	100	0	6546	9.988802E-05	-0.0008947027	130.5739	
12:32:00	47.46343	-122.3077	0.02	0.01914954	0.02496003	0	3	100	0	6546	6.532853E-05	0.0001754114	130.5456	
12:32:00	47.46343	-122.3077	0.02	0.0203531	0.1169641	0	3	100	0	6546	-0.0001233983	-0.0004579742	130.5174	
12:32:00	47.46343	-122.3077	0.02	0.0203531	0.1169641	0	3	100	0	6546	0.0001193582	0.001562259	130.4905	
12:32:01	47.46343	-122.3077	0.02	0.0203531	0.1169641	0	3	100	0	6546	-6.548653E-05	0.001320715	130.4637	
12:32:01	47.46343	-122.3077	0.02	0.0203531	0.1169641	0	3	100	0	6546	-0.0004508694	-0.0006742176	130.4381	
12:32:01	47.46343	-122.3077	0.02	0.0203531	0.1169641	0	3	100	0	6546	-0.0005310741	-0.0005584045	130.4135	
12:32:01	47.46343	-122.3077	0.02	0.02121599	0.14458	0	3	100	0	6546	-0.001549287	-0.0005215355	130.3906	
12:32:01	47.46343	-122.3077	0.02	0.02121599	0.14458	0	3	100	0	6546	-0.001004672	-0.0004840453	130.3695	
12:32:02	47.46343	-122.3077	0.02	0.02121599	0.14458	0	3	100	0	6546	-0.001236235	-0.001286318	130.3473	
12:32:02	47.46343	-122.3077	0.02	0.02121599	0.14458	0	3	100	0	6546	-0.0008867841	-0.0006830675	130.3263	
12:32:02	47.46343	-122.3077	0.02	0.02121599	0.14458	0	3	100	0	6546	-0.001024089	-0.00289429	130.3061	
12:32:02	47.46343	-122.3077	0.02	0.02094442	0.03437795	0	3	100	0	6546	-0.001249687	-0.002826166	130.2865	
12:32:02	47.46343	-122.3077	0.02	0.02094442	0.03437795	0	3	100	0	6546	-0.001180491	-0.001617138	130.2688	
12:32:03	47.46343	-122.3077	0.02	0.02094442	0.03437795	0	3	100	0	6546	-0.00118029	0.000349598	130.2508	
12:32:03	47.46343	-122.3077	0.02	0.02094442	0.03437795	0	3	100	0	6546	-0.001484054	-0.001456861	130.2333	
12:32:03	47.46343	-122.3077	0.02	0.02094442	0.03437795	0	3	100	0	6546	-0.001396643	-0.002393958	130.2166	
12:32:03	47.46343	-122.3077	0.02	0.0203467	-0.02827804	0	3	100	0	6546	-0.001612461	-0.00384234	130.2008	
12:32:03	47.46343	-122.3077	0.02	0.0203467	-0.02827804	0	3	100	0	6546	-0.0006473958	-0.001877835	130.186	
12:32:04	47.46343	-122.3077	0.02	0.0203467	-0.02827804	0	3	100	0	6546	-0.0004100415	-0.001099564	130.1714	
12:32:04	47.46343	-122.3077	0.02	0.0203467	-0.02827804	0	3	100	0	6546	-0.0007598147	-0.004269768	130.157	
12:32:04	47.46343	-122.3077	0.02	0.0203467	-0.02827804	0	3	100	0	6546	-0.0005768904	-0.006960557	130.1435	
12:32:04	47.46343	-122.3077	0.02	0.02062843	0.1863658	0	3	100	0	6546	-0.0007030534	-0.008329849	130.1305	
12:32:04	47.46343	-122.3077	0.02	0.02062843	0.1863658	0	3	100	0	6546	-0.000987528	-0.009007634	130.1182	
12:32:05	47.46343	-122.3077	0.02	0.02062843	0.1863658	0	3	100	0	6546	-0.0009669646	-0.009543259	130.1072	
12:32:05	47.46343	-122.3077	0.02	0.02062843	0.1863658	0	3	100	0	6546	-0.0006341815	-0.009748315	130.0955	
12:32:05	47.46343	-122.3077	0.02	0.02062843	0.1863658	0	3	100	0	6546	-0.0005504839	-0.01037976	130.0815	
12:32:05	47.46343	-122.3077	0.02	0.02146805	0.1476624	0	3	100	0	6546	-0.001188561	-0.009667899	130.0608	
12:32:05	47.46343	-122.3077	0.02	0.02146805	0.1476624	0	3	100	0	6546	-0.0008835143	-0.006884928	130.0408	
12:32:06	47.46343	-122.3077	0.02	0.02146805	0.1476624	0	3	100	0	6546	-0.0008541158	-0.008735728	130.022	
12:32:06	47.46343	-122.3077	0.02	0.02146805	0.1476624	0	3	100	0	6546	-0.0008736464	-0.009903392	130.0038	
12:32:06	47.46343	-122.3077	0.02	0.02146805	0.1476624	0	3	100	0	6546	-0.0004805579	-0.01233792	129.9862	
12:32:06	47.46343	-122.3077	0.02	0.02160657	0.2314767	0	3	100	0	6546	-0.0005069648	-0.00971875	129.9693	
12:32:06	47.46343	-122.3077	0.02	0.02160657	0.2314767	0	3	100	0	6546	-0.0007963256	-0.01005334	129.9532	
12:32:07	47.46343	-122.3077	0.02	0.02160657	0.2314767	0	3	100	0	6546	-0.001347447	-0.0124845	129.9374	
12:32:07	47.46343	-122.3077	0.02	0.02160657	0.2314767	0	3	100	0	6546	-0.00171745	-0.01451556	129.9223	
12:32:07	47.46343	-122.3077	0.02	0.02160657	0.2314767	0	3	100	0	6546	-0.001660131	-0.0169544	129.9081	
12:32:07	47.46343	-122.3077	0.02	0.02307946	0.5215352	0	3	100	0	6546	-0.002214128	-0.01845283	129.8946	
12:32:07	47.46343	-122.3077	0.02	0.02307946	0.5215352	0	3	100	0	6546	-0.001985797	-0.01725676	129.8817	
12:32:08	47.46343	-122.3077	0.02	0.02307946	0.5215352	0	3	100	0	6546	-0.002061595	-0.01826348	129.8693	
12:32:08	47.46343	-122.3077	0.02	0.02307946	0.5215352	0	3	100	0	6546	-0.002153083	-0.01847843	129.8578	
12:32:08	47.46343	-122.3077	0.02	0.02307946	0.5215352	0	3	100	0	6546	-0.002230681	-0.01640772	129.8462	
12:32:08	47.46343	-122.3077	0.02	0.02425372	0.5523507	0	3	100	0	6546	-0.002300886	-0.01632074	129.8351	
12:32:08	47.46343	-122.3077	0.02	0.02425372	0.5523507	0	3	100	0	6546	-0.002244077	-0.01362941	129.8243	
12:32:09	47.46343	-122.3077	0.02	0.02425372	0.5523507	0	3	100	0	6546	-0.00225759	-0.01305162	129.8138	
12:32:09	47.46343	-122.3077	0.02	0.02425372	0.5523507	0	3	100	0	6546	-0.001892311	-0.01069316	129.8046	
12:32:09	47.46343	-122.3077	0.02	0.02425372	0.5523507	0	3	100	0	6546	-0.001754096	-0.007891254	129.7948	
12:32:09	47.46343	-122.3077	0.02	0.02489864	0.4657342	0	3	100	0	6546	-0.001552618	-0.005069438	129.7848	
12:32:09	47.46343	-122.3077	0.02	0.02489864	0.4657342	0	3	100	0	6546	-0.001354123	-0.003981576	129.7752	
12:32:10	47.46343	-122.3077	0.02	0.02489864	0.4657342	0	3	100	0	6546	-0.001317785	-0.003074875	129.7659	
12:32:10	47.46343	-122.3077	0.02	0.02489864	0.4657342	0	3	100	0	6546	-0.001448566	-0.002106208	129.7571	
12:32:10	47.46343	-122.3077	0.02	0.02489864	0.4657342	0	3	100	0	6546	-0.00148664	-0.003247149	129.7486	
12:32:10	47.46343	-122.3077	0.02	0.02432573	0.3006338	0	3	100	0	6546	-0.00130651	-0.002178031	129.7342	
12:32:11	47.46343	-122.3077	0.02	0.02432573	0.3006338	0	3	100	0	6546	-0.001298361	-0.004346596	129.7202	
12:32:11	47.46343	-122.3077	0.02	0.02432573	0.3006338	0	3	100	0	6546	-0.001381847	-0.006177499	129.7068	
12:32:11	47.46343	-122.3077	0.02	0.02432573	0.3006338	0	3	100	0	6546	-0.001199103	-0.008669481	129.6945	
12:32:11	47.46343	-122.3077	0.02	0.02432573	0.3006338	0	3	100	0	6546	-0.0008424479	-0.007924439	129.6826	
12:32:11	47.46343	-122.3077	0.02	0.02327329	0.2439811	0	3	100	0	6546	-0.0006926982	-0.007805041	129.6709	
12:32:12	47.46343	-122.3077	0.02	0.02327329	0.2439811	0	3	100	0	6546	-0.0009033587	-0.0077697	129.6596	
12:32:12	47.46343	-122.3077	0.02	0.02327329	0.2439811	0	3	100	0	6546	-0.0003935038	-0.005626673	129.6487	
12:32:12	47.46343	-122.3077	0.02	0.02327329	0.2439811	0	3	100	0	6546	8.520332E-06	-0.003196727	129.6385	
12:32:12	47.46343	-122.3077	0.02	0.02327329	0.2439811	0	3	100	0	6546	-6.548335E-05	-0.0052462	129.6284	
12:32:12	47.46343	-122.3077	0.02	0.02234469	0.2165348	0	3	100	0	6546	0.0001289165	-0.008683923	129.6186	
12:32:13	47.46343	-122.3077	0.02	0.02234469	0.2165348	0	3	100	0	6546	-0.000250061	-0.009314694	129.6094	
12:32:13	47.46343	-122.3077	0.02	0.02234469	0.2165348	0	3	100	0	6546	-0.0003909282	-0.009549173	129.6007	
12:32:13	47.46343	-122.3077	0.02	0.02234469	0.2165348	0	3	100	0	6546	-0.0005066342	-0.01004019	129.5923	
12:32:13	47.46343	-122.3077	0.02	0.02234469	0.2165348	0	3	100	0	6546	-0.0009750644	-0.01107341	129.5848	
12:32:13	47.46343	-122.3077	0.02	0.02167442	0.027987	0	3	100	0	6546	-0.001090964	-0.01316032	129.5772	
12:32:14	47.46343	-122.3077	0.02	0.02167442	0.027987	0	3	100	0	6546	-0.001323823	-0.01435238	129.57	
12:32:14	47.46343	-122.3077	0.02	0.02167442	0.027987	0	3	100	0	6546	-0.001548747	-0.01298231	129.5631	
12:32:14	47.46343	-122.3077	0.02	0.02167442	0.027987	0	3	100	0	6546	-0.001458066	-0.01026845	129.5565	
12:32:14	47.46343	-122.3077	0.02	0.02167442	0.027987	0	3	100	0	6546	-0.00172342	-0.008357375	129.5499	
12:32:14	47.46343	-122.3077	0.02	0.02006433	-0.04537786	0	3	100	0	6546	-0.002019951	-0.006545801	129.5435	
12:32:15	47.46343	-122.3077	0.02	0.02006433	-0.04537786	0	3	100	0	6546	-0.001983365	-0.005754713	129.5372	
12:32:15	47.46343	-122.3077	0.02	0.02006433	-0.04537786	0	3	100	0	6546	-0.002101123	-0.003194274	129.531	
12:32:15	47.46343	-122.3077	0.02	0.02006433	-0.04537786	0	3	100	0	6546	-0.001649762	-0.0008303983	129.5249	
12:32:15	47.46343	-122.3077	0.02	0.02006433	-0.04537786	0	3	100	0	6546	-0.00114484	0.002192158	129.5188	
12:32:15	47.46343	-122.3077	0.02	0.01992659	-0.06467903	0	3	100	0	6546	-0.001254445	0.00154125	129.5129	
12:32:16	47.46343	-122.3077	0.02	0.01992659	-0.06467903	0	3	100	0	6546	-0.0008218756	0.001932335	129.5039	
12:32:16	47.46343	-122.3077	0.02	0.01992659	-0.06467903	0	3	100	0	6546	-0.0002113076	0.001891845	129.495	
12:32:16	47.46343	-122.3077	0.02	0.01992659	-0.06467903	0	3	100	0	6546	-0.0005943527	0.00157996	129.4863	
12:32:16	47.46343	-122.3077	0.02	0.01992659	-0.06467903	0	3	100	0	6546	-0.0007290773	0.001910313	129.4781	
12:32:16	47.46343	-122.3077	0.02	0.01985837	-0.06718818	0	3	100	0	6546	-1.983419E-05	0.004960034	129.4701	
12:32:17	47.46343	-122.3077	0.02	0.01985837	-0.06718818	0	3	100	0	6546	0.0001220006	0.00603274	129.4623	
12:32:17	47.46343	-122.3077	0.02	0.01985837	-0.06718818	0	3	100	0	6546	0.0002631753	0.00512667	129.4548	
12:32:17	47.46343	-122.3077	0.02	0.01985837	-0.06718818	0	3	100	0	6546	0.0001335507	0.004557365	129.4474	
12:32:17	47.46343	-122.3077	0.02	0.01985837	-0.06718818	0	3	100	0	6546	0.0005332325	0.001194404	129.4404	
12:32:17	47.46343	-122.3077	0.02	0.01938854	-0.1041004	0	3	100	0	6546	0.0003373781	0.002969102	129.4338	
12:32:18	47.46343	-122.3077	0.02	0.01938854	-0.1041004	0	3	100	0	6546	-0.0001777843	0.002290203	129.4273	
12:32:18	47.46343	-122.3077	0.02	0.01938854	-0.1041004	0	3	100	0	6546	-0.0001788492	0.002979957	129.4211	
12:32:18	47.46343	-122.3077	0.02	0.01938854	-0.1041004	0	3	100	0	6546	-0.0001021152	0.001621891	129.4153	
12:32:18	47.46343	-122.3077	0.02	0.01938854	-0.1041004	0	3	100	0	6546	0.0003842473	0.0002848354	129.4097	
12:32:18	47.46343	-122.3077	0.02	0.01885412	-0.1760578	0	3	100	0	6546	0.000518307	0.00280038	129.4043	
12:32:19	47.46343	-122.3077	0.02	0.01885412	-0.1760578	0	3	100	0	6546	0.0004249967	0.003335065	129.399	
12:32:19	47.46343	-122.3077	0.02	0.01885412	-0.1760578	0	3	100	0	6546	0.0005534801	0.001938926	129.3939	
12:32:19	47.46343	-122.3077	0.02	0.01885412	-0.1760578	0	3	100	0	6546	0.0004144656	0.003649295	129.389	
12:32:19	47.46343	-122.3077	0.02	0.01885412	-0.1760578	0	3	100	0	6546	0.0004348057	0.003257228	129.3842	
12:32:19	47.46343	-122.3077	0.02	0.01823875	-0.2302965	0	3	100	0	6546	0.0002064024	0.001918696	129.3796	
12:32:20	47.46343	-122.3077	0.02	0.01823875	-0.2302965	0	3	100	0	6546	0.0005947514	-0.0006489345	129.3754	
12:32:20	47.46343	-122.3077	0.02	0.01823875	-0.2302965	0	3	100	0	6546	0.0004040948	0.00177878	129.3715	
12:32:20	47.46343	-122.3077	0.02	0.01823875	-0.2302965	0	3	100	0	6546	0.0008279957	0.004535606	129.3675	
12:32:20	47.46343	-122.3077	0.02	0.01823875	-0.2302965	0	3	100	0	6546	0.0005832403	0.005568771	129.3634	
12:32:20	47.46343	-122.3077	0.02	0.01794622	-0.150071	0	3	100	0	6547	0.0006011529	0.006386325	129.3595	
12:32:21	47.46343	-122.3077	0.02	0.01794622	-0.150071	0	3	100	0	6547	0.0002492437	0.006671738	129.3546	
12:32:21	47.46343	-122.3077	0.02	0.01794622	-0.150071	0	3	100	0	6547	0.000941407	0.007469165	129.3493	
12:32:21	47.46343	-122.3077	0.02	0.01794622	-0.150071	0	3	100	0	6547	0.0004755348	0.006160222	129.3442	
12:32:21	47.46343	-122.3077	0.02	0.01794622	-0.150071	0	3	100	0	6547	0.0007836526	0.007155257	129.3392	
12:32:21	47.46343	-122.3077	0.02	0.01823419	-0.1689578	0	3	100	0	6546	0.001065001	0.007921793	129.3343	
12:32:22	47.46343	-122.3077	0.02	0.01823419	-0.1689578	0	3	100	0	6546	0.001358569	0.007520796	129.3295	
12:32:22	47.46343	-122.3077	0.02	0.01823419	-0.1689578	0	3	100	0	6546	0.001168607	0.007514723	129.325	
12:32:22	47.46343	-122.3077	0.02	0.01823419	-0.1689578	0	3	100	0	6546	0.001042585	0.008158479	129.3207	
12:32:22	47.46343	-122.3077	0.02	0.01823419	-0.1689578	0	3	100	0	6546	0.0009141411	0.005877277	129.3165	
12:32:22	47.46343	-122.3077	0.02	0.01820897	-0.1879158	0	3	100	0	6546	0.000473535	0.003424914	129.3127	
12:32:23	47.46343	-122.3077	0.02	0.01820897	-0.1879158	0	3	100	0	6546	0.0001686617	0.001166958	129.3092	
12:32:23	47.46343	-122.3077	0.02	0.01820897	-0.1879158	0	3	100	0	6546	0.0002083528	0.0001530327	129.306	
12:32:23	47.46343	-122.3077	0.02	0.01820897	-0.1879158	0	3	100	0	6546	0.0001881164	0.001692528	129.3029	
12:32:23	47.46343	-122.3077	0.02	0.01820897	-0.1879158	0	3	100	0	6546	1.300858E-05	0.002200039	129.2999	
12:32:23	47.46343	-122.3077	0.02	0.0181772	-0.1000079	0	3	100	0	6546	-0.0001146124	-0.0001198384	129.2971	
12:32:24	47.46343	-122.3077	0.02	0.0181772	-0.1000079	0	3	100	0	6546	0.0002615842	-0.003141497	129.2945	
12:32:24	47.46343	-122.3077	0.02	0.0181772	-0.1000079	0	3	100	0	6546	0.0002798535	-0.005555033	129.2922	
12:32:24	47.46343	-122.3077	0.02	0.0181772	-0.1000079	0	3	100	0	6546	0.0005684217	-0.005063551	129.2902	
12:32:24	47.46343	-122.3077	0.02	0.0181772	-0.1000079	0	3	100	0	6546	0.0007849131	-0.003710611	129.288	
12:32:24	47.46343	-122.3077	0.02	0.01863962	-0.1212413	0	3	100	0	6547	0.0005957976	-0.003439877	129.2859	
12:32:25	47.46343	-122.3077	0.02	0.01863962	-0.1212413	0	3	100	0	6547	0.0002638998	-0.005050464	129.284	
12:32:25	47.46343	-122.3077	0.02	0.01863962	-0.1212413	0	3	100	0	6547	8.839892E-05	-0.005883418	129.2822	
12:32:25	47.46343	-122.3077	0.02	0.01863962	-0.1212413	0	3	100	0	6547	-0.0001856931	-0.007175683	129.2805	
12:32:25	47.46343	-122.3077	0.02	0.01863962	-0.1212413	0	3	100	0	6547	-3.889672E-05	-0.0100459	129.2791	
12:32:25	47.46343	-122.3077	0.02	0.01863193	-0.1480939	0	3	100	0	6546	-3.645005E-05	-0.01183871	129.2778	
12:32:26	47.46343	-122.3077	0.02	0.01863193	-0.1480939	0	3	100	0	6546	-2.305022E-05	-0.01037879	129.2764	
12:32:26	47.46343	-122.3077	0.02	0.01863193	-0.1480939	0	3	100	0	6546	4.023075E-05	-0.008952317	129.2748	
12:32:26	47.46343	-122.3077	0.02	0.01863193	-0.1480939	0	3	100	0	6546	0.0002390053	-0.006296088	129.2732	
12:32:26	47.46343	-122.3077	0.02	0.01863193	-0.1480939	0	3	100	0	6546	0.0004921502	-0.003782264	129.2714	
12:32:26	47.46343	-122.3077	0.02	0.01848357	-0.166185	0	3	100	0	6546	0.0006266627	-0.003777361	129.2694	
12:32:27	47.46343	-122.3077	0.02	0.01848357	-0.166185	0	3	100	0	6546	0.0006207131	-0.001420762	129.2676	
12:32:27	47.46343	-122.3077	0.02	0.01848357	-0.166185	0	3	100	0	6546	0.0009909901	0.00105304	129.2656	
12:32:27	47.46343	-122.3077	0.02	0.01848357	-0.166185	0	3	100	0	6546	0.000879716	0.0006106561	129.2636	
12:32:27	47.46343	-122.3077	0.02	0.01848357	-0.166185	0	3	100	0	6546	0.0006025319	-0.001335689	129.2616	
12:32:27	47.46343	-122.3077	0.02	0.01836491	-0.1713794	0	3	100	0	6546	0.0007529352	-0.00278701	129.2599	
12:32:28	47.46343	-122.3077	0.02	0.01836491	-0.1713794	0	3	100	0	6546	0.0006783711	-0.004986829	129.2583	
12:32:28	47.46343	-122.3077	0.02	0.01836491	-0.1713794	0	3	100	0	6546	0.0002109358	-0.005026044	129.257	
12:32:28	47.46343	-122.3077	0.02	0.01836491	-0.1713794	0	3	100	0	6546	0.0003087766	-0.002811764	129.2557	
12:32:28	47.46343	-122.3077	0.02	0.01836491	-0.1713794	0	3	100	0	6546	-0.0002729447	-0.004372553	129.2544	
12:32:28	47.46343	-122.3077	0.02	0.01832732	-0.1669654	0	3	100	0	6546	0.0001085098	-0.0007718004	129.2532	
12:32:29	47.46343	-122.3077	0.02	0.01832732	-0.1669654	0	3	100	0	6546	-4.339983E-05	-0.0008486418	129.2519	
12:32:29	47.46343	-122.3077	0.02	0.01832732	-0.1669654	0	3	100	0	6546	-0.0002296116	-0.002087877	129.2506	
12:32:29	47.46343	-122.3077	0.02	0.01832732	-0.1669654	0	3	100	0	6546	-0.004812107	-0.001963585	129.2495	
12:32:29	47.46343	-122.3077	0.02	0.01832732	-0.1669654	0	3	100	0	6546	-0.01349132	-0.000946355	129.2484	
12:32:29	47.46343	-122.3077	0.02	0.01831484	-0.2558637	0	3	100	0	4	-0.01639898	0.001854609	129.2474	
12:32:30	47.46343	-122.3077	0.02	0.01831484	-0.2558637	0	3	100	0	4	-0.01849051	0.003145612	129.2465	
12:32:30	47.46343	-122.3077	0.02	0.01831484	-0.2558637	0	3	100	0	4	-0.05425613	0.009973481	129.2454	
12:32:30	47.46343	-122.3077	0.02	0.01831484	-0.2558637	0	3	100	0	4	-0.1203754	0.06379841	129.2442	
12:32:30	47.46343	-122.3077	0.02	0.01831484	-0.2558637	0	3	100	0	4	-0.2099855	0.2140003	129.2432	
12:32:30	47.46343	-122.3077	0.02	0.008434275	-4.937675	0	3	100	0	4	-0.1596562	0.419572	129.2437	
12:32:31	47.46343	-122.3077	0.02	0.008434275	-4.937675	0	3	100	0	4	-0.08941399	0.514932	129.2477	
12:32:31	47.46343	-122.3077	0.02	0.008434275	-4.937675	0	3	100	0	4	-0.0561896	0.4675066	129.2505	
12:32:31	47.46343	-122.3077	0.02	0.008434275	-4.937675	0	3	100	0	4	-0.04108326	0.3422728	129.252	
12:32:31	47.46343	-122.3077	0.02	0.008434275	-4.937675	0	3	100	0	4	-0.03731298	0.2070768	129.2567	
12:32:31	47.46343	-122.3077	0.02	-0.03715171	-9.450015	0	3	100	0	4	-0.03566054	0.1645262	129.262	
12:32:32	47.46343	-122.3077	0.02	-0.03715171	-9.450015	0	3	100	0	4	-0.03553326	0.1623861	129.2688	
12:32:32	47.46343	-122.3077	0.02	-0.03715171	-9.450015	0	3	100	0	4	-0.03390961	0.1535419	129.2761	
12:32:32	47.46343	-122.3077	0.02	-0.03715171	-9.450015	0	3	100	0	4	-0.03324801	0.1296076	129.2834	
12:32:32	47.46343	-122.3077	0.02	-0.03715171	-9.450015	0	3	100	0	4	-0.0330809	0.09363792	129.2905	
12:32:32	47.46343	-122.3077	0.02	-0.05952738	-8.671319	0	3	100	0	4	-0.0328369	0.05919069	129.298	
12:32:33	47.46343	-122.3077	0.02	-0.05952738	-8.671319	0	3	100	0	4	-0.03255596	0.03828873	129.3055	
12:32:33	47.46343	-122.3077	0.02	-0.05952738	-8.671319	0	3	100	0	4	-0.03246821	0.04099648	129.3135	
12:32:33	47.46343	-122.3077	0.02	-0.05952738	-8.671319	0	3	100	0	4	-0.03050963	0.04863485	129.3214	
12:32:33	47.46343	-122.3077	0.02	-0.05952738	-8.671319	0	3	100	0	4	-0.02998501	0.0355906	129.3289	
12:32:33	47.46343	-122.3077	0.02	-0.05676012	-6.667011	0	3	100	0	4	-0.02908607	0.02019059	129.3363	
12:32:34	47.46343	-122.3077	0.02	-0.05676012	-6.667011	0	3	100	0	4	-0.02817734	0.02045349	129.3435	
12:32:34	47.46343	-122.3077	0.02	-0.05676012	-6.667011	0	3	100	0	4	-0.02746204	0.01647766	129.3507	
12:32:34	47.46343	-122.3077	0.02	-0.05676012	-6.667011	0	3	100	0	4	-0.02631387	0.01687823	129.358	
12:32:34	47.46343	-122.3077	0.02	-0.05676012	-6.667011	0	3	100	0	4	-0.02519296	0.01440689	129.3648	
12:32:34	47.46343	-122.3077	0.02	-0.0420491	-4.654183	0	3	100	0	4	-0.02374252	0.01380263	129.3714	
12:32:35	47.46343	-122.3077	0.02	-0.0420491	-4.654183	0	3	100	0	4	-0.02299297	0.01261458	129.3775	
12:32:35	47.46343	-122.3077	0.02	-0.0420491	-4.654183	0	3	100	0	4	-0.02238094	0.01167206	129.3834	
12:32:35	47.46343	-122.3077	0.02	-0.0420491	-4.654183	0	3	100	0	4	-0.0208536	0.009912839	129.3892	
12:32:35	47.46343	-122.3077	0.02	-0.0420491	-4.654183	0	3	100	0	4	-0.01981734	0.00808012	129.3949	
12:32:35	47.46343	-122.3077	0.02	-0.02702203	-3.347019	0	3	100	0	4	-0.01869281	0.008996712	129.4003	
12:32:36	47.46343	-122.3077	0.02	-0.02702203	-3.347019	0	3	100	0	4	-0.0177924	0.01056579	129.4062	
12:32:36	47.46343	-122.3077	0.02	-0.02702203	-3.347019	0	3	100	0	4	-0.01647496	0.008705555	129.4125	
12:32:36	47.46343	-122.3077	0.02	-0.02702203	-3.347019	0	3	100	0	4	-0.01542932	0.007644163	129.4192	
12:32:36	47.46343	-122.3077	0.02	-0.02702203	-3.347019	0	3	100	0	4	-0.01428442	0.005321459	129.4256	
12:32:36	47.46343	-122.3077	0.02	-0.01356858	-2.161603	0	3	100	0	4	-0.01350463	0.0006833695	129.432	
12:32:37	47.46343	-122.3077	0.02	-0.01356858	-2.161603	0	3	100	0	4	-0.01194203	-0.003100055	129.4385	
12:32:37	47.46343	-122.3077	0.02	-0.01356858	-2.161603	0	3	100	0	4	-0.01121801	-0.005637884	129.4446	
12:32:37	47.46343	-122.3077	0.02	-0.01356858	-2.161603	0	3	100	0	4	-0.01026551	-0.01059959	129.451	
12:32:37	47.46343	-122.3077	0.02	-0.01356858	-2.161603	0	3	100	0	4	-0.008882398	-0.01243344	129.4573	
12:32:37	47.46343	-122.3077	0.02	-0.003961358	-1.795795	0	3	100	0	4	-0.008285303	-0.01360174	129.4634	
12:32:38	47.46343	-122.3077	0.02	-0.003961358	-1.795795	0	3	100	0	4	-0.00708679	-0.01507394	129.4694	
12:32:38	47.46343	-122.3077	0.02	-0.003961358	-1.795795	0	3	100	0	4	-0.006355118	-0.01610336	129.4752	
12:32:38	47.46343	-122.3077	0.02	-0.003961358	-1.795795	0	3	100	0	4	-0.005206101	-0.01575537	129.4807	
12:32:38	47.46343	-122.3077	0.02	-0.003961358	-1.795795	0	3	100	0	4	-0.004302815	-0.01646838	129.486	
12:32:38	47.46343	-122.3077	0.02	0.0002145535	-1.716834	0	3	100	0	4	-0.003789425	-0.01604748	129.4911	
12:32:39	47.46343	-122.3077	0.02	0.0002145535	-1.716834	0	3	100	0	4	-0.0027184	-0.01615016	129.4959	
12:32:39	47.46343	-122.3077	0.02	0.0002145535	-1.716834	0	3	100	0	4	-0.003170538	-0.0165428	129.5005	
12:32:39	47.46343	-122.3077	0.02	0.0002145535	-1.716834	0	3	100	0	4	-0.00209166	-0.01688036	129.5048	
12:32:39	47.46343	-122.3077	0.02	0.0002145535	-1.716834	0	3	100	0	4	-0.001444968	-0.01685641	129.509	
12:32:39	47.46343	-122.3077	0.02	0.0002996745	-2.055306	0	3	100	0	4	-0.0006457472	-0.01582724	129.513	
12:32:40	47.46343	-122.3077	0.02	0.0002996745	-2.055306	0	3	100	0	4	0.000417848	-0.01593426	129.5169	
12:32:40	47.46343	-122.3077	0.02	0.0002996745	-2.055306	0	3	100	0	4	0.000843454	-0.01472371	129.5205	
12:32:40	47.46343	-122.3077	0.02	0.0002996745	-2.055306	0	3	100	0	4	0.0009808817	-0.01420768	129.5237	
12:32:40	47.46343	-122.3077	0.02	0.0002996745	-2.055306	0	3	100	0	4	0.001580278	-0.01252255	129.5268	
12:32:40	47.46343	-122.3077	0.02	2.429081E-05	-1.948157	0	3	100	0	4	0.002295944	-0.01261916	129.5298	
12:32:41	47.46343	-122.3077	0.02	2.429081E-05	-1.948157	0	3	100	0	4	0.002744159	-0.01341488	129.5326	
12:32:41	47.46343	-122.3077	0.02	2.429081E-05	-1.948157	0	3	100	0	4	-0.0156884	-0.02308165	129.5045	
12:32:41	47.46343	-122.3077	0.02	2.429081E-05	-1.948157	0	3	100	0	4	-0.09719079	-0.07949321	129.3261	
12:32:41	47.46343	-122.3077	0.02	2.429081E-05	-1.948157	0.03	3	100	0	4	-0.1335892	-0.1126991	128.9577	
12:32:41	47.46343	-122.3077	0.02	0.006984943	-0.2032118	0.06	3	100	0	4	-0.1442785	-0.05449399	128.3873	
12:32:42	47.46343	-122.3077	0.02	0.006984943	-0.2032118	0.11	3	100	0	4	-0.1620217	0.07420257	127.7152	
12:32:42	47.46343	-122.3077	0.02	0.006984943	-0.2032118	0.13	3	100	0	4	-0.2379391	0.1814966	126.9219	
12:32:42	47.46343	-122.3077	0.02	0.006984943	-0.2032118	0.13	3	100	0	4	-0.3409806	0.2967879	126.0362	
12:32:42	47.46343	-122.3077	0.02	0.006984943	-0.2032118	0.16	3	100	0	4	-0.4878281	0.4413725	125.0581	
12:32:42	47.46343	-122.3077	0.02	0.01818703	1.482028	0.22	3	100	0	74	-0.6043607	0.724804	123.8432	
12:32:43	47.46343	-122.3077	0.02	0.01818703	1.482028	0.57	3	100	0	74	-0.614279	1.225944	122.3062	
12:32:43	47.46343	-122.3077	0.02	0.01818703	1.482028	1.19	3	100	0	74	-0.4929383	1.867108	120.172	
12:32:43	47.46343	-122.3077	0.02	0.01818703	1.482028	2.15	3	100	0	74	-0.2995805	2.411127	117.3293	
12:32:43	47.46343	-122.3077	0.021	0.01818703	1.482028	3.31	3	100	0	74	-0.09727509	2.81271	113.9183	
12:32:43	47.46342	-122.3077	0.021	0.04159608	4.463918	4.38	3.100547	100	0	73	0.1127914	3.181277	110.0398	
12:32:44	47.46342	-122.3077	0.021	0.04159608	4.463918	4.38	3.100547	100	0	73	0.2288664	3.226959	106.0522	
12:32:44	47.46342	-122.3077	0.021	0.04159608	4.463918	5.47	3.100547	100	0	73	0.3252886	3.149975	102.2079	
12:32:44	47.46342	-122.3077	0.022	0.04159608	4.463918	6.45	3.100547	100	0	73	0.3518424	2.97123	98.71162	
12:32:44	47.46341	-122.3076	0.023	0.04159608	4.463918	7.85	3.100547	100	0	73	0.312404	2.855816	95.87201	
12:32:44	47.46341	-122.3076	0.025	0.0756835	10.22974	9.57	7.511526	100	0	74	0.02871724	2.737458	93.57549	
12:32:45	47.46341	-122.3076	0.026	0.0756835	10.22974	10.31	7.511526	100	0	74	-0.4069407	2.856044	91.89697	
12:32:45	47.46341	-122.3075	0.029	0.0756835	10.22974	11.07	7.511526	100	0	74	-0.6041275	3.569706	90.54004	
12:32:45	47.46341	-122.3075	0.032	0.0756835	10.22974	11.76	7.511526	100	0	74	-0.9585141	4.683403	89.43903	
12:32:45	47.46341	-122.3074	0.041	0.0756835	10.22974	12.77	7.511526	100	0	74	-1.381003	6.140475	88.49042	
12:32:45	47.46341	-122.3074	0.053	0.1306973	34.66727	13.38	12.20654	100	0	74	-1.603014	7.517028	87.73586	
12:32:46	47.46341	-122.3074	0.108	0.1306973	34.66727	13.86	12.20654	100	0	74	-1.595512	9.387867	87.31887	
12:32:46	47.46341	-122.3074	0.108	0.1306973	34.66727	13.86	12.20654	100	0	74	-1.061782	11.44559	87.12665	
12:32:46	47.46341	-122.3073	0.241	0.1306973	34.66727	14.23	12.20654	100	0	74	-0.7429372	13.54682	87.10416	
12:32:46	47.46341	-122.3073	0.615	0.1306973	34.66727	14.59	12.20654	100	0	74	-0.3069298	15.62758	87.07997	
12:32:46	47.46341	-122.3073	1.033	1.463135	307.2571	14.71	14.11337	100	0	74	0.006388996	17.99514	87.02253	
12:32:47	47.46341	-122.3072	1.572	1.463135	307.2571	14.76	14.11337	100	0	74	0.2648052	20.41002	86.88253	
12:32:47	47.46342	-122.3072	2.259	1.463135	307.2571	14.66	14.11337	100	0	74	0.4507428	22.70299	86.71287	
12:32:47	47.46342	-122.3072	2.259	1.463135	307.2571	14.66	14.11337	100	0	74	0.6220832	25.02917	86.62748	
12:32:47	47.46342	-122.3071	3.492	1.463135	307.2571	14.36	14.11337	100	0	74	0.8310239	27.29301	86.65805	
12:32:47	47.46342	-122.3071	4.371	5.180191	548.5611	14.09	13.13204	100	0	74	1.10845	29.80359	86.78799	
12:32:48	47.46342	-122.307	5.459	5.180191	548.5611	13.72	13.13204	100	0	74	1.39429	32.43292	86.9315	
12:32:48	47.46342	-122.307	6.791	5.180191	548.5611	13.23	13.13204	100	0	74	1.61506	35.11012	87.01258	
12:32:48	47.46342	-122.307	7.953	5.180191	548.5611	12.74	13.13204	100	0	74	1.800296	37.748	87.09909	
12:32:48	47.46343	-122.3069	9.841	5.180191	548.5611	11.9	13.13204	100	0	74	1.501528	36.32457	87.33866	
12:32:49	47.46343	-122.3069	11.324	11.04375	600.3334	11.2	10.44637	100	0	74	0.952135	27.18144	87.8392	
12:32:49	47.46343	-122.3069	11.324	11.04375	600.3334	11.2	10.44637	100	0	74	0.3882112	15.48158	88.30793	
12:32:49	47.46343	-122.3069	12.831	11.04375	600.3334	10.92	10.44637	100	0	74	0.1082489	4.465742	88.49126	
12:32:49	47.46343	-122.3068	14.268	11.04375	600.3334	11.67	10.44637	100	0	74	0.1386763	-2.609629	88.54275	
12:32:49	47.46343	-122.3068	15.111	11.04375	600.3334	12.65	10.44637	100	0	74	0.469876	-2.468792	88.46411	
12:32:50	47.46343	-122.3068	15.422	12.95456	-234.1862	13.46	11.2566	100	0	73	0.8417482	2.81478	88.24937	
12:32:50	47.46343	-122.3067	14.975	12.95456	-234.1862	14.73	11.2566	100	0	73	0.8920739	6.894084	88.07642	
12:32:50	47.46343	-122.3067	14.687	12.95456	-234.1862	15.2	11.2566	100	0	73	0.7022691	7.744314	87.99511	
12:32:50	47.46344	-122.3066	14.232	12.95456	-234.1862	16.01	11.2566	100	0	73	0.6220675	6.52465	87.95514	
12:32:50	47.46344	-122.3066	14.043	12.95456	-234.1862	16.54	11.2566	100	0	73	0.6173313	4.737857	87.86924	
12:32:51	47.46344	-122.3065	13.956	13.89138	25.60663	17.27	15.07912	100	0	73	0.7321076	3.755818	87.77515	
12:32:51	47.46344	-122.3065	13.866	13.89138	25.60663	17.87	15.07912	100	0	73	0.7781163	3.701658	87.64848	
12:32:51	47.46344	-122.3064	13.707	13.89138	25.60663	18.46	15.07912	100	0	73	0.6593333	4.225268	87.60925	
12:32:51	47.46344	-122.3064	13.519	13.89138	25.60663	19.01	15.07912	100	0	73	0.5454705	4.712039	87.67675	
12:32:51	47.46344	-122.3063	13.377	13.89138	25.60663	19.46	15.07912	100	0	73	0.7169378	4.896976	87.74715	
12:32:52	47.46344	-122.3063	13.274	14.01702	85.20493	19.88	17.27387	100	0	74	0.8232439	5.039618	87.77994	
12:32:52	47.46344	-122.3063	13.274	14.01702	85.20493	19.88	17.27387	100	0	74	0.8619198	5.097557	87.82272	
12:32:52	47.46344	-122.3062	13.21	14.01702	85.20493	20.28	17.27387	100	0	74	0.85227	5.091496	87.91995	
12:32:52	47.46344	-122.3062	13.184	14.01702	85.20493	20.69	17.27387	100	0	74	0.9748126	5.06969	88.09764	
12:32:52	47.46344	-122.306	13.195	14.01702	85.20493	21.24	17.27387	100	0	74	1.013191	4.913737	88.14825	
12:32:53	47.46344	-122.306	13.222	14.09761	91.81599	21.54	19.36855	100	0	73	0.8352183	4.831246	88.2113	
12:32:53	47.46344	-122.3059	13.263	14.09761	91.81599	21.84	19.36855	100	0	73	0.7583646	4.924611	88.2691	
12:32:53	47.46344	-122.3059	13.323	14.09761	91.81599	22.14	19.36855	100	0	73	0.8920373	4.957982	88.33441	
12:32:53	47.46344	-122.3058	13.394	14.09761	91.81599	22.39	19.36855	100	0	73	2.58508	4.898263	88.48663	
12:32:53	47.46344	-122.3057	13.527	14.09761	91.81599	22.76	19.36855	100	0	73	15.21727	4.741171	89.08231	
12:32:54	47.46344	-122.3057	13.621	14.19477	67.57658	22.99	20.60797	100	0	74	30.613	4.153116	90.35621	
12:32:54	47.46343	-122.3056	13.709	14.19477	67.57658	23.2	20.60797	100	0	74	40.18063	3.624861	92.87508	
12:32:54	47.46343	-122.3055	13.757	14.19477	67.57658	23.47	20.60797	100	0	74	44.01289	3.589077	96.73444	
12:32:54	47.46343	-122.3055	13.757	14.19477	67.57658	23.47	20.60797	100	0	74	44.40874	4.063822	101.9568	
12:32:54	47.46342	-122.3055	13.712	14.19477	67.57658	23.74	20.60797	100	0	74	44.03254	4.721471	107.33	
12:32:55	47.46341	-122.3054	13.57	13.92098	27.96727	24.04	22.23139	100	0	74	43.73554	5.473875	112.5184	
12:32:55	47.46339	-122.3053	13.519	13.92098	27.96727	24.17	22.23139	100	0	74	44.09018	5.960268	117.2986	
12:32:55	47.46336	-122.3052	13.522	13.92098	27.96727	24.32	22.23139	100	0	74	44.19956	6.206194	121.9208	
12:32:55	47.46334	-122.3052	13.565	13.92098	27.96727	24.44	22.23139	100	0	74	44.38973	6.193784	126.3572	
12:32:55	47.46331	-122.3051	13.636	13.92098	27.96727	24.54	22.23139	100	0	74	44.17613	6.026323	130.6239	
12:32:56	47.46328	-122.3051	13.727	14.01114	36.67664	24.66	23.66171	100	0	74	43.4691	5.852963	134.682	
12:32:56	47.46325	-122.305	13.807	14.01114	36.67664	24.8	23.66171	100	0	74	43.30223	5.759542	138.695	
12:32:56	47.4632	-122.305	13.948	14.01114	36.67664	24.99	23.66171	100	0	74	43.16375	5.684001	142.5463	
12:32:56	47.46316	-122.3049	14.044	14.01114	36.67664	25.12	23.66171	100	0	74	43.39698	5.518142	146.4545	
12:32:56	47.46316	-122.3049	14.044	14.01114	36.67664	25.12	23.66171	100	0	74	43.50967	5.326414	150.3052	
12:32:57	47.46312	-122.3049	14.13	13.95847	-21.46474	25.24	25.1879	100	0	74	43.2042	5.193223	154.0816	
12:32:57	47.46307	-122.3049	14.231	13.95847	-21.46474	25.41	25.1879	100	0	74	42.92041	5.135932	157.8385	
12:32:57	47.46303	-122.3048	14.288	13.95847	-21.46474	25.54	25.1879	100	0	74	43.05155	5.035101	161.5105	
12:32:57	47.46298	-122.3048	14.335	13.95847	-21.46474	25.67	25.1879	100	0	74	42.94062	4.744864	165.0345	
12:32:57	47.46292	-122.3048	14.383	13.95847	-21.46474	25.87	25.1879	100	0	74	42.94615	4.549915	168.7426	
12:32:58	47.46289	-122.3048	14.385	13.87134	-65.42834	25.95	26.24638	100	0	74	43.44905	4.213082	172.3925	
12:32:58	47.46282	-122.3048	14.376	13.87134	-65.42834	26.14	26.24638	100	0	74	28.32444	4.517879	175.123	
12:32:58	47.46278	-122.3048	14.359	13.87134	-65.42834	26.27	26.24638	100	0	74	12.24411	5.107017	176.7397	
12:32:58	47.46278	-122.3048	14.359	13.87134	-65.42834	26.27	26.24638	100	0	74	0.3989832	4.974358	177.3867	
12:32:58	47.46272	-122.3048	14.413	13.87134	-65.42834	26.4	26.24638	100	0	74	-2.821518	4.153363	177.2269	
12:32:59	47.46267	-122.3048	14.494	13.94588	-61.85038	26.47	27.03474	100	0	74	-1.485096	3.088275	176.7834	
12:32:59	47.46262	-122.3048	14.529	13.94588	-61.85038	26.57	27.03474	100	0	74	0.2053887	2.182011	176.4473	
12:32:59	47.46257	-122.3048	14.489	13.94588	-61.85038	26.69	27.03474	100	0	74	1.148245	1.565768	176.3212	
12:32:59	47.46252	-122.3048	14.364	13.94588	-61.85038	26.84	27.03474	100	0	74	1.051857	1.363733	176.2918	
12:32:59	47.46245	-122.3048	14.075	13.94588	-61.85038	27.07	27.03474	100	0	74	0.6490276	1.279098	176.2448	
12:33:00	47.4624	-122.3048	13.857	13.41924	-122.2975	27.23	27.62702	100	0	74	0.4683964	1.202802	176.2696	
12:33:00	47.46236	-122.3048	13.654	13.41924	-122.2975	27.36	27.62702	100	0	74	0.4826027	1.149982	176.1945	
12:33:00	47.46231	-122.3048	13.427	13.41924	-122.2975	27.49	27.62702	100	0	74	0.4149429	1.129784	176.1005	
12:33:00	47.46224	-122.3048	13.123	13.41924	-122.2975	27.67	27.62702	100	0	74	0.3271684	1.078882	176.1246	
12:33:00	47.46224	-122.3048	13.123	13.41924	-122.2975	27.67	27.62702	100	0	74	0.3163969	0.9924374	176.211	
12:33:01	47.46219	-122.3048	12.931	12.73798	-87.68366	27.78	28.34129	100	0	74	0.5618582	0.9829189	176.2466	
12:33:01	47.46212	-122.3048	12.641	12.73798	-87.68366	27.93	28.34129	100	0	74	0.5632939	0.9437467	176.2281	
12:33:01	47.46207	-122.3048	12.454	12.73798	-87.68366	28.02	28.34129	100	0	74	0.3585814	0.9036019	176.1933	
12:33:01	47.46202	-122.3048	12.276	12.73798	-87.68366	28.1	28.34129	100	0	74	0.4370399	0.9035168	176.2253	
12:33:01	47.46197	-122.3048	12.097	12.73798	-87.68366	28.2	28.34129	100	0	74	0.4380372	0.88111	176.3113	
12:33:02	47.46189	-122.3048	11.846	12.08256	-62.57533	28.3	28.75854	100	0	74	0.245666	0.9288016	176.3867	
12:33:02	47.46183	-122.3048	11.69	12.08256	-62.57533	28.37	28.75854	100	0	74	0.1062981	0.8853413	176.3992	
12:33:02	47.46183	-122.3048	11.69	12.08256	-62.57533	28.37	28.75854	100	0	74	0.06126854	0.8106654	176.4625	
12:33:02	47.46178	-122.3048	11.547	12.08256	-62.57533	28.42	28.75854	100	0	74	-0.06574571	0.7005127	176.6129	
12:33:02	47.46171	-122.3048	11.358	12.08256	-62.57533	28.49	28.75854	100	0	74	0.1482135	0.5802391	176.6927	
12:33:03	47.46166	-122.3048	11.217	11.37952	-63.49011	28.53	29.09812	100	0	74	0.2690482	0.5017864	176.7357	
12:33:03	47.46161	-122.3048	11.13	11.37952	-63.49011	28.57	29.09812	100	0	74	0.2056378	0.5192369	176.8542	
12:33:03	47.46156	-122.3049	11.052	11.37952	-63.49011	28.61	29.09812	100	0	74	0.770732	0.5602519	176.9612	
12:33:03	47.46149	-122.3049	10.946	11.37952	-63.49011	28.67	29.09812	100	0	74	0.5730429	0.5583384	177.0409	
12:33:03	47.46144	-122.3049	10.889	11.37952	-63.49011	28.7	29.09812	100	0	74	0.03430868	0.4929639	177.2124	
12:33:04	47.46136	-122.3049	10.809	10.79417	-52.37915	28.74	29.27166	100	0	74	-0.458735	0.412977	177.3811	
12:33:04	47.46131	-122.3049	10.751	10.79417	-52.37915	28.76	29.27166	100	0	74	-0.3942422	0.3904292	177.4199	
12:33:04	47.46126	-122.3049	10.687	10.79417	-52.37915	28.79	29.27166	100	0	74	-0.3674673	0.4158487	177.353	
12:33:04	47.46126	-122.3049	10.687	10.79417	-52.37915	28.79	29.27166	100	0	74	-0.1506999	0.3980356	177.2659	
12:33:04	47.4612	-122.3049	10.63	10.79417	-52.37915	28.81	29.27166	100	0	74	-0.04944708	0.403829	177.426	
12:33:05	47.46116	-122.3049	10.58	10.452	-36.32808	28.84	29.42086	100	0	74	0.02523576	0.3755015	177.6912	
12:33:05	47.4611	-122.3049	10.523	10.452	-36.32808	28.86	29.42086	100	0	74	0.05416143	0.299224	177.6897	
12:33:05	47.46104	-122.3049	10.474	10.452	-36.32808	28.88	29.42086	100	0	74	-0.112171	0.2407084	177.7297	
12:33:05	47.46099	-122.3049	10.427	10.452	-36.32808	28.89	29.42086	100	0	74	-0.127942	0.2858386	178.0908	
12:33:05	47.46093	-122.3049	10.38	10.452	-36.32808	28.91	29.42086	100	0	74	-0.006516485	0.343673	178.146	
12:33:06	47.46086	-122.3049	10.33	10.25092	-22.49642	28.91	29.49074	100	0	74	0.04900758	0.3176343	178.1889	
12:33:06	47.46081	-122.3049	10.309	10.25092	-22.49642	28.93	29.49074	100	0	74	-0.1459953	0.2473959	178.3411	
12:33:06	47.46076	-122.3049	10.288	10.25092	-22.49642	28.94	29.49074	100	0	74	-0.2580071	0.1725422	178.5494	
12:33:06	47.46071	-122.3049	10.264	10.25092	-22.49642	28.94	29.49074	100	0	74	-0.2295483	0.1624715	178.7032	
12:33:06	47.46071	-122.3049	10.264	10.25092	-22.49642	28.94	29.49074	100	0	74	-0.2150337	0.2201463	178.8561	
12:33:07	47.46066	-122.3049	10.228	10.14746	-12.03002	28.95	29.54082	100	0	74	-0.2023254	0.2672867	179.0123	
12:33:07	47.46057	-122.3049	10.178	10.14746	-12.03002	28.95	29.54082	100	0	74	-0.18534	0.2628724	179.254	
12:33:07	47.46052	-122.305	10.157	10.14746	-12.03002	28.96	29.54082	100	0	74	-0.1082043	0.2153643	179.5066	
12:33:07	47.46044	-122.305	10.138	10.14746	-12.03002	28.96	29.54082	100	0	74	-0.04843888	0.1818534	179.6637	
12:33:07	47.46039	-122.305	10.127	10.14746	-12.03002	28.95	29.54082	100	0	74	-0.1835338	0.1566828	179.8427	
12:33:08	47.46039	-122.305	10.127	10.10698	-5.620368	28.95	29.55118	100	0	74	-0.2964606	0.1652978	-179.9443	
12:33:08	47.46033	-122.305	10.119	10.10698	-5.620368	28.96	29.55118	100	0	74	-0.346408	0.06046172	-179.7422	
12:33:08	47.46026	-122.305	10.116	10.10698	-5.620368	28.96	29.55118	100	0	74	-0.1347615	0.04748262	-179.582	
12:33:08	47.46021	-122.305	10.108	10.10698	-5.620368	28.96	29.55118	100	0	74	0.004019418	0.0922058	-179.3873	
12:33:08	47.46015	-122.305	10.095	10.10698	-5.620368	28.96	29.55118	100	0	74	-0.1401954	0.133804	-179.2045	
12:33:09	47.46015	-122.305	10.095	10.08112	2.058299	28.96	29.56507	100	0	74	-0.3196297	0.1606291	-179.0245	
12:33:09	47.46004	-122.305	10.085	10.08112	2.058299	28.97	29.56507	100	0	74	-0.4039477	0.1618633	-178.8442	
12:33:09	47.46	-122.305	10.08	10.08112	2.058299	28.97	29.56507	100	0	74	-0.3180849	0.1907064	-178.6255	
12:33:09	47.45995	-122.305	10.13	10.08112	2.058299	28.96	29.56507	100	0	74	-0.2724034	0.1728172	-178.3094	
12:33:09	47.4599	-122.305	10.21	10.08112	2.058299	28.96	29.56507	100	0	74	-0.145252	0.1458002	-178.0593	
12:33:10	47.45984	-122.305	10.291	10.158	9.429692	28.94	29.5717	100	0	74	-0.174085	0.04416983	-177.8971	
12:33:10	47.45976	-122.305	10.414	10.158	9.429692	28.93	29.5717	100	0	74	-0.2254028	-0.01991488	-177.7315	
12:33:10	47.45971	-122.305	10.491	10.158	9.429692	28.93	29.5717	100	0	74	-0.2653498	0.04076087	-177.5178	
