Date	Latitude(deg) 	Longitude(deg)	hamsl(m)	hafl(m)	climbrate(cm/s)	GroundSpeed(m/s)	Airspeed(m/s)	Mav_Link(%)	Rssi_Link(%)	Throttle	Roll(deg)	Pitch(deg)	Yaw(deg)
12:40:53	-6.728662	38.94614	134.251	-0.1645283	-1.605517	0.16	3	100	0	6546	-1.677228	6.081679	-21.43149	
12:40:53	-6.728662	38.94614	134.053	-0.1645283	-1.605517	0.13	3	100	0	6546	-1.451416	6.233587	-21.5576	
12:40:54	-6.728662	38.94614	134.058	-0.1645283	-1.605517	0.03	3	100	0	6546	-1.605638	6.122726	-21.74587	
12:40:54	-6.728662	38.94614	134.023	-0.1645283	-1.605517	0.02	3	100	0	6546	-1.581937	6.023702	-21.82451	
12:40:54	-6.728662	38.94614	133.964	-0.1645283	-1.605517	0.12	3	100	0	6546	-1.722201	5.971044	-21.92707	
12:40:54	-6.728662	38.94613	133.812	-1.090413	-49.59159	0.17	3	100	0	6546	-1.782013	5.883547	-21.98469	
12:40:55	-6.728662	38.94613	133.812	-1.090413	-49.59159	0.01	3	100	0	6546	-1.781459	5.890258	-22.05122	
12:40:55	-6.728662	38.94613	133.77	-1.090413	-49.59159	0.14	3	100	0	6546	-1.813679	5.95633	-22.15947	
12:40:55	-6.728662	38.94613	133.77	-1.090413	-49.59159	0.09	3	100	0	6546	-1.742571	5.904799	-22.18848	
12:40:55	-6.728662	38.94613	133.765	-1.090413	-49.59159	0.04	3	100	0	6546	-1.722083	5.901772	-22.19218	
12:40:55	-6.728662	38.94613	133.757	-0.5769839	-14.1992	0.09	3	100	0	6546	-1.777304	5.901664	-22.29874	
12:40:56	-6.728662	38.94613	133.771	-0.5769839	-14.1992	0.13	3	100	0	6546	-1.839585	5.87319	-22.47177	
12:40:56	-6.728662	38.94613	133.771	-0.5769839	-14.1992	0.09	3	100	0	6546	-1.837039	5.889017	-22.56151	
12:40:56	-6.728662	38.94613	133.786	-0.5769839	-14.1992	0.04	3	100	0	6546	-1.79633	5.881852	-22.62416	
12:40:56	-6.728662	38.94613	133.808	-0.5769839	-14.1992	0.02	3	100	0	6546	-1.748252	5.889991	-22.66262	
12:40:56	-6.728662	38.94613	133.844	-0.2214213	-1.142823	0.06	3	100	0	6546	-1.701768	5.767976	-22.62762	
12:40:57	-6.728662	38.94613	133.869	-0.2214213	-1.142823	0.04	3	100	0	6546	-1.725659	5.828589	-22.67954	
12:40:57	-6.728662	38.94613	133.856	-0.2214213	-1.142823	0.12	3	100	0	6546	-1.747326	5.806237	-22.80785	
12:40:57	-6.728662	38.94613	133.85	-0.2214213	-1.142823	0.02	3	100	0	6546	-1.775292	5.778837	-22.85484	
12:40:57	-6.728662	38.94613	133.823	-0.2214213	-1.142823	0.03	3	100	0	6546	-1.859035	5.836333	-22.96489	
12:40:57	-6.728662	38.94613	133.847	-0.2848432	-10.7338	0.07	3	100	0	6546	-1.89477	5.820544	-22.9936	
12:40:58	-6.728662	38.94613	133.857	-0.2848432	-10.7338	0.04	3	100	0	6546	-1.89241	5.836869	-23.05271	
12:40:58	-6.728662	38.94613	133.864	-0.2848432	-10.7338	0.01	3	100	0	6546	-1.848885	5.804422	-23.09937	
12:40:58	-6.728662	38.94613	133.834	-0.2848432	-10.7338	0.08	3	100	0	6546	-1.877247	5.732012	-23.16074	
12:40:58	-6.728662	38.94613	133.834	-0.2848432	-10.7338	0.02	3	100	0	6546	-1.895416	5.818753	-23.18923	
12:40:58	-6.728662	38.94613	133.834	-0.3924794	-16.85794	0.04	3	100	0	6546	-1.863165	5.770133	-23.16449	
12:40:59	-6.728662	38.94613	133.854	-0.3924794	-16.85794	0.11	3	100	0	6546	-1.914545	5.73615	-23.23367	
12:40:59	-6.728662	38.94613	133.865	-0.3924794	-16.85794	0.04	3	100	0	6546	-1.91694	5.749707	-23.20453	
12:40:59	-6.728662	38.94613	133.87	-0.3924794	-16.85794	0.04	3	100	0	6546	-1.857641	5.801555	-23.31647	
12:40:59	-6.728662	38.94613	133.856	-0.3924794	-16.85794	0.02	3	100	0	6546	-1.902472	5.828709	-23.27815	
12:40:59	-6.728663	38.94613	133.864	-0.8036716	-35.36372	0.03	3	100	0	6546	-1.909838	5.822887	-23.36819	
12:41:00	-6.728662	38.94613	133.846	-0.8036716	-35.36372	0.09	3	100	0	6546	-1.943103	5.693296	-23.45134	
12:41:00	-6.728663	38.94613	133.826	-0.8036716	-35.36372	0.04	3	100	0	6546	-1.753214	5.625945	-23.63562	
12:41:00	-6.728663	38.94613	133.848	-0.8036716	-35.36372	0.06	3	100	0	6546	-0.5988517	5.769343	-23.49147	
12:41:00	-6.728663	38.94613	133.837	-0.8036716	-35.36372	0.04	3	100	0	6546	-2.613683	6.358969	-23.13614	
12:41:00	-6.728663	38.94613	133.845	-1.185107	-37.28695	0.04	3	100	0	6546	-3.077933	4.643805	-23.28785	
12:41:01	-6.728663	38.94613	133.905	-1.185107	-37.28695	0.06	3	100	0	6546	0.563009	2.533664	-24.33146	
12:41:01	-6.728663	38.94613	133.918	-1.185107	-37.28695	0.02	3	100	0	6546	-3.929139	2.585005	-23.50321	
12:41:01	-6.728664	38.94613	133.983	-1.185107	-37.28695	0.09	3	100	0	6546	-3.698169	3.246341	-22.80891	
12:41:01	-6.728664	38.94613	133.989	-1.185107	-37.28695	0.01	3	100	0	6546	0.5292552	4.32993	-23.14529	
12:41:01	-6.728664	38.94613	133.989	-1.309992	-39.69142	0.04	3	100	0	6546	1.174188	5.851708	-22.7789	
12:41:02	-6.728665	38.94613	134.03	-1.309992	-39.69142	0.03	3	100	0	6546	-4.26728	5.870093	-22.76525	
12:41:02	-6.728665	38.94613	134.03	-1.309992	-39.69142	0.06	3	100	0	6546	-6.756032	3.789198	-22.30532	
12:41:02	-6.728665	38.94613	134.034	-1.309992	-39.69142	0.09	3	100	0	6546	-1.001704	2.942099	-22.59467	
12:41:02	-6.728665	38.94613	134.012	-1.309992	-39.69142	0.04	3	100	0	6546	4.389628	3.051047	-23.00849	
12:41:02	-6.728665	38.94613	134.046	-0.8818339	-6.55591	0.12	3	100	0	6544	1.726796	3.537826	-22.81746	
12:41:03	-6.728666	38.94613	134.045	-0.8818339	-6.55591	0.04	3	100	0	6544	-1.93142	2.894081	-22.65259	
12:41:03	-6.728666	38.94613	134.095	-0.8818339	-6.55591	0.11	3	100	0	6544	-1.678201	2.426187	-23.60048	
12:41:03	-6.728666	38.94613	134.106	-0.8818339	-6.55591	0.03	3	100	0	6544	-0.7951495	4.663298	-23.9146	
12:41:03	-6.728666	38.94613	134.103	-0.8818339	-6.55591	0.09	3	100	0	6544	-0.7326247	7.140203	-23.87526	
12:41:03	-6.728666	38.94613	134.118	-0.4246898	12.47876	0.08	3	100	0	6546	-1.786698	7.355412	-23.28688	
12:41:04	-6.728666	38.94613	134.091	-0.4246898	12.47876	0.08	3	100	0	6546	-2.357026	8.219151	-23.99695	
12:41:04	-6.728666	38.94613	134.098	-0.4246898	12.47876	0.06	3	100	0	6546	-2.16287	6.470385	-24.58432	
12:41:04	-6.728666	38.94613	134.125	-0.4246898	12.47876	0.04	3	100	0	6546	-2.13588	5.847242	-24.41208	
12:41:04	-6.728666	38.94613	134.138	-0.4246898	12.47876	0.12	3	100	0	6546	-2.132103	5.769721	-24.20852	
12:41:04	-6.728667	38.94613	134.172	-0.3873681	5.658023	0.06	3	100	0	6546	-2.295025	5.797649	-24.14522	
12:41:05	-6.728667	38.94613	134.172	-0.3873681	5.658023	0.04	3	100	0	6546	-2.282935	5.771978	-24.20702	
12:41:05	-6.728667	38.94613	134.183	-0.3873681	5.658023	0.07	3	100	0	6546	-2.2795	5.832752	-24.21636	
12:41:05	-6.728667	38.94614	134.223	-0.3873681	5.658023	0.03	3	100	0	6546	-2.27951	5.90112	-24.25887	
12:41:05	-6.728667	38.94614	134.27	-0.3873681	5.658023	0.14	3	100	0	6546	-2.178802	5.82135	-24.24781	
12:41:05	-6.728668	38.94614	134.271	-0.5137301	-6.39808	0.09	3	100	0	6546	-2.193174	5.997933	-24.23669	
12:41:06	-6.728668	38.94614	134.285	-0.5137301	-6.39808	0.06	3	100	0	6546	-2.172264	6.008069	-24.2196	
12:41:06	-6.728668	38.94614	134.243	-0.5137301	-6.39808	0.13	3	100	0	6546	-2.111818	5.833395	-24.27949	
12:41:06	-6.728668	38.94614	134.277	-0.5137301	-6.39808	0.11	3	100	0	6546	-2.166094	5.733483	-24.30581	
12:41:06	-6.728668	38.94614	134.281	-0.5137301	-6.39808	0.03	3	100	0	6546	-2.197484	5.783687	-24.26155	
12:41:06	-6.728668	38.94614	134.281	-0.5642303	-9.937329	0.06	3	100	0	6546	-2.129654	5.889148	-24.27061	
12:41:07	-6.728668	38.94614	134.253	-0.5642303	-9.937329	0.07	3	100	0	6546	-2.036305	5.852322	-24.18269	
12:41:07	-6.728668	38.94614	134.257	-0.5642303	-9.937329	0.06	3	100	0	6546	-1.976549	5.934749	-24.15825	
12:41:07	-6.728668	38.94614	134.264	-0.5642303	-9.937329	0.07	3	100	0	6546	-2.104283	5.859307	-24.20818	
12:41:07	-6.728668	38.94614	134.25	-0.5642303	-9.937329	0.14	3	100	0	6546	-2.14113	5.89392	-24.24568	
12:41:07	-6.728667	38.94614	134.266	-0.5643601	-9.504714	0.03	3	100	0	6546	-1.998801	5.763726	-24.19271	
12:41:08	-6.728667	38.94614	134.27	-0.5643601	-9.504714	0.03	3	100	0	6546	-2.03957	5.960461	-24.18757	
12:41:08	-6.728667	38.94614	134.282	-0.5643601	-9.504714	0.01	3	100	0	6546	-2.021964	5.907736	-24.19022	
12:41:08	-6.728667	38.94614	134.282	-0.5643601	-9.504714	0.04	3	100	0	6546	-1.989873	5.930848	-24.14118	
12:41:08	-6.728667	38.94614	134.362	-0.5643601	-9.504714	0.11	3	100	0	6546	-1.914722	5.969999	-24.0719	
12:41:09	-6.728667	38.94614	134.445	-0.3618627	-0.731612	0.02	3	100	0	6546	-1.989804	5.865335	-24.12206	
12:41:09	-6.728668	38.94614	134.51	-0.3618627	-0.731612	0.07	3	100	0	6546	-1.975852	5.984521	-24.17408	
12:41:09	-6.728667	38.94614	134.554	-0.3618627	-0.731612	0.02	3	100	0	6546	-1.951266	5.910889	-24.25474	
12:41:09	-6.728668	38.94614	134.608	-0.3618627	-0.731612	0.06	3	100	0	6546	-1.988262	5.99434	-24.30246	
12:41:09	-6.728668	38.94614	134.675	-0.3618627	-0.731612	0.04	3	100	0	6546	-1.968931	6.08581	-24.28389	
12:41:09	-6.728668	38.94614	134.694	-0.3628067	-5.025464	0.04	3	100	0	6546	-1.898856	6.089398	-24.27907	
12:41:10	-6.728668	38.94614	134.694	-0.3628067	-5.025464	0.07	3	100	0	6546	-1.891755	6.077838	-24.23923	
12:41:10	-6.728668	38.94614	134.749	-0.3628067	-5.025464	0.08	3	100	0	6546	-1.856528	6.07664	-24.26793	
12:41:10	-6.728668	38.94614	134.786	-0.3628067	-5.025464	0.03	3	100	0	6546	-1.842222	6.039261	-24.29288	
12:41:10	-6.728668	38.94614	134.81	-0.3628067	-5.025464	0.07	3	100	0	6546	-1.896409	5.980125	-24.34495	
12:41:11	-6.728668	38.94614	134.821	-0.2483608	-2.017918	0.02	3	100	0	6546	-1.871569	5.936686	-24.32913	
12:41:11	-6.728668	38.94614	134.853	-0.2483608	-2.017918	0.04	3	100	0	6546	-1.925659	6.021934	-24.37432	
12:41:11	-6.728668	38.94614	134.894	-0.2483608	-2.017918	0.04	3	100	0	6546	-1.973075	6.096966	-24.31683	
12:41:11	-6.728668	38.94614	134.918	-0.2483608	-2.017918	0.02	3	100	0	6546	-1.941073	6.115558	-24.33401	
12:41:11	-6.728668	38.94614	134.908	-0.2483608	-2.017918	0.02	3	100	0	6546	-1.918644	6.085921	-24.3228	
12:41:12	-6.728668	38.94614	134.897	-0.3592358	-10.93531	0.17	3	100	0	6546	-1.910321	6.079062	-24.3468	
12:41:12	-6.728668	38.94614	134.878	-0.3592358	-10.93531	0.06	3	100	0	6546	-2.035642	6.030596	-24.26403	
12:41:12	-6.728668	38.94614	134.856	-0.3592358	-10.93531	0.04	3	100	0	6546	-1.860905	6.156322	-24.31286	
12:41:12	-6.728668	38.94614	134.832	-0.3592358	-10.93531	0.04	3	100	0	6546	-1.906409	6.068416	-24.34657	
12:41:12	-6.728668	38.94614	134.828	-0.3592358	-10.93531	0.08	3	100	0	6546	-1.888896	6.039916	-24.2842	
12:41:12	-6.728668	38.94614	134.828	-0.5005088	-16.78579	0.09	3	100	0	6546	-1.925799	6.019082	-24.24522	
12:41:13	-6.728667	38.94614	134.81	-0.5005088	-16.78579	0.13	3	100	0	6546	-1.929071	5.980983	-24.32233	
12:41:13	-6.728667	38.94614	134.761	-0.5005088	-16.78579	0.04	3	100	0	6546	-1.967276	6.079157	-24.36912	
12:41:13	-6.728667	38.94614	134.732	-0.5005088	-16.78579	0.09	3	100	0	6546	-1.893678	6.078208	-24.30622	
12:41:13	-6.728667	38.94614	134.74	-0.5005088	-16.78579	0.04	3	100	0	6546	-1.870633	6.129659	-24.31936	
12:41:13	-6.728667	38.94614	134.724	-0.6207785	-19.72978	0.09	3	100	0	6546	-1.786419	6.101365	-24.31883	
12:41:14	-6.728667	38.94614	134.719	-0.6207785	-19.72978	0.12	3	100	0	6546	-1.766229	6.101192	-24.36714	
12:41:14	-6.728667	38.94614	134.737	-0.6207785	-19.72978	0.04	3	100	0	6546	-1.833278	6.249444	-24.30733	
12:41:14	-6.728667	38.94614	134.734	-0.6207785	-19.72978	0.08	3	100	0	6546	-1.866519	6.158882	-24.28577	
12:41:14	-6.728667	38.94614	134.725	-0.6207785	-19.72978	0.03	3	100	0	6546	-1.796792	6.142957	-24.26302	
12:41:15	-6.728667	38.94614	134.743	-0.607802	-15.4506	0.13	3	100	0	6546	-1.839816	6.14622	-24.23116	
12:41:15	-6.728667	38.94614	134.712	-0.607802	-15.4506	0.04	3	100	0	6546	-1.799407	6.203323	-24.28152	
12:41:15	-6.728667	38.94614	134.717	-0.607802	-15.4506	0.02	3	100	0	6546	-1.880622	6.087119	-24.34137	
12:41:15	-6.728667	38.94614	134.677	-0.607802	-15.4506	0.04	3	100	0	6546	-1.814097	6.052449	-24.43697	
12:41:15	-6.728667	38.94614	134.589	-0.607802	-15.4506	0.03	3	100	0	6546	-1.801234	6.020089	-24.47345	
12:41:15	-6.728667	38.94614	134.589	-0.5982768	-10.96837	0.01	3	100	0	6546	-1.836479	6.038397	-24.47209	
12:41:16	-6.728667	38.94614	134.586	-0.5982768	-10.96837	0.09	3	100	0	6546	-1.878521	6.091982	-24.51588	
12:41:16	-6.728667	38.94614	134.586	-0.5982768	-10.96837	0.16	3	100	0	6546	-1.938047	6.065863	-24.50732	
12:41:16	-6.728667	38.94614	134.606	-0.5982768	-10.96837	0.09	3	100	0	6546	-1.92927	5.925928	-24.53061	
12:41:16	-6.728667	38.94614	134.621	-0.5982768	-10.96837	0.09	3	100	0	6546	-1.926195	6.057404	-24.56294	
12:41:17	-6.728667	38.94614	134.599	-0.5964749	-10.33488	0.04	3	100	0	6546	-1.820111	6.094696	-24.54251	
12:41:17	-6.728667	38.94614	134.591	-0.5964749	-10.33488	0.07	3	100	0	6546	-1.843832	6.003733	-24.5712	
12:41:17	-6.728666	38.94614	134.572	-0.5964749	-10.33488	0.07	3	100	0	6546	-1.810014	6.071327	-24.51469	
12:41:17	-6.728666	38.94614	134.581	-0.5964749	-10.33488	0.01	3	100	0	6546	-1.842721	6.102977	-24.54281	
12:41:17	-6.728666	38.94614	134.585	-0.5964749	-10.33488	0	3	100	0	6546	-1.889518	6.053651	-24.58019	
12:41:17	-6.728666	38.94614	134.592	-0.5552613	-7.304392	0.04	3	100	0	6546	-1.874599	6.082104	-24.57634	
12:41:18	-6.728666	38.94614	134.569	-0.5552613	-7.304392	0.09	3	100	0	6546	-1.906283	6.165376	-24.61864	
12:41:18	-6.728666	38.94614	134.594	-0.5552613	-7.304392	0.08	3	100	0	6546	-1.920207	6.179317	-24.6532	
12:41:18	-6.728666	38.94614	134.509	-0.5552613	-7.304392	0.11	3	100	0	6546	-1.932927	6.111433	-24.69037	
12:41:18	-6.728666	38.94614	134.485	-0.5552613	-7.304392	0.04	3	100	0	6546	-2.023937	6.055682	-24.68639	
12:41:18	-6.728666	38.94614	134.428	-0.5970095	-7.727417	0.08	3	100	0	6546	-2.002867	6.112477	-24.71832	
12:41:19	-6.728666	38.94614	134.457	-0.5970095	-7.727417	0.13	3	100	0	6546	-1.955647	6.017583	-24.60208	
12:41:19	-6.728666	38.94614	134.443	-0.5970095	-7.727417	0.04	3	100	0	6546	-1.919423	6.104912	-24.56944	
12:41:19	-6.728666	38.94614	134.452	-0.5970095	-7.727417	0.09	3	100	0	6546	-1.98626	6.205334	-24.56083	
12:41:19	-6.728666	38.94614	134.482	-0.5970095	-7.727417	0.06	3	100	0	6546	-1.985782	6.162601	-24.56815	
12:41:19	-6.728666	38.94614	134.488	-0.5063243	-2.521013	0.04	3	100	0	6546	-1.953772	6.094748	-24.47299	
12:41:20	-6.728666	38.94614	134.482	-0.5063243	-2.521013	0.16	3	100	0	6546	-1.957439	6.055149	-24.5209	
12:41:20	-6.728666	38.94614	134.447	-0.5063243	-2.521013	0.11	3	100	0	6546	-1.933283	5.93455	-24.4686	
12:41:20	-6.728666	38.94614	134.37	-0.5063243	-2.521013	0.09	3	100	0	6546	-1.940109	5.962102	-24.43793	
12:41:20	-6.728666	38.94614	134.277	-0.5063243	-2.521013	0.14	3	100	0	6546	-2.030691	5.930001	-24.52399	
12:41:20	-6.728666	38.94614	134.269	-0.4601154	-1.665169	0.08	3	100	0	6546	-2.010501	5.955477	-24.48906	
12:41:21	-6.728666	38.94614	134.233	-0.4601154	-1.665169	0.02	3	100	0	6546	-1.91655	5.992561	-24.43609	
12:41:21	-6.728666	38.94614	134.263	-0.4601154	-1.665169	0.22	3	100	0	6546	-1.990034	5.940054	-24.35922	
12:41:21	-6.728666	38.94614	134.355	-0.4601154	-1.665169	0.04	3	100	0	6546	-2.007395	5.901905	-24.33384	
12:41:22	-6.728666	38.94614	134.355	-0.4601154	-1.665169	0.08	3	100	0	6546	-1.879685	6.042478	-24.29774	
12:41:22	-6.728666	38.94614	134.375	-0.4903983	-4.960092	0.06	3	100	0	6546	-1.857526	6.023679	-24.28722	
12:41:22	-6.728666	38.94614	134.442	-0.4903983	-4.960092	0.11	3	100	0	6546	-1.94517	5.989012	-24.2866	
12:41:22	-6.728666	38.94614	134.514	-0.4903983	-4.960092	0.04	3	100	0	6546	-1.939638	6.036754	-24.21696	
12:41:22	-6.728666	38.94614	134.62	-0.4903983	-4.960092	0.04	3	100	0	6546	-1.897725	6.01158	-24.20358	
12:41:22	-6.728666	38.94614	134.659	-0.4903983	-4.960092	0.18	3	100	0	6546	-1.916573	6.131745	-24.25794	
12:41:23	-6.728666	38.94614	134.65	-0.5792723	-8.74605	0.06	3	100	0	6546	-1.874667	6.174197	-24.22703	
12:41:23	-6.728665	38.94614	134.563	-0.5792723	-8.74605	0.14	3	100	0	6546	-1.914298	6.013317	-24.28088	
12:41:23	-6.728665	38.94614	134.563	-0.5792723	-8.74605	0.14	3	100	0	6546	-1.863192	6.008805	-24.20872	
12:41:23	-6.728665	38.94614	134.588	-0.5792723	-8.74605	0.09	3	100	0	6546	-1.820636	6.030719	-24.14675	
12:41:23	-6.728665	38.94614	134.641	-0.5792723	-8.74605	0.06	3	100	0	6546	-1.91788	6.025393	-24.21116	
12:41:23	-6.728666	38.94614	134.555	-0.4994742	-2.912469	0.17	3	100	0	6546	-1.889013	6.155217	-24.21749	
12:41:24	-6.728666	38.94614	134.555	-0.4994742	-2.912469	0.08	3	100	0	6546	-1.837189	6.167082	-24.19698	
12:41:24	-6.728666	38.94614	134.52	-0.4994742	-2.912469	0.07	3	100	0	6546	-1.802102	6.123688	-24.2335	
12:41:24	-6.728666	38.94614	134.467	-0.4994742	-2.912469	0.08	3	100	0	6546	-1.869932	6.049201	-24.27755	
12:41:24	-6.728666	38.94614	134.444	-0.4994742	-2.912469	0.06	3	100	0	6546	-1.9048	5.982382	-24.25832	
12:41:25	-6.728665	38.94614	134.446	-0.3984475	1.011634	0.09	3	100	0	6546	-1.879494	5.957791	-24.23719	
12:41:25	-6.728665	38.94614	134.447	-0.3984475	1.011634	0.13	3	100	0	6546	-1.906951	5.905526	-24.22451	
12:41:25	-6.728665	38.94614	134.499	-0.3984475	1.011634	0.01	3	100	0	6546	-1.889685	5.949613	-24.1971	
12:41:25	-6.728666	38.94614	134.534	-0.3984475	1.011634	0.01	3	100	0	6546	-1.860328	6.006941	-24.15797	
12:41:25	-6.728666	38.94614	134.531	-0.3984475	1.011634	0.03	3	100	0	6546	-1.837807	6.0312	-24.15839	
12:41:25	-6.728666	38.94614	134.513	-0.4183069	-1.930372	0.02	3	100	0	6546	-1.823117	6.01634	-24.11241	
12:41:26	-6.728666	38.94614	134.571	-0.4183069	-1.930372	0.03	3	100	0	6546	-1.848532	5.987352	-24.21555	
12:41:26	-6.728666	38.94614	134.599	-0.4183069	-1.930372	0.06	3	100	0	6546	-1.863227	5.959545	-24.16035	
12:41:26	-6.728666	38.94614	134.599	-0.4183069	-1.930372	0.03	3	100	0	6546	-1.846193	5.980364	-24.14077	
12:41:26	-6.728666	38.94614	134.601	-0.4183069	-1.930372	0.08	3	100	0	6546	-1.875838	5.937093	-24.09614	
12:41:27	-6.728666	38.94614	134.642	-0.3684669	-0.08568867	0.03	3	100	0	6546	-1.874756	5.956527	-24.09297	
12:41:27	-6.728666	38.94614	134.686	-0.3684669	-0.08568867	0.03	3	100	0	6546	-1.855281	5.992836	-24.1633	
12:41:27	-6.728666	38.94614	134.706	-0.3684669	-0.08568867	0.03	3	100	0	6546	-1.855167	6.028072	-24.13657	
12:41:27	-6.728666	38.94614	134.795	-0.3684669	-0.08568867	0.06	3	100	0	6546	-1.900766	5.953712	-24.10764	
12:41:27	-6.728666	38.94614	134.82	-0.3684669	-0.08568867	0.04	3	100	0	6546	-1.898829	5.987537	-24.08014	
12:41:28	-6.728666	38.94614	134.864	-0.5955558	-11.38739	0.09	3	100	0	6546	-1.91957	6.00473	-24.05681	
12:41:28	-6.728666	38.94614	134.864	-0.5955558	-11.38739	0.09	3	100	0	6546	-1.88574	5.892582	-24.02103	
12:41:28	-6.728666	38.94614	134.836	-0.5955558	-11.38739	0.04	3	100	0	6546	-1.822573	5.91121	-24.02502	
12:41:28	-6.728666	38.94614	134.842	-0.5955558	-11.38739	0.07	3	100	0	6546	-1.749909	5.939972	-24.00309	
12:41:28	-6.728666	38.94614	134.896	-0.5955558	-11.38739	0.03	3	100	0	6546	-1.884395	6.004542	-23.98605	
12:41:29	-6.728666	38.94614	134.906	-0.4887865	-2.546564	0.03	3	100	0	6546	-1.87655	5.958396	-24.06568	
12:41:29	-6.728666	38.94614	134.887	-0.4887865	-2.546564	0.09	3	100	0	6546	-1.888127	5.918584	-24.04704	
12:41:29	-6.728666	38.94614	134.921	-0.4887865	-2.546564	0.09	3	100	0	6546	-1.915139	5.839488	-24.00985	
12:41:29	-6.728667	38.94614	134.957	-0.4887865	-2.546564	0	3	100	0	6546	-1.840404	5.954872	-24.01155	
12:41:29	-6.728667	38.94614	135.014	-0.4887865	-2.546564	0.14	3	100	0	6546	-1.868462	5.931516	-23.97935	
12:41:30	-6.728667	38.94614	135.068	-0.3628313	0.8926228	0.06	3	100	0	6546	-1.809174	6.0276	-23.97539	
12:41:30	-6.728667	38.94614	135.132	-0.3628313	0.8926228	0.06	3	100	0	6546	-1.828682	5.907535	-23.98511	
12:41:30	-6.728667	38.94614	135.143	-0.3628313	0.8926228	0.06	3	100	0	6546	-1.880211	5.943867	-23.98353	
12:41:30	-6.728668	38.94614	135.16	-0.3628313	0.8926228	0.04	3	100	0	6546	-1.873807	6.039864	-23.96749	
12:41:30	-6.728668	38.94614	135.163	-0.3628313	0.8926228	0.04	3	100	0	6546	-1.820358	6.005209	-23.935	
12:41:31	-6.728668	38.94614	135.176	-0.4617911	-4.681641	0.06	3	100	0	6546	-1.827757	5.999756	-23.89977	
12:41:31	-6.728668	38.94614	135.143	-0.4617911	-4.681641	0.09	3	100	0	6546	-1.913881	5.97731	-23.84695	
12:41:31	-6.728668	38.94614	135.092	-0.4617911	-4.681641	0.04	3	100	0	6546	-1.89354	5.860561	-23.89084	
12:41:31	-6.728668	38.94614	135.062	-0.4617911	-4.681641	0.09	3	100	0	6546	-1.873241	5.893167	-23.94852	
12:41:31	-6.728669	38.94614	135.041	-0.4617911	-4.681641	0.09	3	100	0	6546	-1.849092	6.02311	-23.96867	
12:41:32	-6.728669	38.94614	134.994	-0.4925624	-5.30665	0.03	3	100	0	6546	-1.932139	5.981253	-24.07945	
12:41:32	-6.728669	38.94614	134.98	-0.4925624	-5.30665	0.08	3	100	0	6546	-1.858991	5.926455	-24.10893	
12:41:32	-6.728669	38.94614	134.992	-0.4925624	-5.30665	0.04	3	100	0	6546	-1.769667	6.017208	-24.07078	
12:41:32	-6.728669	38.94614	134.981	-0.4925624	-5.30665	0.06	3	100	0	6546	-1.78493	6.052152	-24.09249	
12:41:32	-6.728669	38.94614	135.011	-0.4925624	-5.30665	0.03	3	100	0	6546	-1.849688	5.91805	-24.12838	
12:41:33	-6.728669	38.94614	135.032	-0.4490709	-0.2950655	0	3	100	0	6546	-1.85386	6.009078	-24.0565	
12:41:33	-6.728669	38.94614	135.087	-0.4490709	-0.2950655	0.03	3	100	0	6546	-1.837238	6.033806	-24.02952	
12:41:33	-6.728669	38.94614	135.072	-0.4490709	-0.2950655	0.09	3	100	0	6546	-1.851099	6.05718	-24.01786	
12:41:33	-6.728669	38.94614	135.112	-0.4490709	-0.2950655	0.04	3	100	0	6546	-1.966681	5.960417	-24.07276	
12:41:33	-6.72867	38.94614	135.107	-0.4490709	-0.2950655	0.07	3	100	0	6546	-1.856902	6.041604	-24.07069	
12:41:34	-6.72867	38.94614	135.109	-0.4490709	-0.2950655	0.02	3	100	0	6546	-1.885139	6.07443	-24.12848	
12:41:34	-6.72867	38.94614	135.146	-0.4490709	-0.2950655	0.04	3	100	0	6546	-1.87593	5.99966	-24.15121	
12:41:34	-6.72867	38.94614	135.142	-0.4490709	-0.2950655	0.04	3	100	0	6546	-1.854711	6.091578	-24.12062	
12:41:34	-6.72867	38.94614	135.209	-0.4490709	-0.2950655	0	3	100	0	6546	-1.829256	6.071971	-24.13011	
12:41:34	-6.72867	38.94614	135.238	-0.4490709	-0.2950655	0.14	3	100	0	6546	-1.850445	6.026519	-24.07656	
12:41:35	-6.728671	38.94614	135.26	-0.5548419	-6.837915	0.09	3	100	0	6546	-1.785206	6.19248	-24.0409	
12:41:35	-6.72867	38.94614	135.281	-0.5548419	-6.837915	0.12	3	100	0	6546	-1.854824	5.959443	-24.0349	
12:41:35	-6.72867	38.94614	135.302	-0.5548419	-6.837915	0.04	3	100	0	6546	-1.841901	5.917193	-24.04828	
12:41:35	-6.72867	38.94614	135.392	-0.5548419	-6.837915	0.09	3	100	0	6546	-1.860621	6.022657	-23.98861	
12:41:35	-6.72867	38.94614	135.418	-0.5548419	-6.837915	0.09	3	100	0	6546	-1.731189	6.091746	-24.02774	
12:41:36	-6.72867	38.94614	135.418	-0.6650949	-8.75473	0.03	3	100	0	6546	-1.863882	6.144526	-24.13117	
12:41:36	-6.72867	38.94614	135.484	-0.6650949	-8.75473	0.04	3	100	0	6546	-1.84052	6.00385	-24.18421	
12:41:36	-6.72867	38.94614	135.484	-0.6650949	-8.75473	0.04	3	100	0	6546	-1.811877	5.997803	-24.08871	
12:41:36	-6.72867	38.94614	135.541	-0.6650949	-8.75473	0.07	3	100	0	6546	-1.855192	6.098438	-24.1262	
12:41:36	-6.72867	38.94614	135.596	-0.6650949	-8.75473	0.03	3	100	0	6546	-1.84105	6.145263	-24.15482	
12:41:37	-6.728671	38.94615	135.641	-0.5453597	0.6975409	0.02	3	100	0	6546	-1.877558	6.107542	-24.19775	
12:41:37	-6.72867	38.94615	135.778	-0.5453597	0.6975409	0.09	3	100	0	6546	-1.853421	6.063379	-24.21301	
12:41:37	-6.72867	38.94615	135.778	-0.5453597	0.6975409	0.04	3	100	0	6546	-1.837943	5.987811	-24.22717	
12:41:37	-6.72867	38.94615	135.801	-0.5453597	0.6975409	0.14	3	100	0	6546	-1.845198	6.031666	-24.20551	
12:41:37	-6.72867	38.94615	135.851	-0.5453597	0.6975409	0.04	3	100	0	6546	-1.797398	6.223685	-24.16264	
12:41:38	-6.72867	38.94615	135.852	-0.5499182	-1.783422	0.07	3	100	0	6546	-1.832904	6.142433	-24.15448	
12:41:38	-6.72867	38.94615	135.864	-0.5499182	-1.783422	0.06	3	100	0	6546	-1.908004	6.176071	-24.19925	
12:41:38	-6.72867	38.94615	135.841	-0.5499182	-1.783422	0.09	3	100	0	6546	-1.831731	6.130857	-24.15094	
12:41:38	-6.72867	38.94615	135.827	-0.5499182	-1.783422	0.03	3	100	0	6546	-1.875133	6.025717	-24.0973	
12:41:38	-6.72867	38.94615	135.841	-0.5499182	-1.783422	0.12	3	100	0	6546	-1.884347	6.074775	-24.1318	
12:41:39	-6.72867	38.94615	135.848	-0.3707187	6.240898	0.02	3	100	0	6546	-1.939821	5.967782	-24.08928	
12:41:39	-6.72867	38.94615	135.88	-0.3707187	6.240898	0.06	3	100	0	6546	-1.857114	6.030932	-24.05181	
12:41:39	-6.72867	38.94615	135.918	-0.3707187	6.240898	0.01	3	100	0	6546	-1.869961	6.138059	-24.02247	
12:41:39	-6.72867	38.94615	135.958	-0.3707187	6.240898	0.13	3	100	0	6546	-1.892695	5.997426	-24.09429	
12:41:40	-6.72867	38.94615	135.958	-0.3707187	6.240898	0.04	3	100	0	6546	-1.9694	5.97239	-24.05185	
12:41:40	-6.72867	38.94615	135.962	-0.3658719	2.404573	0.06	3	100	0	6546	-1.858339	5.94458	-24.02411	
12:41:40	-6.72867	38.94615	135.998	-0.3658719	2.404573	0.11	3	100	0	6546	-1.866918	5.999398	-23.9925	
12:41:40	-6.72867	38.94615	136.037	-0.3658719	2.404573	0.01	3	100	0	6546	-1.775009	6.069454	-23.97428	
12:41:40	-6.72867	38.94615	136.052	-0.3658719	2.404573	0.07	3	100	0	6546	-1.868278	6.019	-24.01336	
12:41:40	-6.72867	38.94615	136.052	-0.3658719	2.404573	0.02	3	100	0	6546	-1.877367	6.016884	-23.96601	
12:41:41	-6.72867	38.94615	136.077	-0.1761488	10.87182	0.08	3	100	0	6546	-1.880707	6.146867	-23.97355	
12:41:41	-6.72867	38.94615	136.094	-0.1761488	10.87182	0.09	3	100	0	6546	-1.863816	6.128921	-24.01398	
12:41:41	-6.72867	38.94615	136.116	-0.1761488	10.87182	0.04	3	100	0	6546	-1.81486	5.978869	-24.0486	
12:41:41	-6.72867	38.94615	136.156	-0.1761488	10.87182	0.02	3	100	0	6546	-1.870584	6.073849	-24.05269	
12:41:41	-6.728669	38.94615	136.201	-0.1761488	10.87182	0.07	3	100	0	6546	-1.839293	6.041243	-24.01557	
12:41:42	-6.728669	38.94615	136.211	-0.02566258	12.16483	0.03	3	100	0	6546	-1.800096	6.006073	-24.03581	
12:41:42	-6.728669	38.94615	136.223	-0.02566258	12.16483	0.03	3	100	0	6546	-1.863784	6.023988	-24.12356	
12:41:42	-6.728669	38.94615	136.239	-0.02566258	12.16483	0.07	3	100	0	6546	-1.916176	6.035415	-24.14227	
12:41:42	-6.728669	38.94615	136.267	-0.02566258	12.16483	0.03	3	100	0	6546	-1.908722	5.952581	-24.10709	
12:41:43	-6.728669	38.94615	136.291	-0.02566258	12.16483	0.06	3	100	0	6546	-1.938794	6.074081	-24.07738	
12:41:43	-6.728669	38.94615	136.286	-0.06008736	4.585745	0.06	3	100	0	6547	-1.889666	5.978242	-24.02253	
12:41:43	-6.728669	38.94615	136.281	-0.06008736	4.585745	0.08	3	100	0	6547	-1.823388	5.979769	-24.03359	
12:41:43	-6.728669	38.94615	136.276	-0.06008736	4.585745	0.07	3	100	0	6547	-1.794513	6.054823	-24.04169	
12:41:43	-6.728668	38.94615	136.3	-0.06008736	4.585745	0.12	3	100	0	6547	-1.809117	6.004573	-24.07222	
12:41:43	-6.728668	38.94615	136.3	-0.06008736	4.585745	0.06	3	100	0	6547	-1.909986	5.959798	-24.08564	
12:41:44	-6.728668	38.94615	136.329	-0.02474919	3.59993	0.04	3	100	0	6546	-1.926021	6.066323	-24.05536	
12:41:44	-6.728668	38.94615	136.328	-0.02474919	3.59993	0.11	3	100	0	6546	-1.927843	6.0328	-24.02765	
12:41:44	-6.728668	38.94615	136.325	-0.02474919	3.59993	0.03	3	100	0	6546	-1.914672	6.00296	-23.99858	
12:41:44	-6.728668	38.94615	136.36	-0.02474919	3.59993	0.06	3	100	0	6546	-1.86643	6.054137	-23.91498	
12:41:44	-6.728668	38.94615	136.385	-0.02474919	3.59993	0.11	3	100	0	6546	-1.860642	6.140591	-23.94776	
12:41:45	-6.728668	38.94615	136.395	-0.2858078	-9.10252	0.03	3	100	0	6545	-1.871999	6.15909	-23.99363	
12:41:45	-6.728668	38.94615	136.347	-0.2858078	-9.10252	0.04	3	100	0	6545	-1.864734	6.099477	-23.99811	
12:41:45	-6.728668	38.94615	136.354	-0.2858078	-9.10252	0.04	3	100	0	6545	-1.866628	6.123392	-23.96914	
12:41:45	-6.728668	38.94615	136.319	-0.2858078	-9.10252	0.09	3	100	0	6545	-1.871556	6.09044	-23.88435	
12:41:46	-6.728668	38.94615	136.334	-0.2858078	-9.10252	0.04	3	100	0	6545	-1.835408	6.033442	-23.88945	
12:41:46	-6.728667	38.94615	136.344	-0.3034277	-6.534778	0.02	3	100	0	6546	-1.851266	6.104754	-23.86902	
12:41:46	-6.728667	38.94615	136.332	-0.3034277	-6.534778	0.09	3	100	0	6546	-1.856412	6.094413	-23.90393	
12:41:46	-6.728667	38.94615	136.321	-0.3034277	-6.534778	0.04	3	100	0	6546	-1.872913	6.064651	-23.90633	
12:41:46	-6.728667	38.94615	136.303	-0.3034277	-6.534778	0.06	3	100	0	6546	-1.94211	6.146698	-23.93307	
12:41:46	-6.728667	38.94615	136.276	-0.3034277	-6.534778	0.04	3	100	0	6546	-1.969813	6.134881	-23.96986	
12:41:47	-6.728667	38.94615	136.275	-0.4422999	-11.36195	0.04	3	100	0	6546	-1.952699	6.095356	-24.01345	
12:41:47	-6.728667	38.94615	136.237	-0.4422999	-11.36195	0.04	3	100	0	6546	-1.930925	6.068516	-23.95661	
12:41:47	-6.728667	38.94615	136.229	-0.4422999	-11.36195	0.04	3	100	0	6546	-1.912582	6.071428	-23.95813	
12:41:47	-6.728666	38.94615	136.17	-0.4422999	-11.36195	0.03	3	100	0	6546	-1.865698	6.022728	-23.88424	
12:41:47	-6.728666	38.94615	136.15	-0.4422999	-11.36195	0.03	3	100	0	6546	-1.873827	6.04801	-23.86885	
12:41:48	-6.728666	38.94615	136.128	-0.2810106	-0.3417127	0.07	3	100	0	6546	-1.872642	6.074879	-23.92643	
12:41:48	-6.728666	38.94615	136.104	-0.2810106	-0.3417127	0.04	3	100	0	6546	-1.867565	6.143946	-23.93386	
12:41:48	-6.728666	38.94615	136.103	-0.2810106	-0.3417127	0.09	3	100	0	6546	-1.896249	6.058509	-23.8792	
12:41:48	-6.728666	38.94615	136.095	-0.2810106	-0.3417127	0.04	3	100	0	6546	-1.936564	6.04168	-23.90736	
12:41:48	-6.728666	38.94615	136.084	-0.2810106	-0.3417127	0.04	3	100	0	6546	-1.902201	6.118051	-23.89916	
12:41:49	-6.728666	38.94615	136.069	-0.2543194	0.0945376	0.03	3	100	0	6546	-1.899449	6.106657	-23.86857	
12:41:49	-6.728666	38.94615	136.06	-0.2543194	0.0945376	0.07	3	100	0	6546	-1.897339	6.112434	-23.85237	
12:41:49	-6.728666	38.94615	136.037	-0.2543194	0.0945376	0.04	3	100	0	6546	-1.908481	6.083177	-23.87516	
12:41:49	-6.728666	38.94615	136.037	-0.2543194	0.0945376	0.06	3	100	0	6546	-1.897194	5.993199	-23.91023	
12:41:49	-6.728666	38.94615	136.015	-0.2543194	0.0945376	0.04	3	100	0	6546	-1.92349	5.992055	-23.89678	
12:41:50	-6.728666	38.94615	135.971	-0.2753921	-1.6105	0.09	3	100	0	6546	-1.877868	6.046156	-23.91963	
12:41:50	-6.728666	38.94615	135.98	-0.2753921	-1.6105	0.04	3	100	0	6546	-1.836502	6.084198	-23.88482	
12:41:50	-6.728666	38.94615	135.934	-0.2753921	-1.6105	0.04	3	100	0	6546	-1.905057	6.068286	-23.85625	
12:41:50	-6.728666	38.94615	135.911	-0.2753921	-1.6105	0.03	3	100	0	6546	-1.954316	6.090644	-23.82479	
12:41:51	-6.728666	38.94615	135.897	-0.2753921	-1.6105	0.04	3	100	0	6546	-1.964525	6.070953	-23.73547	
12:41:51	-6.728666	38.94615	135.86	-0.6518739	-17.71849	0.04	3	100	0	6546	-1.978002	6.093708	-23.8171	
12:41:51	-6.728665	38.94615	135.845	-0.6518739	-17.71849	0.06	3	100	0	6546	-1.974949	6.051666	-23.77239	
12:41:51	-6.728665	38.94615	135.814	-0.6518739	-17.71849	0.06	3	100	0	6546	-1.942698	6.064961	-23.75411	
12:41:51	-6.728665	38.94615	135.831	-0.6518739	-17.71849	0.11	3	100	0	6546	-1.880065	6.189773	-23.7667	
12:41:51	-6.728665	38.94615	135.836	-0.6518739	-17.71849	0.07	3	100	0	6546	-1.863707	6.207632	-23.81936	
12:41:52	-6.728665	38.94615	135.84	-0.5862218	-8.479177	0.01	3	100	0	6546	-1.926616	6.151319	-23.8714	
12:41:52	-6.728665	38.94615	135.842	-0.5862218	-8.479177	0.09	3	100	0	6546	-1.950782	6.112751	-23.82177	
12:41:52	-6.728665	38.94615	135.842	-0.5862218	-8.479177	0.04	3	100	0	6546	-1.941548	6.108799	-23.78847	
12:41:52	-6.728665	38.94615	135.826	-0.5862218	-8.479177	0.09	3	100	0	6546	-1.970663	6.091927	-23.8602	
12:41:53	-6.728665	38.94615	135.816	-0.5862218	-8.479177	0.02	3	100	0	6546	-1.934716	6.123785	-23.82524	
12:41:53	-6.728665	38.94615	135.78	-0.5604752	-3.75993	0.04	3	100	0	6546	-1.908476	6.198376	-23.83641	
12:41:53	-6.728666	38.94615	135.776	-0.5604752	-3.75993	0.07	3	100	0	6546	-1.967065	6.178922	-23.84341	
12:41:53	-6.728666	38.94615	135.748	-0.5604752	-3.75993	0.02	3	100	0	6546	-1.990717	6.179768	-23.84737	
12:41:53	-6.728666	38.94615	135.714	-0.5604752	-3.75993	0.07	3	100	0	6546	-1.978115	6.166314	-23.86001	
12:41:54	-6.728666	38.94615	135.714	-0.5604752	-3.75993	0.03	3	100	0	6546	-1.980416	6.179284	-23.83261	
12:41:54	-6.728666	38.94615	135.712	-0.2848809	10.54909	0.04	3	100	0	6546	-1.99269	6.205286	-23.83554	
12:41:54	-6.728666	38.94615	135.719	-0.2848809	10.54909	0.11	3	100	0	6546	-2.025094	6.15186	-23.84002	
12:41:54	-6.728666	38.94615	135.72	-0.2848809	10.54909	0.09	3	100	0	6546	-2.033393	6.149414	-23.88264	
12:41:55	-6.728666	38.94615	135.713	-0.2848809	10.54909	0.04	3	100	0	6546	-1.999312	6.160264	-23.87349	
12:41:55	-6.728666	38.94615	135.712	-0.2848809	10.54909	0.12	3	100	0	6546	-1.969362	6.275614	-23.7843	
12:41:55	-6.728666	38.94615	135.715	0.146634	24.46483	0.14	3	100	0	6546	-1.974437	6.154686	-23.72593	
12:41:55	-6.728666	38.94615	135.713	0.146634	24.46483	0.04	3	100	0	6546	-1.922408	6.153568	-23.75637	
12:41:55	-6.728666	38.94615	135.698	0.146634	24.46483	0.01	3	100	0	6546	-1.899733	6.197962	-23.68299	
12:41:55	-6.728666	38.94615	135.691	0.146634	24.46483	0.02	3	100	0	6546	-1.913596	6.119789	-23.72155	
12:41:56	-6.728666	38.94615	135.719	0.146634	24.46483	0.03	3	100	0	6546	-1.944031	6.137813	-23.70373	
12:41:56	-6.728666	38.94615	135.719	0.1607492	15.69742	0.03	3	100	0	6546	-1.943574	6.21721	-23.76496	
12:41:56	-6.728666	38.94615	135.683	0.1607492	15.69742	0.02	3	100	0	6546	-1.920739	6.198871	-23.81316	
12:41:56	-6.728666	38.94615	135.688	0.1607492	15.69742	0.04	3	100	0	6546	-1.907603	6.161014	-23.76047	
12:41:56	-6.728666	38.94615	135.683	0.1607492	15.69742	0.02	3	100	0	6546	-1.868141	6.075821	-23.76467	
12:41:57	-6.728666	38.94615	135.663	0.1607492	15.69742	0.04	3	100	0	6546	-1.777633	6.123087	-23.69161	
12:41:57	-6.728666	38.94615	135.663	-0.002419828	3.081438	0.04	3	100	0	6546	-1.861005	6.079175	-23.76103	
12:41:57	-6.728667	38.94615	135.655	-0.002419828	3.081438	0.16	3	100	0	6546	-1.943336	6.072914	-23.6839	
12:41:57	-6.728667	38.94615	135.642	-0.002419828	3.081438	0.13	3	100	0	6546	-2.006644	6.297311	-23.75628	
12:41:57	-6.728667	38.94615	135.659	-0.002419828	3.081438	0.11	3	100	0	6546	-1.961476	6.321072	-23.73346	
12:41:58	-6.728667	38.94615	135.637	-0.002419828	3.081438	0.01	3	100	0	6546	-1.834219	6.24194	-23.7394	
12:41:58	-6.728667	38.94615	135.637	0.02107417	3.55657	0.08	3	100	0	6546	-1.897406	6.202818	-23.76906	
12:41:58	-6.728667	38.94615	135.648	0.02107417	3.55657	0.02	3	100	0	6546	-1.871289	6.085974	-23.79705	
12:41:58	-6.728668	38.94615	135.627	0.02107417	3.55657	0.14	3	100	0	6546	-1.904238	6.14709	-23.72367	
12:41:58	-6.728668	38.94615	135.647	0.02107417	3.55657	0.04	3	100	0	6546	-1.802065	6.181499	-23.7511	
12:41:58	-6.728668	38.94615	135.642	0.02107417	3.55657	0.04	3	100	0	6546	-1.891022	6.176634	-23.75163	
12:41:59	-6.728668	38.94615	135.671	-0.3046321	-11.63449	0.04	3	100	0	6546	-1.896035	6.130839	-23.76319	
12:41:59	-6.728668	38.94615	135.678	-0.3046321	-11.63449	0.04	3	100	0	6546	-1.925464	6.116515	-23.7753	
12:41:59	-6.728668	38.94615	135.688	-0.3046321	-11.63449	0.03	3	100	0	6546	-1.973113	6.059306	-23.69532	
12:41:59	-6.728668	38.94615	135.701	-0.3046321	-11.63449	0.08	3	100	0	6546	-1.933052	6.165101	-23.61554	
12:42:00	-6.728668	38.94615	135.714	-0.3046321	-11.63449	0.08	3	100	0	6546	-1.913308	6.262905	-23.66183	
12:42:00	-6.728668	38.94615	135.723	-0.178356	-1.783517	0.09	3	100	0	6546	-2.011161	6.063029	-23.74569	
12:42:00	-6.728668	38.94615	135.719	-0.178356	-1.783517	0.07	3	100	0	6546	-1.934733	6.175383	-23.75305	
12:42:00	-6.728669	38.94615	135.713	-0.178356	-1.783517	0.09	3	100	0	6546	-2.057264	6.111452	-23.71243	
12:42:00	-6.728669	38.94615	135.693	-0.178356	-1.783517	0.07	3	100	0	6546	-1.904116	6.144766	-23.74135	
12:42:01	-6.728669	38.94615	135.703	-0.178356	-1.783517	0.11	3	100	0	6546	-2.026596	6.047493	-23.73091	
12:42:01	-6.728668	38.94615	135.738	-0.2730184	-5.101665	0.03	3	100	0	6546	-1.952827	5.972157	-23.69085	
12:42:01	-6.728669	38.94615	135.738	-0.2730184	-5.101665	0.13	3	100	0	6546	-1.991135	6.089158	-23.67374	
12:42:01	-6.728669	38.94615	135.765	-0.2730184	-5.101665	0.03	3	100	0	6546	-1.865872	6.214527	-23.68918	
12:42:01	-6.728669	38.94615	135.805	-0.2730184	-5.101665	0.06	3	100	0	6546	-1.93476	6.098452	-23.65584	
12:42:02	-6.728669	38.94615	135.805	-0.2730184	-5.101665	0.04	3	100	0	6546	-1.968258	6.067038	-23.71417	
12:42:02	-6.728669	38.94616	135.839	-0.3937832	-8.30475	0.03	3	100	0	6546	-1.912636	6.148435	-23.65545	
12:42:02	-6.728669	38.94615	135.843	-0.3937832	-8.30475	0.04	3	100	0	6546	-1.953623	6.081034	-23.69826	
12:42:02	-6.728669	38.94615	135.833	-0.3937832	-8.30475	0.09	3	100	0	6546	-1.941746	6.069539	-23.64308	
12:42:02	-6.728669	38.94615	135.834	-0.3937832	-8.30475	0.01	3	100	0	6546	-1.914007	6.198374	-23.72525	
12:42:03	-6.728669	38.94615	135.818	-0.3937832	-8.30475	0.06	3	100	0	6546	-1.990575	6.079699	-23.77024	
12:42:03	-6.728669	38.94615	135.799	-0.5366525	-10.69652	0.03	3	100	0	6546	-1.93131	6.05857	-23.77673	
12:42:03	-6.72867	38.94615	135.808	-0.5366525	-10.69652	0.09	3	100	0	6546	-1.951527	6.083167	-23.80034	
12:42:03	-6.72867	38.94615	135.829	-0.5366525	-10.69652	0.07	3	100	0	6546	-2.050838	6.172168	-23.77163	
12:42:03	-6.72867	38.94615	135.819	-0.5366525	-10.69652	0.11	3	100	0	6546	-1.835066	6.14236	-23.72511	
12:42:04	-6.72867	38.94615	135.835	-0.5366525	-10.69652	0.09	3	100	0	6546	-1.840205	6.195143	-23.6967	
12:42:04	-6.728671	38.94615	135.864	-0.4248099	-1.597974	0.03	3	100	0	6546	-1.883432	6.149307	-23.74699	
12:42:04	-6.728671	38.94615	135.822	-0.4248099	-1.597974	0.02	3	100	0	6546	-1.928962	6.015779	-23.73688	
12:42:04	-6.728671	38.94615	135.82	-0.4248099	-1.597974	0.03	3	100	0	6546	-1.918592	6.081755	-23.68753	
12:42:04	-6.728671	38.94615	135.807	-0.4248099	-1.597974	0.07	3	100	0	6546	-1.965262	6.063167	-23.67056	
12:42:05	-6.728671	38.94615	135.847	-0.4248099	-1.597974	0.09	3	100	0	6546	-1.94943	6.129138	-23.65679	
12:42:05	-6.728671	38.94615	135.877	-0.2119196	6.846899	0.08	3	100	0	6546	-2.001953	6.093083	-23.65898	
12:42:05	-6.728671	38.94615	135.878	-0.2119196	6.846899	0.14	3	100	0	6546	-1.861115	6.011374	-23.62018	
12:42:05	-6.728671	38.94615	135.86	-0.2119196	6.846899	0.13	3	100	0	6546	-1.931389	5.955711	-23.5385	
12:42:06	-6.728671	38.94615	135.847	-0.2119196	6.846899	0.12	3	100	0	6546	-1.875814	6.197481	-23.51065	
12:42:06	-6.728671	38.94615	135.825	-0.2119196	6.846899	0.11	3	100	0	6546	-1.961163	5.9832	-23.62073	
12:42:06	-6.728671	38.94615	135.821	-0.4067658	-4.844821	0.02	3	100	0	6546	-2.002425	6.052683	-23.59449	
12:42:06	-6.728671	38.94615	135.801	-0.4067658	-4.844821	0.04	3	100	0	6546	-1.897798	6.07386	-23.5614	
12:42:06	-6.728671	38.94615	135.766	-0.4067658	-4.844821	0.07	3	100	0	6546	-1.879097	6.035342	-23.62189	
12:42:07	-6.728672	38.94615	135.768	-0.4067658	-4.844821	0.08	3	100	0	6546	-1.888053	6.016356	-23.63033	
12:42:07	-6.728672	38.94615	135.755	-0.4067658	-4.844821	0.01	3	100	0	6546	-1.968952	6.017738	-23.56553	
12:42:07	-6.728672	38.94615	135.709	-0.5423573	-8.528381	0.04	3	100	0	6546	-1.921565	6.05043	-23.622	
12:42:07	-6.728672	38.94615	135.686	-0.5423573	-8.528381	0.02	3	100	0	6546	-1.949597	6.056657	-23.65432	
12:42:07	-6.728672	38.94615	135.67	-0.5423573	-8.528381	0.02	3	100	0	6546	-1.890243	6.041315	-23.68918	
12:42:08	-6.728672	38.94615	135.638	-0.5423573	-8.528381	0.01	3	100	0	6546	-1.894087	6.027414	-23.62901	
12:42:08	-6.728673	38.94615	135.603	-0.5423573	-8.528381	0.04	3	100	0	6546	-1.908751	6.036252	-23.64617	
12:42:08	-6.728673	38.94615	135.552	-0.540201	-5.48935	0.07	3	100	0	6546	-1.986951	6.033521	-23.69986	
12:42:08	-6.728673	38.94615	135.527	-0.540201	-5.48935	0.08	3	100	0	6546	-1.991719	6.040166	-23.64603	
12:42:08	-6.728673	38.94615	135.445	-0.540201	-5.48935	0.04	3	100	0	6546	-1.939919	6.060879	-23.65399	
12:42:08	-6.728673	38.94615	135.377	-0.540201	-5.48935	0.09	3	100	0	6546	-1.924072	6.05684	-23.71421	
12:42:09	-6.728673	38.94615	135.351	-0.540201	-5.48935	0.06	3	100	0	6546	-1.875695	6.105307	-23.77777	
12:42:09	-6.728673	38.94615	135.313	-0.3093695	5.788194	0.08	3	100	0	6546	-1.94202	6.016306	-23.79234	
12:42:09	-6.728673	38.94615	135.305	-0.3093695	5.788194	0.11	3	100	0	6546	-1.950943	6.027657	-23.75286	
12:42:09	-6.728673	38.94615	135.311	-0.3093695	5.788194	0.17	3	100	0	6546	-1.905383	6.066068	-23.70827	
12:42:09	-6.728673	38.94615	135.306	-0.3093695	5.788194	0.02	3	100	0	6546	-1.975193	5.844838	-23.79619	
12:42:10	-6.728673	38.94615	135.298	-0.3093695	5.788194	0.09	3	100	0	6546	-1.911471	5.982446	-23.75417	
12:42:10	-6.728674	38.94615	135.304	-0.1659586	9.709315	0.08	3	100	0	6546	-1.872916	6.084765	-23.71301	
12:42:10	-6.728674	38.94615	135.3	-0.1659586	9.709315	0.03	3	100	0	6546	-1.898533	6.032085	-23.63482	
12:42:10	-6.728674	38.94615	135.291	-0.1659586	9.709315	0.09	3	100	0	6546	-1.901321	6.026071	-23.69834	
12:42:11	-6.728674	38.94615	135.275	-0.1659586	9.709315	0.17	3	100	0	6546	-1.877591	6.030872	-23.70608	
12:42:11	-6.728674	38.94615	135.294	-0.1659586	9.709315	0.17	3	100	0	6546	-1.916672	5.921712	-23.69197	
12:42:11	-6.728674	38.94615	135.252	-0.3554973	-3.335531	0.07	3	100	0	6546	-1.918044	6.099291	-23.63957	
12:42:11	-6.728674	38.94615	135.242	-0.3554973	-3.335531	0.22	3	100	0	6546	-1.998444	5.836301	-23.58241	
12:42:11	-6.728674	38.94615	135.181	-0.3554973	-3.335531	0.16	3	100	0	6546	-2.002359	5.738218	-23.55649	
12:42:11	-6.728674	38.94615	135.166	-0.3554973	-3.335531	0.09	3	100	0	6546	-1.871356	5.854103	-23.61269	
12:42:12	-6.728674	38.94615	135.124	-0.3554973	-3.335531	0.07	3	100	0	6546	-1.936952	6.013621	-23.74568	
12:42:12	-6.728674	38.94615	135.08	-0.4357184	-5.34193	0.06	3	100	0	6546	-2.004352	5.996065	-23.75614	
12:42:12	-6.728674	38.94615	135.068	-0.4357184	-5.34193	0.19	3	100	0	6546	-2.028226	5.940805	-23.72148	
12:42:12	-6.728674	38.94615	135.049	-0.4357184	-5.34193	0.08	3	100	0	6546	-2.111534	5.86649	-23.6636	
12:42:13	-6.728674	38.94615	135.073	-0.4357184	-5.34193	0.11	3	100	0	6546	-2.046439	5.890733	-23.74709	
12:42:13	-6.728674	38.94615	135.045	-0.4357184	-5.34193	0.09	3	100	0	6546	-2.031282	5.87702	-23.74762	
12:42:13	-6.728673	38.94615	135.051	-0.3092666	2.162738	0.04	3	100	0	6546	-2.036715	5.927731	-23.78154	
12:42:13	-6.728673	38.94615	135.129	-0.3092666	2.162738	0.11	3	100	0	6546	-2.006415	6.055071	-23.79647	
12:42:13	-6.728673	38.94615	135.113	-0.3092666	2.162738	0.11	3	100	0	6546	-1.986588	5.984785	-23.84268	
12:42:13	-6.728673	38.94615	135.105	-0.3092666	2.162738	0.04	3	100	0	6546	-2.019944	5.830872	-23.83737	
12:42:14	-6.728673	38.94615	135.08	-0.3092666	2.162738	0.02	3	100	0	6546	-2.020813	5.894147	-23.83637	
12:42:14	-6.728673	38.94615	135.104	-0.3357522	-0.4611972	0.09	3	100	0	6546	-2.061697	5.959535	-23.8415	
12:42:14	-6.728673	38.94615	135.138	-0.3357522	-0.4611972	0.07	3	100	0	6546	-2.052854	6.012447	-23.80196	
12:42:14	-6.728674	38.94615	135.139	-0.3357522	-0.4611972	0.04	3	100	0	6546	-2.003412	6.023195	-23.83323	
12:42:14	-6.728674	38.94615	135.168	-0.3357522	-0.4611972	0.03	3	100	0	6546	-2.012823	5.985161	-23.8024	
12:42:15	-6.728674	38.94615	135.179	-0.3357522	-0.4611972	0.12	3	100	0	6546	-2.032438	6.049644	-23.83051	
12:42:15	-6.728674	38.94615	135.156	-0.3440211	0.1839863	0.04	3	100	0	6546	-2.037299	6.130967	-23.75473	
12:42:15	-6.728674	38.94615	135.143	-0.3440211	0.1839863	0.16	3	100	0	6546	-2.01272	6.172652	-23.76617	
12:42:15	-6.728675	38.94615	135.164	-0.3440211	0.1839863	0.12	3	100	0	6546	-1.984395	6.115498	-23.73777	
12:42:16	-6.728675	38.94615	135.17	-0.3440211	0.1839863	0.03	3	100	0	6546	-1.980338	6.030961	-23.68978	
12:42:16	-6.728675	38.94615	135.161	-0.3440211	0.1839863	0.08	3	100	0	6546	-1.973274	6.01992	-23.74475	
12:42:16	-6.728675	38.94615	135.174	-0.3010885	1.797137	0.04	3	100	0	6546	-2.001768	5.999353	-23.73443	
12:42:16	-6.728675	38.94615	135.212	-0.3010885	1.797137	0.04	3	100	0	6546	-1.99979	6.034018	-23.74055	
12:42:16	-6.728675	38.94615	135.252	-0.3010885	1.797137	0.02	3	100	0	6546	-1.969818	6.059051	-23.79314	
12:42:16	-6.728675	38.94615	135.251	-0.3010885	1.797137	0.02	3	100	0	6546	-1.936542	6.066288	-23.78773	
12:42:17	-6.728675	38.94615	135.296	-0.3010885	1.797137	0.06	3	100	0	6546	-1.911716	6.093062	-23.74878	
12:42:17	-6.728676	38.94615	135.311	-0.2141111	5.87418	0.04	3	100	0	6546	-1.897131	6.114136	-23.75946	
12:42:17	-6.728676	38.94616	135.326	-0.2141111	5.87418	0.03	3	100	0	6546	-1.931355	6.07879	-23.72478	
12:42:17	-6.728676	38.94616	135.332	-0.2141111	5.87418	0.06	3	100	0	6546	-1.947989	6.097846	-23.72779	
12:42:17	-6.728677	38.94616	135.358	-0.2141111	5.87418	0.04	3	100	0	6546	-1.948592	6.08308	-23.73004	
12:42:18	-6.728677	38.94616	135.358	-0.2141111	5.87418	0.11	3	100	0	6546	-1.946067	6.015466	-23.76662	
12:42:18	-6.728677	38.94616	135.391	-0.3536285	-2.11268	0.08	3	100	0	6546	-1.893969	6.085526	-23.68953	
12:42:18	-6.728677	38.94616	135.458	-0.3536285	-2.11268	0.03	3	100	0	6546	-1.917094	6.157899	-23.74052	
12:42:18	-6.728678	38.94616	135.444	-0.3536285	-2.11268	0.07	3	100	0	6546	-1.963393	6.187005	-23.71053	
12:42:19	-6.728678	38.94616	135.474	-0.3536285	-2.11268	0.04	3	100	0	6546	-1.921127	6.20111	-23.72423	
12:42:19	-6.728678	38.94616	135.502	-0.3536285	-2.11268	0.07	3	100	0	6546	-1.928116	6.170821	-23.72862	
12:42:19	-6.728678	38.94616	135.537	-0.4434745	-5.217069	0.09	3	100	0	6546	-1.94343	6.213944	-23.72007	
12:42:19	-6.728678	38.94616	135.521	-0.4434745	-5.217069	0.14	3	100	0	6546	-1.932352	6.106986	-23.77	
12:42:19	-6.728678	38.94616	135.591	-0.4434745	-5.217069	0.03	3	100	0	6546	-1.940443	6.093925	-23.79887	
12:42:19	-6.728678	38.94616	135.608	-0.4434745	-5.217069	0.03	3	100	0	6546	-1.906807	6.185242	-23.85713	
12:42:20	-6.728678	38.94616	135.631	-0.4434745	-5.217069	0.04	3	100	0	6546	-1.915216	6.166579	-23.78001	
12:42:20	-6.728678	38.94616	135.664	-0.2070101	7.611061	0.09	3	100	0	6546	-1.937914	6.210524	-23.82102	
12:42:20	-6.728679	38.94616	135.692	-0.2070101	7.611061	0.03	3	100	0	6546	-1.904271	6.233019	-23.86416	
12:42:20	-6.728679	38.94616	135.734	-0.2070101	7.611061	0.09	3	100	0	6546	-1.955544	6.203412	-23.81461	
12:42:20	-6.728679	38.94616	135.756	-0.2070101	7.611061	0.06	3	100	0	6546	-1.99366	6.196769	-23.87558	
12:42:21	-6.728679	38.94616	135.795	-0.2070101	7.611061	0.09	3	100	0	6546	-1.962193	6.260476	-23.8748	
12:42:21	-6.72868	38.94616	135.814	-0.02977773	10.83784	0.09	3	100	0	6546	-1.990831	6.3627	-23.81384	
12:42:21	-6.72868	38.94616	135.857	-0.02977773	10.83784	0.08	3	100	0	6546	-1.953231	6.353779	-23.8437	
12:42:21	-6.72868	38.94616	135.877	-0.02977773	10.83784	0.03	3	100	0	6546	-1.949448	6.315389	-23.88578	
12:42:21	-6.72868	38.94616	135.881	-0.02977773	10.83784	0.06	3	100	0	6546	-1.981871	6.297714	-23.88348	
12:42:22	-6.72868	38.94616	135.92	-0.02977773	10.83784	0.04	3	100	0	6546	-1.956323	6.156843	-23.8022	
12:42:22	-6.728681	38.94616	135.979	0.0248962	8.331978	0.06	3	100	0	6546	-1.95644	6.281664	-23.84187	
12:42:22	-6.728681	38.94616	136.031	0.0248962	8.331978	0.09	3	100	0	6546	-1.896999	6.360294	-23.83732	
12:42:22	-6.728682	38.94616	136.033	0.0248962	8.331978	0.09	3	100	0	6546	-1.932596	6.377785	-23.86644	
12:42:22	-6.728682	38.94616	136.033	0.0248962	8.331978	0.12	3	100	0	6546	-1.908886	6.332767	-23.82704	
12:42:23	-6.728682	38.94616	136.083	0.0248962	8.331978	0.09	3	100	0	6546	-1.876854	6.255929	-23.83109	
12:42:23	-6.728682	38.94616	136.097	-0.03175071	1.379737	0.14	3	100	0	6546	-1.830371	6.318661	-23.8456	
12:42:23	-6.728682	38.94616	136.131	-0.03175071	1.379737	0.07	3	100	0	6546	-1.950888	6.255629	-23.87553	
12:42:23	-6.728682	38.94616	136.143	-0.03175071	1.379737	0.06	3	100	0	6546	-1.969979	6.214283	-23.90447	
12:42:24	-6.728682	38.94616	136.16	-0.03175071	1.379737	0.08	3	100	0	6546	-1.93892	6.11635	-23.94325	
12:42:24	-6.728682	38.94616	136.174	-0.03175071	1.379737	0.07	3	100	0	6546	-1.903966	6.121727	-23.88467	
12:42:24	-6.728682	38.94616	136.168	-0.3724307	-16.61603	0.04	3	100	0	6546	-1.911494	6.142124	-23.95759	
12:42:24	-6.728682	38.94616	136.168	-0.3724307	-16.61603	0.11	3	100	0	6546	-1.935654	6.069194	-23.99223	
12:42:24	-6.728682	38.94616	136.218	-0.3724307	-16.61603	0.16	3	100	0	6546	-1.902455	6.274941	-24.0335	
12:42:24	-6.728683	38.94616	136.225	-0.3724307	-16.61603	0.04	3	100	0	6546	-1.963221	6.296912	-24.08538	
12:42:25	-6.728683	38.94616	136.252	-0.3724307	-16.61603	0.04	3	100	0	6546	-1.968668	6.273048	-24.04502	
12:42:25	-6.728683	38.94616	136.272	-0.5396961	-18.02934	0.04	3	100	0	6546	-1.949528	6.276755	-24.02251	
12:42:25	-6.728683	38.94616	136.243	-0.5396961	-18.02934	0.06	3	100	0	6546	-1.986074	6.241638	-24.03121	
12:42:25	-6.728683	38.94616	136.253	-0.5396961	-18.02934	0.04	3	100	0	6546	-1.941814	6.246435	-24.00572	
12:42:26	-6.728683	38.94616	136.251	-0.5396961	-18.02934	0.11	3	100	0	6546	-1.946103	6.24626	-24.00085	
12:42:26	-6.728683	38.94616	136.251	-0.5396961	-18.02934	0.11	3	100	0	6546	-1.815546	6.146728	-23.93819	
12:42:26	-6.728683	38.94616	136.207	-0.4547931	-6.497671	0.08	3	100	0	6546	-1.886073	6.072999	-23.98984	
12:42:26	-6.728683	38.94616	136.197	-0.4547931	-6.497671	0.11	3	100	0	6546	-1.767519	6.18891	-23.93993	
12:42:26	-6.728683	38.94616	136.173	-0.4547931	-6.497671	0.07	3	100	0	6546	-1.806705	6.129023	-24.03617	
12:42:26	-6.728683	38.94616	136.119	-0.4547931	-6.497671	0.06	3	100	0	6546	-1.782156	6.161526	-24.03098	
12:42:27	-6.728683	38.94616	136.119	-0.4547931	-6.497671	0.06	3	100	0	6546	-1.757609	6.265409	-24.05089	
12:42:27	-6.728683	38.94616	136.069	-0.4010116	-2.351287	0.04	3	100	0	6546	-1.801055	6.328403	-24.03514	
12:42:27	-6.728683	38.94616	136.061	-0.4010116	-2.351287	0.04	3	100	0	6546	-1.772673	6.260851	-24.04345	
12:42:28	-6.728683	38.94616	136.088	-0.4010116	-2.351287	0.11	3	100	0	6546	-1.765072	6.305361	-23.95753	
12:42:28	-6.728683	38.94616	136.103	-0.4010116	-2.351287	0.03	3	100	0	6546	-1.855136	6.206898	-24.00076	
12:42:28	-6.728683	38.94616	136.09	-0.4010116	-2.351287	0.06	3	100	0	6546	-1.842614	6.234441	-23.98078	
12:42:28	-6.728683	38.94616	136.059	-0.1260018	10.74126	0.04	3	100	0	6546	-1.825158	6.186433	-23.90391	
12:42:28	-6.728683	38.94616	136.006	-0.1260018	10.74126	0.04	3	100	0	6546	-1.803756	6.24826	-24.0089	
12:42:28	-6.728683	38.94616	136.006	-0.1260018	10.74126	0.06	3	100	0	6546	-1.819741	6.278445	-23.99549	
12:42:29	-6.728683	38.94616	135.983	-0.1260018	10.74126	0.11	3	100	0	6546	-1.830025	6.219799	-23.95492	
12:42:29	-6.728683	38.94616	135.941	-0.1260018	10.74126	0.04	3	100	0	6546	-1.801145	6.384381	-23.95127	
12:42:29	-6.728683	38.94616	135.955	-0.1689937	4.300673	0.07	3	100	0	6546	-1.825444	6.32624	-23.99632	
12:42:29	-6.728683	38.94616	135.92	-0.1689937	4.300673	0.09	3	100	0	6546	-1.846183	6.228427	-23.93047	
12:42:30	-6.728684	38.94616	135.907	-0.1689937	4.300673	0.09	3	100	0	6546	-1.741565	6.307435	-23.90741	
12:42:30	-6.728684	38.94616	135.91	-0.1689937	4.300673	0.02	3	100	0	6546	-1.677355	6.253874	-23.84981	
12:42:30	-6.728684	38.94616	135.887	-0.1689937	4.300673	0.04	3	100	0	6546	-1.799585	6.262029	-23.84966	
12:42:30	-6.728684	38.94616	135.902	-0.4103284	-7.251803	0.04	3	100	0	6546	-1.801057	6.277527	-23.81978	
12:42:30	-6.728684	38.94616	135.878	-0.4103284	-7.251803	0.07	3	100	0	6546	-1.824911	6.288826	-23.82076	
12:42:31	-6.728684	38.94616	135.901	-0.4103284	-7.251803	0.09	3	100	0	6546	-1.848495	6.151364	-23.83691	
12:42:31	-6.728685	38.94616	135.89	-0.4103284	-7.251803	0.06	3	100	0	6546	-1.841268	6.265756	-23.86481	
12:42:31	-6.728685	38.94616	135.892	-0.4103284	-7.251803	0.04	3	100	0	6546	-1.903962	6.118648	-23.861	
12:42:31	-6.728685	38.94616	135.892	-0.3591196	-1.560327	0.04	3	100	0	6546	-1.824842	6.176779	-23.84363	
12:42:31	-6.728685	38.94616	135.861	-0.3591196	-1.560327	0.09	3	100	0	6546	-1.873473	6.150194	-23.9464	
12:42:32	-6.728685	38.94616	135.799	-0.3591196	-1.560327	0.01	3	100	0	6546	-1.890654	6.27948	-23.95551	
12:42:32	-6.728685	38.94616	135.799	-0.3591196	-1.560327	0.03	3	100	0	6546	-1.890655	6.155128	-23.95798	
12:42:32	-6.728685	38.94616	135.76	-0.3591196	-1.560327	0.25	3	100	0	6546	-1.882366	6.167939	-23.9135	
12:42:32	-6.728685	38.94616	135.714	-0.3675349	-3.267662	0.03	3	100	0	6546	-2.116417	5.930678	-23.92514	
12:42:32	-6.728685	38.94616	135.714	-0.3675349	-3.267662	0.06	3	100	0	6546	-1.935546	6.044979	-23.86321	
12:42:33	-6.728685	38.94616	135.66	-0.3675349	-3.267662	0.09	3	100	0	6546	-1.902638	6.040511	-23.91916	
12:42:33	-6.728685	38.94616	135.632	-0.3675349	-3.267662	0.17	3	100	0	6546	-1.910406	6.132335	-23.88573	
12:42:33	-6.728685	38.94616	135.597	-0.3675349	-3.267662	0.11	3	100	0	6546	-2.010572	5.880105	-23.88059	
12:42:33	-6.728685	38.94616	135.587	-0.4388499	-5.285235	0.01	3	100	0	6546	-2.023141	5.918877	-23.82116	
12:42:33	-6.728685	38.94616	135.539	-0.4388499	-5.285235	0.07	3	100	0	6546	-1.975375	6.042059	-23.87245	
12:42:33	-6.728685	38.94616	135.542	-0.4388499	-5.285235	0.03	3	100	0	6546	-2.080041	6.023357	-23.91726	
12:42:34	-6.728684	38.94616	135.546	-0.4388499	-5.285235	0.08	3	100	0	6546	-2.007414	6.067259	-23.95649	
12:42:34	-6.728684	38.94616	135.545	-0.4388499	-5.285235	0.09	3	100	0	6546	-1.973456	5.963076	-23.87012	
12:42:34	-6.728684	38.94616	135.572	-0.4942788	-5.180828	0.06	3	100	0	6546	-1.979086	5.950915	-23.85437	
12:42:34	-6.728684	38.94616	135.582	-0.4942788	-5.180828	0.08	3	100	0	6546	-1.8709	6.072885	-23.82911	
12:42:34	-6.728684	38.94616	135.568	-0.4942788	-5.180828	0.06	3	100	0	6546	-1.974563	6.027768	-23.81696	
12:42:35	-6.728683	38.94616	135.562	-0.4942788	-5.180828	0.01	3	100	0	6546	-1.917554	6.006986	-23.7822	
12:42:35	-6.728683	38.94616	135.549	-0.4942788	-5.180828	0.02	3	100	0	6546	-1.909333	6.086828	-23.73528	
12:42:35	-6.728683	38.94616	135.523	-0.4942788	-5.180828	0.13	3	100	0	6546	-1.905295	6.143463	-23.65205	
12:42:35	-6.728683	38.94616	135.504	-0.4942788	-5.180828	0.02	3	100	0	6546	-1.885053	6.252793	-23.71106	
12:42:35	-6.728683	38.94616	135.481	-0.4942788	-5.180828	0.07	3	100	0	6546	-1.931186	6.102377	-23.76262	
12:42:36	-6.728683	38.94616	135.462	-0.4942788	-5.180828	0.09	3	100	0	6546	-1.893209	6.032021	-23.7325	
12:42:36	-6.728683	38.94616	135.466	-0.4942788	-5.180828	0.03	3	100	0	6546	-1.90902	6.183555	-23.76142	
12:42:36	-6.728683	38.94616	135.47	-0.2390255	6.653949	0.07	3	100	0	6546	-1.918829	6.035762	-23.80337	
12:42:36	-6.728683	38.94616	135.478	-0.2390255	6.653949	0.03	3	100	0	6546	-1.975002	6.028008	-23.82259	
12:42:37	-6.728683	38.94616	135.473	-0.2390255	6.653949	0.06	3	100	0	6546	-1.933798	6.082951	-23.79619	
12:42:37	-6.728683	38.94616	135.467	-0.2390255	6.653949	0.08	3	100	0	6546	-1.90888	6.12706	-23.73521	
12:42:37	-6.728682	38.94616	135.447	-0.2390255	6.653949	0.02	3	100	0	6546	-1.924105	6.001494	-23.7582	
12:42:37	-6.728682	38.94616	135.414	-0.222928	5.340806	0.11	3	100	0	6546	-1.930507	6.06757	-23.7987	
12:42:37	-6.728682	38.94616	135.384	-0.222928	5.340806	0.08	3	100	0	6546	-1.921207	6.038782	-23.80451	
12:42:37	-6.728682	38.94616	135.377	-0.222928	5.340806	0.06	3	100	0	6546	-1.843616	6.100911	-23.8438	
12:42:38	-6.728682	38.94616	135.393	-0.222928	5.340806	0.04	3	100	0	6546	-1.914029	6.179148	-23.86041	
12:42:38	-6.728682	38.94616	135.393	-0.222928	5.340806	0.03	3	100	0	6546	-1.929278	6.180593	-23.78621	
12:42:38	-6.728681	38.94616	135.386	-0.2731852	-0.01949365	0.08	3	100	0	6546	-1.929436	6.094855	-23.76755	
12:42:38	-6.728681	38.94616	135.371	-0.2731852	-0.01949365	0.09	3	100	0	6546	-1.966388	6.113194	-23.81591	
12:42:38	-6.728681	38.94616	135.354	-0.2731852	-0.01949365	0.06	3	100	0	6546	-1.899238	6.309865	-23.7623	
12:42:39	-6.728681	38.94616	135.37	-0.2731852	-0.01949365	0.01	3	100	0	6546	-1.880643	6.244214	-23.76359	
12:42:39	-6.72868	38.94616	135.395	-0.2731852	-0.01949365	0.04	3	100	0	6546	-1.957554	6.208828	-23.8115	
12:42:39	-6.72868	38.94616	135.395	-0.3509482	-2.67265	0.03	3	100	0	6546	-1.959861	6.170582	-23.78081	
12:42:39	-6.72868	38.94616	135.418	-0.3509482	-2.67265	0.07	3	100	0	6546	-1.916467	6.148313	-23.80408	
12:42:40	-6.72868	38.94616	135.441	-0.3509482	-2.67265	0.04	3	100	0	6546	-1.993677	6.128389	-23.84515	
12:42:40	-6.72868	38.94616	135.446	-0.3509482	-2.67265	0.06	3	100	0	6546	-1.922226	6.09893	-23.78687	
12:42:40	-6.72868	38.94616	135.457	-0.3509482	-2.67265	0.01	3	100	0	6546	-1.874513	6.151544	-23.73381	
12:42:40	-6.72868	38.94616	135.463	-0.2727499	3.155935	0.03	3	100	0	6546	-1.930178	6.127748	-23.657	
12:42:40	-6.728679	38.94616	135.497	-0.2727499	3.155935	0.04	3	100	0	6546	-1.931523	6.15553	-23.68051	
12:42:41	-6.728679	38.94616	135.517	-0.2727499	3.155935	0.06	3	100	0	6546	-1.927983	6.075626	-23.71091	
12:42:41	-6.728679	38.94616	135.565	-0.2727499	3.155935	0.02	3	100	0	6546	-1.929185	6.070719	-23.62029	
12:42:41	-6.728678	38.94616	135.584	-0.2727499	3.155935	0.07	3	100	0	6546	-1.917122	6.11215	-23.63716	
12:42:41	-6.728678	38.94616	135.612	-0.2123902	5.2674	0.09	3	100	0	6546	-1.893856	6.154014	-23.57271	
12:42:41	-6.728678	38.94616	135.63	-0.2123902	5.2674	0.04	3	100	0	6546	-2.008273	6.105541	-23.59551	
12:42:42	-6.728678	38.94616	135.628	-0.2123902	5.2674	0.04	3	100	0	6546	-1.928125	6.16071	-23.70442	
12:42:42	-6.728678	38.94616	135.649	-0.2123902	5.2674	0.04	3	100	0	6546	-1.926102	6.096889	-23.75624	
12:42:42	-6.728678	38.94616	135.688	-0.2123902	5.2674	0.13	3	100	0	6546	-1.962233	6.069653	-23.79035	
12:42:42	-6.728678	38.94615	135.685	-0.1553979	6.15371	0.04	3	100	0	6546	-1.857513	6.169542	-23.76896	
12:42:42	-6.728678	38.94615	135.685	-0.1553979	6.15371	0.04	3	100	0	6546	-1.935015	6.074465	-23.76923	
12:42:43	-6.728678	38.94616	135.693	-0.1553979	6.15371	0.08	3	100	0	6546	-1.868773	6.165569	-23.79679	
12:42:43	-6.728678	38.94616	135.682	-0.1553979	6.15371	0.07	3	100	0	6546	-1.863678	6.218021	-23.74264	
12:42:43	-6.728678	38.94616	135.675	-0.1553979	6.15371	0.02	3	100	0	6546	-1.874752	6.202424	-23.72527	
12:42:43	-6.728678	38.94616	135.652	0.001930253	9.226871	0.04	3	100	0	6546	-1.904492	6.155115	-23.69414	
12:42:43	-6.728678	38.94615	135.655	0.001930253	9.226871	0.11	3	100	0	6546	-1.944624	6.173508	-23.65296	
12:42:44	-6.728678	38.94615	135.629	0.001930253	9.226871	0.02	3	100	0	6546	-1.952211	6.1978	-23.69459	
12:42:44	-6.728678	38.94615	135.618	0.001930253	9.226871	0.04	3	100	0	6546	-1.884976	6.19248	-23.69246	
12:42:44	-6.728678	38.94615	135.621	0.001930253	9.226871	0.02	3	100	0	6546	-1.895069	6.166766	-23.67081	
12:42:44	-6.728678	38.94615	135.598	-0.2001699	-2.950186	0.03	3	100	0	6546	-1.892247	6.155746	-23.72214	
12:42:44	-6.728678	38.94615	135.569	-0.2001699	-2.950186	0.02	3	100	0	6546	-1.8818	6.115726	-23.726	
12:42:45	-6.728678	38.94615	135.541	-0.2001699	-2.950186	0.01	3	100	0	6546	-1.882835	6.100305	-23.76542	
12:42:45	-6.728678	38.94615	135.534	-0.2001699	-2.950186	0.07	3	100	0	6546	-1.880868	6.11894	-23.7572	
12:42:45	-6.728677	38.94615	135.537	-0.2001699	-2.950186	0.04	3	100	0	6546	-1.886301	6.158172	-23.71331	
12:42:45	-6.728677	38.94615	135.527	-0.2944469	-6.753736	0.09	3	100	0	6546	-1.881645	6.113893	-23.72855	
12:42:45	-6.728677	38.94615	135.504	-0.2944469	-6.753736	0.12	3	100	0	6546	-1.914051	6.084188	-23.82247	
12:42:46	-6.728677	38.94615	135.477	-0.2944469	-6.753736	0.04	3	100	0	6546	-1.890259	6.121821	-23.87865	
12:42:46	-6.728677	38.94615	135.472	-0.2944469	-6.753736	0.06	3	100	0	6546	-1.892544	6.252555	-23.86619	
12:42:46	-6.728677	38.94615	135.426	-0.2944469	-6.753736	0.09	3	100	0	6546	-1.861716	6.215779	-23.88975	
12:42:46	-6.728677	38.94615	135.393	-0.3078951	-5.301326	0.03	3	100	0	6546	-1.850172	6.166083	-23.87612	
12:42:46	-6.728677	38.94615	135.382	-0.3078951	-5.301326	0.06	3	100	0	6546	-1.89528	6.221882	-23.84818	
12:42:46	-6.728677	38.94615	135.353	-0.3078951	-5.301326	0.03	3	100	0	6546	-1.905112	6.20819	-23.9189	
12:42:47	-6.728677	38.94615	135.307	-0.3078951	-5.301326	0.07	3	100	0	6546	-1.871657	6.157558	-23.96888	
12:42:47	-6.728677	38.94615	135.235	-0.3078951	-5.301326	0.03	3	100	0	6546	-1.860071	6.197028	-23.93693	
12:42:47	-6.728677	38.94615	135.249	-0.2238105	1.887352	0.04	3	100	0	6546	-1.848998	6.248598	-23.90454	
12:42:47	-6.728677	38.94615	135.219	-0.2238105	1.887352	0.09	3	100	0	6546	-1.804819	6.262245	-23.85209	
12:42:47	-6.728677	38.94615	135.21	-0.2238105	1.887352	0.03	3	100	0	6546	-1.785706	6.280764	-23.86692	
12:42:48	-6.728677	38.94615	135.223	-0.2238105	1.887352	0.09	3	100	0	6546	-1.88492	6.206292	-23.9707	
12:42:48	-6.728677	38.94615	135.189	-0.2238105	1.887352	0.14	3	100	0	6546	-1.917304	6.153581	-23.9336	
12:42:48	-6.728676	38.94615	135.211	-0.3098452	-2.821009	0.12	3	100	0	6546	-1.926622	6.136578	-23.88285	
12:42:48	-6.728676	38.94615	135.151	-0.3098452	-2.821009	0.12	3	100	0	6546	-1.895518	6.311561	-23.81723	
12:42:49	-6.728677	38.94615	135.131	-0.3098452	-2.821009	0.06	3	100	0	6546	-1.879538	6.388846	-23.82025	
12:42:49	-6.728677	38.94615	135.072	-0.3098452	-2.821009	0.08	3	100	0	6546	-1.813712	6.377644	-23.76294	
12:42:49	-6.728677	38.94615	135.065	-0.3098452	-2.821009	0	3	100	0	6546	-1.769724	6.391796	-23.78325	
