Date	Latitude(deg) 	Longitude(deg)	hamsl(m)	hafl(m)	climbrate(cm/s)	GroundSpeed(m/s)	Airspeed(m/s)	Mav_Link(%)	Rssi_Link(%)	Throttle	Roll(deg)	Pitch(deg)	Yaw(deg)
09:35:27	0	0	0	0	0	0	0	100	0	0	-0.594355	0.01487033	-149.535	
09:35:27	0	0	0	0	0	0	0	100	0	0	-0.5926524	0.0424929	-149.6715	
09:35:27	0	0	0	0	0	0	0	100	0	0	-0.5813291	0.04235182	-149.8129	
09:35:28	0	0	0	0	0	0	0	100	0	0	-0.5720739	0.05620788	-149.9515	
09:35:28	0	0	0	-0.5030329	-27.02492	0	3	100	0	4	-0.5681424	0.06961949	-150.089	
09:35:28	0	0	0	-0.5030329	-27.02492	0	3	100	0	4	-0.5528246	0.08698481	-150.2103	
09:35:28	0	0	0	-0.5030329	-27.02492	0	3	100	0	4	-0.5470876	0.08437406	-150.3241	
09:35:28	0	0	0	-0.5030329	-27.02492	0	3	100	0	4	-0.5476644	0.09658985	-150.4459	
09:35:29	0	0	0	-0.5030329	-27.02492	0	3	100	0	4	-0.5473657	0.09775525	-150.551	
09:35:29	0	0	0	0.057017	11.69342	0	3	100	0	4	-0.5481111	0.107906	-150.665	
09:35:29	0	0	0	0.057017	11.69342	0	3	100	0	4	-0.5408301	0.1148582	-150.7589	
09:35:29	0	0	0	0.057017	11.69342	0	3	100	0	4	-0.5514017	0.1028333	-150.8546	
09:35:29	0	0	0	0.057017	11.69342	0	3	100	0	4	-0.5387647	0.1207207	-150.9427	
09:35:30	0	0	0	0.057017	11.69342	0	3	100	0	4	-0.5391013	0.1163081	-151.0465	
09:35:30	0	0	0	0.7202159	34.0441	0	3	100	0	4	-0.5376228	0.1057657	-151.1192	
09:35:30	0	0	0	0.7202159	34.0441	0	3	100	0	4	-0.5317792	0.09716367	-151.202	
09:35:30	0	0	0	0.7202159	34.0441	0	3	100	0	4	-0.518814	0.08882453	-151.2813	
09:35:30	0	0	0	0.7202159	34.0441	0	3	100	0	4	-0.5120903	0.08059797	-151.3614	
09:35:31	0	0	0	0.7202159	34.0441	0	3	100	0	4	-0.5024909	0.07589746	-151.4222	
09:35:31	0	0	0	0.7111275	19.6735	0	3	100	0	4	-0.5042609	0.09530674	-151.4772	
09:35:31	0	0	0	0.7111275	19.6735	0	3	100	0	4	-0.5062879	0.1009889	-151.5362	
09:35:31	0	0	0	0.7111275	19.6735	0	3	100	0	4	-0.509966	0.1047023	-151.6069	
09:35:31	0	0	0	0.7111275	19.6735	0	3	100	0	4	-0.5067284	0.09657558	-151.6589	
09:35:32	0	0	0	0.7111275	19.6735	0	3	100	0	4	-0.5065028	0.1067505	-151.708	
09:35:32	0	0	0	0.3872693	-2.579782	0	3	100	0	4	-0.5056976	0.1156406	-151.7428	
09:35:32	0	0	0	0.3872693	-2.579782	0	3	100	0	4	-0.5141066	0.1072143	-151.7785	
09:35:32	0	0	0	0.3872693	-2.579782	0	3	100	0	4	-0.5054734	0.1303227	-151.8213	
09:35:32	0	0	0	0.3872693	-2.579782	0	3	100	0	4	-0.5017746	0.1360087	-151.8587	
09:35:33	0	0	0	0.3872693	-2.579782	0	3	100	0	4	-0.4974346	0.152691	-151.8828	
09:35:33	0	0	0	0.0324741	-15.96173	0	3	100	0	4	-0.4885731	0.1352769	-151.9118	
09:35:33	0	0	0	0.0324741	-15.96173	0	3	100	0	4	-0.498562	0.1320949	-151.9474	
09:35:33	0	0	0	0.0324741	-15.96173	0	3	100	0	4	-0.4949099	0.1267689	-151.9769	
09:35:33	0	0	0	0.0324741	-15.96173	0	3	100	0	4	-0.4988371	0.1318043	-152.0105	
09:35:34	0	0	0	0.0324741	-15.96173	0	3	100	0	4	-0.4890679	0.1335409	-152.0356	
09:35:34	0	0	0	-0.05417505	-13.53627	0	3	100	0	4	-0.4863346	0.1425174	-152.0484	
09:35:34	0	0	0	-0.05417505	-13.53627	0	3	100	0	4	-0.4802698	0.1574529	-152.0612	
09:35:34	0	0	0	-0.05417505	-13.53627	0	3	100	0	4	-0.485244	0.1605579	-152.0832	
09:35:34	0	0	0	-0.05417505	-13.53627	0	3	100	0	4	-0.4902886	0.1641005	-152.1093	
09:35:35	0	0	0	-0.05417505	-13.53627	0	3	100	0	4	-0.4885089	0.135209	-152.1409	
09:35:35	0	0	0	-0.1371894	-12.55154	0	3	100	0	4	-0.4900612	0.1273378	-152.153	
09:35:35	0	0	0	-0.1371894	-12.55154	0	3	100	0	4	-0.488883	0.1356314	-152.1678	
09:35:35	0	0	0	-0.1371894	-12.55154	0	3	100	0	4	-0.4753573	0.141183	-152.1896	
09:35:35	0	0	0	-0.1371894	-12.55154	0	3	100	0	4	-0.4677539	0.1395539	-152.2157	
09:35:36	0	0	0	-0.1371894	-12.55154	0	3	100	0	4	-0.4640254	0.1370228	-152.2261	
09:35:36	0	0	0	-0.08262217	-5.384858	0	3	100	0	4	-0.474255	0.1298241	-152.2394	
09:35:36	0	0	0	-0.08262217	-5.384858	0	3	100	0	4	-0.4713713	0.126777	-152.2638	
09:35:36	0	0	0	-0.08262217	-5.384858	0	3	100	0	4	-0.473249	0.1515544	-152.2837	
09:35:36	0	0	0	-0.08262217	-5.384858	0	3	100	0	4	-0.4816435	0.1764575	-152.3139	
09:35:37	0	0	0	-0.08262217	-5.384858	0	3	100	0	4	-0.476904	0.1684445	-152.3308	
09:35:37	0	0	0	-0.09559455	-4.496844	0	3	100	0	4	-0.4710386	0.1669832	-152.3188	
09:35:37	47.46363	-122.3077	0.02	-0.09559455	-4.496844	0	3	100	0	4	-0.4835431	0.1510571	-153.288	
09:35:37	47.46363	-122.3077	0.02	-0.09559455	-4.496844	0	3	100	0	4	-0.494027	0.1290846	-154.2196	
09:35:37	47.46363	-122.3077	0.02	-0.09559455	-4.496844	0	3	100	0	4	-0.4824651	0.1132195	-155.1257	
09:35:38	47.46363	-122.3077	0.02	-0.09559455	-4.496844	0	3	100	0	4	-0.4661499	0.09620051	-155.9958	
09:35:38	47.46363	-122.3077	0.02	-0.05377774	-2.908946	0	3	100	0	4	-0.4534273	0.08535401	-156.8261	
09:35:38	47.46363	-122.3077	0.02	-0.05377774	-2.908946	0	3	100	0	4	-0.4384269	0.07311491	-157.5966	
09:35:38	47.46363	-122.3077	0.02	-0.05377774	-2.908946	0	3	100	0	4	-0.423196	0.06064465	-158.3793	
09:35:38	47.46363	-122.3077	0.02	-0.05377774	-2.908946	0	3	100	0	4	-0.4082864	0.05176066	-159.1302	
09:35:39	47.46363	-122.3077	0.02	-0.05377774	-2.908946	0	3	100	0	4	-0.3949514	0.0404956	-159.8496	
09:35:39	47.46363	-122.3077	0.02	-0.02162121	-2.246527	0	3	100	0	4	-0.3813257	0.0330672	-160.5509	
09:35:39	47.46363	-122.3077	0.02	-0.02162121	-2.246527	0	3	100	0	4	-0.368849	0.02377013	-161.2244	
09:35:39	47.46363	-122.3077	0.02	-0.02162121	-2.246527	0	3	100	0	4	-0.3559257	0.0147579	-161.8676	
09:35:39	47.46363	-122.3077	0.02	-0.02162121	-2.246527	0	3	100	0	4	-0.3438694	0.007624463	-162.4979	
09:35:40	47.46363	-122.3077	0.02	-0.02162121	-2.246527	0	3	100	0	4	-0.3326102	-0.0005727147	-163.0997	
09:35:40	47.46363	-122.3077	0.02	-0.01009084	-2.508224	0	3	100	0	4	-0.3218435	-0.009729221	-163.68	
09:35:40	47.46363	-122.3077	0.02	-0.01009084	-2.508224	0	3	100	0	4	-0.3103466	-0.01686856	-164.2456	
09:35:40	47.46363	-122.3077	0.02	-0.01009084	-2.508224	0	3	100	0	4	-0.2989718	-0.0207435	-164.7869	
09:35:40	47.46363	-122.3077	0.02	-0.01009084	-2.508224	0	3	100	0	4	-0.2894104	-0.02308186	-165.3068	
09:35:41	47.46363	-122.3077	0.02	-0.01009084	-2.508224	0	3	100	0	4	-0.2796815	-0.03018817	-165.7902	
09:35:41	47.46363	-122.3077	0.02	-0.009138159	-3.059096	0	3	100	0	4	-0.2700475	-0.03672767	-166.1824	
09:35:41	47.46363	-122.3077	0.02	-0.009138159	-3.059096	0	3	100	0	4	-0.2605684	-0.04176167	-166.5906	
09:35:41	47.46363	-122.3077	0.02	-0.009138159	-3.059096	0	3	100	0	4	-0.2513424	-0.04687668	-167.0299	
09:35:41	47.46363	-122.3077	0.02	-0.009138159	-3.059096	0	3	100	0	4	-0.2422703	-0.04433212	-167.4346	
09:35:42	47.46363	-122.3077	0.02	-0.009138159	-3.059096	0	3	100	0	4	-0.2343081	-0.04870163	-167.8603	
09:35:42	47.46363	-122.3077	0.02	-0.01179871	-3.445892	0	3	100	0	4	-0.2260097	-0.05161269	-168.3742	
09:35:42	47.46363	-122.3077	0.02	-0.01179871	-3.445892	0	3	100	0	4	-0.2168402	-0.05593188	-168.8967	
09:35:42	47.46363	-122.3077	0.02	-0.01179871	-3.445892	0	3	100	0	4	-0.206713	-0.0552562	-169.4008	
09:35:42	47.46363	-122.3077	0.02	-0.01179871	-3.445892	0	3	100	0	4	-0.196202	-0.05974688	-169.8893	
09:35:43	47.46363	-122.3077	0.02	-0.01179871	-3.445892	0	3	100	0	4	-0.1894727	-0.06330894	-170.3602	
09:35:43	47.46363	-122.3077	0.02	-0.01420544	-3.705809	0	3	100	0	4	-0.1814323	-0.06395575	-170.8082	
09:35:43	47.46363	-122.3077	0.02	-0.01420544	-3.705809	0	3	100	0	4	-0.171975	-0.06809306	-171.2436	
09:35:43	47.46363	-122.3077	0.02	-0.01420544	-3.705809	0	3	100	0	4	-0.1630799	-0.07009948	-171.6643	
09:35:43	47.46363	-122.3077	0.02	-0.01420544	-3.705809	0	3	100	0	4	-0.1556903	-0.06862453	-172.0645	
09:35:44	47.46363	-122.3077	0.02	-0.01420544	-3.705809	0	3	100	0	4	-0.1490207	-0.07035472	-172.456	
09:35:44	47.46363	-122.3077	0.02	-0.01604295	-3.635072	0	3	100	0	4	-0.1422763	-0.072143	-172.8282	
09:35:44	47.46363	-122.3077	0.02	-0.01604295	-3.635072	0	3	100	0	4	-0.1361185	-0.07410338	-173.1861	
09:35:44	47.46363	-122.3077	0.02	-0.01604295	-3.635072	0	3	100	0	4	-0.12987	-0.07514536	-173.5373	
09:35:44	47.46363	-122.3077	0.02	-0.01604295	-3.635072	0	3	100	0	4	-0.1239698	-0.07885195	-173.8709	
09:35:45	47.46363	-122.3077	0.02	-0.01604295	-3.635072	0	3	100	0	4	-0.1182808	-0.08233853	-174.1859	
09:35:45	47.46363	-122.3077	0.02	-0.01596294	-3.476123	0	3	100	0	4	-0.1125937	-0.0857653	-174.4868	
09:35:45	47.46363	-122.3077	0.02	-0.01596294	-3.476123	0	3	100	0	4	-0.1069047	-0.08914211	-174.7771	
09:35:45	47.46363	-122.3077	0.02	-0.01596294	-3.476123	0	3	100	0	4	-0.1012109	-0.09247611	-175.0597	
09:35:45	47.46363	-122.3077	0.02	-0.01596294	-3.476123	0	3	100	0	4	-0.09542798	-0.09656318	-175.336	
09:35:46	47.46363	-122.3077	0.02	-0.01596294	-3.476123	0	3	100	0	4	-0.09013958	-0.09618068	-175.605	
09:35:46	47.46363	-122.3077	0.02	-0.01387299	-3.150471	0	3	100	0	4	-0.086022	-0.09325916	-175.8647	
09:35:46	47.46363	-122.3077	0.02	-0.01387299	-3.150471	0	3	100	0	4	-0.0820834	-0.09110206	-176.1167	
09:35:46	47.46363	-122.3077	0.02	-0.01387299	-3.150471	0	3	100	0	4	-0.07569639	-0.09087024	-176.359	
09:35:46	47.46363	-122.3077	0.02	-0.01387299	-3.150471	0	3	100	0	4	-0.07142024	-0.09269734	-176.5884	
09:35:47	47.46363	-122.3077	0.02	-0.01387299	-3.150471	0	3	100	0	4	-0.06894279	-0.09348452	-176.8094	
09:35:47	47.46363	-122.3077	0.02	-0.0109191	-2.772292	0	3	100	0	4	-0.06667494	-0.08905993	-177.0441	
09:35:47	47.46363	-122.3077	0.02	-0.0109191	-2.772292	0	3	100	0	4	-0.06430791	-0.09005423	-177.2773	
09:35:47	47.46363	-122.3077	0.02	-0.0109191	-2.772292	0	3	100	0	4	-0.05935661	-0.09124842	-177.4959	
09:35:47	47.46363	-122.3077	0.02	-0.0109191	-2.772292	0	3	100	0	4	-0.05531809	-0.0922583	-177.7115	
09:35:48	47.46363	-122.3077	0.02	-0.0109191	-2.772292	0	3	100	0	4	-0.05143587	-0.09352671	-177.9188	
09:35:48	47.46363	-122.3077	0.02	-0.007764379	-2.477253	0	3	100	0	4	-0.04869058	-0.09331768	-178.112	
09:35:48	47.46363	-122.3077	0.02	-0.007764379	-2.477253	0	3	100	0	4	-0.04495243	-0.0923319	-178.3047	
09:35:48	47.46363	-122.3077	0.02	-0.007764379	-2.477253	0	3	100	0	4	-0.04106361	-0.09120263	-178.5195	
09:35:48	47.46363	-122.3077	0.02	-0.007764379	-2.477253	0	3	100	0	4	-0.0371507	-0.09007094	-178.7521	
09:35:49	47.46363	-122.3077	0.02	-0.007764379	-2.477253	0	3	100	0	4	-0.03322178	-0.08893142	-178.998	
09:35:49	47.46363	-122.3077	0.02	-0.004961491	-2.258394	0	3	100	0	4	-0.02928272	-0.0877803	-179.2536	
09:35:49	47.46363	-122.3077	0.02	-0.004961491	-2.258394	0	3	100	0	4	-0.02533791	-0.08661501	-179.5164	
09:35:49	47.46363	-122.3077	0.02	-0.004961491	-2.258394	0	3	100	0	4	-0.02139053	-0.08543375	-179.7845	
09:35:49	47.46363	-122.3077	0.02	-0.004961491	-2.258394	0	3	100	0	4	-0.01744295	-0.08423534	179.9435	
09:35:50	47.46363	-122.3077	0.02	-0.004961491	-2.258394	0	3	100	0	4	-0.0134969	-0.083019	179.6686	
09:35:50	47.46363	-122.3077	0.02	-0.004582535	-2.230795	0	3	100	0	4	-0.009553681	-0.08178417	179.3916	
09:35:50	47.46363	-122.3077	0.02	-0.004582535	-2.230795	0	3	100	0	4	-0.005614261	-0.08053047	179.113	
09:35:50	47.46363	-122.3077	0.02	-0.004582535	-2.230795	0	3	100	0	4	-0.001679376	-0.07925773	178.8332	
09:35:50	47.46363	-122.3077	0.02	-0.004582535	-2.230795	0	3	100	0	4	0.002250412	-0.07796579	178.5526	
09:35:51	47.46363	-122.3077	0.02	-0.004582535	-2.230795	0	3	100	0	4	0.006174669	-0.07665459	178.2714	
09:35:51	47.46363	-122.3077	0.02	-0.004398359	-2.217548	0	3	100	0	5	0.009562799	-0.07618317	178.1078	
09:35:51	47.46363	-122.3077	0.02	-0.004398359	-2.217548	0	3	100	0	5	0.01139933	-0.07519193	178.0604	
09:35:51	47.46363	-122.3077	0.02	-0.004398359	-2.217548	0	3	100	0	5	0.01304129	-0.07446294	178.0018	
09:35:51	47.46363	-122.3077	0.02	-0.004398359	-2.217548	0	3	100	0	5	0.01376983	-0.07483982	177.9464	
09:35:52	47.46363	-122.3077	0.02	-0.004398359	-2.217548	0	3	100	0	5	0.01506711	-0.07057559	177.9018	
09:35:52	47.46363	-122.3077	0.02	-0.002456689	-2.096798	0	3	100	0	4	0.01588472	-0.07243465	177.8616	
09:35:52	47.46363	-122.3077	0.02	-0.002456689	-2.096798	0	3	100	0	4	0.01657506	-0.07129654	177.8277	
09:35:52	47.46363	-122.3077	0.02	-0.002456689	-2.096798	0	3	100	0	4	0.01727155	-0.0708761	177.8045	
09:35:52	47.46363	-122.3077	0.02	-0.002456689	-2.096798	0	3	100	0	4	0.01835014	-0.06819534	177.7829	
09:35:53	47.46363	-122.3077	0.02	-0.002456689	-2.096798	0	3	100	0	4	0.01899173	-0.06584663	177.7498	
09:35:53	47.46363	-122.3077	0.02	-0.001250081	-2.030367	0	3	100	0	4	0.02008162	-0.0614288	177.7237	
09:35:53	47.46363	-122.3077	0.02	-0.001250081	-2.030367	0	3	100	0	4	0.02257247	-0.06381188	177.6893	
09:35:53	47.46363	-122.3077	0.02	-0.001250081	-2.030367	0	3	100	0	4	0.02297071	-0.06406501	177.672	
09:35:53	47.46363	-122.3077	0.02	-0.001250081	-2.030367	0	3	100	0	4	0.02331726	-0.05769832	177.6526	
09:35:54	47.46363	-122.3077	0.02	-0.001250081	-2.030367	0	3	100	0	4	0.02422026	-0.06015534	177.6237	
09:35:54	47.46363	-122.3077	0.02	-0.000775355	-2.064558	0	3	100	0	4	0.02440937	-0.06469924	177.6124	
09:35:54	47.46363	-122.3077	0.02	-0.000775355	-2.064558	0	3	100	0	4	0.02611377	-0.06316312	177.5826	
09:35:54	47.46363	-122.3077	0.02	-0.000775355	-2.064558	0	3	100	0	4	0.02818958	-0.06491133	177.5451	
09:35:54	47.46363	-122.3077	0.02	-0.000775355	-2.064558	0	3	100	0	4	0.02687089	-0.06326672	177.5355	
09:35:55	47.46363	-122.3077	0.02	-0.000775355	-2.064558	0	3	100	0	4	0.02551131	-0.06309582	177.515	
09:35:55	47.46363	-122.3077	0.02	2.771209E-05	-1.866993	0	3	100	0	4	0.02510975	-0.06269496	177.4635	
09:35:55	47.46363	-122.3077	0.02	2.771209E-05	-1.866993	0	3	100	0	4	0.02582404	-0.0584889	177.443	
09:35:55	47.46363	-122.3077	0.02	2.771209E-05	-1.866993	0	3	100	0	4	0.02872879	-0.058898	177.431	
09:35:55	47.46363	-122.3077	0.02	2.771209E-05	-1.866993	0	3	100	0	4	0.02827066	-0.05585766	177.4178	
09:35:56	47.46363	-122.3077	0.02	2.771209E-05	-1.866993	0	3	100	0	4	0.02826894	-0.05590272	177.3898	
09:35:56	47.46363	-122.3077	0.02	0.001521169	-1.762113	0	3	100	0	4	0.02828963	-0.05332509	177.3868	
09:35:56	47.46363	-122.3077	0.02	0.001521169	-1.762113	0	3	100	0	4	0.02847758	-0.04835207	177.3727	
09:35:56	47.46363	-122.3077	0.02	0.001521169	-1.762113	0	3	100	0	4	0.02870955	-0.04337469	177.3006	
09:35:56	47.46363	-122.3077	0.02	0.001521169	-1.762113	0	3	100	0	4	0.02947781	-0.03993579	177.2576	
09:35:57	47.46363	-122.3077	0.02	0.001521169	-1.762113	0	3	100	0	4	0.03025492	-0.04046095	177.2385	
09:35:57	47.46363	-122.3077	0.02	0.002781759	-1.574382	0	3	100	0	4	0.03113294	-0.03558148	177.228	
09:35:57	47.46363	-122.3077	0.02	0.002781759	-1.574382	0	3	100	0	4	0.0312975	-0.03998511	177.2085	
09:35:57	47.46363	-122.3077	0.02	0.002781759	-1.574382	0	3	100	0	4	0.03113688	-0.04315243	177.1903	
09:35:57	47.46363	-122.3077	0.02	0.002781759	-1.574382	0	3	100	0	4	0.03148137	-0.03816512	177.2578	
09:35:58	47.46363	-122.3077	0.02	0.002781759	-1.574382	0	3	100	0	4	0.03143235	-0.036955	177.3091	
09:35:58	47.46363	-122.3077	0.02	0.004312664	-1.416507	0	3	100	0	4	0.03075321	-0.03998681	177.3219	
09:35:58	47.46363	-122.3077	0.02	0.004312664	-1.416507	0	3	100	0	4	0.03010945	-0.04300475	177.2804	
09:35:58	47.46363	-122.3077	0.02	0.004312664	-1.416507	0	3	100	0	4	0.02952822	-0.04585529	177.1993	
09:35:58	47.46363	-122.3077	0.02	0.004312664	-1.416507	0	3	100	0	4	0.02943187	-0.04771994	177.2729	
09:35:59	47.46363	-122.3077	0.02	0.004312664	-1.416507	0	3	100	0	4	0.02820865	-0.04895276	177.3355	
09:35:59	47.46363	-122.3077	0.02	0.005524249	-1.505253	0	3	100	0	4	0.02907426	-0.04639688	177.3989	
09:35:59	47.46363	-122.3077	0.02	0.005524249	-1.505253	0	3	100	0	4	0.02946277	-0.04171987	177.4655	
09:35:59	47.46363	-122.3077	0.02	0.005524249	-1.505253	0	3	100	0	4	0.02970567	-0.04268805	177.529	
09:35:59	47.46363	-122.3077	0.02	0.005524249	-1.505253	0	3	100	0	4	0.02933561	-0.04123714	177.5903	
09:36:00	47.46363	-122.3077	0.02	0.005524249	-1.505253	0	3	100	0	4	0.02889132	-0.03996968	177.6485	
09:36:00	47.46363	-122.3077	0.02	0.005346141	-1.405683	0	3	100	0	4	0.02884831	-0.04116107	177.7012	
09:36:00	47.46363	-122.3077	0.02	0.005346141	-1.405683	0	3	100	0	4	0.02965463	-0.03925084	177.7555	
09:36:00	47.46363	-122.3077	0.02	0.005346141	-1.405683	0	3	100	0	4	0.02962033	-0.03961484	177.8081	
09:36:00	47.46363	-122.3077	0.02	0.005346141	-1.405683	0	3	100	0	4	0.02968742	-0.03839582	177.854	
09:36:01	47.46363	-122.3077	0.02	0.005346141	-1.405683	0	3	100	0	4	0.02959939	-0.03865887	177.9022	
09:36:01	47.46363	-122.3077	0.02	0.005898284	-1.473706	0	3	100	0	3	0.02959679	-0.03972904	177.9488	
09:36:01	47.46363	-122.3077	0.02	0.005898284	-1.473706	0	3	100	0	3	0.02966683	-0.03878896	177.9826	
09:36:01	47.46363	-122.3077	0.02	0.005898284	-1.473706	0	3	100	0	3	0.02963522	-0.03754599	178.0288	
09:36:01	47.46363	-122.3077	0.02	0.005898284	-1.473706	0	3	100	0	3	0.02943311	-0.04019212	178.0677	
09:36:02	47.46363	-122.3077	0.02	0.005898284	-1.473706	0	3	100	0	3	0.02919515	-0.03969329	178.1046	
09:36:02	47.46363	-122.3077	0.02	0.006263809	-1.26158	0	3	100	0	4	0.02789646	-0.0406251	178.1433	
09:36:02	47.46363	-122.3077	0.02	0.006263809	-1.26158	0	3	100	0	4	0.02858035	-0.03652794	178.1801	
09:36:02	47.46363	-122.3077	0.02	0.006263809	-1.26158	0	3	100	0	4	0.02965554	-0.03891208	178.2166	
09:36:02	47.46363	-122.3077	0.02	0.006263809	-1.26158	0	3	100	0	4	0.02952366	-0.03791495	178.2792	
09:36:03	47.46363	-122.3077	0.02	0.006263809	-1.26158	0	3	100	0	4	0.02989743	-0.03833285	178.378	
09:36:03	47.46363	-122.3077	0.02	0.006361695	-1.384172	0	3	100	0	4	0.0290594	-0.03691423	178.4715	
09:36:03	47.46363	-122.3077	0.02	0.006361695	-1.384172	0	3	100	0	4	0.02885644	-0.0350893	178.5638	
09:36:03	47.46363	-122.3077	0.02	0.006361695	-1.384172	0	3	100	0	4	0.02836397	-0.03530615	178.6512	
09:36:03	47.46363	-122.3077	0.02	0.006361695	-1.384172	0	3	100	0	4	0.02838684	-0.03212123	178.7069	
09:36:04	47.46363	-122.3077	0.02	0.006361695	-1.384172	0	3	100	0	4	0.02827766	-0.02940075	178.7337	
09:36:04	47.46363	-122.3077	0.02	0.006183298	-1.280459	0	3	100	0	4	0.02775042	-0.03147798	178.8049	
09:36:04	47.46363	-122.3077	0.02	0.006183298	-1.280459	0	3	100	0	4	0.0273104	-0.03124241	178.8855	
09:36:04	47.46363	-122.3077	0.02	0.006183298	-1.280459	0	3	100	0	4	0.02753909	-0.0329103	178.959	
09:36:04	47.46363	-122.3077	0.02	0.006183298	-1.280459	0	3	100	0	4	0.02777572	-0.02967586	179.0305	
09:36:05	47.46363	-122.3077	0.02	0.006183298	-1.280459	0	3	100	0	4	0.02788444	-0.0391891	179.0997	
09:36:05	47.46363	-122.3077	0.02	0.007461788	-1.117276	0	3	100	0	4	0.02725355	-0.03997136	179.1667	
09:36:05	47.46363	-122.3077	0.02	0.007461788	-1.117276	0	3	100	0	4	0.02674262	-0.02675198	179.2228	
09:36:05	47.46363	-122.3077	0.02	0.007461788	-1.117276	0	3	100	0	4	0.02686059	-0.02912119	179.2855	
09:36:05	47.46363	-122.3077	0.02	0.007461788	-1.117276	0	3	100	0	4	0.02741773	-0.02827834	179.346	
09:36:06	47.46363	-122.3077	0.02	0.007461788	-1.117276	0	3	100	0	4	0.02762157	-0.02987928	179.4015	
09:36:06	47.46363	-122.3077	0.02	0.008372708	-1.129167	0	3	100	0	4	0.02704529	-0.02805901	179.4572	
09:36:06	47.46363	-122.3077	0.02	0.008372708	-1.129167	0	3	100	0	4	0.02687627	-0.02809147	179.5105	
09:36:06	47.46363	-122.3077	0.02	0.008372708	-1.129167	0	3	100	0	4	0.02729959	-0.02850593	179.561	
09:36:06	47.46363	-122.3077	0.02	0.008372708	-1.129167	0	3	100	0	4	0.02642743	-0.02926641	179.6095	
09:36:07	47.46363	-122.3077	0.02	0.008372708	-1.129167	0	3	100	0	4	0.02692961	-0.02735544	179.6564	
09:36:07	47.46363	-122.3077	0.02	0.008950303	-1.046022	0	3	100	0	4	0.02686411	-0.02871217	179.7005	
09:36:07	47.46363	-122.3077	0.02	0.008950303	-1.046022	0	3	100	0	4	0.02651561	-0.03135677	179.7439	
09:36:07	47.46363	-122.3077	0.02	0.008950303	-1.046022	0	3	100	0	4	0.0268307	-0.02904175	179.7856	
09:36:07	47.46363	-122.3077	0.02	0.008950303	-1.046022	0	3	100	0	4	0.02659179	-0.03034803	179.8474	
09:36:08	47.46363	-122.3077	0.02	0.008950303	-1.046022	0	3	100	0	4	0.02624888	-0.02844726	179.9316	
09:36:08	47.46363	-122.3077	0.02	0.01004057	-0.9037288	0	3	100	0	4	0.02640273	-0.03173672	-179.9848	
09:36:08	47.46363	-122.3077	0.02	0.01004057	-0.9037288	0	3	100	0	4	0.02604021	-0.02823264	-179.9066	
09:36:08	47.46363	-122.3077	0.02	0.01004057	-0.9037288	0	3	100	0	4	0.02543711	-0.03026227	-179.8303	
09:36:08	47.46363	-122.3077	0.02	0.01004057	-0.9037288	0	3	100	0	4	0.02547535	-0.03000845	-179.7534	
09:36:09	47.46363	-122.3077	0.02	0.01004057	-0.9037288	0	3	100	0	4	0.02516551	-0.0290854	-179.6799	
09:36:09	47.46363	-122.3077	0.02	0.01053871	-0.9052591	0	3	100	0	4	0.02449538	-0.02727144	-179.6104	
09:36:09	47.46363	-122.3077	0.02	0.01053871	-0.9052591	0	3	100	0	4	0.02436793	-0.02736219	-179.5454	
09:36:09	47.46363	-122.3077	0.02	0.01053871	-0.9052591	0	3	100	0	4	0.02473225	-0.0249262	-179.4803	
09:36:09	47.46363	-122.3077	0.02	0.01053871	-0.9052591	0	3	100	0	4	0.02442831	-0.02669417	-179.4206	
09:36:10	47.46363	-122.3077	0.02	0.01053871	-0.9052591	0	3	100	0	4	0.02350871	-0.02718024	-179.3578	
09:36:10	47.46363	-122.3077	0.02	0.01099222	-0.8360277	0	3	100	0	4	0.02234006	-0.02930329	-179.3054	
09:36:10	47.46363	-122.3077	0.02	0.01099222	-0.8360277	0	3	100	0	4	0.02213561	-0.02887856	-179.2491	
09:36:10	47.46363	-122.3077	0.02	0.01099222	-0.8360277	0	3	100	0	4	0.02207666	-0.02684656	-179.1947	
09:36:10	47.46363	-122.3077	0.02	0.01099222	-0.8360277	0	3	100	0	4	0.02133898	-0.02686011	-179.1467	
09:36:11	47.46363	-122.3077	0.02	0.01099222	-0.8360277	0	3	100	0	4	0.02141761	-0.02638368	-179.0942	
09:36:11	47.46363	-122.3077	0.02	0.01190135	-0.7118644	0	3	100	0	4	0.0211881	-0.02365956	-179.0464	
09:36:11	47.46363	-122.3077	0.02	0.01190135	-0.7118644	0	3	100	0	4	0.02109542	-0.02544996	-178.9989	
09:36:11	47.46363	-122.3077	0.02	0.01190135	-0.7118644	0	3	100	0	4	0.02147356	-0.02590589	-178.954	
09:36:11	47.46363	-122.3077	0.02	0.01190135	-0.7118644	0	3	100	0	4	0.02122687	-0.02721186	-178.9129	
09:36:12	47.46363	-122.3077	0.02	0.01190135	-0.7118644	0	3	100	0	4	0.02114226	-0.02356346	-178.8738	
09:36:12	47.46363	-122.3077	0.02	0.01228167	-0.8255036	0	3	100	0	4	0.02086478	-0.02618167	-178.8368	
09:36:12	47.46363	-122.3077	0.02	0.01228167	-0.8255036	0	3	100	0	4	0.0206187	-0.02799384	-178.796	
09:36:12	47.46363	-122.3077	0.02	0.01228167	-0.8255036	0	3	100	0	4	0.02045261	-0.02665029	-178.7588	
09:36:12	47.46363	-122.3077	0.02	0.01228167	-0.8255036	0	3	100	0	4	0.02089531	-0.02592106	-178.7212	
09:36:13	47.46363	-122.3077	0.02	0.01228167	-0.8255036	0	3	100	0	4	0.02067878	-0.02414605	-178.6647	
09:36:13	47.46363	-122.3077	0.02	0.01196244	-0.8545765	0	3	100	0	4	0.02050112	-0.02442596	-178.5975	
09:36:13	47.46363	-122.3077	0.02	0.01196244	-0.8545765	0	3	100	0	4	0.01999045	-0.02509248	-178.5322	
09:36:13	47.46363	-122.3077	0.02	0.01196244	-0.8545765	0	3	100	0	4	0.01943602	-0.02409976	-178.4687	
09:36:13	47.46363	-122.3077	0.02	0.01196244	-0.8545765	0	3	100	0	4	0.01940194	-0.02383403	-178.4101	
09:36:14	47.46363	-122.3077	0.02	0.01196244	-0.8545765	0	3	100	0	4	0.0187475	-0.0245496	-178.3549	
09:36:14	47.46363	-122.3077	0.02	0.01187782	-0.8236358	0	3	100	0	5	0.01857841	-0.02164982	-178.2989	
09:36:14	47.46363	-122.3077	0.02	0.01187782	-0.8236358	0	3	100	0	5	0.01842095	-0.0198079	-178.2443	
09:36:14	47.46363	-122.3077	0.02	0.01187782	-0.8236358	0	3	100	0	5	0.01849278	-0.02170051	-178.1931	
09:36:14	47.46363	-122.3077	0.02	0.01187782	-0.8236358	0	3	100	0	5	0.01784883	-0.0195601	-178.1428	
09:36:15	47.46363	-122.3077	0.02	0.01187782	-0.8236358	0	3	100	0	5	0.01759858	-0.02194699	-178.0936	
09:36:15	47.46363	-122.3077	0.02	0.01230817	-0.6136979	0	3	100	0	4	0.01749387	-0.0238768	-178.0458	
09:36:15	47.46363	-122.3077	0.02	0.01230817	-0.6136979	0	3	100	0	4	0.01727377	-0.02569456	-178.0004	
09:36:15	47.46363	-122.3077	0.02	0.01230817	-0.6136979	0	3	100	0	4	0.01742591	-0.02678951	-177.9575	
09:36:15	47.46363	-122.3077	0.02	0.01230817	-0.6136979	0	3	100	0	4	0.01711877	-0.02659383	-177.9161	
09:36:16	47.46363	-122.3077	0.02	0.01230817	-0.6136979	0	3	100	0	4	0.01746555	-0.02457077	-177.8765	
09:36:16	47.46363	-122.3077	0.02	0.01404961	-0.4090737	0	3	100	0	4	0.01701622	-0.02316278	-177.8393	
09:36:16	47.46363	-122.3077	0.02	0.01404961	-0.4090737	0	3	100	0	4	0.01665704	-0.02520115	-177.8041	
09:36:16	47.46363	-122.3077	0.02	0.01404961	-0.4090737	0	3	100	0	4	0.01672152	-0.0256299	-177.7684	
09:36:16	47.46363	-122.3077	0.02	0.01404961	-0.4090737	0	3	100	0	4	0.01650399	-0.02716619	-177.7336	
09:36:17	47.46363	-122.3077	0.02	0.01404961	-0.4090737	0	3	100	0	4	0.0159624	-0.02668854	-177.7011	
09:36:17	47.46363	-122.3077	0.02	0.01581726	-0.3125452	0	3	100	0	4	0.01599526	-0.02734444	-177.6696	
09:36:17	47.46363	-122.3077	0.02	0.01581726	-0.3125452	0	3	100	0	4	0.01565837	-0.02450505	-177.6388	
09:36:17	47.46363	-122.3077	0.02	0.01581726	-0.3125452	0	3	100	0	4	0.01572191	-0.02597587	-177.6096	
09:36:17	47.46363	-122.3077	0.02	0.01581726	-0.3125452	0	3	100	0	4	0.01545472	-0.02495439	-177.5817	
09:36:18	47.46363	-122.3077	0.02	0.01581726	-0.3125452	0	3	100	0	4	0.01465429	-0.0231284	-177.542	
09:36:18	47.46363	-122.3077	0.02	0.01547236	-0.5109363	0	3	100	0	4	0.01392774	-0.02338116	-177.4937	
09:36:18	47.46363	-122.3077	0.02	0.01547236	-0.5109363	0	3	100	0	4	0.01402421	-0.02258053	-177.4493	
09:36:18	47.46363	-122.3077	0.02	0.01547236	-0.5109363	0	3	100	0	4	0.01341863	-0.02518759	-177.4048	
09:36:18	47.46363	-122.3077	0.02	0.01547236	-0.5109363	0	3	100	0	4	0.01351054	-0.02233849	-177.3617	
09:36:19	47.46363	-122.3077	0.02	0.01547236	-0.5109363	0	3	100	0	4	0.01327481	-0.0236059	-177.3204	
09:36:19	47.46363	-122.3077	0.02	0.01452519	-0.6194851	0	3	100	0	4	0.01313154	-0.01985468	-177.2815	
09:36:19	47.46363	-122.3077	0.02	0.01452519	-0.6194851	0	3	100	0	4	0.01280387	-0.02187041	-177.2446	
09:36:19	47.46363	-122.3077	0.02	0.01452519	-0.6194851	0	3	100	0	4	0.01247454	-0.02171413	-177.2092	
09:36:19	47.46363	-122.3077	0.02	0.01452519	-0.6194851	0	3	100	0	4	0.01154888	-0.02468362	-177.1752	
09:36:20	47.46363	-122.3077	0.02	0.01452519	-0.6194851	0	3	100	0	4	0.01108476	-0.02505079	-177.1411	
09:36:20	47.46363	-122.3077	0.02	0.01476441	-0.3979102	0	3	100	0	4	0.01085158	-0.02318206	-177.1082	
09:36:20	47.46363	-122.3077	0.02	0.01476441	-0.3979102	0	3	100	0	4	0.01092445	-0.02297304	-177.076	
09:36:20	47.46363	-122.3077	0.02	0.01476441	-0.3979102	0	3	100	0	4	0.01054741	-0.02197237	-177.0454	
09:36:20	47.46363	-122.3077	0.02	0.01476441	-0.3979102	0	3	100	0	4	0.01072615	-0.02146436	-177.0161	
09:36:21	47.46363	-122.3077	0.02	0.01476441	-0.3979102	0	3	100	0	4	0.01154419	-0.02150502	-176.9886	
09:36:21	47.46363	-122.3077	0.02	0.0162942	-0.2435701	0	3	100	0	4	0.0122697	-0.02333459	-176.9612	
09:36:21	47.46363	-122.3077	0.02	0.0162942	-0.2435701	0	3	100	0	4	0.01128135	-0.01577445	-176.9355	
09:36:21	47.46363	-122.3077	0.02	0.0162942	-0.2435701	0	3	100	0	4	0.01036528	-0.01651909	-176.9105	
09:36:22	47.46363	-122.3077	0.02	0.0162942	-0.2435701	0	3	100	0	4	0.01026937	-0.01704044	-176.8869	
09:36:22	47.46363	-122.3077	0.02	0.0162942	-0.2435701	0	3	100	0	4	0.00988079	-0.01519001	-176.8642	
09:36:22	47.46363	-122.3077	0.02	0.01727312	-0.1648318	0	3	100	0	4	0.009764194	-0.01661739	-176.8419	
09:36:22	47.46363	-122.3077	0.02	0.01727312	-0.1648318	0	3	100	0	4	0.009674087	-0.01440144	-176.8206	
09:36:22	47.46363	-122.3077	0.02	0.01727312	-0.1648318	0	3	100	0	4	0.01124449	-0.01684313	-176.8003	
09:36:23	47.46363	-122.3077	0.02	0.01727312	-0.1648318	0	3	100	0	4	0.01067017	-0.01685529	-176.7813	
09:36:23	47.46363	-122.3077	0.02	0.01727312	-0.1648318	0	3	100	0	4	0.01027496	-0.01790407	-176.7556	
09:36:23	47.46363	-122.3077	0.02	0.01844701	-0.03964683	0	3	100	0	4	0.01007297	-0.01732216	-176.7248	
09:36:23	47.46363	-122.3077	0.02	0.01844701	-0.03964683	0	3	100	0	4	0.01124945	-0.01367809	-176.695	
09:36:23	47.46363	-122.3077	0.02	0.01844701	-0.03964683	0	3	100	0	4	0.01056618	-0.0140613	-176.6669	
09:36:24	47.46363	-122.3077	0.02	0.01844701	-0.03964683	0	3	100	0	4	0.01009227	-0.01515299	-176.6389	
09:36:24	47.46363	-122.3077	0.02	0.01844701	-0.03964683	0	3	100	0	4	0.01035246	-0.01372789	-176.6127	
09:36:24	47.46363	-122.3077	0.02	0.01946741	-0.01130855	0	3	100	0	4	0.01024339	-0.01125295	-176.5875	
09:36:24	47.46363	-122.3077	0.02	0.01946741	-0.01130855	0	3	100	0	4	0.008992187	-0.005790676	-176.5632	
09:36:24	47.46363	-122.3077	0.02	0.01946741	-0.01130855	0	3	100	0	4	0.008679048	-0.008428634	-176.54	
09:36:25	47.46363	-122.3077	0.02	0.01946741	-0.01130855	0	3	100	0	4	0.008276822	-0.00574232	-176.5172	
09:36:25	47.46363	-122.3077	0.02	0.01946741	-0.01130855	0	3	100	0	4	0.007827309	-0.006288896	-176.495	
09:36:25	47.46363	-122.3077	0.02	0.01793526	-0.3029581	0	3	100	0	4	0.008455194	-0.005858591	-176.4741	
09:36:25	47.46363	-122.3077	0.02	0.01793526	-0.3029581	0	3	100	0	4	0.008447855	-0.007251666	-176.4536	
09:36:25	47.46363	-122.3077	0.02	0.01793526	-0.3029581	0	3	100	0	4	0.00812195	-0.01422907	-176.4339	
09:36:26	47.46363	-122.3077	0.02	0.01793526	-0.3029581	0	3	100	0	4	0.007002199	-0.02083565	-176.4148	
09:36:26	47.46363	-122.3077	0.02	0.01793526	-0.3029581	0	3	100	0	4	0.004268522	-0.0137871	-176.3964	
09:36:26	47.46363	-122.3077	0.02	0.01737394	-0.310592	0	3	100	0	5	0.006474384	-0.01458121	-176.3788	
09:36:26	47.46363	-122.3077	0.02	0.01737394	-0.310592	0	3	100	0	5	0.006950753	-0.01660224	-176.3619	
09:36:26	47.46363	-122.3077	0.02	0.01737394	-0.310592	0	3	100	0	5	0.007482244	-0.0156486	-176.3457	
09:36:27	47.46363	-122.3077	0.02	0.01737394	-0.310592	0	3	100	0	5	0.006988924	-0.01487948	-176.3307	
09:36:27	47.46363	-122.3077	0.02	0.01737394	-0.310592	0	3	100	0	5	0.00713279	-0.01404465	-176.3152	
09:36:27	47.46363	-122.3077	0.02	0.01771439	-0.1390612	0	3	100	0	4	0.008186464	-0.01175692	-176.3005	
09:36:27	47.46363	-122.3077	0.02	0.01771439	-0.1390612	0	3	100	0	4	0.008591967	-0.008845199	-176.2863	
09:36:27	47.46363	-122.3077	0.02	0.01771439	-0.1390612	0	3	100	0	4	0.008135565	-0.00957133	-176.2737	
09:36:28	47.46363	-122.3077	0.02	0.01771439	-0.1390612	0	3	100	0	4	0.00791409	-0.009082974	-176.2608	
09:36:28	47.46363	-122.3077	0.02	0.01771439	-0.1390612	0	3	100	0	4	0.007320471	-0.01079923	-176.2482	
09:36:28	47.46363	-122.3077	0.02	0.01743242	-0.2883484	0	3	100	0	4	0.007455664	-0.009384157	-176.232	
09:36:28	47.46363	-122.3077	0.02	0.01743242	-0.2883484	0	3	100	0	4	0.008280477	-0.007136115	-176.2138	
09:36:28	47.46363	-122.3077	0.02	0.01743242	-0.2883484	0	3	100	0	4	0.008148045	-0.003802103	-176.1968	
09:36:29	47.46363	-122.3077	0.02	0.01743242	-0.2883484	0	3	100	0	4	0.008093362	-0.002659443	-176.1807	
09:36:29	47.46363	-122.3077	0.02	0.01743242	-0.2883484	0	3	100	0	4	0.00769888	5.812164E-05	-176.1646	
09:36:29	47.46363	-122.3077	0.02	0.01752256	-0.2877296	0	3	100	0	4	0.006900161	-0.001926011	-176.1493	
09:36:29	47.46363	-122.3077	0.02	0.01752256	-0.2877296	0	3	100	0	4	0.00617268	-0.001263996	-176.1344	
09:36:29	47.46363	-122.3077	0.02	0.01752256	-0.2877296	0	3	100	0	4	0.006302407	-0.001854677	-176.1202	
09:36:30	47.46363	-122.3077	0.02	0.01752256	-0.2877296	0	3	100	0	4	0.006884253	-2.138848E-05	-176.1065	
09:36:30	47.46363	-122.3077	0.02	0.01752256	-0.2877296	0	3	100	0	4	0.007095161	0.001527193	-176.0932	
09:36:30	47.46363	-122.3077	0.02	0.01733197	-0.1966866	0	3	100	0	4	0.007164541	-0.001512334	-176.0808	
09:36:30	47.46363	-122.3077	0.02	0.01733197	-0.1966866	0	3	100	0	4	0.006390031	-0.001866031	-176.0689	
09:36:30	47.46363	-122.3077	0.02	0.01733197	-0.1966866	0	3	100	0	4	0.006055254	-0.004029665	-176.0572	
09:36:31	47.46363	-122.3077	0.02	0.01733197	-0.1966866	0	3	100	0	4	0.006598077	-0.003864695	-176.0458	
09:36:31	47.46363	-122.3077	0.02	0.01733197	-0.1966866	0	3	100	0	4	0.00731027	-0.004794971	-176.0349	
09:36:31	47.46363	-122.3077	0.02	0.0175133	-0.3388732	0	3	100	0	4	0.007115799	-0.00174139	-176.0245	
09:36:31	47.46363	-122.3077	0.02	0.0175133	-0.3388732	0	3	100	0	4	0.006843291	0.0004725382	-176.0146	
09:36:31	47.46363	-122.3077	0.02	0.0175133	-0.3388732	0	3	100	0	4	0.006754783	-0.001872323	-176.0052	
09:36:32	47.46363	-122.3077	0.02	0.0175133	-0.3388732	0	3	100	0	4	0.006766717	0.001408314	-175.9961	
09:36:32	47.46363	-122.3077	0.02	0.0175133	-0.3388732	0	3	100	0	4	0.005809716	-0.0001909849	-175.9872	
09:36:32	47.46363	-122.3077	0.02	0.01678172	-0.301167	0	3	100	0	4	0.006383888	-0.001513077	-175.9788	
09:36:32	47.46363	-122.3077	0.02	0.01678172	-0.301167	0	3	100	0	4	0.005971086	-0.001197544	-175.9706	
09:36:32	47.46363	-122.3077	0.02	0.01678172	-0.301167	0	3	100	0	4	0.005846944	-0.0002064746	-175.9626	
09:36:33	47.46363	-122.3077	0.02	0.01678172	-0.301167	0	3	100	0	4	0.005714616	-0.0005256502	-175.955	
09:36:33	47.46363	-122.3077	0.02	0.01678172	-0.301167	0	3	100	0	4	0.005986661	-0.003331288	-175.9476	
09:36:33	47.46363	-122.3077	0.02	0.01771563	-0.2037678	0	3	100	0	4	0.005693283	-0.0008935844	-175.9404	
09:36:33	47.46363	-122.3077	0.02	0.01771563	-0.2037678	0	3	100	0	4	0.006062216	0.0004579563	-175.9318	
09:36:33	47.46363	-122.3077	0.02	0.01771563	-0.2037678	0	3	100	0	4	0.005641479	0.002185893	-175.9229	
09:36:34	47.46363	-122.3077	0.02	0.01771563	-0.2037678	0	3	100	0	4	0.005628568	0.001214616	-175.9143	
09:36:34	47.46363	-122.3077	0.02	0.01771563	-0.2037678	0	3	100	0	4	0.005743961	0.0013646	-175.9059	
09:36:34	47.46363	-122.3077	0.02	0.0181088	-0.09735634	0	3	100	0	4	0.005802105	0.001405084	-175.8979	
09:36:34	47.46363	-122.3077	0.02	0.0181088	-0.09735634	0	3	100	0	4	0.005555814	0.002198834	-175.8902	
09:36:34	47.46363	-122.3077	0.02	0.0181088	-0.09735634	0	3	100	0	4	0.005467331	-0.0004014302	-175.8828	
09:36:35	47.46363	-122.3077	0.02	0.0181088	-0.09735634	0	3	100	0	4	0.005387121	0.002131997	-175.8756	
09:36:35	47.46363	-122.3077	0.02	0.0181088	-0.09735634	0	3	100	0	4	0.005849991	0.004882944	-175.8687	
09:36:35	47.46363	-122.3077	0.02	0.0186837	-0.1243147	0	3	100	0	4	0.005760896	0.006210736	-175.8621	
09:36:35	47.46363	-122.3077	0.02	0.0186837	-0.1243147	0	3	100	0	4	0.005996491	0.008874672	-175.8559	
09:36:35	47.46363	-122.3077	0.02	0.0186837	-0.1243147	0	3	100	0	4	0.005959166	0.006530846	-175.8499	
09:36:36	47.46363	-122.3077	0.02	0.0186837	-0.1243147	0	3	100	0	4	0.006422905	0.003466539	-175.8441	
09:36:36	47.46363	-122.3077	0.02	0.0186837	-0.1243147	0	3	100	0	4	0.006461838	0.0003662328	-175.8385	
09:36:36	47.46363	-122.3077	0.02	0.01844936	-0.1792659	0	3	100	0	4	0.006203882	0.003736476	-175.833	
09:36:36	47.46363	-122.3077	0.02	0.01844936	-0.1792659	0	3	100	0	4	0.005850628	0.006936581	-175.8278	
09:36:36	47.46363	-122.3077	0.02	0.01844936	-0.1792659	0	3	100	0	4	0.005467399	0.007870818	-175.8228	
09:36:37	47.46363	-122.3077	0.02	0.01844936	-0.1792659	0	3	100	0	4	0.005769887	0.006097854	-175.818	
09:36:37	47.46363	-122.3077	0.02	0.01844936	-0.1792659	0	3	100	0	4	0.00604938	0.00722891	-175.8134	
09:36:37	47.46363	-122.3077	0.02	0.01774097	-0.4271796	0	3	100	0	4	0.006145955	0.008238267	-175.809	
09:36:37	47.46363	-122.3077	0.02	0.01774097	-0.4271796	0	3	100	0	4	0.005906273	0.008019321	-175.8048	
09:36:37	47.46363	-122.3077	0.02	0.01774097	-0.4271796	0	3	100	0	4	0.00567213	0.00745583	-175.8006	
09:36:38	47.46363	-122.3077	0.02	0.01774097	-0.4271796	0	3	100	0	4	0.005950761	0.004726218	-175.7967	
09:36:38	47.46363	-122.3077	0.02	0.01774097	-0.4271796	0	3	100	0	4	0.005585731	0.006481618	-175.7928	
09:36:38	47.46363	-122.3077	0.02	0.01683106	-0.2686973	0	3	100	0	4	0.006240319	0.006812541	-175.7892	
09:36:38	47.46363	-122.3077	0.02	0.01683106	-0.2686973	0	3	100	0	4	0.006545154	0.005471375	-175.7854	
09:36:38	47.46363	-122.3077	0.02	0.01683106	-0.2686973	0	3	100	0	4	0.006489918	0.006222913	-175.7817	
09:36:39	47.46363	-122.3077	0.02	0.01683106	-0.2686973	0	3	100	0	4	0.005918099	0.002657633	-175.7782	
09:36:39	47.46363	-122.3077	0.02	0.01683106	-0.2686973	0	3	100	0	4	0.005506598	0.003371954	-175.7746	
09:36:39	47.46363	-122.3077	0.02	0.01741971	-0.1623983	0	3	100	0	4	0.003513914	0.001471717	-175.7712	
09:36:39	47.46363	-122.3077	0.02	0.01741971	-0.1623983	0	3	100	0	4	0.003681467	0.00486676	-175.7679	
09:36:39	47.46363	-122.3077	0.02	0.01741971	-0.1623983	0	3	100	0	4	0.003383338	0.004951714	-175.7647	
09:36:40	47.46363	-122.3077	0.02	0.01741971	-0.1623983	0	3	100	0	4	0.003435027	0.002774177	-175.7616	
09:36:40	47.46363	-122.3077	0.02	0.01741971	-0.1623983	0	3	100	0	4	0.003313578	0.004104234	-175.7587	
09:36:40	47.46363	-122.3077	0.02	0.01874693	-0.00956148	0	3	100	0	4	0.004111317	0.003464773	-175.7558	
09:36:40	47.46363	-122.3077	0.02	0.01874693	-0.00956148	0	3	100	0	4	0.003628207	0.002153558	-175.7532	
09:36:40	47.46363	-122.3077	0.02	0.01874693	-0.00956148	0	3	100	0	4	0.00372944	0.004887049	-175.7505	
09:36:41	47.46363	-122.3077	0.02	0.01874693	-0.00956148	0	3	100	0	4	0.003392526	0.006410479	-175.7478	
09:36:41	47.46363	-122.3077	0.02	0.01874693	-0.00956148	0	3	100	0	4	0.003414027	0.002998581	-175.7453	
09:36:41	47.46363	-122.3077	0.02	0.01883583	-0.2387575	0	3	100	0	4	0.003631786	0.002839114	-175.7427	
09:36:41	47.46363	-122.3077	0.02	0.01883583	-0.2387575	0	3	100	0	4	0.003116532	0.002556201	-175.7404	
09:36:41	47.46363	-122.3077	0.02	0.01883583	-0.2387575	0	3	100	0	4	0.00278458	0.002932301	-175.7381	
09:36:42	47.46363	-122.3077	0.02	0.01883583	-0.2387575	0	3	100	0	4	0.002958004	0.003823109	-175.736	
09:36:42	47.46363	-122.3077	0.02	0.01883583	-0.2387575	0	3	100	0	4	0.00312853	0.005211317	-175.7339	
09:36:42	47.46363	-122.3077	0.02	0.01850583	-0.1847025	0	3	100	0	4	0.003041241	0.003960305	-175.7318	
09:36:42	47.46363	-122.3077	0.02	0.01850583	-0.1847025	0	3	100	0	4	0.003134599	0.0058214	-175.7298	
09:36:42	47.46363	-122.3077	0.02	0.01850583	-0.1847025	0	3	100	0	4	0.00349381	0.004800037	-175.728	
09:36:43	47.46363	-122.3077	0.02	0.01850583	-0.1847025	0	3	100	0	4	0.002666564	0.002251282	-175.726	
09:36:43	47.46363	-122.3077	0.02	0.01850583	-0.1847025	0	3	100	0	4	0.001723352	0.002777866	-175.7241	
09:36:43	47.46363	-122.3077	0.02	0.01857019	-0.139114	0	3	100	0	4	0.000562781	0.003637281	-175.7222	
09:36:43	47.46363	-122.3077	0.02	0.01857019	-0.139114	0	3	100	0	4	0.001036959	0.001235531	-175.721	
09:36:43	47.46363	-122.3077	0.02	0.01857019	-0.139114	0	3	100	0	4	0.001490307	0.0008751636	-175.7198	
09:36:44	47.46363	-122.3077	0.02	0.01857019	-0.139114	0	3	100	0	4	0.001518256	-0.001093997	-175.7188	
09:36:44	47.46363	-122.3077	0.02	0.01857019	-0.139114	0	3	100	0	4	0.001667262	-0.002741121	-175.7177	
09:36:44	47.46363	-122.3077	0.02	0.01909786	0.02080481	0	3	100	0	4	0.000935314	-0.004350084	-175.7166	
09:36:44	47.46363	-122.3077	0.02	0.01909786	0.02080481	0	3	100	0	4	0.0009229459	-0.005625512	-175.7155	
09:36:44	47.46363	-122.3077	0.02	0.01909786	0.02080481	0	3	100	0	4	0.0007464403	-0.006650067	-175.7145	
09:36:45	47.46363	-122.3077	0.02	0.01909786	0.02080481	0	3	100	0	4	0.0007697797	-0.005181843	-175.7133	
09:36:45	47.46363	-122.3077	0.02	0.01909786	0.02080481	0	3	100	0	4	0.001003214	-0.004410793	-175.7124	
09:36:45	47.46363	-122.3077	0.02	0.02018227	0.06762667	0	3	100	0	4	0.0004715465	-0.004513572	-175.7114	
09:36:45	47.46363	-122.3077	0.02	0.02018227	0.06762667	0	3	100	0	4	0.000763161	-0.001056703	-175.7106	
09:36:45	47.46363	-122.3077	0.02	0.02018227	0.06762667	0	3	100	0	4	0.001375237	-0.001776988	-175.7097	
09:36:46	47.46363	-122.3077	0.02	0.02018227	0.06762667	0	3	100	0	4	0.00123341	0.006496206	-175.709	
09:36:46	47.46363	-122.3077	0.02	0.02018227	0.06762667	0	3	100	0	4	0.00154299	0.004785364	-175.7083	
09:36:46	47.46363	-122.3077	0.02	0.01967265	-0.03629968	0	3	100	0	4	0.001337558	0.002404371	-175.7078	
09:36:46	47.46363	-122.3077	0.02	0.01967265	-0.03629968	0	3	100	0	4	0.001519759	0.001802108	-175.7072	
09:36:46	47.46363	-122.3077	0.02	0.01967265	-0.03629968	0	3	100	0	4	0.001462363	-0.0002088118	-175.7066	
09:36:47	47.46363	-122.3077	0.02	0.01967265	-0.03629968	0	3	100	0	4	0.001517569	0.0007810834	-175.7061	
09:36:47	47.46363	-122.3077	0.02	0.01967265	-0.03629968	0	3	100	0	4	0.001286199	-0.0001529608	-175.7056	
09:36:47	47.46363	-122.3077	0.02	0.01900175	-0.3390688	0	3	100	0	4	0.001923805	-0.001262425	-175.7052	
09:36:47	47.46363	-122.3077	0.02	0.01900175	-0.3390688	0	3	100	0	4	0.001152234	-0.002155984	-175.7047	
09:36:47	47.46363	-122.3077	0.02	0.01900175	-0.3390688	0	3	100	0	4	0.002688592	-0.002521191	-175.7043	
09:36:48	47.46363	-122.3077	0.02	0.01900175	-0.3390688	0	3	100	0	4	0.002999633	-0.0005118011	-175.7038	
09:36:48	47.46363	-122.3077	0.02	0.01900175	-0.3390688	0	3	100	0	4	0.002654022	0.002176558	-175.7035	
09:36:48	47.46363	-122.3077	0.02	0.0181611	-0.2167371	0	3	100	0	4	0.002782465	0.0003883511	-175.7031	
09:36:48	47.46363	-122.3077	0.02	0.0181611	-0.2167371	0	3	100	0	4	0.002514877	-0.001816136	-175.7032	
09:36:48	47.46363	-122.3077	0.02	0.0181611	-0.2167371	0	3	100	0	4	0.002459597	-0.0008978881	-175.7038	
09:36:49	47.46363	-122.3077	0.02	0.0181611	-0.2167371	0	3	100	0	4	0.002265663	-0.0005011551	-175.7045	
09:36:49	47.46363	-122.3077	0.02	0.0181611	-0.2167371	0	3	100	0	4	0.002547476	-0.002813376	-175.705	
09:36:49	47.46363	-122.3077	0.02	0.01815952	-0.164132	0	3	100	0	4	0.003856064	-0.004264329	-175.7054	
09:36:49	47.46363	-122.3077	0.02	0.01815952	-0.164132	0	3	100	0	4	0.003042096	-0.00211345	-175.7057	
09:36:49	47.46363	-122.3077	0.02	0.01815952	-0.164132	0	3	100	0	4	0.002945545	-0.002802886	-175.706	
09:36:50	47.46363	-122.3077	0.02	0.01815952	-0.164132	0	3	100	0	4	0.002734816	-0.004332994	-175.7065	
09:36:50	47.46363	-122.3077	0.02	0.01815952	-0.164132	0	3	100	0	4	0.002042432	-0.004327908	-175.707	
09:36:50	47.46363	-122.3077	0.02	0.01879881	-0.02735568	0	3	100	0	4	0.001742918	-0.005634814	-175.7074	
09:36:50	47.46363	-122.3077	0.02	0.01879881	-0.02735568	0	3	100	0	4	0.002311779	-0.005845909	-175.7076	
09:36:50	47.46363	-122.3077	0.02	0.01879881	-0.02735568	0	3	100	0	4	0.0009710031	-0.003957145	-175.7079	
09:36:51	47.46363	-122.3077	0.02	0.01879881	-0.02735568	0	3	100	0	4	0.001118353	-0.005292122	-175.7082	
09:36:51	47.46363	-122.3077	0.02	0.01879881	-0.02735568	0	3	100	0	4	0.0009254578	-0.006174949	-175.7085	
09:36:51	47.46363	-122.3077	0.02	0.01991864	-0.005987506	0	3	100	0	3	-0.0001018171	-0.008774614	-175.7087	
09:36:51	47.46363	-122.3077	0.02	0.01991864	-0.005987506	0	3	100	0	3	-0.0009924434	-0.007762426	-175.7085	
09:36:51	47.46363	-122.3077	0.02	0.01991864	-0.005987506	0	3	100	0	3	-0.0018408	-0.006685824	-175.7077	
09:36:52	47.46363	-122.3077	0.02	0.01991864	-0.005987506	0	3	100	0	3	-0.002148	-0.004177417	-175.7077	
09:36:52	47.46363	-122.3077	0.02	0.01991864	-0.005987506	0	3	100	0	3	-0.002411627	-0.001558898	-175.7068	
09:36:52	47.46363	-122.3077	0.02	0.01702391	-0.7617283	0	3	100	0	4	-0.002584661	0.001417611	-175.7055	
09:36:52	47.46363	-122.3077	0.02	0.01702391	-0.7617283	0	3	100	0	4	-0.002340116	0.002724108	-175.7055	
09:36:52	47.46363	-122.3077	0.02	0.01702391	-0.7617283	0	3	100	0	4	-0.002594676	0.002852118	-175.7054	
09:36:53	47.46363	-122.3077	0.02	0.01702391	-0.7617283	0	3	100	0	4	-0.003173963	0.002386999	-175.705	
09:36:53	47.46363	-122.3077	0.02	0.01702391	-0.7617283	0	3	100	0	4	-0.003375769	-0.0002813369	-175.7049	
09:36:53	47.46363	-122.3077	0.02	0.01373748	-0.6638172	0	3	100	0	4	-0.003437631	-0.001197836	-175.7043	
09:36:53	47.46363	-122.3077	0.02	0.01373748	-0.6638172	0	3	100	0	4	-0.003111863	-0.003042903	-175.7045	
09:36:53	47.46363	-122.3077	0.02	0.01373748	-0.6638172	0	3	100	0	4	-0.00283941	-0.005772173	-175.7039	
09:36:54	47.46363	-122.3077	0.02	0.01373748	-0.6638172	0	3	100	0	4	-0.002465149	-0.004809606	-175.705	
09:36:54	47.46363	-122.3077	0.02	0.01373748	-0.6638172	0	3	100	0	4	-0.00181536	-0.001655454	-175.7056	
09:36:54	47.46363	-122.3077	0.02	0.01451939	-0.5594426	0	3	100	0	4	-0.001468528	-0.0002145181	-175.7067	
09:36:54	47.46363	-122.3077	0.02	0.01451939	-0.5594426	0	3	100	0	4	-0.0002726738	0.004165889	-175.7076	
09:36:54	47.46363	-122.3077	0.02	0.01451939	-0.5594426	0	3	100	0	4	2.078264E-05	0.002854907	-175.7086	
09:36:55	47.46363	-122.3077	0.02	0.01451939	-0.5594426	0	3	100	0	4	-7.783475E-05	0.0004779904	-175.7098	
09:36:55	47.46363	-122.3077	0.02	0.01451939	-0.5594426	0	3	100	0	4	-0.0001351639	0.0001787113	-175.7105	
09:36:55	47.46363	-122.3077	0.02	0.01405354	-0.4989356	0	3	100	0	4	-0.0003629498	-7.863998E-05	-175.7115	
09:36:55	47.46363	-122.3077	0.02	0.01405354	-0.4989356	0	3	100	0	4	-0.0007367634	0.001252041	-175.7124	
09:36:55	47.46363	-122.3077	0.02	0.01405354	-0.4989356	0	3	100	0	4	-0.001066854	0.002451743	-175.7134	
09:36:56	47.46363	-122.3077	0.02	0.01405354	-0.4989356	0	3	100	0	4	-0.0009834744	-0.0003552255	-175.7144	
09:36:56	47.46363	-122.3077	0.02	0.01405354	-0.4989356	0	3	100	0	4	-0.001566324	0.001269219	-175.7154	
09:36:56	47.46363	-122.3077	0.02	0.01544573	-0.2481956	0	3	100	0	4	-0.001140676	0.003038474	-175.7162	
09:36:56	47.46363	-122.3077	0.02	0.01544573	-0.2481956	0	3	100	0	4	-6.645344E-05	0.002974667	-175.7169	
09:36:56	47.46363	-122.3077	0.02	0.01544573	-0.2481956	0	3	100	0	4	-0.0004251265	0.003181759	-175.7177	
09:36:57	47.46363	-122.3077	0.02	0.01544573	-0.2481956	0	3	100	0	4	-0.0003246351	0.003461824	-175.7186	
09:36:57	47.46363	-122.3077	0.02	0.01544573	-0.2481956	0	3	100	0	4	-0.0003990091	0.002205052	-175.7193	
09:36:57	47.46363	-122.3077	0.02	0.01795574	-0.006698319	0	3	100	0	4	-0.0003373866	0.002375569	-175.72	
09:36:57	47.46363	-122.3077	0.02	0.01795574	-0.006698319	0	3	100	0	4	-0.0002134579	0.001676054	-175.7206	
09:36:57	47.46363	-122.3077	0.02	0.01795574	-0.006698319	0	3	100	0	4	0.0004452341	0.000783745	-175.7213	
09:36:58	47.46363	-122.3077	0.02	0.01795574	-0.006698319	0	3	100	0	4	0.0002024375	-0.001023365	-175.7219	
09:36:58	47.46363	-122.3077	0.02	0.01795574	-0.006698319	0	3	100	0	4	0.0005853649	0.0002188723	-175.7224	
09:36:58	47.46363	-122.3077	0.02	0.01963578	-0.08862682	0	3	100	0	4	0.0004957899	0.0006895966	-175.7229	
09:36:58	47.46363	-122.3077	0.02	0.01963578	-0.08862682	0	3	100	0	4	0.0008574849	0.001683352	-175.7236	
09:36:58	47.46363	-122.3077	0.02	0.01963578	-0.08862682	0	3	100	0	4	0.0008029013	0.002854946	-175.7242	
09:36:59	47.46363	-122.3077	0.02	0.01963578	-0.08862682	0	3	100	0	4	0.0007493166	0.002024299	-175.7253	
09:36:59	47.46363	-122.3077	0.02	0.01963578	-0.08862682	0	3	100	0	4	0.0001872241	0.002298475	-175.7267	
09:36:59	47.46363	-122.3077	0.02	0.01886966	-0.1105031	0	3	100	0	4	-0.0010863	0.002336244	-175.7281	
09:36:59	47.46363	-122.3077	0.02	0.01886966	-0.1105031	0	3	100	0	4	-0.001045804	0.003066566	-175.7295	
09:36:59	47.46363	-122.3077	0.02	0.01886966	-0.1105031	0	3	100	0	4	-0.0008791139	0.002992925	-175.7308	
09:37:00	47.46363	-122.3077	0.02	0.01886966	-0.1105031	0	3	100	0	4	-0.0002044873	0.004315878	-175.732	
09:37:00	47.46363	-122.3077	0.02	0.01886966	-0.1105031	0	3	100	0	4	0.0007011243	0.002198565	-175.7332	
09:37:00	47.46363	-122.3077	0.02	0.01819244	-0.1990783	0	3	100	0	4	0.0007316386	0.001116189	-175.7343	
09:37:00	47.46363	-122.3077	0.02	0.01819244	-0.1990783	0	3	100	0	4	0.001305886	-0.002560586	-175.7354	
09:37:00	47.46363	-122.3077	0.02	0.01819244	-0.1990783	0	3	100	0	4	0.001343595	-0.003229148	-175.7363	
09:37:01	47.46363	-122.3077	0.02	0.01819244	-0.1990783	0	3	100	0	4	0.0001983738	-0.003929411	-175.7373	
09:37:01	47.46363	-122.3077	0.02	0.01819244	-0.1990783	0	3	100	0	4	0.0003363978	-0.003939405	-175.7382	
09:37:01	47.46363	-122.3077	0.02	0.01938646	0.1428204	0	3	100	0	4	0.0006107409	-0.008640076	-175.7391	
09:37:01	47.46363	-122.3077	0.02	0.01938646	0.1428204	0	3	100	0	4	0.0005871441	-0.01389705	-175.7398	
09:37:01	47.46363	-122.3077	0.02	0.01938646	0.1428204	0	3	100	0	4	0.001847349	-0.01169472	-175.7405	
09:37:02	47.46363	-122.3077	0.02	0.01938646	0.1428204	0	3	100	0	4	0.002049303	-0.0112588	-175.7411	
09:37:02	47.46363	-122.3077	0.02	0.01938646	0.1428204	0	3	100	0	4	0.002063263	-0.01047485	-175.7419	
09:37:02	47.46363	-122.3077	0.02	0.0205119	0.1695854	0	3	100	0	4	0.002155354	-0.01078466	-175.7425	
09:37:02	47.46363	-122.3077	0.02	0.0205119	0.1695854	0	3	100	0	4	0.001062997	-0.01261353	-175.7432	
09:37:02	47.46363	-122.3077	0.02	0.0205119	0.1695854	0	3	100	0	4	0.002073645	-0.008513082	-175.7438	
09:37:03	47.46363	-122.3077	0.02	0.0205119	0.1695854	0	3	100	0	4	0.001792507	-0.01115548	-175.7444	
09:37:03	47.46363	-122.3077	0.02	0.0205119	0.1695854	0	3	100	0	4	0.001667317	-0.01088465	-175.7449	
09:37:03	47.46363	-122.3077	0.02	0.02133809	0.1187561	0	3	100	0	4	0.001544424	-0.01194883	-175.7455	
09:37:03	47.46363	-122.3077	0.02	0.02133809	0.1187561	0	3	100	0	4	0.00142103	-0.01314824	-175.746	
09:37:03	47.46363	-122.3077	0.02	0.02133809	0.1187561	0	3	100	0	4	0.001069705	-0.0123245	-175.7464	
09:37:04	47.46363	-122.3077	0.02	0.02133809	0.1187561	0	3	100	0	4	0.0006110165	-0.01341353	-175.7472	
09:37:04	47.46363	-122.3077	0.02	0.02133809	0.1187561	0	3	100	0	4	0.001117611	-0.01394705	-175.7482	
09:37:04	47.46363	-122.3077	0.02	0.02036808	-0.001656664	0	3	100	0	4	0.001615288	-0.01541412	-175.7491	
09:37:04	47.46363	-122.3077	0.02	0.02036808	-0.001656664	0	3	100	0	4	5.168269E-05	-0.01653324	-175.7501	
09:37:04	47.46363	-122.3077	0.02	0.02036808	-0.001656664	0	3	100	0	4	0.001277018	-0.01719975	-175.7511	
09:37:05	47.46363	-122.3077	0.02	0.02036808	-0.001656664	0	3	100	0	4	0.001480315	-0.01366926	-175.752	
09:37:05	47.46363	-122.3077	0.02	0.02036808	-0.001656664	0	3	100	0	4	0.001576632	-0.01278859	-175.7529	
09:37:05	47.46363	-122.3077	0.02	0.0205981	0.154346	0	3	100	0	4	0.001656056	-0.01151939	-175.7537	
09:37:05	47.46363	-122.3077	0.02	0.0205981	0.154346	0	3	100	0	4	0.001541415	-0.01005699	-175.7546	
09:37:05	47.46363	-122.3077	0.02	0.0205981	0.154346	0	3	100	0	4	0.002031037	-0.01041313	-175.7555	
09:37:06	47.46363	-122.3077	0.02	0.0205981	0.154346	0	3	100	0	4	0.005726038	-0.002966058	-175.7563	
09:37:06	47.46363	-122.3077	0.02	0.0205981	0.154346	0	3	100	0	4	0.003501309	-0.006692255	-175.7575	
09:37:06	47.46363	-122.3077	0.02	0.02150083	0.2502417	0	3	100	0	4	0.004426759	-0.005132064	-175.7586	
09:37:06	47.46363	-122.3077	0.02	0.02150083	0.2502417	0	3	100	0	4	0.004438444	-0.004253562	-175.7596	
09:37:06	47.46363	-122.3077	0.02	0.02150083	0.2502417	0	3	100	0	4	0.004075422	-0.003026748	-175.7607	
09:37:07	47.46363	-122.3077	0.02	0.02150083	0.2502417	0	3	100	0	4	0.005245569	-0.001260069	-175.7617	
09:37:07	47.46363	-122.3077	0.02	0.02150083	0.2502417	0	3	100	0	4	0.006183446	-0.004141192	-175.7626	
09:37:07	47.46363	-122.3077	0.02	0.02144631	0.1607608	0	3	100	0	4	0.005431551	-0.00464817	-175.7636	
09:37:07	47.46363	-122.3077	0.02	0.02144631	0.1607608	0	3	100	0	4	0.004817626	-0.004480382	-175.7645	
09:37:07	47.46363	-122.3077	0.02	0.02144631	0.1607608	0	3	100	0	4	0.004026052	-0.005392348	-175.7652	
09:37:08	47.46363	-122.3077	0.02	0.02144631	0.1607608	0	3	100	0	4	0.004024377	-0.005863113	-175.766	
09:37:08	47.46363	-122.3077	0.02	0.02144631	0.1607608	0	3	100	0	4	0.004185197	-0.006888863	-175.7667	
09:37:08	47.46363	-122.3077	0.02	0.02182527	0.2614706	0	3	100	0	4	0.00360032	-0.007500377	-175.7675	
09:37:08	47.46363	-122.3077	0.02	0.02182527	0.2614706	0	3	100	0	4	0.004395235	-0.01194272	-175.768	
09:37:08	47.46363	-122.3077	0.02	0.02182527	0.2614706	0	3	100	0	4	0.004413198	-0.00971559	-175.7685	
09:37:09	47.46363	-122.3077	0.02	0.02182527	0.2614706	0	3	100	0	4	0.003632992	-0.009935463	-175.7691	
09:37:09	47.46363	-122.3077	0.02	0.02182527	0.2614706	0	3	100	0	4	0.003691342	-0.01123818	-175.7698	
09:37:09	47.46363	-122.3077	0.02	0.02205412	0.2347321	0	3	100	0	4	0.003256379	-0.01011555	-175.7708	
09:37:09	47.46363	-122.3077	0.02	0.02205412	0.2347321	0	3	100	0	4	0.003021607	-0.01236596	-175.7717	
09:37:09	47.46363	-122.3077	0.02	0.02205412	0.2347321	0	3	100	0	4	0.002567867	-0.01545894	-175.7725	
09:37:10	47.46363	-122.3077	0.02	0.02205412	0.2347321	0	3	100	0	4	0.002388568	-0.01531869	-175.7732	
09:37:10	47.46363	-122.3077	0.02	0.02205412	0.2347321	0	3	100	0	4	0.001692589	-0.01749806	-175.7738	
09:37:10	47.46363	-122.3077	0.02	0.02222161	0.2538098	0	3	100	0	4	0.001363298	-0.01774633	-175.7744	
09:37:10	47.46363	-122.3077	0.02	0.02222161	0.2538098	0	3	100	0	4	0.00131979	-0.01419734	-175.7749	
09:37:10	47.46363	-122.3077	0.02	0.02222161	0.2538098	0	3	100	0	4	0.001203819	-0.01192493	-175.7754	
09:37:11	47.46363	-122.3077	0.02	0.02222161	0.2538098	0	3	100	0	4	0.0008276238	-0.01315657	-175.776	
09:37:11	47.46363	-122.3077	0.02	0.02222161	0.2538098	0	3	100	0	4	0.000854348	-0.01005599	-175.7765	
09:37:11	47.46363	-122.3077	0.02	0.02106378	-0.05613979	0	3	100	0	4	5.659309E-05	-0.01042471	-175.7771	
09:37:11	47.46363	-122.3077	0.02	0.02106378	-0.05613979	0	3	100	0	4	0.0006396535	-0.01057247	-175.7776	
09:37:11	47.46363	-122.3077	0.02	0.02106378	-0.05613979	0	3	100	0	4	0.001583044	-0.01221872	-175.778	
09:37:12	47.46363	-122.3077	0.02	0.02106378	-0.05613979	0	3	100	0	4	0.002060629	-0.009579175	-175.7785	
09:37:12	47.46363	-122.3077	0.02	0.02106378	-0.05613979	0	3	100	0	4	0.002380127	-0.01039091	-175.779	
09:37:12	47.46363	-122.3077	0.02	0.02070172	0.1079808	0	3	100	0	5	0.002051389	-0.01082	-175.7794	
09:37:12	47.46363	-122.3077	0.02	0.02070172	0.1079808	0	3	100	0	5	0.001931543	-0.01203169	-175.7799	
09:37:12	47.46363	-122.3077	0.02	0.02070172	0.1079808	0	3	100	0	5	0.002045313	-0.01336443	-175.7803	
09:37:13	47.46363	-122.3077	0.02	0.02070172	0.1079808	0	3	100	0	5	0.001846099	-0.01187554	-175.7807	
09:37:13	47.46363	-122.3077	0.02	0.02070172	0.1079808	0	3	100	0	5	0.002103789	-0.01171734	-175.7811	
09:37:13	47.46363	-122.3077	0.02	0.02043881	-0.1545869	0	3	100	0	4	0.002114152	-0.01012372	-175.7814	
09:37:13	47.46363	-122.3077	0.02	0.02043881	-0.1545869	0	3	100	0	4	0.001785192	-0.01081128	-175.7818	
09:37:13	47.46363	-122.3077	0.02	0.02043881	-0.1545869	0	3	100	0	4	0.0018979	-0.01033185	-175.7821	
09:37:14	47.46363	-122.3077	0.02	0.02043881	-0.1545869	0	3	100	0	4	0.00129806	-0.01212268	-175.7825	
09:37:14	47.46363	-122.3077	0.02	0.02043881	-0.1545869	0	3	100	0	4	0.001720534	-0.01533223	-175.7827	
09:37:14	47.46363	-122.3077	0.02	0.01998133	0.04685377	0	3	100	0	4	0.001488795	-0.01483771	-175.7832	
09:37:14	47.46363	-122.3077	0.02	0.01998133	0.04685377	0	3	100	0	4	0.001316386	-0.01628192	-175.7837	
09:37:14	47.46363	-122.3077	0.02	0.01998133	0.04685377	0	3	100	0	4	0.0008883425	-0.01430083	-175.7841	
09:37:15	47.46363	-122.3077	0.02	0.01998133	0.04685377	0	3	100	0	4	0.002466526	-0.01532854	-175.7846	
09:37:15	47.46363	-122.3077	0.02	0.01998133	0.04685377	0	3	100	0	4	0.003887049	-0.01751956	-175.785	
09:37:15	47.46363	-122.3077	0.02	0.02010341	0.0998412	0	3	100	0	4	0.006212534	-0.01773855	-175.7855	
09:37:15	47.46363	-122.3077	0.02	0.02010341	0.0998412	0	3	100	0	4	0.002516799	-0.01466326	-175.7859	
09:37:15	47.46363	-122.3077	0.02	0.02010341	0.0998412	0	3	100	0	4	0.002330882	-0.01263999	-175.7863	
09:37:16	47.46363	-122.3077	0.02	0.02010341	0.0998412	0	3	100	0	4	0.002330399	-0.01031734	-175.7867	
09:37:16	47.46363	-122.3077	0.02	0.02010341	0.0998412	0	3	100	0	4	0.002056098	-0.007237928	-175.7872	
09:37:16	47.46363	-122.3077	0.02	0.02092696	0.1673928	0	3	100	0	5	0.001700991	-0.006366599	-175.7877	
09:37:16	47.46363	-122.3077	0.02	0.02092696	0.1673928	0	3	100	0	5	0.00175212	-0.004676965	-175.7882	
09:37:16	47.46363	-122.3077	0.02	0.02092696	0.1673928	0	3	100	0	5	0.0007956631	-0.006810459	-175.7887	
09:37:17	47.46363	-122.3077	0.02	0.02092696	0.1673928	0	3	100	0	5	0.0006952644	-0.006434932	-175.7892	
09:37:17	47.46363	-122.3077	0.02	0.02092696	0.1673928	0	3	100	0	5	0.0002883726	-0.00936983	-175.7896	
09:37:17	47.46363	-122.3077	0.02	0.02083248	0.05230403	0	3	100	0	4	0.0006050895	-0.009576502	-175.7899	
09:37:17	47.46363	-122.3077	0.02	0.02083248	0.05230403	0	3	100	0	4	0.0007017342	-0.009043422	-175.7903	
09:37:18	47.46363	-122.3077	0.02	0.02083248	0.05230403	0	3	100	0	4	-0.0001452838	-0.01045326	-175.7906	
09:37:18	47.46363	-122.3077	0.02	0.02083248	0.05230403	0	3	100	0	4	0.0003073065	-0.008601414	-175.7909	
09:37:18	47.46363	-122.3077	0.02	0.02083248	0.05230403	0	3	100	0	4	0.0003634327	-0.007229332	-175.7912	
09:37:18	47.46363	-122.3077	0.02	0.02068782	-0.02895831	0	3	100	0	4	0.0009814344	-0.01302567	-175.7915	
09:37:18	47.46363	-122.3077	0.02	0.02068782	-0.02895831	0	3	100	0	4	0.001580579	-0.0145165	-175.7917	
09:37:19	47.46363	-122.3077	0.02	0.02068782	-0.02895831	0	3	100	0	4	0.002701324	-0.01659592	-175.792	
09:37:19	47.46363	-122.3077	0.02	0.02068782	-0.02895831	0	3	100	0	4	0.004046874	-0.01785863	-175.7923	
09:37:19	47.46363	-122.3077	0.02	0.02068782	-0.02895831	0	3	100	0	4	0.003819002	-0.01715044	-175.7925	
09:37:19	47.46363	-122.3077	0.02	0.01943889	-0.05163775	0	3	100	0	4	0.00395098	-0.01589751	-175.7928	
09:37:19	47.46363	-122.3077	0.02	0.01943889	-0.05163775	0	3	100	0	4	0.00390167	-0.01648952	-175.7931	
09:37:20	47.46363	-122.3077	0.02	0.01943889	-0.05163775	0	3	100	0	4	0.003037636	-0.01548126	-175.7935	
09:37:20	47.46363	-122.3077	0.02	0.01943889	-0.05163775	0	3	100	0	4	0.002295647	-0.01501958	-175.7939	
09:37:20	47.46363	-122.3077	0.02	0.01943889	-0.05163775	0	3	100	0	4	0.003857439	-0.01388065	-175.7942	
09:37:20	47.46363	-122.3077	0.02	0.02037028	0.1570249	0	3	100	0	4	0.003495409	-0.01448117	-175.7945	
09:37:20	47.46363	-122.3077	0.02	0.02037028	0.1570249	0	3	100	0	4	0.001993312	-0.01207565	-175.7948	
09:37:21	47.46363	-122.3077	0.02	0.02037028	0.1570249	0	3	100	0	4	0.001987208	-0.0109428	-175.795	
09:37:21	47.46363	-122.3077	0.02	0.02037028	0.1570249	0	3	100	0	4	0.002092843	-0.01037676	-175.7953	
09:37:21	47.46363	-122.3077	0.02	0.02037028	0.1570249	0	3	100	0	4	0.00188511	-0.009853488	-175.7956	
09:37:21	47.46363	-122.3077	0.02	0.01962835	-0.1674852	0	3	100	0	4	0.001658723	-0.009517745	-175.7959	
09:37:21	47.46363	-122.3077	0.02	0.01962835	-0.1674852	0	3	100	0	4	0.001530746	-0.006883448	-175.7961	
09:37:22	47.46363	-122.3077	0.02	0.01962835	-0.1674852	0	3	100	0	4	0.0004116637	-0.007239012	-175.7964	
09:37:22	47.46363	-122.3077	0.02	0.01962835	-0.1674852	0	3	100	0	4	0.0001380948	-0.006266742	-175.7966	
09:37:22	47.46363	-122.3077	0.02	0.01962835	-0.1674852	0	3	100	0	4	0.001031133	-0.006638366	-175.7968	
09:37:22	47.46363	-122.3077	0.02	0.01826932	-0.3712949	0	3	100	0	3	0.0009986901	-0.005083766	-175.797	
09:37:22	47.46363	-122.3077	0.02	0.01826932	-0.3712949	0	3	100	0	3	0.0004252479	-0.005498243	-175.7972	
09:37:23	47.46363	-122.3077	0.02	0.01826932	-0.3712949	0	3	100	0	3	-0.0005467826	-0.002310299	-175.7974	
09:37:23	47.46363	-122.3077	0.02	0.01826932	-0.3712949	0	3	100	0	3	-0.0005249063	-0.003987164	-175.7975	
09:37:23	47.46363	-122.3077	0.02	0.01826932	-0.3712949	0	3	100	0	3	-0.0005059448	-0.005805952	-175.7977	
09:37:23	47.46363	-122.3077	0.02	0.01767571	-0.3124745	0	3	100	0	4	-0.000830027	-0.003568874	-175.7979	
09:37:23	47.46363	-122.3077	0.02	0.01767571	-0.3124745	0	3	100	0	4	-0.0004628621	-0.005264499	-175.798	
09:37:24	47.46363	-122.3077	0.02	0.01767571	-0.3124745	0	3	100	0	4	0.0003041328	-0.003763878	-175.7981	
09:37:24	47.46363	-122.3077	0.02	0.01767571	-0.3124745	0	3	100	0	4	-0.0002782267	-0.002779183	-175.7983	
09:37:24	47.46363	-122.3077	0.02	0.01767571	-0.3124745	0	3	100	0	4	-0.0008421364	-0.001636363	-175.7984	
09:37:24	47.46363	-122.3077	0.02	0.01829437	-0.1730712	0	3	100	0	4	-0.0009666629	-0.0001391094	-175.7985	
09:37:24	47.46363	-122.3077	0.02	0.01829437	-0.1730712	0	3	100	0	4	-0.0007901159	-0.001137642	-175.7986	
09:37:25	47.46363	-122.3077	0.02	0.01829437	-0.1730712	0	3	100	0	4	-0.0004242719	-0.001441498	-175.7988	
09:37:25	47.46363	-122.3077	0.02	0.01829437	-0.1730712	0	3	100	0	4	-0.0008792761	-0.004585433	-175.799	
09:37:25	47.46363	-122.3077	0.02	0.01829437	-0.1730712	0	3	100	0	4	-0.0002147095	-0.001560378	-175.7991	
09:37:25	47.46363	-122.3077	0.02	0.01875337	-0.07173587	0	3	100	0	4	-0.0003915635	-0.004416172	-175.7992	
09:37:25	47.46363	-122.3077	0.02	0.01875337	-0.07173587	0	3	100	0	4	-0.0008793315	-0.00990703	-175.7994	
09:37:26	47.46363	-122.3077	0.02	0.01875337	-0.07173587	0	3	100	0	4	-0.001369529	-0.01542535	-175.7995	
09:37:26	47.46363	-122.3077	0.02	0.01875337	-0.07173587	0	3	100	0	4	-0.002048329	-0.01963886	-175.7996	
09:37:26	47.46363	-122.3077	0.02	0.01875337	-0.07173587	0	3	100	0	4	-0.002020266	-0.01977965	-175.7993	
09:37:26	47.46363	-122.3077	0.02	0.02012011	0.198057	0	3	100	0	4	-0.001572792	-0.01800659	-175.7991	
09:37:26	47.46363	-122.3077	0.02	0.02012011	0.198057	0	3	100	0	4	-0.0005225963	-0.0188958	-175.799	
09:37:27	47.46363	-122.3077	0.02	0.02012011	0.198057	0	3	100	0	4	0.0004368341	-0.01894218	-175.799	
09:37:27	47.46363	-122.3077	0.02	0.02012011	0.198057	0	3	100	0	4	0.001842778	-0.01761685	-175.7989	
09:37:27	47.46363	-122.3077	0.02	0.02012011	0.198057	0	3	100	0	4	0.001793408	-0.0173182	-175.7987	
09:37:27	47.46363	-122.3077	0.02	0.02184238	0.2798694	0	3	100	0	4	0.000257433	-0.01528747	-175.7987	
