Date	Latitude(deg) 	Longitude(deg)	hamsl(m)	hafl(m)	climbrate(cm/s)	GroundSpeed(m/s)	Airspeed(m/s)	Mav_Link(%)	Rssi_Link(%)	Throttle	Roll(deg)	Pitch(deg)	Yaw(deg)
12:27:32	0	0	0	0	0	0	0	100	0	0	0	0	0	
12:27:32	0	0	0	0	0	0	0	100	0	0	-7.593773	-1.084581	-84.9995	
12:27:32	0	0	0	0.06994115	-13.91037	0	3	100	0	100	-7.593479	-1.075875	-85.0029	
12:27:32	0	0	0	0.06994115	-13.91037	0	3	100	0	100	-7.592764	-1.066699	-85.0144	
12:27:32	0	0	0	0.06994115	-13.91037	0	3	100	0	100	-7.586719	-1.054426	-85.01712	
12:27:33	0	0	0	0.06994115	-13.91037	0	3	100	0	100	-7.59151	-1.062822	-85.02552	
12:27:33	0	0	0	0.06994115	-13.91037	0	3	100	0	100	-7.598717	-1.064358	-85.04234	
12:27:33	0	0	0	-1.708286	-90.76832	0	3	100	0	100	-7.610857	-1.042046	-85.04562	
12:27:33	0	0	0	-1.708286	-90.76832	0	3	100	0	100	-7.605408	-1.04256	-85.05279	
12:27:33	0	0	0	-1.708286	-90.76832	0	3	100	0	100	-7.608268	-1.048813	-85.06236	
12:27:34	0	0	0	-1.708286	-90.76832	0	3	100	0	100	-7.602633	-1.032503	-85.06514	
12:27:34	0	0	0	-1.708286	-90.76832	0	3	100	0	100	-7.592212	-1.009455	-85.06883	
12:27:34	0	0	0	-0.6872485	-14.96029	0	3	100	0	100	-7.577109	-1.014714	-85.07933	
12:27:34	0	0	0	-0.6872485	-14.96029	0	3	100	0	100	-7.566181	-1.020851	-85.08345	
12:27:34	0	0	0	-0.6872485	-14.96029	0	3	100	0	100	-7.562819	-1.028835	-85.07828	
12:27:35	0	0	0	-0.6872485	-14.96029	0	3	100	0	100	-7.568749	-1.035133	-85.08054	
12:27:35	0	0	0	-0.6872485	-14.96029	0	3	100	0	100	-7.568743	-1.024941	-85.08308	
12:27:35	0	0	0	0.1769396	21.80457	0	3	100	0	100	-7.57468	-1.028662	-85.08676	
12:27:35	0	0	0	0.1769396	21.80457	0	3	100	0	100	-7.569481	-1.029973	-85.10072	
12:27:35	0	0	0	0.1769396	21.80457	0	3	100	0	100	-7.570276	-1.045145	-85.1087	
12:27:36	0	0	0	0.1769396	21.80457	0	3	100	0	100	-7.576509	-1.044261	-85.10521	
12:27:36	0	0	0	0.1769396	21.80457	0	3	100	0	100	-7.576089	-1.033376	-85.10494	
12:27:36	0	0	0	0.8565066	36.60539	0	3	100	0	100	-7.578086	-1.026869	-85.10446	
12:27:36	0	0	0	0.8565066	36.60539	0	3	100	0	100	-7.58117	-1.008309	-85.11051	
12:27:36	0	0	0	0.8565066	36.60539	0	3	100	0	100	-7.584824	-0.9917731	-85.1084	
12:27:37	0	0	0	0.8565066	36.60539	0	3	100	0	100	-7.594402	-0.9981529	-85.11282	
12:27:37	0	0	0	0.8565066	36.60539	0	3	100	0	100	-7.586184	-0.9878544	-85.12951	
12:27:37	0	0	0	0.9320452	19.23402	0	3	100	0	100	-7.582668	-0.9958514	-85.12645	
12:27:37	0	0	0	0.9320452	19.23402	0	3	100	0	100	-7.578646	-0.993842	-85.12916	
12:27:37	0	0	0	0.9320452	19.23402	0	3	100	0	100	-7.579784	-0.9974024	-85.1265	
12:27:38	0	0	0	0.9320452	19.23402	0	3	100	0	100	-7.586454	-1.011674	-85.14446	
12:27:38	0	0	0	0.9320452	19.23402	0	3	100	0	100	-7.588594	-1.006613	-85.14509	
12:27:38	0	0	0	0.5357779	-11.82951	0	3	100	0	100	-7.577378	-1.01835	-85.14843	
12:27:38	0	0	0	0.5357779	-11.82951	0	3	100	0	100	-7.578087	-1.013502	-85.15385	
12:27:38	0	0	0	0.5357779	-11.82951	0	3	100	0	100	-7.573516	-1.023433	-85.15373	
12:27:39	0	0	0	0.5357779	-11.82951	0	3	100	0	100	-7.574199	-1.024079	-85.16841	
12:27:39	0	0	0	0.5357779	-11.82951	0	3	100	0	100	-7.569227	-1.022246	-85.17236	
12:27:39	0	0	0	0.1605802	-27.99831	0	3	100	0	100	-7.572003	-1.023713	-85.1842	
12:27:39	0	0	0	0.1605802	-27.99831	0	3	100	0	100	-7.566597	-1.038305	-85.19099	
12:27:39	0	0	0	0.1605802	-27.99831	0	3	100	0	100	-7.565983	-1.047534	-85.18362	
12:27:40	0	0	0	0.1605802	-27.99831	0	3	100	0	100	-7.565475	-1.042974	-85.18641	
12:27:40	0	0	0	0.1605802	-27.99831	0	3	100	0	100	-7.570134	-1.044117	-85.1857	
12:27:40	0	0	0	0.05253239	-26.9329	0	3	100	0	100	-7.576195	-1.070086	-85.19329	
12:27:40	0	0	0	0.05253239	-26.9329	0	3	100	0	100	-7.583677	-1.086219	-85.18723	
12:27:40	0	0	0	0.05253239	-26.9329	0	3	100	0	100	-7.58453	-1.072236	-85.17541	
12:27:41	0	0	0	0.05253239	-26.9329	0	3	100	0	100	-7.583874	-1.074653	-85.17463	
12:27:41	0	0	0	0.05253239	-26.9329	0	3	100	0	100	-7.589918	-1.094953	-85.16615	
12:27:41	0	0	0	-0.1066092	-27.98847	0	3	100	0	100	-7.600353	-1.099272	-85.16883	
12:27:41	0	0	0	-0.1066092	-27.98847	0	3	100	0	100	-7.601275	-1.089002	-85.16805	
12:27:41	0	0	0	-0.1066092	-27.98847	0	3	100	0	100	-7.606098	-1.089533	-85.18047	
12:27:42	0	0	0	-0.1066092	-27.98847	0	3	100	0	100	-7.600015	-1.100505	-85.17126	
12:27:42	0	0	0	-0.1066092	-27.98847	0	3	100	0	100	-7.60563	-1.08933	-85.17165	
12:27:42	0	0	0	-0.04846761	-18.81174	0	3	100	0	100	-7.604432	-1.075574	-85.17332	
12:27:42	0	0	0	-0.04846761	-18.81174	0	3	100	0	100	-7.594229	-1.091357	-85.18171	
12:27:42	0	0	0	-0.04846761	-18.81174	0	3	100	0	100	-7.577151	-1.082047	-85.17656	
12:27:43	0	0	0	-0.04846761	-18.81174	0	3	100	0	100	-7.573519	-1.097572	-85.17251	
12:27:43	0	0	0	-0.04846761	-18.81174	0	3	100	0	100	-7.563745	-1.089297	-85.17339	
12:27:43	0	0	0	0.06639653	-10.86063	0	3	100	0	100	-7.571216	-1.094809	-85.17335	
12:27:43	0	0	0	0.06639653	-10.86063	0	3	100	0	100	-7.571073	-1.095583	-85.17765	
12:27:43	0	0	0	0.06639653	-10.86063	0	3	100	0	100	-7.566023	-1.100312	-85.17646	
12:27:44	0	0	0	0.06639653	-10.86063	0	3	100	0	100	-7.567011	-1.093896	-85.16915	
12:27:44	0	0	0	0.06639653	-10.86063	0	3	100	0	100	-7.565557	-1.077684	-85.1542	
12:27:44	0	0	0	0.3792769	2.784678	0	3	100	0	100	-7.567232	-1.095031	-85.16595	
12:27:44	0	0	0	0.3792769	2.784678	0	3	100	0	100	-7.576301	-1.105402	-85.16467	
12:27:44	0	0	0	0.3792769	2.784678	0	3	100	0	100	-7.582628	-1.094718	-85.16863	
12:27:45	0	0	0	0.3792769	2.784678	0	3	100	0	100	-7.592062	-1.087596	-85.14162	
12:27:45	0	0	0	0.3792769	2.784678	0	3	100	0	100	-7.584042	-1.079531	-85.1408	
12:27:45	0	0	0	0.5300528	4.954779	0	3	100	0	100	-7.575384	-1.089236	-85.13478	
12:27:45	0	0	0	0.5300528	4.954779	0	3	100	0	100	-7.57267	-1.112585	-85.11173	
12:27:45	0	0	0	0.5300528	4.954779	0	3	100	0	100	-7.574079	-1.098761	-85.10743	
12:27:46	0	0	0	0.5300528	4.954779	0	3	100	0	100	-7.577832	-1.099851	-85.11066	
12:27:46	0	0	0	0.5300528	4.954779	0	3	100	0	100	-7.588891	-1.091429	-85.09016	
12:27:46	0	0	0	0.4973284	-0.6951885	0	3	100	0	100	-7.596075	-1.096731	-85.08612	
12:27:46	0	0	0	0.4973284	-0.6951885	0	3	100	0	100	-7.602819	-1.08194	-85.07624	
12:27:46	0	0	0	0.4973284	-0.6951885	0	3	100	0	100	-7.603511	-1.086963	-85.07745	
12:27:47	0	0	0	0.4973284	-0.6951885	0	3	100	0	100	-7.607602	-1.092169	-85.06635	
12:27:47	0	0	0	0.4973284	-0.6951885	0	3	100	0	100	-7.611189	-1.074434	-85.07328	
12:27:47	0	0	0	0.4841343	-4.287656	0	3	100	0	100	-7.615804	-1.077664	-85.08167	
12:27:47	0	0	0	0.4841343	-4.287656	0	3	100	0	100	-7.609681	-1.096347	-85.08746	
12:27:47	0	0	0	0.4841343	-4.287656	0	3	100	0	100	-7.618178	-1.110161	-85.08238	
12:27:48	0	0	0	0.4841343	-4.287656	0	3	100	0	100	-7.62528	-1.109772	-85.05964	
12:27:48	0	0	0	0.4841343	-4.287656	0	3	100	0	100	-7.627659	-1.108712	-85.06712	
12:27:48	0	0	0	0.3917888	-10.80137	0	3	100	0	100	-7.637244	-1.090616	-85.05555	
12:27:48	0	0	0	0.3917888	-10.80137	0	3	100	0	100	-7.615669	-1.226302	-86.30071	
12:27:48	47.46363	-122.3077	0.02	0.3917888	-10.80137	0	3	100	0	100	-7.580694	-1.40467	-88.29629	
12:27:49	47.46363	-122.3077	0.02	0.3917888	-10.80137	0	3	100	0	100	-7.50923	-1.513107	-90.24892	
12:27:49	47.46363	-122.3077	0.02	0.3917888	-10.80137	0	3	100	0	100	-7.227598	-1.477094	-92.30621	
12:27:49	47.46363	-122.3077	0.02	0.05667007	-28.23993	0	3	100	0	100	-6.993735	-1.257978	-94.37643	
12:27:49	47.46363	-122.3077	0.02	0.05667007	-28.23993	0	3	100	0	100	-6.771224	-1.075524	-96.58504	
12:27:49	47.46363	-122.3077	0.02	0.05667007	-28.23993	0	3	100	0	100	-6.325164	-2.42619	-99.22889	
12:27:50	47.46363	-122.3077	0.02	0.05667007	-28.23993	0.34	3	100	0	100	-5.676802	-3.248762	-103.2819	
12:27:50	47.46363	-122.3077	0.02	0.05667007	-28.23993	1.18	3	100	0	100	-5.48558	-1.284295	-107.655	
12:27:50	47.46362	-122.3077	0.02	-0.2291777	-46.12363	2.3	3	100	0	100	-6.020854	0.7998825	-110.9745	
12:27:50	47.46362	-122.3077	0.02	-0.2291777	-46.12363	2.3	3	100	0	100	-6.603953	0.3817725	-113.0874	
12:27:50	47.46362	-122.3077	0.02	-0.2291777	-46.12363	3.24	3	100	0	100	-6.793203	-0.09420292	-115.41	
12:27:51	47.46361	-122.3077	0.02	-0.2291777	-46.12363	3.94	3	100	0	100	-7.104884	1.645304	-118.5021	
12:27:51	47.46358	-122.3077	0.02	-0.2291777	-46.12363	5.85	3	100	0	100	-7.563112	3.411891	-121.0386	
12:27:51	47.46357	-122.3077	0.021	-0.3411167	-37.34629	6.48	5.790281	100	0	100	-8.229924	3.086894	-122.5067	
12:27:51	47.46357	-122.3077	0.022	-0.3411167	-37.34629	6.83	5.790281	100	0	100	-8.390241	1.571225	-123.0776	
12:27:51	47.46357	-122.3077	0.022	-0.3411167	-37.34629	6.83	5.790281	100	0	100	-8.422435	2.203846	-125.7913	
12:27:52	47.46355	-122.3077	0.022	-0.3411167	-37.34629	7.97	5.790281	100	0	100	-9.060921	3.051538	-130.0011	
12:27:52	47.46353	-122.3077	0.021	-0.3411167	-37.34629	8.56	5.790281	100	0	100	-9.164349	2.180665	-133.9705	
12:27:52	47.46351	-122.3077	0.022	-0.2874644	-32.40425	8.15	8.030813	100	0	6546	-8.640566	0.4735613	-137.4796	
12:27:52	47.4635	-122.3077	0.022	-0.2874644	-32.40425	7.35	8.030813	100	0	6546	-7.505117	-1.249932	-141.13	
12:27:52	47.46348	-122.3077	0.021	-0.2874644	-32.40425	6.42	8.030813	100	0	6546	-6.426643	-2.120778	-145.1207	
12:27:53	47.46347	-122.3077	0.021	-0.2874644	-32.40425	5.66	8.030813	100	0	6546	-5.470451	-2.334915	-149.6209	
12:27:53	47.46346	-122.3077	0.021	-0.2874644	-32.40425	4.84	8.030813	100	0	6546	-4.43154	-2.724094	-154.4621	
12:27:53	47.46346	-122.3077	0.021	-0.3642564	-42.97319	4.06	4.170617	100	0	6546	-3.39479	-3.269476	-159.6094	
12:27:53	47.46345	-122.3077	0.022	-0.3642564	-42.97319	3.31	4.170617	100	0	6546	-2.475489	-3.706247	-164.9709	
12:27:53	47.46345	-122.3077	0.022	-0.3642564	-42.97319	3.31	4.170617	100	0	6546	-1.703736	-3.831607	-170.6418	
12:27:54	47.46344	-122.3077	0.022	-0.3642564	-42.97319	2.6	4.170617	100	0	6546	-1.069844	-3.758656	-176.5459	
12:27:54	47.46344	-122.3077	0.022	-0.3642564	-42.97319	1.6	4.170617	100	0	6546	-0.495883	-3.556005	177.8413	
12:27:54	47.46344	-122.3077	0.022	-0.3009738	-18.04809	0.95	3	100	0	6546	0.1778069	-3.315647	172.7243	
12:27:54	47.46343	-122.3077	0.022	-0.3009738	-18.04809	0.29	3	100	0	6546	0.5245558	-2.31517	168.6144	
12:27:54	47.46343	-122.3077	0.021	-0.3009738	-18.04809	0.02	3	100	0	6546	0.8944067	-0.05360857	165.3884	
12:27:55	47.46343	-122.3077	0.021	-0.3009738	-18.04809	0.02	3	100	0	6546	1.09331	1.745703	162.828	
12:27:55	47.46343	-122.3077	0.02	-0.3009738	-18.04809	0	3	100	0	6546	1.145265	1.92461	161.0723	
12:27:55	47.46343	-122.3077	0.02	-0.1270706	2.75709	0	3	100	0	6546	1.073449	1.121858	159.3318	
12:27:55	47.46343	-122.3077	0.02	-0.1270706	2.75709	0	3	100	0	6546	1.035858	0.455099	157.6553	
12:27:55	47.46343	-122.3077	0.02	-0.1270706	2.75709	0	3	100	0	6546	1.029864	0.444077	156.0414	
12:27:56	47.46343	-122.3077	0.021	-0.1270706	2.75709	0	3	100	0	6546	1.016327	0.840562	154.497	
12:27:56	47.46343	-122.3077	0.02	-0.1270706	2.75709	0	3	100	0	6546	0.9939609	1.163568	152.9754	
12:27:56	47.46343	-122.3077	0.02	0.03269065	14.66865	0	3	100	0	6546	0.9696037	1.238284	151.506	
12:27:56	47.46343	-122.3077	0.02	0.03269065	14.66865	0	3	100	0	6546	0.945236	1.1869	150.0797	
12:27:56	47.46343	-122.3077	0.02	0.03269065	14.66865	0	3	100	0	6546	0.9245068	1.16241	148.7158	
12:27:57	47.46343	-122.3077	0.02	0.03269065	14.66865	0	3	100	0	6546	0.9087961	1.212037	147.3813	
12:27:57	47.46343	-122.3077	0.02	0.03269065	14.66865	0	3	100	0	6546	0.8889262	1.295527	146.0986	
12:27:57	47.46343	-122.3077	0.02	0.1393109	19.498	0	3	100	0	6546	0.8674005	1.370607	144.8587	
12:27:57	47.46343	-122.3077	0.02	0.1393109	19.498	0	3	100	0	6546	0.8497547	1.421738	143.6568	
12:27:57	47.46343	-122.3077	0.02	0.1393109	19.498	0	3	100	0	6546	0.8327829	1.466438	142.5002	
12:27:58	47.46343	-122.3077	0.02	0.1393109	19.498	0	3	100	0	6546	0.8171141	1.507851	141.3777	
12:27:58	47.46343	-122.3077	0.02	0.1393109	19.498	0	3	100	0	6546	0.802472	1.545932	140.2944	
12:27:58	47.46343	-122.3077	0.02	0.189666	19.55597	0	3	100	0	6546	0.7894257	1.581425	139.2662	
12:27:58	47.46343	-122.3077	0.02	0.189666	19.55597	0	3	100	0	6546	0.779437	1.614761	138.3724	
12:27:58	47.46343	-122.3077	0.02	0.189666	19.55597	0	3	100	0	6546	0.7718399	1.646725	137.5778	
12:27:59	47.46343	-122.3077	0.02	0.189666	19.55597	0	3	100	0	6546	0.7641855	1.67839	136.749	
12:27:59	47.46343	-122.3077	0.02	0.189666	19.55597	0	3	100	0	6546	0.7544309	1.709446	135.8272	
12:27:59	47.46343	-122.3077	0.02	0.1988576	17.42124	0	3	100	0	6546	0.7448418	1.737372	134.9389	
12:27:59	47.46343	-122.3077	0.02	0.1988576	17.42124	0	3	100	0	6546	0.7353271	1.76218	134.0814	
12:27:59	47.46343	-122.3077	0.02	0.1988576	17.42124	0	3	100	0	6546	0.7269555	1.785333	133.253	
12:28:00	47.46343	-122.3077	0.02	0.1988576	17.42124	0	3	100	0	6546	0.7193456	1.807098	132.4502	
12:28:00	47.46343	-122.3077	0.02	0.1988576	17.42124	0	3	100	0	6546	0.7084095	1.825091	131.6206	
12:28:00	47.46343	-122.3077	0.02	0.1867808	14.97629	0	3	100	0	6546	0.6886672	1.835328	130.689	
12:28:00	47.46343	-122.3077	0.02	0.1867808	14.97629	0	3	100	0	6546	0.6711619	1.843568	129.7955	
12:28:00	47.46343	-122.3077	0.02	0.1867808	14.97629	0	3	100	0	6546	0.6545556	1.850321	128.9313	
12:28:01	47.46343	-122.3077	0.02	0.1867808	14.97629	0	3	100	0	6546	0.6402376	1.856112	128.1012	
12:28:01	47.46343	-122.3077	0.02	0.1867808	14.97629	0	3	100	0	6546	0.6270525	1.861266	127.309	
12:28:01	47.46343	-122.3077	0.02	0.1671956	12.71678	0	3	100	0	6546	0.6145847	1.866114	126.5404	
12:28:01	47.46343	-122.3077	0.02	0.1671956	12.71678	0	3	100	0	6546	0.6053289	1.870865	125.7995	
12:28:01	47.46343	-122.3077	0.02	0.1671956	12.71678	0	3	100	0	6546	0.5964099	1.874455	125.082	
12:28:02	47.46343	-122.3077	0.02	0.1671956	12.71678	0	3	100	0	6546	0.5887984	1.877935	124.3954	
12:28:02	47.46343	-122.3077	0.02	0.1671956	12.71678	0	3	100	0	6546	0.5820099	1.879448	123.7321	
12:28:02	47.46343	-122.3077	0.02	0.1482811	11.10456	0	3	100	0	6546	0.5749827	1.880624	123.0673	
12:28:02	47.46343	-122.3077	0.02	0.1482811	11.10456	0	3	100	0	6546	0.570618	1.881816	122.4528	
12:28:02	47.46343	-122.3077	0.02	0.1482811	11.10456	0	3	100	0	6546	0.567394	1.882278	121.8637	
12:28:03	47.46343	-122.3077	0.02	0.1482811	11.10456	0	3	100	0	6546	0.5645905	1.883089	121.2881	
12:28:03	47.46343	-122.3077	0.02	0.1482811	11.10456	0	3	100	0	6546	0.5631026	1.883914	120.7446	
12:28:03	47.46343	-122.3077	0.02	0.1326564	9.991767	0	3	100	0	6546	0.5625904	1.884016	120.2249	
12:28:03	47.46343	-122.3077	0.02	0.1326564	9.991767	0	3	100	0	6546	0.5622954	1.88416	119.7247	
12:28:03	47.46343	-122.3077	0.02	0.1326564	9.991767	0	3	100	0	6546	0.5620927	1.883848	119.2347	
12:28:04	47.46343	-122.3077	0.02	0.1326564	9.991767	0	3	100	0	6546	0.561798	1.883621	118.7457	
12:28:04	47.46343	-122.3077	0.02	0.1326564	9.991767	0	3	100	0	6546	0.5618824	1.88339	118.2554	
12:28:04	47.46343	-122.3077	0.02	0.1222432	9.328014	0	3	100	0	6546	0.5643907	1.884266	117.8342	
12:28:04	47.46343	-122.3077	0.02	0.1222432	9.328014	0	3	100	0	6546	0.5674415	1.885242	117.4212	
12:28:04	47.46343	-122.3077	0.02	0.1222432	9.328014	0	3	100	0	6546	0.5697949	1.885618	117.0169	
12:28:05	47.46343	-122.3077	0.02	0.1222432	9.328014	0	3	100	0	6546	0.570223	1.887536	116.5706	
12:28:05	47.46343	-122.3077	0.02	0.1222432	9.328014	0	3	100	0	6546	0.5694066	1.884222	116.1217	
12:28:05	47.46343	-122.3077	0.02	0.1142233	8.737354	0	3	100	0	6546	0.5700978	1.866436	115.7999	
12:28:05	47.46343	-122.3077	0.02	0.1142233	8.737354	0	3	100	0	6546	0.5705727	1.848746	115.482	
12:28:05	47.46343	-122.3077	0.02	0.1142233	8.737354	0	3	100	0	6546	0.5712442	1.832059	115.1873	
12:28:06	47.46343	-122.3077	0.02	0.1142233	8.737354	0	3	100	0	6546	0.5722179	1.815302	114.8834	
12:28:06	47.46343	-122.3077	0.02	0.1142233	8.737354	0	3	100	0	6546	0.5723331	1.797413	114.5758	
12:28:06	47.46343	-122.3077	0.02	0.110424	8.726662	0	3	100	0	6546	0.5696034	1.780364	114.1725	
12:28:06	47.46343	-122.3077	0.02	0.110424	8.726662	0	3	100	0	6546	0.5658683	1.764102	113.7311	
12:28:06	47.46343	-122.3077	0.02	0.110424	8.726662	0	3	100	0	6546	0.5700067	1.747914	113.4977	
12:28:07	47.46343	-122.3077	0.02	0.110424	8.726662	0	3	100	0	6546	0.5748619	1.733156	113.2873	
12:28:07	47.46343	-122.3077	0.02	0.110424	8.726662	0	3	100	0	6546	0.5786541	1.718223	113.0633	
12:28:07	47.46343	-122.3077	0.02	0.1062767	8.16715	0	3	100	0	6546	0.5825768	1.706207	112.858	
12:28:07	47.46343	-122.3077	0.02	0.1062767	8.16715	0	3	100	0	6546	0.5872489	1.694014	112.6773	
12:28:07	47.46343	-122.3077	0.02	0.1062767	8.16715	0	3	100	0	6546	0.5899363	1.683497	112.4399	
12:28:08	47.46343	-122.3077	0.02	0.1062767	8.16715	0	3	100	0	6546	0.5951092	1.672309	112.2616	
12:28:08	47.46343	-122.3077	0.02	0.1062767	8.16715	0	3	100	0	6546	0.6002628	1.661478	112.0993	
12:28:08	47.46343	-122.3077	0.02	0.1012841	7.617823	0	3	100	0	6546	0.6052364	1.650223	111.9285	
12:28:08	47.46343	-122.3077	0.02	0.1012841	7.617823	0	3	100	0	6546	0.6102779	1.640442	111.7768	
12:28:08	47.46343	-122.3077	0.02	0.1012841	7.617823	0	3	100	0	6546	0.6140264	1.629717	111.5872	
12:28:09	47.46343	-122.3077	0.02	0.1012841	7.617823	0	3	100	0	6546	0.6164643	1.620697	111.3589	
12:28:09	47.46343	-122.3077	0.02	0.1012841	7.617823	0	3	100	0	6546	0.6185874	1.613106	111.127	
12:28:09	47.46343	-122.3077	0.02	0.09618199	7.11567	0	3	100	0	6546	0.6175528	1.60674	110.7816	
12:28:09	47.46343	-122.3077	0.02	0.09618199	7.11567	0	3	100	0	6546	0.6142129	1.601257	110.3526	
12:28:09	47.46343	-122.3077	0.02	0.09618199	7.11567	0	3	100	0	6546	0.6091911	1.5964	109.862	
12:28:10	47.46343	-122.3077	0.02	0.09618199	7.11567	0	3	100	0	6546	0.6029435	1.591975	109.3258	
12:28:10	47.46343	-122.3077	0.02	0.09618199	7.11567	0	3	100	0	6546	0.6061488	1.584289	109.0648	
12:28:10	47.46343	-122.3077	0.02	0.09137517	6.683506	0	3	100	0	6546	0.6136796	1.566282	109.0312	
12:28:10	47.46343	-122.3077	0.02	0.09137517	6.683506	0	3	100	0	6546	0.61807	1.540795	108.994	
12:28:10	47.46343	-122.3077	0.02	0.09137517	6.683506	0	3	100	0	6546	0.6190318	1.516703	108.8276	
12:28:11	47.46343	-122.3077	0.02	0.09137517	6.683506	0	3	100	0	6546	0.617561	1.493638	108.5659	
12:28:11	47.46343	-122.3077	0.02	0.09137517	6.683506	0	3	100	0	6546	0.6143775	1.471316	108.2341	
12:28:11	47.46343	-122.3077	0.02	0.08714484	6.34067	0	3	100	0	6546	0.609978	1.449575	107.8504	
12:28:11	47.46343	-122.3077	0.02	0.08714484	6.34067	0	3	100	0	6546	0.6173761	1.424156	107.9409	
12:28:11	47.46343	-122.3077	0.02	0.08714484	6.34067	0	3	100	0	6546	0.6207278	1.400486	107.8686	
12:28:12	47.46343	-122.3077	0.02	0.08714484	6.34067	0	3	100	0	6546	0.6212014	1.378118	107.6765	
12:28:12	47.46343	-122.3077	0.02	0.08714484	6.34067	0	3	100	0	6546	0.619638	1.356704	107.3959	
12:28:12	47.46343	-122.3077	0.02	0.08376519	6.092927	0	3	100	0	6546	0.6214885	1.334239	107.2729	
12:28:12	47.46343	-122.3077	0.02	0.08376519	6.092927	0	3	100	0	6546	0.6285186	1.311451	107.3712	
12:28:12	47.46343	-122.3077	0.02	0.08376519	6.092927	0	3	100	0	6546	0.6348593	1.292133	107.5233	
12:28:13	47.46343	-122.3077	0.02	0.08376519	6.092927	0	3	100	0	6546	0.6392875	1.277002	107.6825	
12:28:13	47.46343	-122.3077	0.02	0.08376519	6.092927	0	3	100	0	6546	0.6447787	1.262589	107.8337	
12:28:13	47.46343	-122.3077	0.02	0.08198359	6.27339	0	3	100	0	6546	0.6502184	1.247959	107.9927	
12:28:13	47.46343	-122.3077	0.02	0.08198359	6.27339	0	3	100	0	6546	0.6541724	1.234659	108.1498	
12:28:13	47.46343	-122.3077	0.02	0.08198359	6.27339	0	3	100	0	6546	0.6575588	1.220824	108.3051	
12:28:14	47.46343	-122.3077	0.02	0.08198359	6.27339	0	3	100	0	6546	0.6622671	1.209216	108.4489	
12:28:14	47.46343	-122.3077	0.02	0.08198359	6.27339	0	3	100	0	6546	0.6658888	1.197774	108.5824	
12:28:14	47.46343	-122.3077	0.02	0.08230484	6.156664	0	3	100	0	6546	0.6692727	1.186715	108.7217	
12:28:14	47.46343	-122.3077	0.02	0.08230484	6.156664	0	3	100	0	6546	0.6733865	1.176685	108.8512	
12:28:14	47.46343	-122.3077	0.02	0.08230484	6.156664	0	3	100	0	6546	0.6759833	1.167881	108.9773	
12:28:15	47.46343	-122.3077	0.02	0.08230484	6.156664	0	3	100	0	6546	0.6786751	1.158633	109.1022	
12:28:15	47.46343	-122.3077	0.02	0.08230484	6.156664	0	3	100	0	6546	0.6815547	1.148918	109.2335	
12:28:15	47.46343	-122.3077	0.02	0.08014575	5.677209	0	3	100	0	6546	0.6829984	1.13998	109.2796	
12:28:15	47.46343	-122.3077	0.02	0.08014575	5.677209	0	3	100	0	6546	0.6814345	1.132804	109.1742	
12:28:15	47.46343	-122.3077	0.02	0.08014575	5.677209	0	3	100	0	6546	0.6776945	1.126979	108.958	
12:28:16	47.46343	-122.3077	0.02	0.08014575	5.677209	0	3	100	0	6546	0.6723633	1.122103	108.6597	
12:28:16	47.46343	-122.3077	0.02	0.08014575	5.677209	0	3	100	0	6546	0.6658721	1.117903	108.3008	
12:28:16	47.46343	-122.3077	0.02	0.07594469	5.129494	0	3	100	0	6546	0.6615442	1.107458	108.1399	
12:28:16	47.46343	-122.3077	0.02	0.07594469	5.129494	0	3	100	0	6546	0.6632	1.081921	108.5028	
12:28:16	47.46343	-122.3077	0.02	0.07594469	5.129494	0	3	100	0	6546	0.6640912	1.055812	108.8546	
12:28:17	47.46343	-122.3077	0.02	0.07594469	5.129494	0	3	100	0	6546	0.6652385	1.033098	109.2071	
12:28:17	47.46343	-122.3077	0.02	0.07594469	5.129494	0	3	100	0	6546	0.665309	1.011976	109.5411	
12:28:17	47.46343	-122.3077	0.02	0.07136423	4.6962	0	3	100	0	6546	0.6641693	0.9915888	109.84	
12:28:17	47.46343	-122.3077	0.02	0.07136423	4.6962	0	3	100	0	6546	0.662738	0.9719616	110.1414	
12:28:17	47.46343	-122.3077	0.02	0.07136423	4.6962	0	3	100	0	6546	0.6627682	0.9532179	110.4203	
12:28:18	47.46343	-122.3077	0.02	0.07136423	4.6962	0	3	100	0	6546	0.6606725	0.9365172	110.5566	
12:28:18	47.46343	-122.3077	0.02	0.07136423	4.6962	0	3	100	0	6546	0.6579414	0.9206361	110.7006	
12:28:18	47.46343	-122.3077	0.02	0.07036803	5.18735	0	3	100	0	6546	0.656783	0.9048335	110.9813	
12:28:18	47.46343	-122.3077	0.02	0.07036803	5.18735	0	3	100	0	6546	0.6540035	0.8901519	111.174	
12:28:18	47.46343	-122.3077	0.02	0.07036803	5.18735	0	3	100	0	6546	0.6491327	0.8769916	111.2342	
12:28:19	47.46343	-122.3077	0.02	0.07036803	5.18735	0	3	100	0	6546	0.6467692	0.8625903	111.4338	
12:28:19	47.46343	-122.3077	0.02	0.07036803	5.18735	0	3	100	0	6546	0.6452454	0.8493066	111.6984	
12:28:19	47.46343	-122.3077	0.02	0.06957147	4.773735	0	3	100	0	6546	0.6438484	0.8368582	111.9662	
12:28:19	47.46343	-122.3077	0.02	0.06957147	4.773735	0	3	100	0	6546	0.6420929	0.8251048	112.1971	
12:28:19	47.46343	-122.3077	0.02	0.06957147	4.773735	0	3	100	0	6546	0.6406069	0.815077	112.4459	
12:28:20	47.46343	-122.3077	0.02	0.06957147	4.773735	0	3	100	0	6546	0.6375416	0.8054878	112.6093	
12:28:20	47.46343	-122.3077	0.02	0.06957147	4.773735	0	3	100	0	6546	0.6357903	0.7949039	112.8452	
12:28:20	47.46343	-122.3077	0.02	0.06685252	4.310636	0	3	100	0	6546	0.6338187	0.7849394	113.072	
12:28:20	47.46343	-122.3077	0.02	0.06685252	4.310636	0	3	100	0	6546	0.6320357	0.7761019	113.2944	
12:28:20	47.46343	-122.3077	0.02	0.06685252	4.310636	0	3	100	0	6546	0.6304052	0.7669628	113.5078	
12:28:21	47.46343	-122.3077	0.02	0.06685252	4.310636	0	3	100	0	6546	0.6292664	0.7579458	113.7198	
12:28:21	47.46343	-122.3077	0.02	0.06685252	4.310636	0	3	100	0	6546	0.6280347	0.7494647	113.9131	
12:28:21	47.46343	-122.3077	0.02	0.06321011	4.006908	0	3	100	0	6546	0.6270304	0.7421722	114.1057	
12:28:21	47.46343	-122.3077	0.02	0.06321011	4.006908	0	3	100	0	6546	0.6238657	0.7320693	114.3495	
12:28:21	47.46343	-122.3077	0.02	0.06321011	4.006908	0	3	100	0	6546	0.6168832	0.7164556	114.6883	
12:28:22	47.46343	-122.3077	0.02	0.06321011	4.006908	0	3	100	0	6546	0.6106359	0.7019079	115.005	
12:28:22	47.46343	-122.3077	0.02	0.06321011	4.006908	0	3	100	0	6546	0.6044825	0.6866625	115.3193	
12:28:22	47.46343	-122.3077	0.02	0.06011662	3.691189	0	3	100	0	6546	0.5982122	0.673239	115.6233	
12:28:22	47.46343	-122.3077	0.02	0.06011662	3.691189	0	3	100	0	6546	0.5917983	0.6595965	115.9025	
12:28:22	47.46343	-122.3077	0.02	0.06011662	3.691189	0	3	100	0	6546	0.5856665	0.6456336	116.1778	
12:28:23	47.46343	-122.3077	0.02	0.06011662	3.691189	0	3	100	0	6546	0.5800585	0.6324202	116.4532	
12:28:23	47.46343	-122.3077	0.02	0.06011662	3.691189	0	3	100	0	6546	0.5737645	0.6215434	116.7218	
12:28:23	47.46343	-122.3077	0.02	0.05676763	3.340546	0	3	100	0	6546	0.5684724	0.6114303	116.9768	
12:28:23	47.46343	-122.3077	0.02	0.05676763	3.340546	0	3	100	0	6546	0.5628802	0.6014979	117.2232	
12:28:23	47.46343	-122.3077	0.02	0.05676763	3.340546	0	3	100	0	6546	0.5573136	0.5906814	117.4517	
12:28:24	47.46343	-122.3077	0.02	0.05676763	3.340546	0	3	100	0	6546	0.5516041	0.581034	117.6431	
12:28:24	47.46343	-122.3077	0.02	0.05676763	3.340546	0	3	100	0	6546	0.5460842	0.5712643	117.8376	
12:28:24	47.46343	-122.3077	0.02	0.05348356	3.058869	0	3	100	0	6546	0.5398471	0.562518	117.9571	
12:28:24	47.46343	-122.3077	0.02	0.05348356	3.058869	0	3	100	0	6546	0.534521	0.5547367	118.1328	
12:28:25	47.46343	-122.3077	0.02	0.05348356	3.058869	0	3	100	0	6546	0.5283401	0.5477756	118.222	
12:28:25	47.46343	-122.3077	0.02	0.05348356	3.058869	0	3	100	0	6546	0.5215425	0.5414091	118.2474	
12:28:25	47.46343	-122.3077	0.02	0.05348356	3.058869	0	3	100	0	6546	0.514263	0.5354419	118.2256	
12:28:25	47.46343	-122.3077	0.02	0.05091691	2.867695	0	3	100	0	6546	0.5072713	0.5297832	118.2272	
12:28:25	47.46343	-122.3077	0.02	0.05091691	2.867695	0	3	100	0	6546	0.5020242	0.5236299	118.4376	
12:28:26	47.46343	-122.3077	0.02	0.05091691	2.867695	0	3	100	0	6546	0.4993044	0.5178268	118.6387	
12:28:26	47.46343	-122.3077	0.02	0.05091691	2.867695	0	3	100	0	6546	0.4947227	0.5115345	118.8319	
12:28:26	47.46343	-122.3077	0.02	0.05091691	2.867695	0	3	100	0	6546	0.4916194	0.5069272	119.0185	
12:28:26	47.46343	-122.3077	0.02	0.0491116	2.746145	0	3	100	0	6546	0.488779	0.5024672	119.2013	
12:28:26	47.46343	-122.3077	0.02	0.0491116	2.746145	0	3	100	0	6546	0.4847993	0.4985968	119.3776	
12:28:27	47.46343	-122.3077	0.02	0.0491116	2.746145	0	3	100	0	6546	0.4798204	0.4912198	119.6014	
12:28:27	47.46343	-122.3077	0.02	0.0491116	2.746145	0	3	100	0	6546	0.4728482	0.481346	119.8674	
12:28:27	47.46343	-122.3077	0.02	0.0491116	2.746145	0	3	100	0	6546	0.4647528	0.4707849	120.1241	
12:28:27	47.46343	-122.3077	0.02	0.04876892	2.870335	0	3	100	0	6546	0.4582921	0.4611225	120.372	
12:28:27	47.46343	-122.3077	0.02	0.04876892	2.870335	0	3	100	0	6546	0.4503872	0.4513986	120.5988	
12:28:28	47.46343	-122.3077	0.02	0.04876892	2.870335	0	3	100	0	6546	0.4448516	0.4431943	120.8334	
12:28:28	47.46343	-122.3077	0.02	0.04876892	2.870335	0	3	100	0	6546	0.4380888	0.4341663	121.0527	
12:28:28	47.46343	-122.3077	0.02	0.04876892	2.870335	0	3	100	0	6546	0.4312312	0.4253892	121.2643	
12:28:28	47.46343	-122.3077	0.02	0.04834856	2.949595	0	3	100	0	6546	0.4240063	0.4172059	121.4176	
12:28:28	47.46343	-122.3077	0.02	0.04834856	2.949595	0	3	100	0	6546	0.4164178	0.4094677	121.5176	
12:28:29	47.46343	-122.3077	0.02	0.04834856	2.949595	0	3	100	0	6546	0.4097506	0.4024365	121.6643	
12:28:29	47.46343	-122.3077	0.02	0.04834856	2.949595	0	3	100	0	6546	0.4034496	0.3960367	121.8071	
12:28:29	47.46343	-122.3077	0.02	0.04834856	2.949595	0	3	100	0	6546	0.3967574	0.3899719	121.9004	
12:28:29	47.46343	-122.3077	0.02	0.0515399	3.556681	0	3	100	0	6546	0.390603	0.3844121	122.0538	
12:28:29	47.46343	-122.3077	0.02	0.0515399	3.556681	0	3	100	0	6546	0.3850263	0.3785032	122.2428	
12:28:30	47.46343	-122.3077	0.02	0.0515399	3.556681	0	3	100	0	6546	0.3803582	0.3733289	122.4223	
12:28:30	47.46343	-122.3077	0.02	0.0515399	3.556681	0	3	100	0	6546	0.3758402	0.3689111	122.5923	
12:28:30	47.46343	-122.3077	0.02	0.0515399	3.556681	0	3	100	0	6546	0.3708069	0.3651875	122.7159	
12:28:30	47.46343	-122.3077	0.02	0.05181562	2.925115	0	3	100	0	6546	0.3655069	0.3617814	122.794	
12:28:30	47.46343	-122.3077	0.02	0.05181562	2.925115	0	3	100	0	6546	0.3599676	0.3585754	122.8395	
12:28:31	47.46343	-122.3077	0.02	0.05181562	2.925115	0	3	100	0	6546	0.3543015	0.3555418	122.8603	
12:28:31	47.46343	-122.3077	0.02	0.05181562	2.925115	0	3	100	0	6546	0.3493881	0.3524753	122.9889	
12:28:31	47.46343	-122.3077	0.02	0.05181562	2.925115	0	3	100	0	6546	0.3450195	0.3488093	123.1348	
12:28:31	47.46343	-122.3077	0.02	0.04797421	2.415572	0	3	100	0	6544	0.3418243	0.3445332	123.2829	
12:28:31	47.46343	-122.3077	0.02	0.04797421	2.415572	0	3	100	0	6544	0.3391263	0.3405484	123.4271	
12:28:32	47.46343	-122.3077	0.02	0.04797421	2.415572	0	3	100	0	6544	0.3348914	0.3357418	123.5862	
12:28:32	47.46343	-122.3077	0.02	0.04797421	2.415572	0	3	100	0	6544	0.3282019	0.3291009	123.7698	
12:28:32	47.46343	-122.3077	0.02	0.04797421	2.415572	0	3	100	0	6544	0.3218286	0.3226753	123.9504	
12:28:32	47.46343	-122.3077	0.02	0.04391371	2.089188	0	3	100	0	6546	0.3156225	0.3161955	124.1251	
12:28:32	47.46343	-122.3077	0.02	0.04391371	2.089188	0	3	100	0	6546	0.3099762	0.3087234	124.2985	
12:28:33	47.46343	-122.3077	0.02	0.04391371	2.089188	0	3	100	0	6546	0.304058	0.3025913	124.4484	
12:28:33	47.46343	-122.3077	0.02	0.04391371	2.089188	0	3	100	0	6546	0.2978105	0.2966911	124.6152	
12:28:33	47.46343	-122.3077	0.02	0.04391371	2.089188	0	3	100	0	6546	0.2924336	0.2921376	124.7743	
12:28:33	47.46343	-122.3077	0.02	0.04077005	1.83933	0	3	100	0	6548	0.2872963	0.2878301	124.9261	
12:28:33	47.46343	-122.3077	0.02	0.04077005	1.83933	0	3	100	0	6548	0.2829874	0.2832746	125.0755	
12:28:34	47.46343	-122.3077	0.02	0.04077005	1.83933	0	3	100	0	6548	0.2785574	0.2795343	125.2175	
12:28:34	47.46343	-122.3077	0.02	0.04077005	1.83933	0	3	100	0	6548	0.2748115	0.2754439	125.3564	
12:28:34	47.46343	-122.3077	0.02	0.04077005	1.83933	0	3	100	0	6548	0.2705405	0.2717704	125.4908	
12:28:34	47.46343	-122.3077	0.02	0.03908825	1.711498	0	3	100	0	6546	0.2663864	0.2679577	125.6178	
12:28:34	47.46343	-122.3077	0.02	0.03908825	1.711498	0	3	100	0	6546	0.2632612	0.2651254	125.7407	
12:28:35	47.46343	-122.3077	0.02	0.03908825	1.711498	0	3	100	0	6546	0.2590485	0.2624902	125.8603	
12:28:35	47.46343	-122.3077	0.02	0.03908825	1.711498	0	3	100	0	6546	0.2554075	0.2588212	125.9768	
12:28:35	47.46343	-122.3077	0.02	0.03908825	1.711498	0	3	100	0	6546	0.2519376	0.2562511	126.0873	
12:28:35	47.46343	-122.3077	0.02	0.03769096	1.691528	0	3	100	0	6546	0.2481299	0.2540962	126.1953	
12:28:35	47.46343	-122.3077	0.02	0.03769096	1.691528	0	3	100	0	6546	0.2445893	0.2524128	126.2985	
12:28:36	47.46343	-122.3077	0.02	0.03769096	1.691528	0	3	100	0	6546	0.2409148	0.2504511	126.3984	
12:28:36	47.46343	-122.3077	0.02	0.03769096	1.691528	0	3	100	0	6546	0.2372186	0.2487727	126.4952	
12:28:36	47.46343	-122.3077	0.02	0.03769096	1.691528	0	3	100	0	6546	0.2344199	0.246229	126.5889	
12:28:36	47.46343	-122.3077	0.02	0.03736207	1.658099	0	3	100	0	6546	0.2313002	0.2442019	126.6795	
12:28:36	47.46343	-122.3077	0.02	0.03736207	1.658099	0	3	100	0	6546	0.2282931	0.2415215	126.7668	
12:28:37	47.46343	-122.3077	0.02	0.03736207	1.658099	0	3	100	0	6546	0.2254824	0.2395202	126.8499	
12:28:37	47.46343	-122.3077	0.02	0.03736207	1.658099	0	3	100	0	6546	0.2222029	0.2358146	126.9527	
12:28:37	47.46343	-122.3077	0.02	0.03736207	1.658099	0	3	100	0	6546	0.2178035	0.232364	127.0605	
12:28:37	47.46343	-122.3077	0.02	0.03794044	1.892024	0	3	100	0	6546	0.2141992	0.2284403	127.164	
12:28:37	47.46343	-122.3077	0.02	0.03794044	1.892024	0	3	100	0	6546	0.2097031	0.2285615	127.2636	
12:28:38	47.46343	-122.3077	0.02	0.03794044	1.892024	0	3	100	0	6546	0.2054873	0.2256211	127.3599	
12:28:38	47.46343	-122.3077	0.02	0.03794044	1.892024	0	3	100	0	6546	0.2018319	0.2218816	127.4539	
12:28:38	47.46343	-122.3077	0.02	0.03794044	1.892024	0	3	100	0	6546	0.1983322	0.2172081	127.5389	
12:28:38	47.46343	-122.3077	0.02	0.03771886	1.599371	0	3	100	0	6546	0.1947693	0.2125518	127.6141	
12:28:38	47.46343	-122.3077	0.02	0.03771886	1.599371	0	3	100	0	6546	0.1911724	0.207926	127.6815	
12:28:39	47.46343	-122.3077	0.02	0.03771886	1.599371	0	3	100	0	6546	0.1875678	0.2033459	127.7431	
12:28:39	47.46343	-122.3077	0.02	0.03771886	1.599371	0	3	100	0	6546	0.183944	0.198783	127.8006	
12:28:39	47.46343	-122.3077	0.02	0.03771886	1.599371	0	3	100	0	6546	0.1803051	0.1942335	127.855	
12:28:39	47.46343	-122.3077	0.02	0.03601952	1.33106	0	3	100	0	6546	0.1766545	0.1896943	127.9071	
12:28:39	47.46343	-122.3077	0.02	0.03601952	1.33106	0	3	100	0	6546	0.1729942	0.1851635	127.9576	
12:28:40	47.46343	-122.3077	0.02	0.03601952	1.33106	0	3	100	0	6546	0.1693261	0.1806396	128.0069	
12:28:40	47.46343	-122.3077	0.02	0.03601952	1.33106	0	3	100	0	6546	0.1656513	0.1761215	128.0553	
12:28:40	47.46343	-122.3077	0.02	0.03601952	1.33106	0	3	100	0	6546	0.1619707	0.1716084	128.103	
12:28:40	47.46343	-122.3077	0.02	0.03601952	1.33106	0	3	100	0	6546	0.1582849	0.1670997	128.1503	
12:28:40	47.46343	-122.3077	0.02	0.03601952	1.33106	0	3	100	0	6546	0.1545943	0.1625951	128.1971	
12:28:41	47.46343	-122.3077	0.02	0.03601952	1.33106	0	3	100	0	6546	0.1508994	0.1580943	128.2437	
12:28:41	47.46343	-122.3077	0.02	0.03601952	1.33106	0	3	100	0	6546	0.1472002	0.1535969	128.2902	
12:28:41	47.46343	-122.3077	0.02	0.03601952	1.33106	0	3	100	0	6546	0.143497	0.1491028	128.3364	
12:28:41	47.46343	-122.3077	0.02	0.03601952	1.33106	0	3	100	0	6546	0.1397899	0.144612	128.3826	
12:28:41	47.46343	-122.3077	0.02	0.03601952	1.33106	0	3	100	0	6546	0.136079	0.1401245	128.4287	
12:28:42	47.46343	-122.3077	0.02	0.03601952	1.33106	0	3	100	0	6546	0.1323643	0.13564	128.4747	
12:28:42	47.46343	-122.3077	0.02	0.03601952	1.33106	0	3	100	0	6546	0.1286459	0.1311586	128.5207	
12:28:42	47.46343	-122.3077	0.02	0.03601952	1.33106	0	3	100	0	6546	0.1249239	0.1266803	128.5666	
12:28:42	47.46343	-122.3077	0.02	0.03601952	1.33106	0	3	100	0	6546	0.1211796	0.1221827	128.6128	
12:28:42	47.46343	-122.3077	0.02	0.03601952	1.33106	0	3	100	0	6546	0.1174502	0.1177104	128.6587	
12:28:43	47.46343	-122.3077	0.02	0.03601952	1.33106	0	3	100	0	6546	0.1136987	0.1132188	128.7048	
12:28:43	47.46343	-122.3077	0.02	0.03601952	1.33106	0	3	100	0	6546	6.576244E-05	-0.000101724	-5.837795E-11	
12:28:43	47.46343	-122.3077	0.02	0.03601952	1.33106	0	3	100	0	6546	6.576244E-05	-0.000101724	-5.837795E-11	
12:28:43	47.46343	-122.3077	0.02	0.03601952	1.33106	0	3	100	0	6546	6.576244E-05	-0.000101724	-5.837795E-11	
12:28:43	47.46343	-122.3077	0.02	0.03601952	1.33106	0	3	100	0	6546	0.05521771	-0.009971531	7.909139	
12:28:44	47.46343	-122.3077	0.02	0.03601952	1.33106	0	3	100	0	6546	0.144146	-0.03769656	18.26729	
12:28:44	47.46343	-122.3077	0.02	0.03601952	1.33106	0	3	100	0	6546	0.2299516	-0.072194	25.90683	
12:28:44	47.46343	-122.3077	0.02	0.03601952	1.33106	0	3	100	0	6546	0.3141881	-0.1084083	31.54137	
12:28:44	47.46343	-122.3077	0.02	0.03352227	1.078097	0	3	100	0	6546	0.3981775	-0.1436391	35.69727	
12:28:44	47.46343	-122.3077	0.02	0.03352227	1.078097	0	3	100	0	6546	0.482761	-0.1765594	38.76276	
12:28:45	47.46343	-122.3077	0.02	0.03352227	1.078097	0	3	100	0	6546	0.5457149	-0.2444235	44.235	
12:28:45	47.46343	-122.3077	0.02	0.03352227	1.078097	0	3	100	0	6546	0.5009838	-0.4274938	59.32763	
12:28:45	47.46343	-122.3077	0.02	0.03352227	1.078097	0	3	100	0	6546	0.4494979	-0.5645657	70.45966	
12:28:45	47.46343	-122.3077	0.02	0.03137721	0.8857449	0	3	100	0	6546	0.4064965	-0.6706335	78.67027	
12:28:45	47.46343	-122.3077	0.02	0.03137721	0.8857449	0	3	100	0	6546	0.3768715	-0.7568612	84.72615	
12:28:46	47.46343	-122.3077	0.02	0.03137721	0.8857449	0	3	100	0	6546	0.3609683	-0.8305355	89.19295	
12:28:46	47.46343	-122.3077	0.02	0.03137721	0.8857449	0	3	100	0	6546	0.3573775	-0.8961602	92.48782	
12:28:46	47.46343	-122.3077	0.02	0.03137721	0.8857449	0	3	100	0	6546	0.3641843	-0.9564692	94.91843	
12:28:46	47.46343	-122.3077	0.02	0.02999052	0.7644061	0	3	100	0	6546	0.3794917	-1.01313	96.71169	
12:28:46	47.46343	-122.3077	0.02	0.02999052	0.7644061	0	3	100	0	6546	0.4016159	-1.067182	98.03495	
12:28:47	47.46343	-122.3077	0.02	0.02999052	0.7644061	0	3	100	0	6546	0.4291386	-1.119298	99.01159	
12:28:47	47.46343	-122.3077	0.02	0.02999052	0.7644061	0	3	100	0	6546	0.4608992	-1.169935	99.7326	
12:28:47	47.46343	-122.3077	0.02	0.02999052	0.7644061	0	3	100	0	6546	0.4959652	-1.21942	100.2651	
12:28:47	47.46343	-122.3077	0.02	0.02999052	0.7644061	0	3	100	0	6546	0.5335966	-1.267992	100.6586	
12:28:47	47.46343	-122.3077	0.02	0.02999052	0.7644061	0	3	100	0	6546	0.5732112	-1.315839	100.9495	
12:28:48	47.46343	-122.3077	0.02	0.02999052	0.7644061	0	3	100	0	6546	0.6143537	-1.363107	101.1649	
12:28:48	47.46343	-122.3077	0.02	0.02999052	0.7644061	0	3	100	0	6546	0.5055416	-1.37935	106.3814	
12:28:48	47.46343	-122.3077	0.02	0.02999052	0.7644061	0	3	100	0	6546	0.3249786	-1.228141	113.2055	
12:28:48	47.46343	-122.3077	0.02	0.02923702	0.909878	0	3	100	0	6546	0.1889578	-0.9383204	118.2301	
12:28:48	47.46343	-122.3077	0.02	0.02923702	0.909878	0	3	100	0	6546	0.09698202	-0.6355721	121.9355	
12:28:49	47.46343	-122.3077	0.02	0.02923702	0.909878	0	3	100	0	6546	0.0328576	-0.3268498	124.6681	
12:28:49	47.46343	-122.3077	0.02	0.02923702	0.909878	0	3	100	0	6546	0.01537033	0.08785952	126.2705	
12:28:49	47.46343	-122.3077	0.02	0.02923702	0.909878	0	3	100	0	6546	0.01293728	0.3767988	127.1913	
12:28:49	47.46343	-122.3077	0.02	0.03169035	1.555725	0	3	100	0	6546	0.01240291	0.6277825	127.8983	
12:28:49	47.46343	-122.3077	0.02	0.03169035	1.555725	0	3	100	0	6546	0.01093752	0.7096824	128.1362	
12:28:50	47.46343	-122.3077	0.02	0.03169035	1.555725	0	3	100	0	6546	0.008358879	0.6191691	128.1943	
12:28:50	47.46343	-122.3077	0.02	0.03169035	1.555725	0	3	100	0	6546	0.007364374	0.4401344	128.3024	
12:28:50	47.46343	-122.3077	0.02	0.03169035	1.555725	0	3	100	0	6546	0.007659724	0.2440194	128.4902	
12:28:50	47.46343	-122.3077	0.02	0.03461139	1.627015	0	3	100	0	6546	0.007935206	0.08742853	128.7352	
12:28:50	47.46343	-122.3077	0.02	0.03461139	1.627015	0	3	100	0	6546	0.006672089	-0.04535106	128.9788	
12:28:51	47.46343	-122.3077	0.02	0.03461139	1.627015	0	3	100	0	6546	0.005054044	-0.178106	129.2029	
12:28:51	47.46343	-122.3077	0.02	0.03461139	1.627015	0	3	100	0	6546	0.003396997	-0.2509153	129.4684	
12:28:51	47.46343	-122.3077	0.02	0.03461139	1.627015	0	3	100	0	6546	0.004383633	-0.2443329	129.7034	
12:28:51	47.46343	-122.3077	0.02	0.03648395	1.629136	0	3	100	0	6546	0.005469867	-0.2377534	129.9212	
12:28:51	47.46343	-122.3077	0.02	0.03648395	1.629136	0	3	100	0	6546	0.00663318	-0.2311768	130.1262	
12:28:52	47.46343	-122.3077	0.02	0.03648395	1.629136	0	3	100	0	6546	0.007857339	-0.2246033	130.3219	
12:28:52	47.46343	-122.3077	0.02	0.03648395	1.629136	0	3	100	0	6546	0.009130647	-0.2180331	130.5106	
12:28:52	47.46343	-122.3077	0.02	0.03648395	1.629136	0	3	100	0	6546	0.01044473	-0.2114662	130.6942	
12:28:52	47.46343	-122.3077	0.02	0.03500441	1.191806	0	3	100	0	6546	0.01179352	-0.2049029	130.8741	
12:28:52	47.46343	-122.3077	0.02	0.03500441	1.191806	0	3	100	0	6546	0.01317266	-0.1983433	131.0511	
12:28:53	47.46343	-122.3077	0.02	0.03500441	1.191806	0	3	100	0	6546	0.01457904	-0.1917875	131.2261	
12:28:53	47.46343	-122.3077	0.02	0.03500441	1.191806	0	3	100	0	6546	0.01624312	-0.178932	131.3417	
12:28:53	47.46343	-122.3077	0.02	0.03500441	1.191806	0	3	100	0	6546	0.02058074	-0.1100774	131.007	
12:28:53	47.46343	-122.3077	0.02	0.03368785	1.002903	0	3	100	0	6546	0.02148952	-0.04245175	130.7276	
12:28:53	47.46343	-122.3077	0.02	0.03368785	1.002903	0	3	100	0	6546	0.02203771	0.02513318	130.5604	
12:28:54	47.46343	-122.3077	0.02	0.03368785	1.002903	0	3	100	0	6546	0.02248223	0.09268517	130.4816	
12:28:54	47.46343	-122.3077	0.02	0.03368785	1.002903	0	3	100	0	6546	0.02297953	0.160212	130.468	
12:28:54	47.46343	-122.3077	0.02	0.03368785	1.002903	0	3	100	0	6546	0.02362474	0.2277194	130.5024	
12:28:54	47.46343	-122.3077	0.02	0.02991043	0.6277149	0	3	100	0	6546	0.02447744	0.2955489	130.5725	
12:28:54	47.46343	-122.3077	0.02	0.02991043	0.6277149	0	3	100	0	6546	0.0203273	0.350313	130.3331	
12:28:55	47.46343	-122.3077	0.02	0.02991043	0.6277149	0	3	100	0	6546	0.01459614	0.396038	129.9643	
12:28:55	47.46343	-122.3077	0.02	0.02991043	0.6277149	0	3	100	0	6546	0.009280961	0.4037589	129.6877	
12:28:55	47.46343	-122.3077	0.02	0.02991043	0.6277149	0	3	100	0	6546	0.00404309	0.3725857	129.477	
12:28:55	47.46343	-122.3077	0.02	0.02892121	0.7876964	0	3	100	0	6546	-0.000494904	0.341392	129.3605	
12:28:55	47.46343	-122.3077	0.02	0.02892121	0.7876964	0	3	100	0	6546	-0.003713294	0.2863182	129.2999	
12:28:56	47.46343	-122.3077	0.02	0.02892121	0.7876964	0	3	100	0	6546	-0.002614007	0.1748815	129.275	
12:28:56	47.46343	-122.3077	0.02	0.02892121	0.7876964	0	3	100	0	6546	0.002623908	0.06891448	129.3187	
12:28:56	47.46343	-122.3077	0.02	0.02892121	0.7876964	0	3	100	0	6546	0.006096877	-0.003118901	129.4035	
12:28:56	47.46343	-122.3077	0.02	0.02819405	0.890677	0	3	100	0	6546	0.008157517	-0.04036823	129.4987	
12:28:56	47.46343	-122.3077	0.02	0.02819405	0.890677	0	3	100	0	6546	0.009948209	-0.04844961	129.5881	
12:28:57	47.46343	-122.3077	0.02	0.02819405	0.890677	0	3	100	0	6546	0.01158774	-0.05367016	129.6911	
12:28:57	47.46343	-122.3077	0.02	0.02819405	0.890677	0	3	100	0	6546	0.01285363	-0.04885298	129.7522	
12:28:57	47.46343	-122.3077	0.02	0.02819405	0.890677	0	3	100	0	6546	0.01217555	-0.03278923	129.7674	
12:28:57	47.46343	-122.3077	0.02	0.02821719	0.767144	0	3	100	0	6547	0.01097455	-0.01388187	129.7676	
12:28:57	47.46343	-122.3077	0.02	0.02821719	0.767144	0	3	100	0	6547	0.008566842	0.003132655	129.7592	
12:28:58	47.46343	-122.3077	0.02	0.02821719	0.767144	0	3	100	0	6547	0.00679511	0.01411416	129.7443	
12:28:58	47.46343	-122.3077	0.02	0.02821719	0.767144	0	3	100	0	6547	0.005951675	0.01945915	129.7543	
12:28:58	47.46343	-122.3077	0.02	0.02821719	0.767144	0	3	100	0	6547	0.005393075	0.02387554	129.7748	
12:28:58	47.46343	-122.3077	0.02	0.02921553	1.00614	0	3	100	0	6546	0.005596299	0.02451171	129.7457	
12:28:58	47.46343	-122.3077	0.02	0.02921553	1.00614	0	3	100	0	6546	0.006437491	0.0233524	129.8498	
12:28:59	47.46343	-122.3077	0.02	0.02921553	1.00614	0	3	100	0	6546	0.009558893	0.02525818	129.9792	
12:28:59	47.46343	-122.3077	0.02	0.02921553	1.00614	0	3	100	0	6546	0.01189132	0.02837785	130.1045	
12:28:59	47.46343	-122.3077	0.02	0.02921553	1.00614	0	3	100	0	6546	0.01405465	0.03074703	130.2256	
12:28:59	47.46343	-122.3077	0.02	0.02985025	0.8976039	0	3	100	0	6546	0.01647846	0.03311319	130.3558	
12:28:59	47.46343	-122.3077	0.02	0.02985025	0.8976039	0	3	100	0	6546	0.01934159	0.03510934	130.4675	
12:29:00	47.46343	-122.3077	0.02	0.02985025	0.8976039	0	3	100	0	6546	0.02065144	0.03891543	130.5644	
12:29:00	47.46343	-122.3077	0.02	0.02985025	0.8976039	0	3	100	0	6546	0.02149197	0.04138687	130.6576	
12:29:00	47.46343	-122.3077	0.02	0.02985025	0.8976039	0	3	100	0	6546	0.02320985	0.04259771	130.7476	
12:29:00	47.46343	-122.3077	0.02	0.02886442	0.7848555	0	3	100	0	6545	0.02492267	0.04287564	130.8353	
12:29:00	47.46343	-122.3077	0.02	0.02886442	0.7848555	0	3	100	0	6545	0.02660421	0.0430827	130.9301	
12:29:01	47.46343	-122.3077	0.02	0.02886442	0.7848555	0	3	100	0	6545	0.02831148	0.04324135	131.0314	
12:29:01	47.46343	-122.3077	0.02	0.02886442	0.7848555	0	3	100	0	6545	0.02980465	0.04396562	131.1074	
12:29:01	47.46343	-122.3077	0.02	0.02886442	0.7848555	0	3	100	0	6545	0.0315955	0.04356923	131.1803	
12:29:01	47.46343	-122.3077	0.02	0.02748417	0.6634246	0	3	100	0	6546	0.03310124	0.04422427	131.251	
12:29:01	47.46343	-122.3077	0.02	0.02748417	0.6634246	0	3	100	0	6546	0.03430533	0.04512519	131.3181	
12:29:02	47.46343	-122.3077	0.02	0.02748417	0.6634246	0	3	100	0	6546	0.03540435	0.04623167	131.3947	
12:29:02	47.46343	-122.3077	0.02	0.02748417	0.6634246	0	3	100	0	6546	0.03613808	0.04700476	131.4564	
12:29:02	47.46343	-122.3077	0.02	0.02748417	0.6634246	0	3	100	0	6546	0.03690368	0.04616609	131.5294	
12:29:02	47.46343	-122.3077	0.02	0.02661598	0.504423	0	3	100	0	6546	0.03768829	0.04530897	131.6232	
12:29:02	47.46343	-122.3077	0.02	0.02661598	0.504423	0	3	100	0	6546	0.03847933	0.04444487	131.7315	
12:29:03	47.46343	-122.3077	0.02	0.02661598	0.504423	0	3	100	0	6546	0.03928114	0.04356742	131.8514	
12:29:03	47.46343	-122.3077	0.02	0.02661598	0.504423	0	3	100	0	6546	0.04008327	0.042687	131.9789	
12:29:03	47.46343	-122.3077	0.02	0.02661598	0.504423	0	3	100	0	6546	0.04088785	0.04180056	132.1124	
12:29:03	47.46343	-122.3077	0.02	0.02525371	0.3044378	0	3	100	0	6545	0.04187496	0.04116241	132.2388	
12:29:03	47.46343	-122.3077	0.02	0.02525371	0.3044378	0	3	100	0	6545	0.04350343	0.04155126	132.2734	
12:29:04	47.46343	-122.3077	0.02	0.02525371	0.3044378	0	3	100	0	6545	0.0451517	0.04191826	132.3349	
12:29:04	47.46343	-122.3077	0.02	0.02525371	0.3044378	0	3	100	0	6545	0.0468175	0.04226474	132.4198	
12:29:04	47.46343	-122.3077	0.02	0.02525371	0.3044378	0	3	100	0	6545	0.04803021	0.04230326	132.4575	
12:29:04	47.46343	-122.3077	0.02	0.02311401	0.2373847	0	3	100	0	6546	0.04867055	0.0440203	132.4789	
12:29:04	47.46343	-122.3077	0.02	0.02311401	0.2373847	0	3	100	0	6546	0.0488607	0.04595059	132.5183	
12:29:05	47.46343	-122.3077	0.02	0.02311401	0.2373847	0	3	100	0	6546	0.04907509	0.04784625	132.5866	
12:29:05	47.46343	-122.3077	0.02	0.02311401	0.2373847	0	3	100	0	6546	0.04902527	0.04795144	132.6068	
12:29:05	47.46343	-122.3077	0.02	0.02311401	0.2373847	0	3	100	0	6546	0.04908226	0.04791979	132.6056	
12:29:05	47.46343	-122.3077	0.02	0.0252409	0.7281198	0	3	100	0	6546	0.04940234	0.0470614	132.5922	
12:29:05	47.46343	-122.3077	0.02	0.0252409	0.7281198	0	3	100	0	6546	0.0494008	0.04641262	132.578	
12:29:06	47.46343	-122.3077	0.02	0.0252409	0.7281198	0	3	100	0	6546	0.04940119	0.04555473	132.5816	
12:29:06	47.46343	-122.3077	0.02	0.0252409	0.7281198	0	3	100	0	6546	0.04936871	0.04554087	132.5804	
12:29:06	47.46343	-122.3077	0.02	0.0252409	0.7281198	0	3	100	0	6546	0.04946604	0.04640436	132.5694	
12:29:06	47.46343	-122.3077	0.02	0.02586409	0.6073889	0	3	100	0	6546	0.04948747	0.0475329	132.5606	
12:29:06	47.46343	-122.3077	0.02	0.02586409	0.6073889	0	3	100	0	6546	0.04953931	0.04757243	132.5499	
12:29:07	47.46343	-122.3077	0.02	0.02586409	0.6073889	0	3	100	0	6546	0.04973033	0.04721485	132.5383	
12:29:07	47.46343	-122.3077	0.02	0.02586409	0.6073889	0	3	100	0	6546	0.04987671	0.04701745	132.5336	
12:29:07	47.46343	-122.3077	0.02	0.02586409	0.6073889	0	3	100	0	6546	0.05024047	0.04710553	132.5292	
12:29:07	47.46343	-122.3077	0.02	0.02550116	0.479217	0	3	100	0	6546	0.05108366	0.0500495	132.5217	
12:29:07	47.46343	-122.3077	0.02	0.02550116	0.479217	0	3	100	0	6546	0.05224936	0.05086948	132.5404	
12:29:08	47.46343	-122.3077	0.02	0.02550116	0.479217	0	3	100	0	6546	0.05276705	0.05017726	132.5453	
12:29:08	47.46343	-122.3077	0.02	0.02550116	0.479217	0	3	100	0	6546	0.05345863	0.05053859	132.5486	
12:29:08	47.46343	-122.3077	0.02	0.02550116	0.479217	0	3	100	0	6546	0.05426514	0.05138778	132.5695	
12:29:08	47.46343	-122.3077	0.02	0.02638357	0.8593983	0	3	100	0	6546	0.05415588	0.05340194	132.5905	
12:29:08	47.46343	-122.3077	0.02	0.02638357	0.8593983	0	3	100	0	6546	0.05369865	0.05522639	132.5811	
12:29:09	47.46343	-122.3077	0.02	0.02638357	0.8593983	0	3	100	0	6546	0.05423164	0.05465991	132.5685	
12:29:09	47.46343	-122.3077	0.02	0.02638357	0.8593983	0	3	100	0	6546	0.05438209	0.05476399	132.5825	
12:29:09	47.46343	-122.3077	0.02	0.02638357	0.8593983	0	3	100	0	6546	0.05455967	0.05484107	132.6248	
12:29:09	47.46343	-122.3077	0.02	0.02620281	0.4325239	0	3	100	0	6546	0.05475732	0.05489807	132.6881	
12:29:09	47.46343	-122.3077	0.02	0.02620281	0.4325239	0	3	100	0	6546	0.05496983	0.05494008	132.7667	
12:29:10	47.46343	-122.3077	0.02	0.02620281	0.4325239	0	3	100	0	6546	0.05515683	0.05415592	132.7787	
12:29:10	47.46343	-122.3077	0.02	0.02620281	0.4325239	0	3	100	0	6546	0.05561525	0.05686239	132.7649	
12:29:10	47.46343	-122.3077	0.02	0.02620281	0.4325239	0	3	100	0	6546	0.05578417	0.0543626	132.7112	
12:29:10	47.46343	-122.3077	0.02	0.02393194	0.1420498	0	3	100	0	6546	0.05486741	0.05211616	132.6608	
12:29:10	47.46343	-122.3077	0.02	0.02393194	0.1420498	0	3	100	0	6546	0.05484958	0.04913951	132.6144	
12:29:11	47.46343	-122.3077	0.02	0.02393194	0.1420498	0	3	100	0	6546	0.0541937	0.04755534	132.5711	
12:29:11	47.46343	-122.3077	0.02	0.02393194	0.1420498	0	3	100	0	6546	0.05394995	0.04635666	132.5277	
12:29:11	47.46343	-122.3077	0.02	0.02393194	0.1420498	0	3	100	0	6546	0.05322133	0.0451996	132.4826	
12:29:11	47.46343	-122.3077	0.02	0.02135634	-0.05383071	0	3	100	0	6546	0.05260744	0.04274561	132.4393	
12:29:11	47.46343	-122.3077	0.02	0.02135634	-0.05383071	0	3	100	0	6546	0.05206315	0.04500632	132.3978	
12:29:12	47.46343	-122.3077	0.02	0.02135634	-0.05383071	0	3	100	0	6546	0.05205847	0.04360701	132.3575	
12:29:12	47.46343	-122.3077	0.02	0.02135634	-0.05383071	0	3	100	0	6546	0.05181843	0.04200214	132.33	
12:29:12	47.46343	-122.3077	0.02	0.02135634	-0.05383071	0	3	100	0	6546	0.05142559	0.03983206	132.3093	
12:29:12	47.46343	-122.3077	0.02	0.02000222	-0.1222783	0	3	100	0	6546	0.05109638	0.03765113	132.2722	
12:29:12	47.46343	-122.3077	0.02	0.02000222	-0.1222783	0	3	100	0	6546	0.05105103	0.03899523	132.2371	
12:29:13	47.46343	-122.3077	0.02	0.02000222	-0.1222783	0	3	100	0	6546	0.05059924	0.04152074	132.208	
12:29:13	47.46343	-122.3077	0.02	0.02000222	-0.1222783	0	3	100	0	6546	0.05026455	0.04417763	132.2063	
12:29:13	47.46343	-122.3077	0.02	0.02000222	-0.1222783	0	3	100	0	6546	0.04994804	0.04681444	132.2276	
12:29:13	47.46343	-122.3077	0.02	0.01896557	-0.1820141	0	3	100	0	6546	0.04964672	0.04943668	132.2657	
12:29:13	47.46343	-122.3077	0.02	0.01896557	-0.1820141	0	3	100	0	6546	0.04894979	0.04578971	132.2589	
12:29:14	47.46343	-122.3077	0.02	0.01896557	-0.1820141	0	3	100	0	6546	0.04892982	0.04759971	132.2258	
12:29:14	47.46343	-122.3077	0.02	0.01896557	-0.1820141	0	3	100	0	6546	0.04826644	0.04592445	132.1929	
12:29:14	47.46343	-122.3077	0.02	0.01896557	-0.1820141	0	3	100	0	6546	0.04799336	0.04660653	132.1617	
12:29:14	47.46343	-122.3077	0.02	0.01879956	-0.07996719	0	3	100	0	6546	0.04739372	0.04371756	132.1308	
12:29:14	47.46343	-122.3077	0.02	0.01879956	-0.07996719	0	3	100	0	6546	0.04670941	0.04102974	132.1021	
12:29:15	47.46343	-122.3077	0.02	0.01879956	-0.07996719	0	3	100	0	6546	0.04678159	0.04275469	132.0728	
12:29:15	47.46343	-122.3077	0.02	0.01879956	-0.07996719	0	3	100	0	6546	0.04661243	0.04359177	132.0454	
12:29:15	47.46343	-122.3077	0.02	0.01879956	-0.07996719	0	3	100	0	6546	0.04609708	0.04339452	132.0174	
12:29:15	47.46343	-122.3077	0.02	0.01897394	-0.1032507	0	3	100	0	6546	0.045097	0.04006689	131.9585	
12:29:15	47.46343	-122.3077	0.02	0.01897394	-0.1032507	0	3	100	0	6546	0.04438643	0.03687135	131.9025	
12:29:16	47.46343	-122.3077	0.02	0.01897394	-0.1032507	0	3	100	0	6546	0.04404081	0.03700971	131.8495	
12:29:16	47.46343	-122.3077	0.02	0.01897394	-0.1032507	0	3	100	0	6546	0.04350378	0.0347522	131.7984	
12:29:16	47.46343	-122.3077	0.02	0.01897394	-0.1032507	0	3	100	0	6546	0.04249983	0.03761237	131.7494	
12:29:16	47.46343	-122.3077	0.02	0.01933993	-0.01110457	0	3	100	0	6546	0.04144598	0.03677275	131.7033	
12:29:16	47.46343	-122.3077	0.02	0.01933993	-0.01110457	0	3	100	0	6546	0.04108123	0.03539975	131.6576	
12:29:17	47.46343	-122.3077	0.02	0.01933993	-0.01110457	0	3	100	0	6546	0.04032934	0.03659694	131.6143	
12:29:17	47.46343	-122.3077	0.02	0.01933993	-0.01110457	0	3	100	0	6546	0.03984861	0.03623234	131.5721	
12:29:17	47.46343	-122.3077	0.02	0.01933993	-0.01110457	0	3	100	0	6546	0.03930178	0.03356459	131.5325	
12:29:17	47.46343	-122.3077	0.02	0.01951813	-0.05805682	0	3	100	0	6546	0.03895838	0.03567632	131.495	
12:29:17	47.46343	-122.3077	0.02	0.01951813	-0.05805682	0	3	100	0	6546	0.03850717	0.03556876	131.4577	
12:29:18	47.46343	-122.3077	0.02	0.01951813	-0.05805682	0	3	100	0	6546	0.03839953	0.03765772	131.4226	
12:29:18	47.46343	-122.3077	0.02	0.01951813	-0.05805682	0	3	100	0	6546	0.03806705	0.03919282	131.3878	
12:29:18	47.46343	-122.3077	0.02	0.01951813	-0.05805682	0	3	100	0	6546	0.03774461	0.0401191	131.3547	
12:29:18	47.46343	-122.3077	0.02	0.01928034	-0.1018454	0	3	100	0	6546	0.03710439	0.03694391	131.3274	
12:29:18	47.46343	-122.3077	0.02	0.01928034	-0.1018454	0	3	100	0	6546	0.03638367	0.03295464	131.3194	
12:29:19	47.46343	-122.3077	0.02	0.01928034	-0.1018454	0	3	100	0	6546	0.03567204	0.02895532	131.3273	
12:29:19	47.46343	-122.3077	0.02	0.01928034	-0.1018454	0	3	100	0	6546	0.03496178	0.02492887	131.3469	
12:29:19	47.46343	-122.3077	0.02	0.01928034	-0.1018454	0	3	100	0	6546	0.03425358	0.02089746	131.3752	
12:29:19	47.46343	-122.3077	0.02	0.01899197	-0.126282	0	3	100	0	6546	0.03354549	0.01686261	131.4099	
12:29:19	47.46343	-122.3077	0.02	0.01899197	-0.126282	0	3	100	0	6546	0.03340744	0.0144715	131.3953	
12:29:20	47.46343	-122.3077	0.02	0.01899197	-0.126282	0	3	100	0	6546	0.03333657	0.01223958	131.3868	
12:29:20	47.46343	-122.3077	0.02	0.01899197	-0.126282	0	3	100	0	6546	0.03326948	0.01000949	131.3943	
12:29:20	47.46343	-122.3077	0.02	0.01899197	-0.126282	0	3	100	0	6546	0.03320391	0.007772572	131.4135	
12:29:20	47.46343	-122.3077	0.02	0.01880365	-0.1340097	0	3	100	0	6546	0.0331386	0.005530648	131.4415	
12:29:20	47.46343	-122.3077	0.02	0.01880365	-0.1340097	0	3	100	0	6546	0.03307268	0.003285054	131.4758	
12:29:21	47.46343	-122.3077	0.02	0.01880365	-0.1340097	0	3	100	0	6546	0.03300558	0.00103678	131.5148	
12:29:21	47.46343	-122.3077	0.02	0.01880365	-0.1340097	0	3	100	0	6546	0.03294393	-0.00106926	131.5574	
12:29:21	47.46343	-122.3077	0.02	0.01880365	-0.1340097	0	3	100	0	6546	0.03263452	-0.001723637	131.5006	
12:29:21	47.46343	-122.3077	0.02	0.01874247	-0.1336086	0	3	100	0	6546	0.03232357	-0.003471665	131.4552	
12:29:21	47.46343	-122.3077	0.02	0.01874247	-0.1336086	0	3	100	0	6546	0.03203617	-0.006642332	131.4021	
12:29:22	47.46343	-122.3077	0.02	0.01874247	-0.1336086	0	3	100	0	6546	0.03174877	-0.009824582	131.3694	
12:29:22	47.46343	-122.3077	0.02	0.01874247	-0.1336086	0	3	100	0	6546	0.03146017	-0.01301527	131.3516	
12:29:22	47.46343	-122.3077	0.02	0.01874247	-0.1336086	0	3	100	0	6546	0.03116975	-0.0162121	131.345	
12:29:22	47.46343	-122.3077	0.02	0.01871339	-0.127328	0	3	100	0	6546	0.03087713	-0.01941338	131.3464	
12:29:22	47.46343	-122.3077	0.02	0.01871339	-0.127328	0	3	100	0	6546	0.03058221	-0.02261787	131.3539	
12:29:23	47.46343	-122.3077	0.02	0.01871339	-0.127328	0	3	100	0	6546	0.0303548	-0.02519085	131.3586	
12:29:23	47.46343	-122.3077	0.02	0.01871339	-0.127328	0	3	100	0	6546	0.02977981	-0.0238809	131.3044	
12:29:23	47.46343	-122.3077	0.02	0.01871339	-0.127328	0	3	100	0	6546	0.02922457	-0.02036506	131.2512	
12:29:23	47.46343	-122.3077	0.02	0.01874197	-0.1201435	0	3	100	0	6546	0.02895364	-0.02102404	131.1985	
12:29:23	47.46343	-122.3077	0.02	0.01874197	-0.1201435	0	3	100	0	6546	0.02876345	-0.01829921	131.1492	
12:29:24	47.46343	-122.3077	0.02	0.01874197	-0.1201435	0	3	100	0	6546	0.02806952	-0.01948947	131.1064	
12:29:24	47.46343	-122.3077	0.02	0.01874197	-0.1201435	0	3	100	0	6546	0.02737041	-0.0206886	131.081	
12:29:24	47.46343	-122.3077	0.02	0.01874197	-0.1201435	0	3	100	0	6546	0.02696113	-0.02215128	131.0505	
12:29:24	47.46343	-122.3077	0.02	0.01881416	-0.1103188	0	3	100	0	6546	0.02638208	-0.0221208	131.0179	
12:29:24	47.46343	-122.3077	0.02	0.01881416	-0.1103188	0	3	100	0	6546	0.02579723	-0.02209746	131.0002	
12:29:25	47.46343	-122.3077	0.02	0.01881416	-0.1103188	0	3	100	0	6546	0.02520812	-0.02207921	130.9936	
12:29:25	47.46343	-122.3077	0.02	0.01881416	-0.1103188	0	3	100	0	6546	0.02461589	-0.02206457	130.9952	
12:29:25	47.46343	-122.3077	0.02	0.01881416	-0.1103188	0	3	100	0	6546	0.02417717	-0.02215386	130.9973	
12:29:25	47.46343	-122.3077	0.02	0.01890275	-0.1012759	0	3	100	0	6546	0.02369176	-0.02143704	130.9557	
12:29:25	47.46343	-122.3077	0.02	0.01890275	-0.1012759	0	3	100	0	6546	0.02349237	-0.02183472	130.9158	
12:29:26	47.46343	-122.3077	0.02	0.01890275	-0.1012759	0	3	100	0	6546	0.02310179	-0.01966725	130.8789	
12:29:26	47.46343	-122.3077	0.02	0.01890275	-0.1012759	0	3	100	0	6546	0.02230946	-0.01549977	130.8518	
12:29:26	47.46343	-122.3077	0.02	0.01890275	-0.1012759	0	3	100	0	6546	0.02151203	-0.01133781	130.8383	
12:29:26	47.46343	-122.3077	0.02	0.01978141	0.04313172	0	3	100	0	6546	0.02070802	-0.007158921	130.8348	
12:29:26	47.46343	-122.3077	0.02	0.01978141	0.04313172	0	3	100	0	6546	0.01990712	-0.003003471	130.8386	
12:29:27	47.46343	-122.3077	0.02	0.01978141	0.04313172	0	3	100	0	6546	0.01910242	0.001170965	130.8478	
12:29:27	47.46343	-122.3077	0.02	0.01978141	0.04313172	0	3	100	0	6546	0.01830262	0.005323455	130.861	
12:29:27	47.46343	-122.3077	0.02	0.01978141	0.04313172	0	3	100	0	6546	0.01807828	0.007480802	130.8305	
12:29:27	47.46343	-122.3077	0.02	0.02003055	0.005716002	0	3	100	0	6546	0.01710626	0.01176638	130.7752	
12:29:27	47.46343	-122.3077	0.02	0.02003055	0.005716002	0	3	100	0	6546	0.01593592	0.01632324	130.7345	
12:29:28	47.46343	-122.3077	0.02	0.02003055	0.005716002	0	3	100	0	6546	0.01476601	0.0208763	130.705	
12:29:28	47.46343	-122.3077	0.02	0.02003055	0.005716002	0	3	100	0	6546	0.01359709	0.02542672	130.6838	
12:29:28	47.46343	-122.3077	0.02	0.02003055	0.005716002	0	3	100	0	6546	0.01242943	0.02997532	130.6685	
12:29:28	47.46343	-122.3077	0.02	0.01986713	-0.04203714	0	3	100	0	6545	0.01126308	0.03452269	130.6578	
12:29:28	47.46343	-122.3077	0.02	0.01986713	-0.04203714	0	3	100	0	6545	0.01105055	0.03714423	130.6187	
12:29:29	47.46343	-122.3077	0.02	0.01986713	-0.04203714	0	3	100	0	6545	0.01102685	0.03980859	130.5787	
12:29:29	47.46343	-122.3077	0.02	0.01986713	-0.04203714	0	3	100	0	6545	0.01053065	0.03844188	130.5264	
12:29:29	47.46343	-122.3077	0.02	0.01986713	-0.04203714	0	3	100	0	6545	0.01077876	0.03760402	130.4766	
12:29:29	47.46343	-122.3077	0.02	0.01967658	0.04401551	0	3	100	0	6546	0.01073746	0.03615616	130.4288	
12:29:30	47.46343	-122.3077	0.02	0.01967658	0.04401551	0	3	100	0	6546	0.01068127	0.03424636	130.383	
12:29:30	47.46343	-122.3077	0.02	0.01967658	0.04401551	0	3	100	0	6546	0.0109897	0.03143166	130.3394	
12:29:30	47.46343	-122.3077	0.02	0.01967658	0.04401551	0	3	100	0	6546	0.01126255	0.02632734	130.3043	
12:29:30	47.46343	-122.3077	0.02	0.01967658	0.04401551	0	3	100	0	6546	0.01105109	0.02306583	130.2679	
12:29:30	47.46343	-122.3077	0.02	0.02141532	0.4657068	0	3	100	0	6546	0.01099981	0.02018813	130.2371	
12:29:31	47.46343	-122.3077	0.02	0.02141532	0.4657068	0	3	100	0	6546	0.011438	0.02046684	130.1995	
12:29:31	47.46343	-122.3077	0.02	0.02141532	0.4657068	0	3	100	0	6546	0.01109464	0.02052099	130.1631	
12:29:31	47.46343	-122.3077	0.02	0.02141532	0.4657068	0	3	100	0	6546	0.01147227	0.01552919	130.1338	
12:29:31	47.46343	-122.3077	0.02	0.02141532	0.4657068	0	3	100	0	6546	0.0118562	0.01051094	130.1126	
12:29:31	47.46343	-122.3077	0.02	0.02361458	0.393603	0	3	100	0	6546	0.01224089	0.005516531	130.0975	
12:29:32	47.46343	-122.3077	0.02	0.02361458	0.393603	0	3	100	0	6546	0.01262906	0.000496283	130.0868	
12:29:32	47.46343	-122.3077	0.02	0.02361458	0.393603	0	3	100	0	6546	0.01298816	-0.001736317	130.0746	
12:29:32	47.46343	-122.3077	0.02	0.02361458	0.393603	0	3	100	0	6546	0.01327578	0.001732248	130.047	
12:29:32	47.46343	-122.3077	0.02	0.02361458	0.393603	0	3	100	0	6546	0.01347623	-0.0007814441	130.0201	
12:29:32	47.46343	-122.3077	0.02	0.0228912	0.1462414	0	3	100	0	6546	0.01322987	-0.0008871174	129.9825	
12:29:33	47.46343	-122.3077	0.02	0.0228912	0.1462414	0	3	100	0	6546	0.01264179	-1.345694E-06	129.9447	
12:29:33	47.46343	-122.3077	0.02	0.0228912	0.1462414	0	3	100	0	6546	0.01235391	0.002685393	129.9091	
12:29:33	47.46343	-122.3077	0.02	0.0228912	0.1462414	0	3	100	0	6546	0.01254694	0.005022505	129.8736	
12:29:33	47.46343	-122.3077	0.02	0.0228912	0.1462414	0	3	100	0	6546	0.0129771	0.007952496	129.8386	
12:29:33	47.46343	-122.3077	0.02	0.02174087	0.04274192	0	3	100	0	6546	0.01291511	0.006804685	129.8056	
12:29:34	47.46343	-122.3077	0.02	0.02174087	0.04274192	0	3	100	0	6546	0.01213627	0.005924636	129.7738	
12:29:34	47.46343	-122.3077	0.02	0.02174087	0.04274192	0	3	100	0	6546	0.01199239	0.006359673	129.7435	
12:29:34	47.46343	-122.3077	0.02	0.02174087	0.04274192	0	3	100	0	6546	0.01183045	0.008569757	129.714	
12:29:34	47.46343	-122.3077	0.02	0.02174087	0.04274192	0	3	100	0	6546	0.01183335	0.01048792	129.6856	
12:29:34	47.46343	-122.3077	0.02	0.02157685	0.107284	0	3	100	0	6546	0.01149174	0.009762852	129.6583	
12:29:35	47.46343	-122.3077	0.02	0.02157685	0.107284	0	3	100	0	6546	0.0112907	0.009498622	129.632	
12:29:35	47.46343	-122.3077	0.02	0.02157685	0.107284	0	3	100	0	6546	0.01123662	0.009412641	129.6068	
12:29:35	47.46343	-122.3077	0.02	0.02157685	0.107284	0	3	100	0	6546	0.01125008	0.007875028	129.5827	
12:29:35	47.46343	-122.3077	0.02	0.02157685	0.107284	0	3	100	0	6546	0.01108083	0.007753757	129.5598	
12:29:35	47.46343	-122.3077	0.02	0.02132559	0.05115563	0	3	100	0	6546	0.01058258	0.00625083	129.5375	
12:29:36	47.46343	-122.3077	0.02	0.02132559	0.05115563	0	3	100	0	6546	0.01089485	0.005218251	129.5163	
