Date	Latitude(deg) 	Longitude(deg)	hamsl(m)	hafl(m)	climbrate(cm/s)	GroundSpeed(m/s)	Airspeed(m/s)	Mav_Link(%)	Rssi_Link(%)	Throttle	Roll(deg)	Pitch(deg)	Yaw(deg)
18:55:36	0	0	0	-0.05093719	-16.94082	0	3	32	0	45	5.167651	1.786707	-14.8441	
18:55:38	0	0	0	-0.1089037	-51.97343	0	3	40	0	45	4.780565	1.578063	-14.84071	
18:55:40	0	0	0	-0.09671102	-47.66998	0	3	46	0	45	4.807796	1.431406	-14.88145	
18:55:42	0	0	0	-0.1854268	-0.3955826	0	3	52	0	45	4.786436	1.380033	-14.9567	
18:55:44	0	0	0	-0.238521	42.22425	0	3	57	0	45	4.812121	1.333223	-14.96829	
18:55:46	0	0	0	-0.2104502	18.32881	0	3	61	0	45	4.877171	1.273283	-15.01792	
18:55:48	0	0	0	-0.07624699	-1.102711	0	3	65	0	45	4.928677	1.295441	-15.0913	
18:55:50	0	0	0	-0.1213871	19.61986	0	3	68	0	45	4.921705	1.302653	-15.08258	
18:55:52	0	0	0	0.005623401	-20.51805	0	3	71	0	45	4.938258	1.396012	-15.06032	
18:55:53	0	0	0	-0.1403243	-71.20722	0	3	74	0	45	4.920625	1.418574	-15.09997	
18:55:55	0	0	0	0.3238536	8.838699	0	3	76	0	45	4.94252	1.434822	-15.05945	
18:55:57	0	0	0	-0.1414021	-74.03672	0	3	78	0	45	4.994221	1.394339	-15.06396	
18:55:59	0	0	0	0.1661302	50.96605	0	3	80	0	45	5.012931	1.418755	-15.06807	
18:56:01	0	0	0	0.2453936	97.78434	0	3	82	0	45	5.008603	1.394109	-15.04321	
18:56:03	0	0	0	-0.3075357	-46.97104	0	3	84	0	45	4.99983	1.512812	-15.04455	
18:56:05	0	0	0	-0.2039928	-16.66971	0	3	85	0	45	4.938958	1.523181	-15.05529	
18:56:07	0	0	0	-0.2698345	-62.28596	0	3	86	0	45	4.945107	1.463296	-15.08225	
18:56:09	0	0	0	-0.2160089	-18.56392	0	3	87	0	45	4.981009	1.358056	-15.06954	
18:56:10	0	0	0	0.002933647	-18.19608	0	3	89	0	45	4.968828	1.455764	-15.07932	
18:56:12	0	0	0	-0.1728839	-44.32631	0	3	89	0	45	4.982532	1.233804	-15.17365	
18:56:14	0	0	0	-0.04391274	69.28282	0	3	90	0	45	4.976321	1.261347	-15.15071	
18:56:16	0	0	0	-0.2918271	-42.55726	0	3	91	0	45	4.948541	1.296861	-15.13393	
18:56:18	0	0	0	-0.06447512	-15.09043	0	3	92	0	45	4.960159	1.334518	-15.09966	
18:56:20	0	0	0	0.01733755	46.54813	0	3	92	0	45	4.976185	1.377768	-15.11299	
18:56:22	0	0	0	-0.05043453	-4.9578	0	3	93	0	45	4.86418	1.30054	-15.10216	
18:56:24	0	0	0	-0.2087742	-1.415565	0	3	94	0	45	4.894816	1.320062	-15.09974	
18:56:26	0	0	0	-0.1207419	50.85479	0	3	94	0	45	4.911507	1.290357	-15.07254	
18:56:27	0	0	0	-0.2619181	9.104879	0	3	95	0	45	4.829494	1.382116	-14.89166	
18:56:29	0	0	0	-0.3874011	9.970278	0	3	95	0	45	4.848963	1.380919	-14.88046	
18:56:31	0	0	0	-0.2972864	-10.20332	0	3	95	0	45	4.854439	1.393683	-14.85302	
18:56:33	0	0	0	-0.196908	59.01833	0	3	96	0	45	4.841396	1.421684	-14.87857	
18:56:35	0	0	0	-0.228928	9.355845	0	3	96	0	45	4.840189	1.32762	-14.91086	
18:56:37	0	0	0	-0.109539	22.16287	0	3	96	0	45	4.860889	1.344359	-14.88172	
18:56:39	0	0	0	-0.3952522	-33.84844	0	3	97	0	45	4.889792	1.336443	-14.86825	
18:56:41	0	0	0	-0.3740016	-43.37659	0	3	97	0	45	4.881717	1.287666	-14.87621	
18:56:43	0	0	0	-0.1169406	40.18095	0	3	97	0	45	4.884028	1.324827	-14.84773	
18:56:44	0	0	0	-0.08300311	-46.47791	0	3	97	0	45	4.875727	1.359873	-14.8661	
18:56:46	0	0	0	-0.346257	-36.54827	0	3	97	0	45	4.861354	1.367097	-14.88333	
18:56:48	0	0	0	-0.2463325	-28.20305	0	3	98	0	45	4.878078	1.336197	-14.87811	
18:56:50	0	0	0	-0.4792616	-11.01294	0	3	98	0	45	4.889825	1.350724	-14.92596	
18:56:52	0	0	0	-0.3186992	5.312433	0	3	98	0	45	4.88195	1.330606	-14.92551	
18:56:54	0	0	0	-0.6117163	-65.40831	0	3	98	0	45	4.888793	1.28533	-14.93706	
18:56:56	0	0	0	-0.008351672	58.1	0	3	98	0	45	4.937311	1.266443	-12.80478	
18:56:58	0	0	0	-0.372886	-86.76334	0	3	98	0	45	4.929562	1.263733	-12.76503	
18:57:00	0	0	0	-0.1335591	20.24481	0	3	98	0	45	4.957866	1.196465	-12.69544	
18:57:02	0	0	0	-0.09253845	0.06701052	0	3	98	0	45	4.92263	1.195854	-12.65045	
18:57:03	0	0	0	-0.3857265	38.76274	0	3	99	0	45	4.890254	1.261064	-12.60713	
18:57:05	0	0	0	0.2300891	125.5556	0	3	99	0	45	4.905421	1.232997	-12.63925	
18:57:07	0	0	0	-0.2633967	-15.91665	0	3	99	0	45	4.931516	1.244108	-12.56668	
18:57:09	0	0	0	-0.3561621	-58.5842	0	3	99	0	45	4.917874	1.336641	-12.57028	
18:57:11	0	0	0	-0.3319384	-88.91879	0	3	99	0	45	7.17704	5.759848	3.564842	
18:57:13	0	0	0	-0.9049837	-138.12	0	3	99	0	45	8.001512	4.595694	5.132163	
18:57:15	0	0	0	-0.03359313	70.81281	0	3	99	0	45	5.014683	0.7821721	5.318491	
18:57:17	0	0	0	-0.6778665	-4.104327	0	3	99	0	45	4.919525	0.8391607	5.71236	
18:57:19	0	0	0	-0.590178	-26.20872	0	3	99	0	45	4.913233	0.8308893	5.921694	
18:57:20	0	0	0	-0.3709964	0.9897098	0	3	99	0	45	4.949319	0.8821561	6.033157	
18:57:22	0	0	0	-0.6921746	-65.54346	0	3	99	0	45	4.951092	0.9188203	6.129057	
18:57:24	0	0	0	-0.3980346	-22.94701	0	3	99	0	45	4.980517	0.9488757	6.180788	
18:57:26	0	0	0	-0.0972202	44.66438	0	3	99	0	45	4.970671	0.9184102	6.176315	
18:57:28	0	0	0	0.02861099	66.57558	0	3	99	0	45	4.974257	0.9102243	6.232417	
18:57:30	0	0	0	-0.4479845	-56.62688	0	3	99	0	45	4.97354	0.954049	6.231284	
18:57:32	0	0	0	-0.301203	-42.15551	0	3	99	0	45	4.966527	1.022297	6.211232	
18:57:34	0	0	0	-0.1923065	44.96705	0	3	99	0	45	4.946594	1.072416	6.223134	
18:57:36	0	0	0	0.03872255	10.0712	0	3	99	0	45	4.917608	1.075621	6.22612	
18:57:37	0	0	0	-0.1194214	2.749594	0	3	99	0	45	4.908937	1.050183	6.234584	
18:57:39	0	0	0	-0.1081004	-6.064668	0	3	99	0	45	4.871555	1.040585	6.208682	
18:57:41	0	0	0	-0.03998597	14.78576	0	3	99	0	45	4.894187	1.049005	6.171707	
18:57:43	0	0	0	-0.3667932	-25.18384	0	3	99	0	45	4.908986	1.083548	6.164387	
18:57:45	0	0	0	-0.2765651	56.66105	0	3	99	0	45	4.910472	1.04597	6.110111	
18:57:47	0	0	0	-0.3088956	-60.72487	0	3	99	0	45	4.896786	1.105994	6.081697	
18:57:49	0	0	0	-0.4954031	-58.73801	0	3	99	0	45	4.957858	1.139703	6.062542	
18:57:51	0	0	0	-0.323616	-13.30353	0	3	99	0	45	4.947239	1.147808	6.052212	
18:57:52	0	0	0	-0.1725014	-51.04198	0	3	99	0	45	4.959283	1.187097	6.024242	
18:57:54	0	0	0	-0.1151542	42.55699	0	3	99	0	45	4.925614	1.206497	6.000514	
18:57:56	0	0	0	-0.2502031	46.37299	0	3	99	0	45	4.876673	1.243061	6.027186	
18:57:58	0	0	0	-0.3783511	-6.152523	0	3	99	0	45	4.901587	1.257159	6.014265	
18:58:00	0	0	0	-0.3586743	-36.94352	0	3	99	0	45	4.90922	1.15914	6.024914	
18:58:02	0	0	0	-0.2120692	65.46033	0	3	99	0	45	4.881121	1.171557	5.965325	
18:58:04	0	0	0	-0.6591511	-87.31851	0	3	99	0	45	4.877702	1.192051	5.97313	
18:58:06	0	0	0	-0.5440997	-39.69822	0	3	99	0	45	4.945987	1.176369	5.936672	
18:58:08	0	0	0	-0.05073817	3.093232	0	3	99	0	45	4.934139	1.114857	5.912519	
18:58:09	0	0	0	0.1435939	49.64184	0	3	99	0	45	4.965672	1.068124	5.907709	
18:58:11	0	0	0	-0.413175	-9.779713	0	3	99	0	45	4.961824	1.188464	5.937603	
18:58:13	0	0	0	-0.3979501	-68.14383	0	3	99	0	45	4.979768	1.199722	5.924244	
18:58:15	0	0	0	-0.07683624	43.88025	0	3	99	0	45	4.956318	1.237247	5.915896	
18:58:17	0	0	0	-0.3771408	22.87328	0	3	99	0	45	4.954188	1.111913	5.900403	
18:58:19	0	0	0	-0.3909264	-12.66491	0	3	99	0	45	4.96854	1.103772	5.90897	
18:58:21	0	0	0	-0.3135498	-18.8705	0	3	99	0	45	5.006336	1.098723	5.916706	
18:58:23	0	0	0	-0.552188	-39.46402	0	3	99	0	45	5.045245	1.169828	5.891284	
18:58:25	0	0	0	-0.5795114	-9.712718	0	3	99	0	45	5.04892	1.188229	5.873436	
18:58:26	0	0	0	-0.55236	-66.18672	0	3	99	0	45	5.075773	1.244758	5.883603	
18:58:28	0	0	0	-0.3278362	35.05424	0	3	99	0	45	5.063316	1.24217	5.888351	
18:58:30	0	0	0	-0.440771	-24.37167	0	3	99	0	45	5.001582	1.216057	5.88426	
18:58:32	0	0	0	-0.2921776	59.13761	0	3	99	0	45	4.992442	1.209597	5.91297	
18:58:34	0	0	0	-0.2296429	31.64278	0	3	99	0	45	4.994379	1.110042	5.896576	
18:58:36	0	0	0	-0.2884302	18.02083	0	3	99	0	45	5.018538	1.05245	5.922662	
18:58:38	0	0	0	-0.2356679	65.02325	0	3	99	0	45	4.931417	1.06562	5.951703	
18:58:40	0	0	0	-0.1583248	-34.6574	0	3	99	0	45	4.935959	1.054492	5.93618	
18:58:42	0	0	0	0.1246309	52.04471	0	3	99	0	45	4.968342	1.028719	5.946917	
18:58:43	0	0	0	-0.1754248	-29.2939	0	3	99	0	45	5.009898	1.042506	5.92375	
18:58:45	0	0	0	0.03765466	58.98148	0	3	99	0	45	4.962804	1.073116	5.940911	
18:58:47	0	0	0	-0.135032	29.20959	0	3	99	0	45	4.949238	1.090259	5.932787	
18:58:49	0	0	0	-0.3652142	52.52774	0	3	99	0	45	4.938462	1.135898	5.936431	
18:58:51	0	0	0	-0.2408176	28.10004	0	3	99	0	45	4.916646	1.092052	5.997982	
18:58:53	0	0	0	-0.3128161	-63.76915	0	3	99	0	45	4.936406	1.137251	6.019893	
18:58:55	0	0	0	-0.1557318	6.900982	0	3	99	0	45	4.931085	1.145521	6.061191	
18:58:57	0	0	0	-0.2747349	-39.35793	0	3	99	0	45	4.893539	1.223452	6.064021	
18:58:59	0	0	0	-0.3610474	-30.17002	0	3	99	0	45	4.946184	1.223122	6.055311	
18:59:00	0	0	0	-0.4139744	-27.83777	0	3	99	0	45	4.932097	1.201895	5.990099	
18:59:02	0	0	0	-0.5598147	-53.59811	0	3	99	0	45	4.90772	1.201754	6.008052	
18:59:04	0	0	0	-0.2582519	12.18428	0	3	99	0	45	4.91111	1.204002	6.014336	
18:59:06	0	0	0	-0.2212497	9.379322	0	3	99	0	45	4.945667	1.136136	6.016775	
18:59:08	0	0	0	-0.1282873	8.072775	0	3	99	0	45	4.949216	1.152644	6.022869	
18:59:10	0	0	0	-0.4300112	-12.13699	0	3	99	0	45	4.907903	1.127598	5.98804	
18:59:12	0	0	0	-0.02048793	68.93988	0	3	99	0	45	4.894012	1.165493	6.001515	
18:59:14	0	0	0	-0.511174	-29.16352	0	3	99	0	45	4.919862	1.046172	5.985216	
18:59:16	0	0	0	-0.03550886	62.40987	0	3	99	0	45	4.951412	1.06644	6.006958	
18:59:17	0	0	0	-0.4180219	43.25722	0	3	99	0	45	4.911861	1.059227	5.984666	
18:59:19	0	0	0	-0.4651995	-9.637288	0	3	99	0	45	4.865917	1.126457	5.977736	
18:59:21	0	0	0	-0.6092739	12.08831	0	3	99	0	45	4.878129	1.082384	5.979048	
18:59:23	0	0	0	-0.3253329	31.36961	0	3	99	0	45	4.913171	1.11824	5.997118	
18:59:25	0	0	0	-0.6155685	30.85652	0	3	99	0	45	4.935115	1.118386	6.037523	
18:59:27	0	0	0	-0.565115	18.11866	0	3	99	0	45	4.948765	1.13118	6.040753	
18:59:29	0	0	0	-0.6100448	1.1345	0	3	99	0	45	4.977717	1.075301	6.001158	
18:59:31	0	0	0	-0.6977788	18.72409	0	3	99	0	45	4.942301	1.021782	6.011013	
18:59:33	0	0	0	-0.6563042	10.09511	0	3	99	0	45	4.920279	1.036868	6.023416	
18:59:34	0	0	0	-0.58139	-19.65795	0	3	99	0	45	4.933364	1.094836	5.961709	
18:59:36	0	0	0	-0.7367557	-67.90641	0	3	99	0	45	4.938367	1.082186	5.934314	
18:59:38	0	0	0	-0.7697881	8.204836	0	3	99	0	45	4.991859	1.091312	5.920884	
18:59:40	0	0	0	-0.6451088	19.97281	0	3	99	0	45	4.987438	1.131207	5.914196	
18:59:42	0	0	0	-0.4768333	65.24335	0	3	99	0	45	5.027065	1.125423	5.918884	
18:59:44	0	0	0	-0.2871724	74.3727	0	3	99	0	45	5.043763	1.07273	5.931763	
18:59:46	0	0	0	-0.4287255	-25.0662	0	3	99	0	45	5.055922	1.092803	5.933197	
18:59:48	0	0	0	-0.6001133	25.51319	0	3	99	0	45	5.018132	1.061597	5.937453	
18:59:50	0	0	0	-0.5442796	-17.49113	0	3	99	0	45	5.033849	1.132925	5.949153	
18:59:51	0	0	0	-0.3690003	32.05742	0	3	99	0	45	5.021653	1.18481	6.160542	
18:59:53	0	0	0	-0.7735264	-50.42302	0	3	99	0	45	5.02937	1.105644	6.292262	
18:59:55	0	0	0	-0.4738278	67.9847	0	3	99	0	45	5.078052	1.174217	6.393964	
18:59:57	0	0	0	-0.4790465	78.99065	0	3	99	0	45	5.021061	1.102768	6.450123	
18:59:59	0	0	0	-0.7282971	0.1135468	0	3	99	0	45	5.01646	1.052242	6.544201	
19:00:01	0	0	0	-1.183248	-30.71198	0	3	99	0	45	4.996421	1.097761	6.607789	
19:00:03	0	0	0	-0.7749682	-50.45756	0	3	99	0	45	5.00222	1.114374	6.647811	
19:00:05	0	0	0	-0.3853453	8.217331	0	3	99	0	45	4.993227	1.1119	6.68852	
19:00:07	0	0	0	-0.143725	95.83953	0	3	99	0	45	4.99489	1.14965	6.723997	
19:00:08	0	0	0	-0.1635436	30.00857	0	3	99	0	45	4.992925	1.150516	6.696896	
19:00:10	0	0	0	-0.8357046	15.43272	0	3	99	0	45	5.006615	1.161285	6.676482	
19:00:12	0	0	0	-0.6973918	17.46012	0	3	99	0	45	5.033308	1.159831	6.643489	
19:00:14	0	0	0	-0.6352888	48.5093	0	3	99	0	45	5.002306	1.116972	6.685948	
19:00:16	0	0	0	-0.2549703	109.3173	0	3	99	0	45	4.969349	1.158953	6.672764	
19:00:18	0	0	0	-0.3259436	1.434933	0	3	99	0	45	4.974012	1.110701	6.648484	
19:00:20	0	0	0	-0.6218633	41.20202	0	3	99	0	45	4.986101	1.025596	6.623107	
19:00:22	0	0	0	-0.7208511	5.871332	0	3	99	0	45	4.957801	1.085578	6.630617	
19:00:24	0	0	0	-0.4654543	-11.35815	0	3	99	0	45	4.943153	1.127167	6.628535	
19:00:25	0	0	0	-0.3988886	32.82752	0	3	99	0	45	4.972032	1.139893	6.66943	
19:00:27	0	0	0	-0.8614696	-54.94825	0	3	99	0	45	4.953246	1.165317	6.598271	
19:00:29	0	0	0	-0.73955	-2.246939	0	3	99	0	45	4.924319	1.087671	6.618941	
19:00:31	0	0	0	-0.7891545	-46.28902	0	3	99	0	45	4.929903	1.051158	6.600147	
19:00:33	0	0	0	-0.3882867	52.16475	0	3	99	0	45	4.940271	1.092767	6.618363	
19:00:35	0	0	0	-0.5515003	14.51927	0	3	99	0	45	4.972237	1.126858	6.613012	
19:00:37	0	0	0	-0.9184428	-35.33435	0	3	99	0	45	4.992237	1.156891	6.637548	
19:00:39	0	0	0	-0.6479982	2.330769	0	3	99	0	45	4.974893	1.18369	6.63485	
19:00:40	0	0	0	-0.3807125	51.3068	0	3	99	0	45	4.974153	1.112093	6.631208	
19:00:42	0	0	0	-0.7304204	-9.431932	0	3	99	0	45	5.001663	1.091895	6.625341	
19:00:44	0	0	0	-0.8032257	-36.41688	0	3	99	0	45	4.982512	1.092182	6.588854	
19:00:46	0	0	0	-0.5689366	51.43248	0	3	99	0	45	4.96473	1.085762	6.635966	
19:00:48	0	0	0	-0.5384839	60.68402	0	3	99	0	45	4.955816	0.9958209	6.635448	
19:00:50	0	0	0	-0.6662228	45.35254	0	3	99	0	45	4.959937	0.969183	6.628307	
19:00:52	0	0	0	-0.7554599	-2.254923	0	3	99	0	45	4.966977	0.9750628	6.635058	
19:00:54	0	0	0	-0.8905001	-15.39573	0	3	99	0	45	4.944551	0.9815171	6.634315	
19:00:56	0	0	0	-0.889179	-54.76934	0	3	99	0	45	4.933561	0.9520375	6.646321	
19:00:57	0	0	0	-0.950871	-18.98989	0	3	99	0	45	4.918027	1.014484	6.661975	
19:00:59	0	0	0	-1.042233	-61.2968	0	3	99	0	45	4.946966	1.095797	6.725638	
19:01:01	0	0	0	-1.367028	-81.26794	0	3	99	0	45	4.983462	1.145232	6.712937	
19:01:03	0	0	0	-0.9724059	6.210427	0	3	99	0	45	4.993884	1.068765	6.724585	
19:01:05	0	0	0	-0.9781665	-14.65507	0	3	99	0	45	4.98278	1.090353	6.703111	
19:01:07	0	0	0	-0.8584529	-16.75463	0	3	99	0	45	4.969816	1.027505	6.66268	
19:01:09	0	0	0	-0.9291945	-16.15077	0	3	99	0	45	4.976793	1.086718	6.630669	
19:01:11	0	0	0	-0.5450728	86.53444	0	3	99	0	45	4.930556	1.095358	6.655137	
19:01:13	0	0	0	-0.7338899	21.19499	0	3	99	0	45	4.910912	1.091728	6.638217	
19:01:14	0	0	0	-0.8602711	-45.25422	0	3	99	0	45	4.900296	1.060696	6.605871	
19:01:16	0	0	0	-0.5081547	60.41964	0	3	99	0	45	4.902421	1.045308	6.647093	
19:01:18	0	0	0	-0.9452971	-51.47919	0	3	99	0	45	4.928202	1.03405	6.670609	
19:01:20	0	0	0	-1.070607	12.34035	0	3	99	0	45	4.938684	0.9662088	6.663995	
19:01:22	0	0	0	-1.027203	-59.02497	0	3	99	0	45	5.002788	1.019122	6.685447	
19:01:24	0	0	0	-0.5256454	51.55273	0	3	99	0	45	5.003251	1.003134	6.696691	
19:01:26	0	0	0	-1.043263	-47.86396	0	3	99	0	45	5.004093	0.9841139	6.707781	
19:01:28	0	0	0	-0.7830216	-2.910234	0	3	99	0	45	5.012906	1.015095	6.684517	
19:01:30	0	0	0	-0.9460864	-4.603157	0	3	99	0	45	5.018204	1.003091	6.683339	
19:01:31	0	0	0	-1.094801	-19.98422	0	3	99	0	45	5.048799	1.090484	6.670562	
19:01:33	0	0	0	-0.9988651	-48.61322	0	3	99	0	45	5.040749	1.107601	6.649439	
19:01:35	0	0	0	-0.8048845	63.16877	0	3	99	0	45	5.049582	1.157007	6.64782	
19:01:37	0	0	0	-0.8038567	-42.93929	0	3	99	0	45	5.062768	1.208387	6.597312	
19:01:39	0	0	0	-0.8779911	-33.98715	0	3	99	0	45	5.023774	1.1948	6.644508	
19:01:41	0	0	0	-1.11513	-42.07929	0	3	99	0	45	5.0483	1.136933	6.623951	
19:01:43	0	0	0	-1.093254	-51.55894	0	3	99	0	45	5.054787	1.104118	6.599249	
19:01:45	0	0	0	-0.4167538	51.13627	0	3	100	0	45	5.054572	1.168581	6.596794	
19:01:47	0	0	0	-0.5332996	9.002762	0	3	100	0	45	5.040374	1.208871	6.592904	
19:01:48	0	0	0	-0.6751772	-33.8149	0	3	100	0	45	5.049258	1.160136	6.597829	
19:01:50	0	0	0	-0.5752952	-18.09884	0	3	100	0	45	5.050022	1.17449	6.559035	
19:01:52	0	0	0	-0.7980974	-39.53263	0	3	100	0	45	5.070292	1.182394	6.588634	
19:01:54	0	0	0	-0.6572351	39.8003	0	3	100	0	45	5.093694	1.157	6.573924	
19:01:56	0	0	0	-0.9210114	-20.76057	0	3	100	0	45	5.027463	1.097232	6.601916	
19:01:58	0	0	0	-0.7071725	39.10575	0	3	100	0	45	5.000572	1.194301	6.647309	
19:02:00	0	0	0	-1.143243	28.15021	0	3	100	0	45	5.015246	1.151007	6.638572	
19:02:02	0	0	0	-0.6208742	7.243579	0	3	100	0	45	5.013587	1.174259	6.628593	
19:02:04	0	0	0	-0.8422884	-0.6918162	0	3	100	0	45	5.027811	1.226517	6.645877	
19:02:05	0	0	0	-0.8377981	-24.01968	0	3	100	0	45	4.998363	1.282591	6.632831	
19:02:07	0	0	0	-0.847268	-29.64743	0	3	100	0	45	5.004791	1.233983	6.619452	
19:02:09	0	0	0	-0.414836	86.56589	0	3	100	0	45	4.994864	1.224602	6.618742	
19:02:11	0	0	0	-0.747641	-35.30951	0	3	100	0	45	4.999815	1.098433	6.641629	
19:02:13	0	0	0	-0.9051893	-20.10265	0	3	100	0	45	4.998809	1.125048	6.631326	
19:02:15	0	0	0	-0.9714751	-90.33655	0	3	100	0	45	5.056073	1.094802	6.649321	
19:02:17	0	0	0	-1.027156	-15.67559	0	3	100	0	45	5.095168	1.090565	6.639814	
19:02:19	0	0	0	-0.8966191	-25.18974	0	3	100	0	45	5.108069	1.094393	6.644964	
19:02:21	0	0	0	-0.5756537	44.88779	0	3	100	0	45	5.072785	1.100772	6.63304	
19:02:22	0	0	0	-0.5221759	113.1418	0	3	100	0	45	5.036944	1.021137	6.585976	
19:02:24	0	0	0	-0.7097116	11.41165	0	3	100	0	45	5.050072	1.020256	6.567846	
19:02:26	0	0	0	-0.6792468	63.47483	0	3	100	0	45	5.065056	1.018359	6.555633	
19:02:28	0	0	0	-0.7920645	-2.63295	0	3	100	0	45	5.062485	1.118354	6.554605	
19:02:30	0	0	0	-0.59198	70.93433	0	3	100	0	45	5.021395	1.197047	6.557743	
19:02:32	0	0	0	-0.9725572	-9.033974	0	3	100	0	45	5.018564	1.254816	6.606907	
19:02:34	0	0	0	-1.069859	-45.45275	0	3	100	0	45	5.037749	1.208501	6.623724	
19:02:36	0	0	0	-0.9927787	16.32011	0	3	100	0	45	5.090928	1.255648	6.617686	
19:02:38	0	0	0	-0.7567077	66.77822	0	3	100	0	45	5.065136	1.200737	6.614536	
19:02:39	0	0	0	-1.002831	-13.3116	0	3	100	0	45	5.077556	1.201031	6.654934	
19:02:41	0	0	0	-0.9665116	-27.42146	0	3	100	0	45	5.018905	1.244348	6.658607	
19:02:43	0	0	0	-0.6727303	27.12958	0	3	100	0	45	5.027174	1.26712	6.667202	
19:02:45	0	0	0	-0.4325913	-3.629324	0	3	100	0	45	5.017914	1.244388	6.648726	
19:02:47	0	0	0	-0.82159	-58.71956	0	3	100	0	45	5.010325	1.211848	6.627045	
19:02:49	0	0	0	-0.5552741	-12.14445	0	3	100	0	45	5.034533	1.151128	6.630915	
19:02:51	0	0	0	-0.4954501	67.36533	0	3	100	0	45	5.03992	1.14506	6.660065	
19:02:53	0	0	0	-0.6524771	20.70818	0	3	100	0	45	5.023638	1.164269	6.621914	
19:02:55	0	0	0	-0.5958634	-34.51104	0	3	100	0	45	5.044775	1.153815	6.587296	
19:02:56	0	0	0	-0.8867258	-81.88184	0	3	100	0	45	5.033524	1.141453	6.602473	
19:02:58	0	0	0	-0.9286549	-67.77485	0	3	100	0	45	4.999141	1.1471	6.602818	
19:03:00	0	0	0	-1.01147	-52.1593	0	3	100	0	45	4.97743	1.13892	6.596081	
19:03:02	0	0	0	-0.561372	63.17974	0	3	100	0	45	5.00812	1.030538	6.570261	
19:03:04	0	0	0	-0.9136392	35.19377	0	3	100	0	45	5.005999	1.036998	6.597255	
19:03:06	0	0	0	-0.703027	23.872	0	3	100	0	45	4.99966	1.059613	6.56477	
19:03:08	0	0	0	-0.8406788	0.01896471	0	3	100	0	45	5.017668	1.017739	6.570899	
19:03:10	0	0	0	-0.9505062	-18.41218	0	3	100	0	45	5.003191	1.073231	6.574832	
19:03:11	0	0	0	-0.7964468	10.14408	0	3	100	0	45	4.991261	1.191215	6.592877	
19:03:13	0	0	0	-0.868983	-29.18033	0	3	100	0	45	5.011203	1.17694	6.626096	
19:03:15	0	0	0	-0.3234888	46.71381	0	3	100	0	45	5.056289	1.195084	6.643933	
19:03:17	0	0	0	-0.6672567	-12.90764	0	3	100	0	45	5.029132	1.152615	6.65649	
19:03:19	0	0	0	-0.7125359	35.50752	0	3	100	0	45	5.019065	1.185816	6.697234	
19:03:21	0	0	0	-0.6900682	-14.33223	0	3	100	0	45	5.027575	1.181127	6.707108	
19:03:23	0	0	0	-0.9988537	-58.79517	0	3	100	0	45	5.046795	1.124881	6.686014	
19:03:25	0	0	0	-0.7376485	-4.767706	0	3	100	0	45	5.007001	1.155013	6.686062	
19:03:27	0	0	0	-1.028075	-12.45304	0	3	100	0	45	5.020132	1.091633	6.652852	
19:03:28	0	0	0	-0.8014063	59.88582	0	3	100	0	45	5.003223	1.110774	6.675051	
19:03:30	0	0	0	-0.9440447	-65.57754	0	3	100	0	45	5.057355	1.059611	6.667152	
19:03:32	0	0	0	-0.8340636	26.79615	0	3	100	0	45	5.033741	1.027219	6.634795	
19:03:34	0	0	0	-0.7893109	-18.63004	0	3	100	0	45	5.032203	1.058584	6.618067	
19:03:36	0	0	0	-0.5231221	50.47502	0	3	100	0	45	5.022741	1.13227	6.620687	
19:03:38	0	0	0	-0.6868053	83.63243	0	3	100	0	45	4.97124	1.109121	6.620985	
19:03:40	0	0	0	-0.845217	-1.767338	0	3	100	0	45	4.973667	1.124446	6.667711	
19:03:42	0	0	0	-1.105523	-104.6733	0	3	100	0	45	4.981328	1.127307	6.67755	
19:03:44	0	0	0	-0.8769703	-8.004153	0	3	100	0	45	5.007954	1.137671	6.661854	
19:03:45	0	0	0	-0.773035	-3.121226	0	3	100	0	45	4.951995	1.113096	6.653348	
19:03:47	0	0	0	-0.932009	-16.38824	0	3	100	0	45	4.932754	1.104979	6.662227	
19:03:49	0	0	0	-0.8308994	-20.66241	0	3	100	0	45	4.924248	1.078287	6.653155	
19:03:51	0	0	0	-1.037004	-44.93311	0	3	100	0	45	4.945836	1.072067	6.64198	
19:03:53	0	0	0	-0.6032022	14.36803	0	3	100	0	45	4.949488	1.071024	6.626155	
19:03:55	0	0	0	-0.4172942	54.49564	0	3	100	0	45	4.947578	1.175102	6.610484	
19:03:57	0	0	0	-0.2208284	111.0103	0	3	100	0	45	4.946077	1.124289	6.61477	
19:03:59	0	0	0	-0.41776	42.03346	0	3	100	0	45	4.944434	1.144251	6.620878	
19:04:01	0	0	0	-0.6224359	5.564629	0	3	100	0	45	4.88901	1.172756	6.621334	
19:04:02	0	0	0	-0.9441069	-42.89034	0	3	100	0	45	4.889516	1.097378	6.637296	
19:04:04	0	0	0	-0.9076314	-29.02416	0	3	100	0	45	4.871641	1.079096	6.595086	
19:04:06	0	0	0	-0.9018827	-12.95612	0	3	100	0	45	4.891239	1.049456	6.609804	
19:04:08	0	0	0	-1.0678	-27.49005	0	3	100	0	45	4.898849	1.058017	6.649029	
19:04:10	0	0	0	-1.601351	-79.22562	0	3	100	0	45	4.833828	1.133112	6.674151	
19:04:12	0	0	0	-1.12219	-70.88304	0	3	100	0	45	4.900474	1.173039	6.675095	
19:04:14	0	0	0	-0.9217644	18.21768	0	3	100	0	45	4.940643	1.213461	6.701876	
19:04:16	0	0	0	-1.159752	-5.484904	0	3	100	0	45	4.926554	1.225584	6.67172	
19:04:18	0	0	0	-0.9623266	24.22611	0	3	100	0	45	4.934737	1.201499	6.682281	
19:04:19	0	0	0	-0.8897705	-37.41428	0	3	100	0	45	4.899115	1.212217	6.728854	
19:04:21	0	0	0	-1.375551	-5.597249	0	3	100	0	45	4.910109	1.190743	6.702243	
19:04:23	0	0	0	-1.077455	-6.894842	0	3	100	0	45	4.937334	1.145065	6.678514	
19:04:25	0	0	0	-0.9685414	21.37189	0	3	100	0	45	4.942467	1.102597	6.675143	
19:04:27	0	0	0	-0.9533719	3.381207	0	3	100	0	45	4.986104	1.124354	6.635721	
19:04:29	0	0	0	-0.5033904	55.12938	0	3	100	0	45	4.965291	1.094221	6.620955	
19:04:31	0	0	0	-0.6784227	-36.05453	0	3	100	0	45	4.940005	1.076648	6.631346	
19:04:33	0	0	0	-0.9367486	-28.67542	0	3	100	0	45	4.961733	1.147394	6.638779	
19:04:35	0	0	0	-0.918085	6.729764	0	3	100	0	45	4.965239	1.132734	6.604717	
19:04:36	0	0	0	-0.412337	82.41652	0	3	100	0	45	4.953694	1.244447	6.62978	
19:04:38	0	0	0	-0.6878294	87.51157	0	3	100	0	45	4.94943	1.204424	6.60718	
19:04:40	0	0	0	-0.8959966	-25.97312	0	3	100	0	45	4.930275	1.216093	6.590259	
19:04:42	0	0	0	-1.362248	-87.61123	0	3	100	0	45	4.920244	1.159583	6.634517	
19:04:44	0	0	0	-0.5442523	39.18934	0	3	100	0	45	4.953494	1.202597	6.677547	
19:04:46	0	0	0	-0.6386982	18.06772	0	3	100	0	45	4.972636	1.263112	6.707764	
19:04:48	0	0	0	-0.4038611	57.41249	0	3	100	0	45	4.989498	1.226918	6.728744	
19:04:50	0	0	0	-0.6869666	27.81722	0	3	100	0	45	4.98447	1.193792	6.72001	
19:04:52	0	0	0	-1.050093	-62.98691	0	3	100	0	45	4.973991	1.152584	6.714128	
19:04:53	0	0	0	-0.9951246	-74.87424	0	3	100	0	45	4.938564	1.168019	6.683254	
19:04:55	0	0	0	-0.6766095	-8.833339	0	3	100	0	45	4.898132	1.180371	6.742695	
19:04:57	0	0	0	-0.4882089	34.46491	0	3	100	0	45	4.887122	1.147407	6.7381	
19:04:59	0	0	0	-0.5133485	31.76081	0	3	100	0	45	4.895104	1.17448	6.708858	
19:05:01	0	0	0	-0.6898594	-2.45942	0	3	100	0	45	4.89402	1.157696	6.677122	
19:05:03	0	0	0	-0.5441533	65.85593	0	3	100	0	45	4.905823	1.133411	6.672557	
19:05:05	0	0	0	-0.6303084	98.94971	0	3	100	0	45	4.926214	1.219109	6.65714	
19:05:07	0	0	0	-0.8363495	2.407008	0	3	100	0	45	4.973958	1.232753	6.619221	
19:05:09	0	0	0	-0.8565509	0.2312804	0	3	100	0	45	4.920462	1.232906	6.672037	
19:05:10	0	0	0	-0.9092592	-49.92147	0	3	100	0	45	4.919326	1.213253	6.662148	
19:05:12	0	0	0	-0.7937064	-1.732951	0	3	100	0	45	4.917674	1.23454	6.693979	
19:05:14	0	0	0	-0.8005148	-13.51585	0	3	100	0	45	4.959903	1.246995	6.706011	
19:05:16	0	0	0	-0.9317521	10.9244	0	3	100	0	45	4.907119	1.184907	6.711031	
19:05:18	0	0	0	-0.7792867	-21.17843	0	3	100	0	45	4.914691	1.151721	6.698398	
19:05:20	0	0	0	-0.8135273	-34.31078	0	3	100	0	45	4.938612	1.224895	6.716403	
19:05:22	0	0	0	-0.9440715	-54.37526	0	3	100	0	45	4.925316	1.161949	6.732579	
19:05:24	0	0	0	-0.997745	-66.99635	0	3	100	0	45	4.921879	1.105786	6.729826	
19:05:25	0	0	0	-0.9216113	-67.8971	0	3	100	0	45	4.934586	1.103346	6.751814	
19:05:27	0	0	0	-1.253189	-72.1917	0	3	100	0	45	4.954731	1.126722	6.743267	
19:05:29	0	0	0	-0.6735912	11.5516	0	3	100	0	45	4.929829	1.191577	6.759546	
19:05:31	0	0	0	-0.528051	72.84312	0	3	100	0	45	4.934192	1.171346	6.774783	
19:05:33	0	0	0	-0.7799602	-15.15599	0	3	100	0	45	4.946928	1.174091	6.760399	
19:05:35	0	0	0	-0.7506693	38.54645	0	3	100	0	45	4.913428	1.106956	6.787528	
19:05:37	0	0	0	-0.64958	26.17987	0	3	100	0	45	4.924016	1.102846	6.782437	
19:05:39	0	0	0	-0.8964224	6.834483	0	3	100	0	45	4.938754	1.136243	6.800992	
19:05:41	0	0	0	-1.333335	-80.05324	0	3	100	0	45	4.975829	1.113988	6.762573	
19:05:42	0	0	0	-0.9013995	32.24259	0	3	100	0	45	4.946251	1.175336	6.708335	
19:05:44	0	0	0	-1.22096	-43.11818	0	3	100	0	45	4.924365	1.117898	6.698308	
19:05:46	0	0	0	-1.404052	-64.80999	0	3	100	0	45	4.909503	1.101413	6.680701	
19:05:48	0	0	0	-1.002784	43.0053	0	3	100	0	45	4.92905	1.126487	6.73181	
19:05:50	0	0	0	-1.050947	0.2302334	0	3	100	0	45	4.956623	1.125045	6.737089	
19:05:52	0	0	0	-0.7523616	65.60812	0	3	100	0	45	4.950848	1.18699	6.727028	
19:05:54	0	0	0	-1.132963	-32.23212	0	3	100	0	45	4.983871	1.164066	6.710549	
19:05:56	0	0	0	-0.9101053	-6.587436	0	3	100	0	45	5.040103	1.119511	6.670893	
19:05:58	0	0	0	-0.7213243	40.40516	0	3	100	0	45	5.012864	1.099224	6.680513	
19:05:59	0	0	0	-0.9343665	25.46598	0	3	100	0	45	5.016816	1.103858	6.646598	
19:06:01	0	0	0	-0.7295995	-45.82513	0	3	100	0	45	4.998394	1.146844	6.674638	
19:06:03	0	0	0	-0.9866533	34.20476	0	3	100	0	45	4.94911	1.128029	6.621315	
19:06:05	0	0	0	-0.7599934	50.17876	0	3	100	0	45	4.994258	1.188941	6.663823	
19:06:07	0	0	0	-1.1061	10.81508	0	3	100	0	45	5.028486	1.252028	6.663826	
19:06:09	0	0	0	-0.9900358	-42.56258	0	3	100	0	45	5.037434	1.214334	6.66375	
19:06:11	0	0	0	-0.8836935	13.72684	0	3	100	0	45	5.080848	1.18584	6.656368	
19:06:13	0	0	0	-1.147799	-59.17901	0	3	100	0	45	5.092029	1.166252	6.65864	
19:06:15	0	0	0	-0.9698141	-11.3643	0	3	100	0	45	5.027879	1.196497	6.655477	
19:06:16	0	0	0	-0.9322312	-5.878859	0	3	100	0	45	5.026913	1.150924	6.683936	
19:06:18	0	0	0	-1.093059	-30.064	0	3	100	0	45	4.969198	1.13773	6.675575	
19:06:20	0	0	0	-0.9346789	43.37164	0	3	100	0	45	4.996364	1.16101	6.647862	
19:06:22	0	0	0	-0.7674007	27.5365	0	3	100	0	45	4.949901	1.094101	6.627131	
19:06:24	0	0	0	-0.8009104	35.69566	0	3	100	0	45	4.974992	1.062489	6.69091	
19:06:26	0	0	0	-0.9380969	11.17591	0	3	100	0	45	4.969251	1.103354	6.699414	
19:06:28	0	0	0	-0.933935	48.05979	0	3	100	0	45	4.976719	1.121532	6.696629	
19:06:30	0	0	0	-1.206195	-60.07177	0	3	100	0	45	4.967214	1.177841	6.725282	
19:06:32	0	0	0	-1.073653	-28.14899	0	3	100	0	45	4.980224	1.152543	6.741372	
19:06:33	0	0	0	-1.295698	-77.2416	0	3	100	0	45	4.959491	1.179119	6.761117	
19:06:35	0	0	0	-0.9048234	6.759213	0	3	100	0	45	4.972023	1.135677	6.756473	
19:06:37	0	0	0	-1.166144	-16.09748	0	3	100	0	45	4.98203	1.134242	6.733013	
19:06:39	0	0	0	-1.085507	51.82519	0	3	100	0	45	4.930184	1.199172	6.719851	
19:06:41	0	0	0	-1.35101	-63.02026	0	3	100	0	45	4.976455	1.114215	6.685446	
19:06:43	0	0	0	-0.9714645	26.4062	0	3	100	0	45	4.961284	1.176624	6.711808	
19:06:45	0	0	0	-1.327579	4.636803	0	3	100	0	45	4.951504	1.190001	6.702168	
19:06:47	0	0	0	-0.7436516	50.69506	0	3	100	0	45	4.977106	1.244309	6.691688	
19:06:49	0	0	0	-0.9906579	46.68567	0	3	100	0	45	4.936264	1.222793	6.686773	
19:06:50	0	0	0	-1.054047	13.35452	0	3	100	0	45	4.952999	1.19477	6.718632	
19:06:52	0	0	0	-1.085158	-42.93297	0	3	100	0	45	4.999736	1.17561	6.683415	
19:06:54	0	0	0	-1.197233	-44.25633	0	3	100	0	45	5.001237	1.128977	6.67549	
19:06:56	0	0	0	-0.9719924	38.92582	0	3	100	0	45	4.983114	1.127332	6.667568	
19:06:58	0	0	0	-1.531559	-114.806	0	3	100	0	45	4.987143	1.136828	6.675862	
19:07:00	0	0	0	-1.431779	-5.303516	0	3	100	0	45	4.98399	1.199589	6.681663	
19:07:02	0	0	0	-1.688402	-70.09728	0	3	100	0	45	4.987108	1.168169	6.693251	
19:07:04	0	0	0	-1.352187	40.67925	0	3	100	0	45	4.963491	1.187291	6.699445	
19:07:05	0	0	0	-1.461269	46.73029	0	3	100	0	45	5.021973	1.150958	6.720481	
19:07:07	0	0	0	-1.731932	-2.531981	0	3	100	0	45	5.040991	1.096687	6.692917	
19:07:09	0	0	0	-1.456234	-23.10552	0	3	100	0	45	4.993638	1.085157	6.646246	
19:07:11	0	0	0	-0.9768236	22.32853	0	3	100	0	45	5.033732	1.112636	6.699011	
19:07:13	0	0	0	-1.209349	3.171498	0	3	100	0	45	5.058161	1.107763	6.713302	
19:07:15	0	0	0	-1.15575	58.81537	0	3	100	0	45	5.003861	1.23414	6.698192	
19:07:17	0	0	0	-1.565443	-84.82768	0	3	100	0	45	5.034448	1.227263	6.680642	
19:07:19	0	0	0	-1.139546	-1.865506	0	3	100	0	45	5.021193	1.188901	6.691115	
19:07:21	0	0	0	-1.104024	-25.7595	0	3	100	0	45	4.95966	1.175597	6.68939	
19:07:22	0	0	0	-0.9472922	-15.67291	0	3	100	0	45	4.977057	1.101192	6.711559	
19:07:24	0	0	0	-1.043523	0.1375977	0	3	100	0	45	4.985632	1.11269	6.676658	
19:07:26	0	0	0	-1.171559	-33.51451	0	3	100	0	45	4.988286	1.082408	6.644372	
19:07:28	0	0	0	-1.282207	-19.53702	0	3	100	0	45	4.987938	1.099689	6.638906	
19:07:30	0	0	0	-1.023824	-20.50844	0	3	100	0	45	4.996627	1.190329	6.667774	
19:07:32	0	0	0	-1.391198	-12.48679	0	3	100	0	45	4.981457	1.23919	6.693809	
19:07:34	0	0	0	-1.154768	-19.10358	0	3	100	0	45	5.004349	1.187063	6.662203	
19:07:36	0	0	0	-1.174587	-33.70466	0	3	100	0	45	4.939842	1.187475	6.684599	
19:07:38	0	0	0	-1.16856	-6.115404	0	3	100	0	45	4.93519	1.232335	6.700723	
19:07:39	0	0	0	-1.123271	76.99788	0	3	100	0	45	4.974144	1.276474	6.682895	
19:07:41	0	0	0	-1.253497	25.34474	0	3	100	0	45	4.994726	1.185794	6.702182	
19:07:43	0	0	0	-1.22006	-24.07564	0	3	100	0	45	4.98037	1.182043	6.690214	
19:07:45	0	0	0	-1.104736	12.19988	0	3	100	0	45	4.9906	1.125189	6.718447	
19:07:47	0	0	0	-1.230622	-37.84424	0	3	100	0	45	4.981945	1.15112	6.70965	
19:07:49	0	0	0	-1.174676	16.97136	0	3	100	0	45	4.97935	1.115451	6.693692	
19:07:51	0	0	0	-1.003845	64.9965	0	3	100	0	45	4.95788	1.197836	6.689748	
19:07:53	0	0	0	-1.64239	-104.3152	0	3	100	0	45	4.951539	1.229221	6.737821	
19:07:55	0	0	0	-1.27176	-98.28163	0	3	100	0	45	5.119984	1.089181	6.59366	
19:07:56	0	0	0	-0.6869801	25.07487	0	3	100	0	45	9.155587	3.519464	0.01298722	
19:07:58	0	0	0	-1.146308	-26.05536	0	3	100	0	45	8.601123	-4.568655	-3.890874	
19:08:00	0	0	0	-1.365561	-10.03407	0	3	100	0	45	7.854031	-17.67114	-5.090464	
19:08:02	0	0	0	-1.253994	13.23063	0	3	100	0	45	4.454834	22.65973	-3.956141	
19:08:04	0	0	0	-0.5446532	33.28063	0	3	100	0	45	5.576355	14.44492	-4.040899	
19:08:06	0	0	0	-0.7573458	-70.40497	0	3	100	0	45	0.1180384	30.48572	-4.15972	
19:08:08	0	0	0	-0.3303634	37.3052	0	3	100	0	45	9.173416	-23.84822	-2.487648	
19:08:10	0	0	0	-0.7779256	-66.06013	0	3	100	0	45	1.768937	34.4257	-2.807545	
19:08:12	0	0	0	-0.9387465	7.278222	0	3	100	0	45	7.371017	-24.62263	-4.03144	
19:08:13	0	0	0	-0.9688413	4.911217	0	3	100	0	45	6.470534	-15.85384	-1.440907	
19:08:15	0	0	0	-1.056149	0.009708852	0	3	100	0	45	2.918948	45.31417	-0.2848721	
19:08:17	0	0	0	-0.9383606	39.36303	0	3	100	0	45	2.881932	44.94637	-0.3681835	
19:08:19	0	0	0	-1.013766	17.71597	0	3	100	0	45	3.797187	43.58951	0.07990322	
19:08:21	0	0	0	-0.9586637	25.59915	0	3	100	0	45	4.007329	37.20252	-0.3009624	
19:08:23	0	0	0	-0.8614528	23.30566	0	3	100	0	45	5.490127	38.19995	0.6872735	
19:08:25	0	0	0	-0.7954451	51.35495	0	3	100	0	45	5.685187	28.05093	-3.356444	
19:08:27	0	0	0	-0.9531369	26.98248	0	3	100	0	45	4.989114	26.13734	-6.349745	
19:08:29	0	0	0	-1.406062	-73.99944	0	3	100	0	45	3.746168	22.54259	-2.099807	
19:08:31	0	0	0	-0.9077023	9.072756	0	3	100	0	45	2.742996	30.2494	-0.7237042	
19:08:32	0	0	0	-0.8749852	27.5146	0	3	100	0	45	2.781613	24.60245	-1.849572	
19:08:34	0	0	0	-1.288198	-27.58278	0	3	100	0	45	2.155953	30.86472	-2.300175	
19:08:36	0	0	0	-1.34575	-51.91211	0	3	100	0	45	3.361947	17.33638	-2.068269	
19:08:38	0	0	0	-1.289734	-24.39883	0	3	100	0	45	5.026219	-22.11605	0.6342075	
19:08:40	0	0	0	-1.012281	-11.20226	0	3	100	0	45	4.825021	-26.61126	-0.6751942	
19:08:42	0	0	0	-1.380245	-18.21096	0	3	100	0	45	2.294632	9.836884	0.8524405	
19:08:44	0	0	0	-0.9301984	45.17475	0	3	100	0	45	2.616341	3.980444	-2.262233	
19:08:46	0	0	0	-0.795874	-19.84328	0	3	100	0	45	6.428443	3.198536	-1.004443	
19:08:48	0	0	0	-0.8751329	0.9451388	0	3	100	0	45	9.079052	5.384508	1.632521	
19:08:49	0	0	0	-0.9756364	-45.91405	0	3	100	0	45	-0.577594	5.27935	3.527521	
19:08:51	0	0	0	-0.8751726	-3.491516	0	3	100	0	45	-7.67929	6.15992	-0.9301998	
19:08:53	0	0	0	-0.9735535	4.458528	0	3	100	0	45	4.02951	5.999111	-2.116985	
19:08:55	0	0	0	-1.015758	28.69504	0	3	100	0	45	-2.528794	2.703118	-3.313713	
19:08:57	0	0	0	-1.224612	-21.30643	0	3	100	0	45	-0.3036696	3.922692	-5.826989	
19:08:59	0	0	0	-1.321471	-63.93548	0	3	100	0	45	-2.978547	-1.190165	-4.225336	
19:09:01	0	0	0	-1.099892	-58.00444	0	3	100	0	45	2.326684	4.121082	-4.907732	
19:09:03	0	0	0	-1.049195	46.89005	0	3	100	0	45	4.817207	1.220182	-2.435322	
19:09:05	0	0	0	-1.288337	-28.73141	0	3	100	0	45	-6.145231	1.587204	-1.500034	
19:09:06	0	0	0	-0.9076005	51.15053	0	3	100	0	45	5.750501	1.856968	-2.414936	
19:09:08	0	0	0	-0.480823	93.67191	0	3	100	0	45	-6.50472	5.564971	-2.556004	
19:09:10	0	0	0	-0.982509	17.55928	0	3	100	0	45	6.660601	2.185636	-1.701186	
19:09:12	0	0	0	-1.236919	-104.1839	0	3	100	0	45	-8.936904	26.83811	-4.194832	
19:09:14	0	0	0	-1.170072	-30.29672	0	3	100	0	45	8.172384	22.31253	-1.538932	
19:09:16	0	0	0	-0.9441796	-26.3113	0	3	100	0	45	-1.746844	23.51477	-0.1663922	
19:09:18	0	0	0	-0.8088944	17.23866	0	3	100	0	45	-8.156088	20.27038	-1.700796	
19:09:20	0	0	0	-0.9661686	-7.65019	0	3	100	0	45	7.756117	17.12215	-0.6758968	
19:09:22	0	0	0	-1.178553	3.128976	0	3	100	0	45	13.57701	9.511782	-0.02314832	
19:09:23	0	0	0	-0.8966857	20.47006	0	3	100	0	45	-1.854727	8.750363	-1.346831	
19:09:25	0	0	0	-0.9685813	27.11419	0	3	100	0	45	18.90832	0.2686073	-1.860368	
19:09:27	0	0	0	-1.203798	-91.25056	0	3	100	0	45	9.102622	4.383387	-2.027843	
19:09:29	0	0	0	-1.261158	5.35321	0	3	100	0	45	7.470925	-9.4877	-1.751	
19:09:31	0	0	0	-1.572234	-18.4965	0	3	100	0	45	6.670366	0.2967009	-2.135803	
19:09:33	0	0	0	-1.543064	-11.00047	0	3	100	0	45	6.322702	0.1422376	-2.331691	
19:09:35	0	0	0	-1.157999	86.27748	0	3	100	0	45	6.059515	0.001820139	-2.359382	
19:09:37	0	0	0	-1.08496	6.09213	0	3	100	0	45	5.911228	-0.08316121	-2.385008	
19:09:38	0	0	0	-1.527428	-75.25407	0	3	100	0	45	5.741075	-0.1389825	-2.375792	
19:09:40	0	0	0	-1.484195	-74.43262	0	3	100	0	45	5.951283	-0.2236272	-5.79625	
19:09:42	0	0	0	-1.302824	8.353331	0	3	100	0	45	5.909272	-0.3858232	-0.6934052	
19:09:44	0	0	0	-1.395114	-44.95479	0	3	100	0	45	5.93871	-0.4737715	-0.5343136	
19:09:46	0	0	0	-1.240189	-21.20733	0	3	100	0	45	5.748407	-0.5728484	-2.3512	
19:09:48	0	0	0	-1.422013	-74.37722	0	3	100	0	45	5.599638	-0.3324483	6.815874	
19:09:50	0	0	0	-0.9999	-20.5832	0	3	100	0	45	5.686213	-0.3861302	9.255738	
19:09:52	0	0	0	-1.076323	11.81244	0	3	100	0	45	5.716221	-0.4444171	9.623495	
19:09:54	0	0	0	-1.453366	-65.93633	0	3	100	0	45	5.745993	-0.3699265	9.944745	
19:09:55	0	0	0	-1.447513	-88.97587	0	3	100	0	45	5.827041	-0.5123649	9.877036	
19:09:57	0	0	0	-1.16811	3.283107	0	3	100	0	45	6.042808	-0.6693007	9.999846	
19:09:59	0	0	0	-1.106411	57.84606	0	3	100	0	45	4.985516	0.531108	10.04016	
19:10:01	0	0	0	-1.080585	20.38246	0	3	100	0	45	4.986149	0.6700304	9.964515	
19:10:03	0	0	0	-1.08261	64.80539	0	3	100	0	45	6.003237	1.402566	-9.941545	
19:10:05	0	0	0	-1.082559	13.62917	0	3	100	0	45	5.972601	1.780957	-5.537974	
19:10:07	0	0	0	-1.428184	-69.20963	0	3	100	0	45	6.017372	1.826824	-5.764247	
19:10:09	0	0	0	-1.022087	41.25042	0	3	100	0	45	6.089674	1.90175	-5.936725	
19:10:11	0	0	0	-1.151447	31.69494	0	3	100	0	45	6.055878	1.988235	-6.064879	
19:10:12	0	0	0	-1.929384	-102.15	0	3	100	0	45	6.053323	2.100574	-6.177036	
19:10:14	0	0	0	-1.622237	57.05043	0	3	100	0	45	6.068549	2.068519	-6.25646	
19:10:16	0	0	0	-1.179959	98.8614	0	3	100	0	45	6.067698	2.092134	-6.330195	
19:10:18	0	0	0	-1.5413	-16.64697	0	3	100	0	45	6.059582	2.100507	-6.325491	
19:10:20	0	0	0	-1.435624	-47.29007	0	3	100	0	45	6.100858	2.187285	-6.35229	
19:10:22	0	0	0	-1.2585	13.12514	0	3	100	0	45	6.141128	2.122568	-6.382304	
19:10:24	0	0	0	-1.619613	-54.33701	0	3	100	0	45	6.159009	2.198353	-6.344555	
19:10:26	0	0	0	-1.683582	-100.4693	0	3	100	0	45	6.164894	2.067874	-6.387621	
19:10:28	0	0	0	-1.727271	-45.47214	0	3	100	0	45	6.169409	2.09713	-6.429167	
19:10:29	0	0	0	-1.217291	34.48563	0	3	100	0	45	6.230931	2.013416	-6.405523	
19:10:31	0	0	0	-1.428054	17.5454	0	3	100	0	45	6.234817	2.032808	-6.414024	
19:10:33	0	0	0	-1.694667	-45.81035	0	3	100	0	45	6.209086	2.099766	-6.391678	
19:10:35	0	0	0	-1.714704	-18.30874	0	3	100	0	45	6.23979	2.088943	-6.374427	
19:10:37	0	0	0	-1.373799	34.54155	0	3	100	0	45	6.262497	2.138	-6.383522	
19:10:39	0	0	0	-1.104598	75.35464	0	3	100	0	45	6.296905	2.120048	-6.325191	
19:10:41	0	0	0	-1.056699	112.0788	0	3	100	0	45	6.320283	2.181571	-6.313104	
19:10:43	0	0	0	-0.8416579	42.04353	0	3	100	0	45	6.357028	2.198045	-6.318922	
19:10:45	0	0	0	-1.132556	-31.91937	0	3	100	0	45	6.35176	2.222174	-6.290106	
19:10:47	0	0	0	-1.284677	26.7412	0	3	100	0	45	6.404914	2.214188	-6.286384	
19:10:48	0	0	0	-1.491647	-14.81837	0	3	100	0	45	6.435267	2.213227	-6.266138	
19:10:50	0	0	0	-1.74443	-114.6177	0	3	100	0	45	6.41231	2.160471	-6.26564	
19:10:52	0	0	0	-1.406637	-1.469245	0	3	100	0	45	6.416685	2.130264	-6.272824	
19:10:54	0	0	0	-1.295555	23.11818	0	3	100	0	45	6.401329	2.162646	-6.265894	
19:10:56	0	0	0	-1.786705	-94.57504	0	3	100	0	45	6.346077	2.204003	-6.195224	
19:10:58	0	0	0	-1.414964	15.03272	0	3	100	0	45	6.320812	2.209244	-6.188754	
19:11:00	0	0	0	-1.379429	22.41682	0	3	100	0	45	6.346648	2.169049	-6.178217	
19:11:02	0	0	0	-1.560841	-68.86534	0	3	100	0	45	6.378511	2.190212	-6.170131	
19:11:04	0	0	0	-1.351308	1.665622	0	3	100	0	45	6.418899	2.222613	-6.132983	
19:11:05	0	0	0	-1.185998	25.83605	0	3	100	0	45	6.429408	2.213241	-6.143334	
19:11:07	0	0	0	-1.392312	-94.4716	0	3	100	0	45	6.446723	2.296283	-6.173304	
19:11:09	0	0	0	-1.11065	-3.311165	0	3	100	0	45	6.449956	2.288836	-6.172162	
19:11:11	0	0	0	-1.403708	-19.11047	0	3	100	0	45	6.494488	2.279175	-6.173455	
19:11:13	0	0	0	-1.607872	-10.81326	0	3	100	0	45	6.488393	2.316886	-6.161846	
19:11:15	0	0	0	-1.850511	-101.7465	0	3	100	0	45	6.496084	2.308921	-6.141185	
19:11:17	0	0	0	-1.16352	16.60299	0	3	100	0	45	6.48767	2.270324	-6.120308	
19:11:19	0	0	0	-1.234291	-7.611814	0	3	100	0	45	6.491092	2.342447	-6.099605	
19:11:21	0	0	0	-1.351273	-14.2622	0	3	100	0	45	6.519233	2.340276	-6.083367	
19:11:22	0	0	0	-1.581079	-44.81194	0	3	100	0	45	6.536284	2.30865	-6.079659	
19:11:24	0	0	0	-1.657895	-69.96606	0	3	100	0	45	6.554834	2.336253	-6.086519	
19:11:26	0	0	0	-1.167423	64.57917	0	3	100	0	45	6.600403	2.35146	-6.095529	
19:11:28	0	0	0	-1.244619	14.52311	0	3	100	0	45	6.621427	2.334039	-6.054008	
19:11:30	0	0	0	-1.17449	126.7718	0	3	100	0	45	6.605291	2.314199	-6.079977	
19:11:32	0	0	0	-1.813539	-25.10559	0	3	100	0	45	6.634973	2.228719	-6.136379	
19:11:34	0	0	0	-1.126201	16.99628	0	3	100	0	45	6.661763	2.236234	-6.192058	
19:11:36	0	0	0	-1.555922	-75.27186	0	3	100	0	45	6.641889	2.26418	-6.140974	
19:11:38	0	0	0	-1.489539	-12.94732	0	3	100	0	45	6.632071	2.282243	-6.185369	
19:11:39	0	0	0	-1.481321	-17.92492	0	3	100	0	45	6.638433	2.302741	-6.227707	
19:11:41	0	0	0	-1.047413	160.0845	0	3	100	0	45	6.653406	2.265557	-6.198614	
19:11:43	0	0	0	-1.348941	42.97886	0	3	100	0	45	6.691661	2.300081	-6.164145	
19:11:45	0	0	0	-1.411615	-6.553683	0	3	100	0	45	6.67773	2.320895	-6.155668	
19:11:47	0	0	0	-1.894294	-119.0444	0	3	100	0	45	6.721882	2.302217	-6.217453	
19:11:49	0	0	0	-1.608763	3.891944	0	3	100	0	45	6.685942	2.269393	-6.213159	
19:11:51	0	0	0	-1.83655	-66.47701	0	3	100	0	45	6.69419	2.272996	-6.194836	
19:11:53	0	0	0	-1.637609	12.28017	0	3	100	0	45	6.684871	2.366745	-6.185067	
19:11:55	0	0	0	-1.495952	11.36826	0	3	100	0	45	6.662499	2.199995	-6.167936	
19:11:56	0	0	0	-1.623378	15.78283	0	3	100	0	45	6.678707	2.194736	-6.176521	
19:11:58	0	0	0	-1.450398	77.978	0	3	100	0	45	6.672385	2.131241	-6.134371	
19:12:00	0	0	0	-1.824633	-77.25455	0	3	100	0	45	6.660858	2.222564	-6.12227	
19:12:02	0	0	0	-1.174393	72.96991	0	3	100	0	45	6.669222	2.303699	-6.100634	
19:12:04	0	0	0	-1.253368	61.34888	0	3	100	0	45	6.635337	2.366884	-6.065294	
19:12:06	0	0	0	-1.711692	-3.799675	0	3	100	0	45	6.609241	2.356517	-6.06194	
19:12:08	0	0	0	-1.232763	73.64123	0	3	100	0	45	6.592686	2.42113	-6.072696	
19:12:10	0	0	0	-1.296823	75.15108	0	3	100	0	45	6.566277	2.40114	-6.074167	
19:12:12	0	0	0	-1.587332	54.24587	0	3	100	0	45	6.586202	2.396325	-6.075871	
19:12:13	0	0	0	-1.47447	35.85791	0	3	100	0	45	6.581131	2.452213	-6.054722	
19:12:15	0	0	0	-1.983752	-50.08889	0	3	100	0	45	6.62761	2.480742	-6.052237	
19:12:17	0	0	0	-2.010321	-24.60784	0	3	100	0	45	6.615574	2.425586	-6.055693	
19:12:19	0	0	0	-1.686534	-9.038723	0	3	100	0	45	6.633797	2.357809	-6.051168	
19:12:21	0	0	0	-1.18566	78.49166	0	3	100	0	45	6.612868	2.316915	-6.026428	
19:12:23	0	0	0	-1.272527	10.95423	0	3	100	0	45	6.639467	2.319368	-6.022118	
19:12:25	0	0	0	-1.63046	31.38638	0	3	100	0	45	6.683039	2.258799	-6.056611	
19:12:27	0	0	0	-1.765926	5.717884	0	3	100	0	45	6.699736	2.316133	-6.019213	
19:12:29	0	0	0	-1.91598	-43.15897	0	3	100	0	45	6.697195	2.289091	-6.07842	
19:12:30	0	0	0	-1.982539	-8.919208	0	3	100	0	45	6.739752	2.31241	-6.111152	
19:12:32	0	0	0	-2.006827	-64.05693	0	3	100	0	45	6.70659	2.411429	-6.128863	
19:12:34	0	0	0	-1.556037	34.01509	0	3	100	0	45	6.716121	2.439986	-6.082443	
19:12:36	0	0	0	-1.7959	42.80584	0	3	100	0	45	6.780311	2.408881	-6.122648	
19:12:38	0	0	0	-2.062265	-77.41322	0	3	100	0	45	6.741753	2.375421	-6.13211	
19:12:40	0	0	0	-1.891699	36.47942	0	3	100	0	45	6.738396	2.337813	-6.074685	
19:12:42	0	0	0	-1.831182	43.172	0	3	100	0	45	6.737955	2.34098	-6.059155	
19:12:44	0	0	0	-1.623052	23.87455	0	3	100	0	45	6.780969	2.369241	-6.037405	
19:12:46	0	0	0	-1.678639	44.1073	0	3	100	0	45	6.795485	2.406109	-6.034005	
19:12:47	0	0	0	-1.515691	-0.8300297	0	3	100	0	45	6.769197	2.393214	-6.029326	
19:12:49	0	0	0	-1.640165	41.32895	0	3	100	0	45	6.810375	2.391371	-6.015216	
19:12:51	0	0	0	-1.586394	24.72914	0	3	100	0	45	6.84547	2.441253	-6.055411	
19:12:53	0	0	0	-1.429302	30.84861	0	3	100	0	45	6.817686	2.471571	-6.070217	
19:12:55	0	0	0	-1.471054	70.02113	0	3	100	0	45	6.828656	2.438031	-6.047909	
19:12:57	0	0	0	-1.411902	25.48451	0	3	100	0	45	6.827037	2.488398	-6.04813	
19:12:59	0	0	0	-1.77513	-1.766616	0	3	100	0	45	6.822815	2.461446	-6.025352	
19:13:01	0	0	0	-1.641888	-22.40595	0	3	100	0	45	6.825792	2.463709	-6.025885	
19:13:03	0	0	0	-1.560429	19.32751	0	3	100	0	45	6.787867	2.391343	-6.029914	
19:13:04	0	0	0	-1.800587	-79.74236	0	3	100	0	45	6.79596	2.41385	-5.999314	
19:13:06	0	0	0	-1.720269	-44.6618	0	3	100	0	45	6.828064	2.407665	-6.010257	
19:13:08	0	0	0	-1.573221	-21.70533	0	3	100	0	45	6.829035	2.486238	-6.03692	
19:13:10	0	0	0	-1.556055	50.57439	0	3	100	0	45	6.831048	2.533567	-6.046321	
19:13:12	0	0	0	-1.841125	-43.95756	0	3	100	0	45	6.832238	2.507897	-6.030831	
19:13:14	0	0	0	-1.343742	25.76059	0	3	100	0	45	6.829638	2.44631	-6.068542	
19:13:16	0	0	0	-1.962354	-21.8088	0	3	100	0	45	6.866745	2.461765	-6.009828	
19:13:18	0	0	0	-1.460842	21.04091	0	3	100	0	45	6.86813	2.480634	-5.992392	
19:13:20	0	0	0	-1.435891	87.8156	0	3	100	0	45	6.845236	2.422322	-6.012328	
19:13:21	0	0	0	-1.884473	-14.85271	0	3	100	0	45	6.85129	2.453822	-6.027643	
19:13:23	0	0	0	-1.428693	86.71332	0	3	100	0	45	6.841641	2.454919	-6.043693	
19:13:25	0	0	0	-1.944776	-119.1463	0	3	100	0	45	6.759004	2.49103	-6.003078	
19:13:27	0	0	0	-1.641088	11.50214	0	3	100	0	45	6.712193	2.37657	-5.980777	
19:13:29	0	0	0	-1.513921	12.59339	0	3	100	0	45	6.663876	2.345934	-5.993514	
19:13:31	0	0	0	-1.412021	34.70562	0	3	100	0	45	6.721647	2.287317	-5.994655	
19:13:33	0	0	0	-1.595214	18.11887	0	3	100	0	45	6.746963	2.383297	-5.960756	
19:13:35	0	0	0	-1.623128	-51.93861	0	3	100	0	45	6.786054	2.410107	-5.993693	
19:13:37	0	0	0	-1.675084	-5.297843	0	3	100	0	45	6.782167	2.470922	-6.020282	
19:13:38	0	0	0	-1.862854	-17.50794	0	3	100	0	45	6.784834	2.491384	-6.004862	
19:13:40	0	0	0	-1.752239	-16.78286	0	3	100	0	45	6.796974	2.416613	-6.001226	
19:13:42	0	0	0	-1.895937	-58.1203	0	3	100	0	45	6.803468	2.386332	-6.015879	
19:13:44	0	0	0	-1.506896	41.75595	0	3	100	0	45	6.789736	2.404496	-5.992365	
19:13:46	0	0	0	-1.374445	63.90549	0	3	100	0	45	6.794772	2.398996	-5.999382	
19:13:48	0	0	0	-1.434835	59.46373	0	3	100	0	45	6.813202	2.444223	-6.014944	
19:13:50	0	0	0	-1.717396	17.95606	0	3	100	0	45	6.785868	2.506785	-6.022477	
19:13:52	0	0	0	-1.574579	71.63131	0	3	100	0	45	6.826428	2.453292	-6.009984	
19:13:54	0	0	0	-1.656174	63.77896	0	3	100	0	45	6.812769	2.419693	-6.01351	
19:13:55	0	0	0	-1.906152	-54.92387	0	3	100	0	45	6.817125	2.421696	-6.011542	
19:13:57	0	0	0	-1.364339	76.29891	0	3	100	0	45	6.810103	2.456656	-5.999669	
19:13:59	0	0	0	-1.933584	-27.25706	0	3	100	0	45	6.786108	2.486445	-6.027927	
19:14:01	0	0	0	-2.059198	-12.60498	0	3	100	0	45	6.833815	2.452983	-6.024039	
19:14:03	0	0	0	-1.756958	13.81938	0	3	100	0	45	6.856733	2.430353	-6.049539	
19:14:05	0	0	0	-1.828118	13.51531	0	3	100	0	45	6.8332	2.403193	-6.032565	
19:14:07	0	0	0	-1.605211	24.86676	0	3	100	0	45	6.828076	2.465634	-5.989248	
19:14:09	0	0	0	-1.673456	50.45257	0	3	100	0	45	6.821608	2.478553	-5.969882	
19:14:11	0	0	0	-1.585749	26.9756	0	3	100	0	45	6.854795	2.480083	-5.955479	
19:14:12	0	0	0	-1.483365	66.76999	0	3	100	0	45	6.855108	2.509854	-6.003615	
19:14:14	0	0	0	-1.493518	63.20247	0	3	100	0	45	6.858902	2.489965	-6.012602	
19:14:16	0	0	0	-1.761046	-7.328743	0	3	100	0	45	6.88366	2.496738	-5.969103	
19:14:18	0	0	0	-1.797268	15.06889	0	3	100	0	45	6.877266	2.508216	-5.945762	
19:14:20	0	0	0	-1.561584	32.16506	0	3	100	0	45	6.87234	2.433493	-5.977103	
19:14:22	0	0	0	-1.680728	55.46301	0	3	100	0	45	6.884459	2.374676	-6.026934	
19:14:24	0	0	0	-1.570807	64.10501	0	3	100	0	45	6.868454	2.347999	-6.029953	
19:14:26	0	0	0	-1.603642	-0.6820891	0	3	100	0	45	6.872242	2.360026	-6.012486	
19:14:28	0	0	0	-1.710951	23.51203	0	3	100	0	45	6.854429	2.385981	-6.040471	
19:14:29	0	0	0	-1.52801	49.45369	0	3	100	0	45	6.907694	2.421676	-6.021605	
19:14:31	0	0	0	-1.445671	40.87194	0	3	100	0	45	6.906548	2.441142	-6.020268	
19:14:33	0	0	0	-1.929777	28.1187	0	3	100	0	45	6.894155	2.516055	-5.989896	
19:14:35	0	0	0	-1.865721	-5.361907	0	3	100	0	45	6.85499	2.542491	-6.025011	
19:14:37	0	0	0	-1.675894	9.04895	0	3	100	0	45	6.844553	2.528139	-6.047288	
19:14:39	0	0	0	-1.707053	2.599385	0	3	100	0	45	6.8302	2.55142	-6.041699	
19:14:41	0	0	0	-1.88743	-21.37928	0	3	100	0	45	6.86307	2.536939	-6.000223	
19:14:43	0	0	0	-1.950886	-27.27774	0	3	100	0	45	6.849674	2.575988	-5.977565	
19:14:45	0	0	0	-2.088778	-21.71866	0	3	100	0	45	6.830082	2.624096	-5.971215	
19:14:46	0	0	0	-2.164119	-32.86062	0	3	100	0	45	6.854728	2.584759	-5.967314	
19:14:48	0	0	0	-1.813979	35.92357	0	3	100	0	45	6.851965	2.615593	-5.956105	
19:14:50	0	0	0	-2.089972	-0.3632821	0	3	100	0	45	6.847732	2.522628	-5.954019	
19:14:52	0	0	0	-1.736655	112.7054	0	3	100	0	45	6.888992	2.472908	-5.902459	
19:14:54	0	0	0	-2.066516	-23.8595	0	3	100	0	45	6.87146	2.478216	-5.903227	
19:14:56	0	0	0	-1.727975	52.12073	0	3	100	0	45	6.89663	2.493218	-5.928133	
19:14:58	0	0	0	-1.809546	-1.465669	0	3	100	0	45	6.920646	2.486369	-5.917141	
19:15:00	0	0	0	-1.792377	-44.98056	0	3	100	0	45	6.928913	2.498066	-5.927093	
19:15:02	0	0	0	-1.903395	-29.31195	0	3	100	0	45	6.916907	2.519054	-5.931175	
19:15:03	0	0	0	-1.82371	-7.621984	0	3	100	0	45	6.886663	2.516347	-5.92626	
19:15:05	0	0	0	-1.917242	-0.4933327	0	3	100	0	45	6.918333	2.456579	-5.934875	
19:15:07	0	0	0	-2.122326	-78.20408	0	3	100	0	45	6.946778	2.42433	-5.965862	
19:15:09	0	0	0	-1.785985	60.71685	0	3	100	0	45	6.965851	2.374122	-5.981807	
19:15:11	0	0	0	-1.880632	84.01402	0	3	100	0	45	6.901948	2.458984	-5.949452	
19:15:13	0	0	0	-2.108497	10.3565	0	3	100	0	45	6.921265	2.494795	-5.972812	
19:15:15	0	0	0	-1.788323	19.27007	0	3	100	0	45	6.938051	2.521966	-5.982891	
19:15:17	0	0	0	-2.121279	-15.25097	0	3	100	0	45	6.91515	2.572134	-5.941688	
19:15:19	0	0	0	-2.226772	-54.65907	0	3	100	0	45	6.914473	2.545367	-5.962567	
19:15:20	0	0	0	-2.112637	-3.860781	0	3	100	0	45	6.894157	2.575276	-5.921468	
19:15:22	0	0	0	-1.838899	37.92844	0	3	100	0	45	6.934958	2.563745	-5.896068	
19:15:24	0	0	0	-2.282659	-65.34202	0	3	100	0	45	6.939354	2.56921	-5.875078	
19:15:26	0	0	0	-2.092152	-45.37741	0	3	100	0	45	6.937994	2.615915	-5.871745	
19:15:28	0	0	0	-1.957146	28.68724	0	3	100	0	45	6.894391	2.636019	-5.87923	
19:15:30	0	0	0	-2.234406	-44.05554	0	3	100	0	45	6.877926	2.623965	-5.914902	
19:15:32	0	0	0	-2.13759	-1.262687	0	3	100	0	45	6.861738	2.64678	-5.880568	
19:15:34	0	0	0	-2.278966	-88.16636	0	3	100	0	45	6.90317	2.616058	-5.930587	
19:15:36	0	0	0	-2.252701	-72.10113	0	3	100	0	45	6.890083	2.627949	-5.936345	
19:15:37	0	0	0	-1.622025	50.51681	0	3	100	0	45	6.890733	2.546304	-5.916708	
19:15:39	0	0	0	-1.815979	42.78458	0	3	100	0	45	6.904465	2.490433	-5.88994	
19:15:41	0	0	0	-1.901612	-4.254313	0	3	100	0	45	6.92069	2.468181	-5.937676	
19:15:43	0	0	0	-2.247037	-32.79048	0	3	100	0	45	6.949013	2.441689	-5.903978	
19:15:45	0	0	0	-2.088752	-51.49922	0	3	100	0	45	6.934093	2.484611	-5.91805	
19:15:47	0	0	0	-1.787825	44.44264	0	3	100	0	45	6.91054	2.517533	-5.916092	
19:15:49	0	0	0	-2.095054	-39.85809	0	3	100	0	45	6.87021	2.541923	-5.927476	
19:15:51	0	0	0	-2.119116	-21.60883	0	3	100	0	45	6.882287	2.43595	-5.948372	
19:15:53	0	0	0	-1.846432	59.31107	0	3	100	0	45	6.905568	2.458006	-5.978194	
19:15:55	0	0	0	-2.006894	-10.4376	0	3	100	0	45	6.937982	2.432806	-5.974725	
19:15:56	0	0	0	-2.113941	6.161754	0	3	100	0	45	6.915083	2.43922	-5.968651	
19:15:58	0	0	0	-1.683361	68.49236	0	3	100	0	45	6.884179	2.487152	-5.93263	
19:16:00	0	0	0	-2.063136	29.58683	0	3	100	0	45	6.89252	2.511012	-5.908937	
19:16:02	0	0	0	-2.000345	24.50504	0	3	100	0	45	6.924766	2.510781	-5.908857	
19:16:04	0	0	0	-1.882911	46.98623	0	3	100	0	45	6.942387	2.526134	-5.899233	
19:16:06	0	0	0	-2.378239	-70.41447	0	3	100	0	45	6.910077	2.594838	-5.89086	
19:16:08	0	0	0	-1.869521	5.81138	0	3	100	0	45	6.976841	2.494149	-5.890524	
19:16:10	0	0	0	-2.355987	-72.18938	0	3	100	0	45	7.011053	2.529356	-5.873724	
19:16:12	0	0	0	-1.823935	61.64408	0	3	100	0	45	8.27431	3.009046	-5.767919	
19:16:13	0	0	0	-2.019662	24.44325	0	3	100	0	45	7.764391	2.770501	-5.728378	
19:16:15	0	0	0	-2.162353	26.73179	0	3	100	0	45	7.758393	2.735859	-5.763016	
19:16:17	0	0	0	-1.764995	85.71092	0	3	100	0	45	7.806942	2.791413	-5.679381	
19:16:19	0	0	0	-2.462194	-37.70012	0	3	100	0	45	7.797487	2.750458	-5.690995	
19:16:21	0	0	0	-2.239323	17.55916	0	3	100	0	45	7.771561	2.73722	-5.725351	
19:16:23	0	0	0	-2.302963	-41.5651	0	3	100	0	45	7.731631	2.753844	-5.720175	
19:16:25	0	0	0	-2.030888	29.00951	0	3	100	0	45	7.72083	2.767939	-5.678762	
19:16:27	0	0	0	-1.970668	64.20705	0	3	100	0	45	7.711462	2.884316	-5.706576	
19:16:29	0	0	0	-2.336529	-36.72032	0	3	100	0	45	7.811324	2.437873	-3.326899	
19:16:30	0	0	0	-2.528988	-45.81314	0	3	100	0	45	5.482891	1.973391	66.80547	
19:16:32	0	0	0	-2.590186	-25.46274	0	3	100	0	45	5.7874	1.434922	68.37689	
19:16:34	0	0	0	-2.240298	-1.494022	0	3	100	0	45	5.717914	1.31752	69.49326	
19:16:36	0	0	0	-2.084645	36.09338	0	3	100	0	45	5.701155	1.227468	70.3761	
19:16:38	0	0	0	-1.860732	7.392494	0	3	100	0	45	5.668229	1.168135	71.05215	
19:16:40	0	0	0	-1.605497	51.88165	0	3	100	0	45	5.404792	1.280796	78.01544	
19:16:42	0	0	0	-1.644354	66.33363	0	3	100	0	45	5.39935	1.325515	78.47452	
19:16:44	0	0	0	-1.745374	-18.01093	0	3	100	0	45	5.430539	1.333891	78.80894	
19:16:46	0	0	0	-1.912261	-69.76725	0	3	100	0	45	5.457076	1.292923	79.05058	
19:16:47	0	0	0	-1.796146	11.13994	0	3	100	0	45	5.156434	1.349981	87.35802	
19:16:49	0	0	0	-2.254193	-103.8162	0	3	100	0	45	4.128256	2.163133	135.76	
19:16:51	0	0	0	-2.095484	-36.97826	0	3	100	0	45	7.210136	1.475579	29.32239	
19:16:53	0	0	0	-1.771856	17.9488	0	3	100	0	45	6.438002	1.532691	33.94943	
