Date	Latitude(deg) 	Longitude(deg)	hamsl(m)	hafl(m)	climbrate(cm/s)	GroundSpeed(m/s)	Airspeed(m/s)	Mav_Link(%)	Rssi_Link(%)	Throttle	Roll(deg)	Pitch(deg)	Yaw(deg)
12:56:24	-6.795854	38.98535	133.976	0	0	0.14	0	100	0	0	3.963649	0.6821201	58.34327	
12:56:24	-6.795854	38.98535	133.927	-0.2803095	-0.6803494	0.26	3	100	0	5	3.90748	1.059033	58.36744	
12:56:24	-6.795856	38.98534	132.601	-0.282684	-2.013017	0.12	3	100	0	4	4.015057	1.214278	58.4237	
12:56:25	-6.795856	38.98534	132.535	-0.5451483	-17.55243	0.04	3	100	0	4	4.083294	1.088106	58.46385	
12:56:25	-6.795856	38.98534	132.423	-0.7868212	-29.84625	0.07	3	100	0	4	4.116482	1.055067	58.508	
12:56:25	-6.795856	38.98534	132.315	-1.086177	-44.07802	0.06	3	100	0	4	4.11665	0.9738776	58.5529	
12:56:25	-6.795856	38.98534	132.191	-1.329355	-54.3538	0.14	3	100	0	4	4.157207	0.8676952	58.58332	
12:56:25	-6.795856	38.98534	132.077	-1.406802	-54.22445	0.35	3	100	0	4	4.254385	0.7084039	58.58208	
12:56:26	-6.795856	38.98534	131.919	-1.457947	-53.7218	0.14	3	100	0	4	4.205917	0.7570817	58.56755	
12:56:26	-6.795856	38.98534	131.8	-1.203256	-36.87387	0.19	3	100	0	2	4.268974	0.8891987	58.57786	
12:56:26	-6.795856	38.98534	131.68	-0.9680784	-22.62807	0.14	3	100	0	4	4.234368	0.8704773	58.59497	
12:56:26	-6.795856	38.98534	131.631	-0.6637018	-5.732974	0.28	3	100	0	4	4.194003	0.7259931	58.58411	
12:56:26	-6.795855	38.98534	131.621	-0.414291	6.351429	0.19	3	100	0	4	4.187212	0.919299	58.58897	
12:56:27	-6.795856	38.98534	131.518	-0.2554058	12.79313	0.11	3	100	0	4	4.057798	1.008009	58.62298	
12:56:27	-6.795855	38.98534	131.491	-0.1143299	18.0157	0.29	3	100	0	4	3.909312	1.03999	58.65346	
12:56:27	-6.795855	38.98534	131.532	0.004642641	20.88104	0.29	3	100	0	4	3.995597	1.165694	58.70429	
12:56:27	-6.795855	38.98534	131.532	0.09702678	22.7808	0.16	3	100	0	4	4.077041	1.085263	58.7467	
12:56:27	-6.795855	38.98534	131.537	0.1731499	23.23947	0.19	3	100	0	4	4.16663	0.9819217	58.78206	
12:56:28	-6.795856	38.98534	131.519	0.2199446	21.54443	0.13	3	100	0	4	4.182276	0.9506615	58.80385	
12:56:28	-6.795856	38.98534	131.483	0.2592122	20.08187	0.18	3	100	0	4	4.178127	0.7085165	58.81288	
12:56:28	-6.795855	38.98534	131.442	0.2964949	18.14857	0.52	3	100	0	4	4.248213	0.2811434	58.79005	
12:56:28	-6.795855	38.98534	131.415	0.342125	17.4107	0.03	3	100	0	4	4.19358	0.3622794	58.72996	
12:56:28	-6.795855	38.98534	131.361	0.3922991	17.59526	0.26	3	100	0	4	4.216126	0.3634886	58.70891	
12:56:29	-6.795855	38.98534	131.353	0.4176303	15.44689	0.19	3	100	0	4	4.21147	0.2762991	58.66224	
12:56:29	-6.795855	38.98534	131.294	0.4255856	13.23665	0.06	3	100	0	5	4.128704	0.4821217	58.62273	
12:56:29	-6.795855	38.98534	131.263	0.4506707	11.64187	0.12	3	100	0	4	4.043514	0.6343032	58.62199	
12:56:29	-6.795855	38.98534	131.207	0.4799628	10.63801	0.14	3	100	0	4	4.043723	0.7110071	58.6218	
12:56:29	-6.795855	38.98534	131.158	0.4815384	8.569815	0.16	3	100	0	4	3.979045	0.542974	58.61269	
12:56:30	-6.795855	38.98534	131.111	0.4416575	4.386788	0.07	3	100	0	4	4.010607	0.5292172	58.60496	
12:56:30	-6.795855	38.98534	131.058	0.4152966	1.274294	0.09	3	100	0	4	4.109252	0.4427006	58.59809	
12:56:30	-6.795855	38.98534	130.976	0.3923822	-1.375376	0.22	3	100	0	4	3.939771	0.3863277	58.58134	
12:56:30	-6.795855	38.98534	130.947	0.3650756	-3.602436	0.08	3	100	0	4	3.952124	0.4796711	58.58295	
12:56:30	-6.795855	38.98534	130.974	0.3345512	-6.248353	0.14	3	100	0	4	3.990371	0.622993	58.57903	
12:56:31	-6.795855	38.98534	130.952	0.2644223	-10.09122	0.16	3	100	0	4	4.036247	0.4375959	58.57619	
12:56:31	-6.795855	38.98534	130.859	0.1743574	-15.1488	0.42	3	100	0	4	3.881829	0.6529163	58.56303	
12:56:31	-6.795855	38.98534	130.859	0.114433	-18.05478	0.13	3	100	0	4	4.007514	0.6081918	58.59082	
12:56:31	-6.795855	38.98534	130.797	0.06833124	-19.27202	0.35	3	100	0	4	3.9288	0.2529179	58.59908	
12:56:31	-6.795855	38.98534	130.791	0.01807956	-21.15647	0.12	3	100	0	4	3.978604	0.2913785	58.57309	
12:56:32	-6.795855	38.98534	130.774	-0.0226998	-21.9284	0.24	3	100	0	4	4.056072	0.2026993	58.55539	
12:56:32	-6.795854	38.98534	130.774	-0.05238288	-22.60964	0.26	3	100	0	4	4.086581	0.1426182	58.52035	
12:56:32	-6.795854	38.98534	130.821	-0.06405258	-22.0396	0.19	3	100	0	4	4.045322	0.4331508	58.49376	
12:56:32	-6.795854	38.98534	130.858	-0.07101032	-21.3554	0.22	3	100	0	4	4.096592	0.2110962	58.47621	
12:56:32	-6.795854	38.98534	130.878	-0.09476197	-21.83361	0.13	3	100	0	4	4.20961	0.2711806	58.44724	
12:56:33	-6.795854	38.98534	130.831	-0.1154558	-22.23872	0.33	3	100	0	4	4.089375	0.007902523	58.41217	
12:56:33	-6.795853	38.98534	130.804	-0.141822	-22.23487	0.09	3	100	0	4	4.129442	0.04733299	58.35177	
12:56:33	-6.795854	38.98534	130.789	-0.1619093	-22.3208	0.28	3	100	0	4	4.05001	0.3767838	58.31196	
12:56:33	-6.795854	38.98534	130.866	-0.1635481	-21.4468	0.21	3	100	0	4	4.0118	0.446169	58.29831	
12:56:33	-6.795854	38.98534	130.996	-0.1631816	-20.4696	0.57	3	100	0	4	4.080149	0.66932	58.3027	
12:56:34	-6.795854	38.98534	131.162	-0.1614161	-19.26691	0.13	3	100	0	4	4.177233	0.417845	58.30661	
12:56:34	-6.795854	38.98534	131.075	-0.1574731	-18.10358	0.36	3	100	0	4	3.973674	-0.09449723	58.27321	
12:56:34	-6.795854	38.98534	131.075	-0.146157	-16.92542	0.36	3	100	0	4	4.185206	-0.3707686	58.22203	
12:56:34	-6.795854	38.98534	130.81	-0.1346181	-15.65145	0.36	3	100	0	4	4.067907	-0.2241771	58.14431	
12:56:34	-6.795854	38.98534	130.591	-0.1174015	-13.95698	0.36	3	100	0	4	4.295689	-0.5239103	58.07665	
12:56:35	-6.795854	38.98534	130.552	-0.100441	-12.54386	0.09	3	100	0	4	4.108882	-0.5438642	57.9776	
12:56:35	-6.795854	38.98534	130.367	-0.05667743	-10.22902	0.34	3	100	0	4	4.139558	-0.1898608	57.90266	
12:56:35	-6.795854	38.98534	130.101	-0.01704663	-7.931059	0.47	3	100	0	4	4.109778	-0.5319719	57.83545	
12:56:35	-6.795854	38.98534	130.069	0.03128832	-5.149456	0.11	3	100	0	4	4.07443	-0.7316481	57.75092	
12:56:35	-6.795855	38.98534	130.055	0.07446574	-3.439148	0.32	3	100	0	4	4.197239	-0.3045495	57.66687	
12:56:36	-6.795855	38.98534	130.012	0.1045362	-1.974709	0.11	3	100	0	4	4.446421	-0.08432148	57.60611	
12:56:36	-6.795855	38.98534	129.898	0.1305361	-1.839493	0.14	3	100	0	4	4.296816	-0.2051225	57.53741	
12:56:36	-6.795855	38.98534	129.864	0.1694321	-1.038817	0.17	3	100	0	4	4.221922	-0.07878518	57.48037	
12:56:36	-6.795855	38.98534	129.633	0.2024708	-0.1968621	0.45	3	100	0	4	4.007065	-0.01283414	57.45509	
12:56:36	-6.795855	38.98534	129.552	0.2249081	-0.08360874	0.12	3	100	0	4	4.074813	-0.7130455	57.42572	
12:56:37	-6.795855	38.98534	129.475	0.2428797	-0.4831688	0.07	3	100	0	5	4.073726	-0.4917558	57.33712	
12:56:37	-6.795855	38.98534	129.519	0.2206658	-2.48811	0.14	3	100	0	4	4.081508	-0.4188062	57.28133	
12:56:37	-6.795855	38.98534	129.52	0.1993538	-4.042213	0.09	3	100	0	4	4.227596	-0.3133515	57.22921	
12:56:37	-6.795856	38.98534	129.438	0.1771278	-5.695533	0.21	3	100	0	4	4.240983	-0.3438704	57.18796	
12:56:37	-6.795856	38.98534	129.528	0.1551033	-7.15276	0.19	3	100	0	4	4.330111	-0.4124174	57.14724	
12:56:38	-6.795856	38.98534	129.572	0.1160486	-9.265279	0.19	3	100	0	4	4.274141	-0.1922563	57.10323	
12:56:38	-6.795857	38.98534	129.556	0.06391903	-11.34585	0.16	3	100	0	4	4.335187	-0.2036485	57.06396	
12:56:38	-6.795857	38.98534	129.602	0.03890723	-11.56602	0.14	3	100	0	4	4.315224	-0.16331	57.01547	
12:56:38	-6.795857	38.98534	129.62	0.03064956	-11.7564	0.12	3	100	0	5	4.28958	-0.2318851	56.96694	
12:56:38	-6.795857	38.98534	129.62	-0.01107353	-13.61309	0.26	3	100	0	4	4.257572	-0.2528992	56.92978	
12:56:39	-6.795857	38.98534	129.605	-0.07029683	-16.35462	0.22	3	100	0	4	4.25335	-0.4114784	56.89495	
12:56:39	-6.795857	38.98534	129.547	-0.1121804	-17.60891	0.22	3	100	0	4	4.132743	-0.4108	56.84262	
12:56:39	-6.795857	38.98534	129.602	-0.141959	-18.12031	0.13	3	100	0	4	4.098888	-0.3594521	56.79426	
12:56:39	-6.795857	38.98534	129.682	-0.1913583	-19.6316	0.09	3	100	0	4	4.144238	-0.02504629	56.76408	
12:56:39	-6.795857	38.98534	129.687	-0.2568027	-22.22381	0.14	3	100	0	4	4.18699	-0.05691426	56.75669	
12:56:40	-6.795857	38.98534	129.683	-0.3110377	-24.01671	0.06	3	100	0	4	4.139591	-0.1527883	56.7317	
12:56:40	-6.795857	38.98534	129.669	-0.3545646	-25.02157	0.03	3	100	0	5	4.126682	-0.08019328	56.71942	
12:56:40	-6.795857	38.98534	129.631	-0.370313	-24.18628	0.16	3	100	0	4	4.093649	0.02797837	56.70329	
12:56:40	-6.795857	38.98534	129.631	-0.368634	-22.79627	0.16	3	100	0	4	3.943712	-0.03642817	56.71359	
12:56:40	-6.795857	38.98533	129.777	-0.338582	-20.01209	0.19	3	100	0	4	4.067589	0.05403426	56.71929	
12:56:41	-6.795858	38.98533	129.877	-0.2771681	-15.2831	0.11	3	100	0	4	4.073663	0.2491056	56.73024	
12:56:41	-6.795858	38.98533	129.853	-0.2053399	-11.05931	0.48	3	100	0	5	4.127914	0.1544612	56.75716	
12:56:41	-6.795859	38.98533	129.911	-0.1266382	-6.637355	0.13	3	100	0	4	3.732277	0.3194048	56.77582	
12:56:41	-6.795859	38.98533	130.002	-0.09598015	-5.324482	0.17	3	100	0	4	4.120173	0.2278853	56.82759	
12:56:41	-6.795859	38.98533	129.994	-0.1076551	-6.397018	0.21	3	100	0	4	4.365309	0.08988275	56.82046	
12:56:42	-6.795859	38.98533	130.059	-0.1022857	-6.231841	0.22	3	100	0	5	4.09522	0.02761914	56.79427	
12:56:42	-6.795859	38.98533	130.07	-0.08247661	-5.370084	0.12	3	100	0	4	4.008261	0.05586689	56.80613	
12:56:42	-6.795859	38.98533	130.146	-0.06511058	-4.904681	0.22	3	100	0	4	4.148103	-0.01241152	56.81407	
12:56:42	-6.795859	38.98533	130.249	-0.05737823	-4.657971	0.37	3	100	0	4	4.347896	0.1954567	56.8027	
12:56:42	-6.795859	38.98533	130.388	-0.05052577	-4.153723	0.22	3	100	0	4	4.036147	-0.4648941	56.78208	
12:56:43	-6.795859	38.98533	130.512	-0.03821071	-4.09507	0.35	3	100	0	4	4.161643	-0.3574971	56.73613	
12:56:43	-6.795859	38.98533	130.427	-0.02802402	-3.818589	0.44	3	100	0	4	4.153683	-0.7483774	56.68382	
12:56:43	-6.795859	38.98533	130.423	-0.01017411	-3.091772	0.16	3	100	0	4	4.033301	-0.9764296	56.60317	
12:56:43	-6.795859	38.98533	130.547	0.005550484	-2.489352	0.31	3	100	0	4	3.918609	-0.6103337	56.53066	
12:56:43	-6.795859	38.98533	130.606	0.01015197	-2.461168	0.17	3	100	0	5	4.244625	-0.5485768	56.48883	
12:56:44	-6.79586	38.98533	130.665	0.0136903	-2.669072	0.18	3	100	0	4	4.12601	-0.3977597	56.44545	
12:56:44	-6.79586	38.98533	130.589	0.007692941	-3.388003	0.21	3	100	0	5	4.076584	-0.3620322	56.41904	
12:56:44	-6.79586	38.98533	130.637	0.001562527	-4.024036	0.08	3	100	0	5	3.982981	-0.7015262	56.40504	
12:56:44	-6.79586	38.98533	130.666	-0.005423053	-4.710857	0.22	3	100	0	4	3.988058	-0.6326255	56.37005	
12:56:44	-6.79586	38.98533	130.704	-0.01277113	-5.744526	0.25	3	100	0	4	3.851126	-0.3452241	56.34582	
12:56:45	-6.795861	38.98533	130.753	0.01442078	-4.560897	0.26	3	100	0	4	3.954725	-0.2042224	56.35462	
12:56:45	-6.795861	38.98533	130.811	0.03839686	-3.302309	0.59	3	100	0	4	3.926456	-0.1370495	56.36511	
12:56:45	-6.795862	38.98533	130.954	0.03248297	-3.836281	0.26	3	100	0	4	3.940292	0.1903432	56.38908	
12:56:45	-6.795862	38.98533	131.054	0.02660213	-4.43108	0.34	3	100	0	4	3.921293	-0.08296587	56.42047	
12:56:45	-6.795862	38.98532	131.181	-0.02003033	-7.021424	0.22	3	100	0	4	3.951765	-0.1119154	56.42303	
12:56:46	-6.795862	38.98532	131.295	-0.06313605	-9.506613	0.45	3	100	0	4	4.048107	-0.1931741	56.42835	
12:56:46	-6.795863	38.98532	131.363	-0.0977987	-10.8594	0.37	3	100	0	4	4.012132	0.0169903	56.43779	
12:56:46	-6.795863	38.98532	131.235	-0.128255	-12.18045	0.22	3	100	0	4	3.969189	0.02641447	56.46919	
12:56:46	-6.795864	38.98532	131.018	-0.1740611	-14.13488	0.61	3	100	0	5	3.875384	-0.6398786	56.476	
12:56:46	-6.795865	38.98532	131.11	-0.214139	-15.23442	0.41	3	100	0	4	4.050425	-0.2770503	56.44128	
12:56:47	-6.795866	38.98532	130.977	-0.2337095	-15.10155	0.35	3	100	0	4	3.805161	-0.2695805	56.44389	
12:56:47	-6.795866	38.98532	130.891	-0.2496889	-15.32833	0.07	3	100	0	4	4.20393	-0.5462997	56.42383	
12:56:47	-6.795866	38.98532	130.956	-0.2631741	-15.2877	0.11	3	100	0	4	3.934257	-0.8083656	56.37963	
12:56:47	-6.795866	38.98532	130.974	-0.2733216	-14.76044	0.08	3	100	0	4	3.880135	-0.6824138	56.32795	
12:56:47	-6.795866	38.98532	130.983	-0.2712691	-13.77745	0.09	3	100	0	4	3.966303	-0.6583462	56.28564	
12:56:48	-6.795866	38.98532	130.834	-0.2583306	-11.82297	0.24	3	100	0	4	3.985843	-0.7049146	56.26012	
12:56:48	-6.795866	38.98532	130.885	-0.2571397	-11.29288	0.09	3	100	0	4	4.05249	-0.8149155	56.22189	
12:56:48	-6.795866	38.98533	130.88	-0.262311	-11.01497	0.42	3	100	0	4	3.969861	-0.7044962	56.18839	
12:56:48	-6.795866	38.98533	130.819	-0.2672237	-11.19416	0.19	3	100	0	4	4.021881	-0.9650837	56.15039	
12:56:48	-6.795865	38.98533	130.881	-0.2715668	-10.82514	0.11	3	100	0	4	4.082423	-0.7422956	56.10415	
12:56:49	-6.795865	38.98533	130.855	-0.2441985	-8.333815	0.28	3	100	0	4	4.027889	-0.5890253	56.07756	
12:56:49	-6.795865	38.98533	130.812	-0.2002223	-5.472945	0.14	3	100	0	4	4.152081	-0.7042924	56.05322	
12:56:49	-6.795865	38.98533	130.86	-0.187846	-4.741145	0.09	3	100	0	5	4.087659	-0.5691729	56.00676	
12:56:49	-6.795865	38.98533	130.821	-0.2065103	-5.484007	0.14	3	100	0	4	4.085996	-0.2235882	56.0024	
12:56:49	-6.795865	38.98533	130.819	-0.223637	-6.635887	0.25	3	100	0	4	4.194852	-0.1728531	56.00277	
12:56:50	-6.795865	38.98533	130.871	-0.2404868	-7.102717	0.14	3	100	0	4	3.977945	-0.01945302	56.02014	
12:56:50	-6.795864	38.98533	130.818	-0.2562878	-7.735009	0.35	3	100	0	4	4.256565	-0.4250536	56.04738	
12:56:50	-6.795863	38.98533	130.902	-0.2756458	-8.297266	0.28	3	100	0	5	4.083662	-0.6918832	56.01508	
12:56:50	-6.795864	38.98533	130.925	-0.2400294	-5.808409	0.38	3	100	0	4	4.074194	-0.2457269	55.99641	
12:56:50	-6.795864	38.98533	131.01	-0.1593115	-1.903229	0.14	3	100	0	4	4.301733	-0.06716595	56.01757	
12:56:51	-6.795863	38.98533	131.002	-0.09429889	1.543396	0.09	3	100	0	4	3.859864	-0.4803875	56.01814	
12:56:51	-6.795863	38.98533	131.102	-0.04394875	3.422013	0.22	3	100	0	4	3.868193	-0.4785157	56.01537	
12:56:51	-6.795862	38.98533	131.256	-0.008366225	4.408809	0.21	3	100	0	4	3.766293	-0.3805545	56.02766	
12:56:51	-6.795862	38.98533	131.395	0.01032505	4.536022	0.22	3	100	0	4	3.88518	-0.2566122	56.05356	
12:56:51	-6.795862	38.98533	131.394	0.05758047	6.190393	0.21	3	100	0	5	3.858157	-0.1911132	56.07687	
12:56:52	-6.795862	38.98533	131.463	0.1434478	9.90928	0.22	3	100	0	4	3.885343	-0.652798	56.08723	
12:56:52	-6.795862	38.98533	131.592	0.2194504	12.16645	0.25	3	100	0	4	4.042332	-0.3490761	56.06451	
12:56:52	-6.795862	38.98533	131.543	0.2453112	11.79735	0.28	3	100	0	4	4.128015	-0.2693987	56.07035	
12:56:52	-6.795861	38.98533	131.415	0.2660904	11.60341	0.32	3	100	0	4	4.143395	-0.7696096	56.05671	
12:56:52	-6.795862	38.98533	131.318	0.2333876	8.638535	0.31	3	100	0	4	3.899486	-0.9198074	56.00874	
12:56:53	-6.795862	38.98533	131.172	0.201272	5.732819	0.57	3	100	0	4	4.098813	-0.5982758	55.98328	
12:56:53	-6.795862	38.98534	131.225	0.1711961	3.308725	0.37	3	100	0	4	4.296998	-0.3152703	55.97417	
12:56:53	-6.795862	38.98534	131.251	0.1421947	1.0091	0.19	3	100	0	4	4.178726	-0.5564163	55.9678	
12:56:53	-6.795862	38.98534	131.141	0.1120409	-0.9711834	0.08	3	100	0	5	3.878708	-0.4601231	55.96319	
12:56:54	-6.795862	38.98534	131.107	0.08379608	-2.677042	0.29	3	100	0	4	3.659167	-0.5878395	55.97879	
12:56:54	-6.795862	38.98534	131.222	0.07706219	-2.955962	0.32	3	100	0	4	3.956914	-0.6028755	55.9777	
12:56:54	-6.795862	38.98534	131.154	0.0716837	-3.10869	0.08	3	100	0	4	4.057488	-0.4507961	55.97379	
12:56:54	-6.795862	38.98534	130.99	0.04482068	-4.14515	0.16	3	100	0	4	3.54012	-0.4028698	55.98184	
12:56:54	-6.795862	38.98534	130.683	0.01911148	-5.173608	0.22	3	100	0	4	3.724444	-0.4673749	56.0076	
12:56:54	-6.795862	38.98534	130.488	-0.02306358	-6.789593	0.36	3	100	0	4	3.848018	-0.4250092	56.01779	
12:56:55	-6.795862	38.98534	130.428	-0.06434956	-8.550642	0.06	3	100	0	5	3.539158	-0.6210284	56.02885	
12:56:55	-6.795862	38.98534	130.344	-0.04546799	-6.717137	0.52	3	100	0	5	3.561416	-0.2410673	56.05113	
12:56:55	-6.795862	38.98534	130.483	-0.02532153	-5.03019	0.42	3	100	0	4	3.537402	0.2528573	56.1233	
12:56:55	-6.795862	38.98534	130.558	0.004601591	-3.007363	0.58	3	100	0	4	3.391763	0.1290213	56.20965	
12:56:55	-6.795863	38.98534	130.53	0.03216698	-1.903612	0.38	3	100	0	4	3.665053	0.3428903	56.29333	
12:56:56	-6.795863	38.98534	130.364	0.04679291	-1.723744	0.16	3	100	0	4	3.678006	0.1059551	56.37366	
12:56:56	-6.795862	38.98534	130.392	0.06229609	-0.7649069	0.45	3	100	0	4	3.266451	-0.7327482	56.41187	
12:56:56	-6.795862	38.98534	130.34	0.01221474	-3.757109	0.48	3	100	0	4	3.559349	-1.21907	56.39585	
12:56:56	-6.795861	38.98534	130.156	-0.0331483	-5.87282	0.71	3	100	0	4	3.792403	-1.098362	56.33748	
12:56:56	-6.795859	38.98534	130.113	-0.09187763	-9.589386	0.83	3	100	0	6	3.507102	-1.448325	56.28201	
12:56:57	-6.795859	38.98534	130.065	-0.1443724	-11.97733	0.24	3	100	0	4	3.162112	-1.489547	56.22475	
12:56:57	-6.795859	38.98534	129.979	-0.1887056	-13.42737	0.29	3	100	0	4	3.520936	-0.8668534	56.18211	
12:56:57	-6.795859	38.98534	130.035	-0.2247191	-14.41047	0.22	3	100	0	4	3.236931	-1.04802	56.16658	
12:56:57	-6.795859	38.98534	129.998	-0.2465573	-14.82764	0.33	3	100	0	4	3.467713	-0.6344343	56.15893	
12:56:58	-6.795859	38.98534	129.872	-0.2562395	-14.16935	0.45	3	100	0	4	3.284003	-1.051583	56.16215	
12:56:58	-6.795858	38.98534	129.799	-0.2319943	-12.03545	0.42	3	100	0	51	3.168754	-1.183697	56.13668	
12:56:58	-6.795857	38.98534	129.753	-0.1788379	-8.554651	0.12	3	100	0	5	2.899567	-0.9322003	56.13672	
12:56:58	-6.795858	38.98534	129.846	-0.1740686	-8.089388	0.56	3	100	0	4	3.216565	-0.4647714	56.15602	
12:56:58	-6.79586	38.98534	129.893	-0.1963874	-8.569729	1.04	3	100	0	4	3.335261	-0.01638882	56.19965	
12:56:59	-6.795861	38.98534	129.909	-0.1939497	-7.876039	0.22	3	100	0	4	3.487446	0.288983	56.29189	
12:56:59	-6.795861	38.98534	129.878	-0.1790998	-6.983935	0.09	3	100	0	4	3.10768	-0.9072363	56.35971	
12:56:59	-6.795861	38.98534	129.761	-0.1665163	-6.181586	0.16	3	100	0	4	3.024903	-1.294479	56.35511	
12:56:59	-6.79586	38.98534	129.932	-0.1592279	-5.645927	0.14	3	100	0	4	3.012076	-1.299479	56.32504	
12:56:59	-6.795861	38.98534	129.975	-0.1348734	-4.512624	0.64	3	100	0	4	3.000997	-0.959176	56.30865	
12:57:00	-6.795861	38.98534	129.925	-0.08750974	-1.746216	0.26	3	100	0	4	3.095283	-0.4477034	56.3277	
12:57:00	-6.795861	38.98534	130.115	-0.02809236	1.003458	0.42	3	100	0	4	3.114194	-0.8554668	56.3523	
12:57:00	-6.795861	38.98534	130.334	0.02893006	3.678156	0.09	3	100	0	4	3.532615	-0.7159991	56.35056	
12:57:00	-6.795862	38.98534	130.264	0.05082182	4.422982	0.28	3	100	0	4	3.339289	-0.8485013	56.34984	
12:57:00	-6.795862	38.98534	130.159	0.05107707	3.777958	0.36	3	100	0	4	3.355234	-0.4953092	56.35218	
12:57:01	-6.795863	38.98534	130.022	0.06940819	4.154322	0.45	3	100	0	4	3.599826	-0.456624	56.36777	
12:57:01	-6.795864	38.98534	129.934	0.1027526	5.356108	0.44	3	100	0	4	3.768326	-0.392443	56.3803	
12:57:01	-6.795865	38.98534	129.952	0.1080706	4.578855	0.39	3	100	0	4	3.561747	-0.1651482	56.40045	
12:57:01	-6.795866	38.98534	129.778	0.07679145	2.401996	0.13	3	100	0	4	3.594369	-0.2162701	56.42646	
12:57:01	-6.795866	38.98534	129.794	0.03305596	-0.2809179	0.57	3	100	0	4	3.30897	-0.3391765	56.46181	
12:57:02	-6.795865	38.98534	129.888	-0.03434062	-3.815024	0.04	3	100	0	4	3.256806	-0.01250254	56.51632	
12:57:02	-6.795866	38.98534	129.86	-0.08976102	-6.513906	0.45	3	100	0	4	3.397246	-0.714532	56.55864	
12:57:02	-6.795866	38.98534	129.913	-0.1258715	-7.747465	0.22	3	100	0	4	3.47445	-0.4178696	56.5587	
12:57:02	-6.795866	38.98534	129.712	-0.1565989	-8.66733	0.22	3	100	0	5	3.299511	-0.6548192	56.56992	
12:57:02	-6.795866	38.98534	129.706	-0.1250475	-6.317064	0.09	3	100	0	4	3.10391	-0.7922305	56.58353	
12:57:03	-6.795866	38.98534	129.651	-0.09214464	-4.323339	0.08	3	100	0	4	3.30734	-0.686868	56.57946	
12:57:03	-6.795866	38.98534	129.49	-0.0537927	-2.196916	0.31	3	100	0	5	3.476698	-0.6834227	56.57797	
12:57:03	-6.795866	38.98534	129.504	-0.01854407	-0.2894706	0.59	3	100	0	4	3.584817	-0.3779099	56.58225	
12:57:03	-6.795866	38.98534	129.607	0.02649345	1.401345	0.09	3	100	0	4	3.249184	-0.07995137	56.61757	
12:57:03	-6.795866	38.98534	129.546	0.06658754	3.13873	0.17	3	100	0	4	3.621264	-0.7335014	56.62851	
12:57:04	-6.795866	38.98534	129.512	0.1053745	4.599347	0.24	3	100	0	4	3.40572	-0.7842525	56.62475	
12:57:04	-6.795865	38.98534	129.601	0.1422946	5.438564	0.07	3	100	0	4	3.662251	-0.8419945	56.60859	
12:57:04	-6.795865	38.98534	129.582	0.1213131	3.750909	0.12	3	100	0	4	3.616379	-0.6013457	56.59181	
12:57:04	-6.795865	38.98534	129.274	0.101292	2.24083	0.64	3	100	0	5	3.539741	-0.4809729	56.60377	
12:57:04	-6.795865	38.98534	129.125	0.07045317	0.4130502	0.48	3	100	0	4	3.097689	-1.484161	56.61364	
12:57:05	-6.795866	38.98534	129.163	0.04433641	-1.249657	0.47	3	100	0	4	3.494079	-0.9232644	56.57784	
12:57:05	-6.795866	38.98534	129.298	0.009770878	-2.951733	0.12	3	100	0	4	3.311198	-0.7969847	56.57521	
12:57:05	-6.795865	38.98534	129.434	-0.01566101	-4.092528	0.17	3	100	0	4	3.123654	-1.001089	56.57492	
12:57:05	-6.795864	38.98534	129.4	-0.02226457	-4.177014	0.55	3	100	0	4	3.055402	-1.126163	56.5692	
12:57:05	-6.795862	38.98534	129.33	-0.02790465	-4.272913	0.85	3	100	0	5	2.56964	-2.054589	56.55456	
12:57:06	-6.795862	38.98534	129.279	-0.03571791	-4.815185	0.22	3	100	0	4	2.274841	-2.029989	56.52061	
12:57:06	-6.795862	38.98534	129.372	-0.04208485	-4.589639	0.62	3	100	0	4	2.571534	-1.522848	56.48354	
12:57:06	-6.795861	38.98534	129.276	-0.04026155	-4.732661	0.47	3	100	0	4	2.590102	-1.307515	56.49021	
12:57:06	-6.79586	38.98534	129.224	-0.03817759	-4.289169	0.57	3	100	0	5	2.619206	-2.511456	56.44862	
12:57:06	-6.795857	38.98534	129.122	-0.01098875	-2.625557	1.04	3	100	0	4	2.656883	-2.68704	56.35757	
12:57:07	-6.795856	38.98534	129.16	0.01169529	-1.396119	0.66	3	100	0	4	2.493981	-3.05745	56.26281	
12:57:07	-6.795855	38.98534	129.078	0.01434895	-1.69968	0.36	3	100	0	4	2.799337	-2.650719	56.14737	
12:57:07	-6.795855	38.98534	129.034	-0.01283266	-3.277942	0.21	3	100	0	4	3.055924	-2.261402	56.04589	
12:57:07	-6.795855	38.98534	128.943	-0.04388203	-4.98247	0.58	3	100	0	4	3.227306	-2.09574	55.96371	
12:57:07	-6.795855	38.98534	129.065	-0.08160339	-6.340942	0.11	3	100	0	4	3.343318	-2.458936	55.86432	
12:57:08	-6.795854	38.98534	129.063	-0.1242438	-8.415215	0.5	3	100	0	4	3.157643	-2.081573	55.79149	
12:57:08	-6.795854	38.98534	128.972	-0.1634083	-10.18802	0.33	3	100	0	4	2.860835	-2.222148	55.75191	
12:57:08	-6.795855	38.98534	129.042	-0.2297615	-13.59084	0.45	3	100	0	4	3.365945	-1.778856	55.6802	
12:57:08	-6.795854	38.98534	128.977	-0.3080499	-16.46688	0.35	3	100	0	4	3.076212	-1.415772	55.66191	
12:57:08	-6.795855	38.98534	128.954	-0.3499319	-17.15589	0.42	3	100	0	4	2.773721	-1.728412	55.66891	
12:57:09	-6.795854	38.98534	128.913	-0.3669484	-16.86638	0.41	3	100	0	4	3.038251	-1.625388	55.66193	
12:57:09	-6.795853	38.98534	128.743	-0.3606987	-14.74257	0.42	3	100	0	4	2.416164	-2.489497	55.64272	
12:57:09	-6.795853	38.98534	128.653	-0.332953	-12.39905	0.45	3	100	0	4	2.401952	-2.133092	55.60841	
12:57:09	-6.795854	38.98534	128.622	-0.3011069	-10.39277	0.34	3	100	0	5	2.750264	-1.712378	55.58406	
12:57:09	-6.795852	38.98534	128.807	-0.2667521	-8.279055	0.79	3	100	0	4	2.297235	-1.618547	55.60112	
12:57:10	-6.795852	38.98534	128.655	-0.2228406	-5.636984	0.31	3	100	0	4	2.15016	-1.392815	55.65064	
12:57:10	-6.795851	38.98534	128.556	-0.1790596	-2.798289	0.19	3	100	0	5	2.51514	-2.129907	55.64408	
12:57:10	-6.795852	38.98534	128.449	-0.1338295	-0.5218971	0.48	3	100	0	4	2.881708	-2.03689	55.58633	
12:57:10	-6.795851	38.98534	128.358	-0.08979737	1.991967	0.69	3	100	0	4	2.951804	-2.055781	55.54175	
12:57:10	-6.79585	38.98534	128.422	-0.04852523	4.510112	0.5	3	100	0	4	2.011392	-2.753119	55.53292	
12:57:11	-6.795849	38.98534	128.489	-0.003749652	6.306087	0.42	3	100	0	4	2.016638	-2.395744	55.50885	
12:57:11	-6.795847	38.98534	128.568	0.02836054	6.555771	0.61	3	100	0	4	2.368788	-2.408204	55.46603	
12:57:11	-6.795846	38.98534	128.346	0.04126558	6.708587	0.83	3	100	0	4	2.177768	-2.50973	55.43817	
12:57:11	-6.795845	38.98534	128.325	0.04789063	5.800005	0.33	3	100	0	4	2.437528	-2.495156	55.38603	
12:57:11	-6.795845	38.98534	128.194	0.04444231	4.728085	0.56	3	100	0	4	2.318693	-1.814156	55.36713	
12:57:12	-6.795844	38.98534	127.726	0.04050652	4.096618	0.96	3	100	0	4	1.971512	-1.701156	55.40847	
12:57:12	-6.795843	38.98534	127.048	0.0265191	2.821841	1.33	3	100	0	4	1.415939	-2.379057	55.44864	
12:57:12	-6.795842	38.98534	126.399	0.008585103	0.8759081	1.25	3	100	0	4	1.17228	-1.765397	55.49975	
12:57:12	-6.79584	38.98533	125.661	-0.002558167	0.2134034	2.26	3	100	0	4	0.7863099	-1.816467	55.59016	
12:57:12	-6.795837	38.98533	124.853	-0.01247392	-0.9138061	1.82	3	100	0	4	-0.3374281	-2.079195	55.7445	
12:57:13	-6.795834	38.98533	124.042	-0.0003791132	-1.23154	2.12	3	100	0	4	0.1866742	-2.693915	55.82762	
12:57:13	-6.79583	38.98533	123.092	0.009256327	-1.129075	2.24	3	100	0	4	0.2023605	-3.352519	55.85717	
12:57:13	-6.795827	38.98533	122.488	0.010506	-2.33577	1.16	3	100	0	5	0.7604849	-3.687321	55.81036	
12:57:13	-6.795827	38.98533	122.222	0.009727752	-3.356026	0.12	3	100	0	4	1.574836	-3.11289	55.71405	
12:57:13	-6.795827	38.98533	121.939	0.07032713	-0.6493689	0.56	3	100	0	4	1.74037	-2.525693	55.65778	
12:57:14	-6.795827	38.98533	121.416	0.1193327	1.41167	0.37	3	100	0	4	1.114388	-2.466257	55.69207	
12:57:14	-6.795829	38.98533	121.09	0.1147469	0.2983606	0.42	3	100	0	4	1.458509	-2.315069	55.7013	
12:57:14	-6.79583	38.98533	120.597	0.1094092	-0.5736673	0.69	3	100	0	4	1.360186	-1.945216	55.72746	
12:57:14	-6.79583	38.98532	120.333	0.1259891	0.2047456	0.56	3	100	0	4	0.7198068	-1.896227	55.82172	
12:57:14	-6.795829	38.98532	120.183	0.1392575	0.2870672	0.26	3	100	0	4	0.9950196	-1.858415	55.89631	
12:57:15	-6.795827	38.98532	120.428	0.1508159	0.5891212	0.36	3	100	0	4	1.237556	-2.108504	55.94564	
12:57:15	-6.795827	38.98532	120.431	0.1608589	0.873396	0.26	3	100	0	4	1.526734	-2.124402	55.96503	
12:57:15	-6.795827	38.98532	120.488	0.1521703	0.1560358	0.29	3	100	0	4	1.735266	-1.710185	55.96799	
12:57:15	-6.795827	38.98532	120.364	0.143149	-0.7948014	0.14	3	100	0	4	1.532112	-1.464629	56.02854	
12:57:15	-6.795826	38.98532	120.479	0.1476227	-0.7010254	0.29	3	100	0	7	1.606575	-1.654407	56.09058	
12:57:16	-6.795826	38.98532	120.406	0.1508573	-0.7868977	0.18	3	100	0	4	1.531422	-1.472485	56.15535	
12:57:16	-6.795826	38.98532	120.51	0.1651277	-0.3034183	0.28	3	100	0	4	1.785005	-1.451572	56.20293	
12:57:16	-6.795826	38.98532	120.685	0.1780694	0.562633	0.33	3	100	0	5	1.80691	-1.169539	56.25847	
12:57:16	-6.795828	38.98532	120.721	0.179606	0.9280417	0.51	3	100	0	4	2.278058	-1.121634	56.3022	
12:57:16	-6.795827	38.98532	121.156	0.1816657	1.437187	0.45	3	100	0	4	2.561362	-1.474081	56.31067	
12:57:17	-6.795826	38.98532	121.467	0.1847651	1.858063	0.58	3	100	0	4	2.318232	-1.749972	56.30848	
12:57:17	-6.795826	38.98532	121.642	0.1877118	1.851566	0.39	3	100	0	5	2.228354	-1.700701	56.31245	
12:57:17	-6.795827	38.98532	121.835	0.2017892	2.208013	0.24	3	100	0	4	2.459906	-1.320724	56.30128	
12:57:17	-6.795827	38.98532	122.176	0.2317736	3.306025	0.62	3	100	0	4	2.42376	-1.348832	56.3166	
12:57:17	-6.795827	38.98533	122.349	0.2558135	3.859125	0.58	3	100	0	4	2.673121	-1.449232	56.30486	
12:57:18	-6.795828	38.98533	122.367	0.2687697	3.701486	0.53	3	100	0	4	2.550086	-1.464316	56.29847	
12:57:18	-6.795827	38.98533	122.298	0.2567937	2.723024	1.25	3	100	0	5	2.065248	-1.668856	56.32398	
12:57:18	-6.795826	38.98533	121.897	0.2226921	0.3173497	0.98	3	100	0	4	1.264507	-2.157806	56.36545	
12:57:18	-6.795826	38.98533	121.743	0.2001702	-1.389066	0.26	3	100	0	4	1.538752	-1.761532	56.37017	
12:57:18	-6.795825	38.98533	122.021	0.181658	-2.859319	0.29	3	100	0	4	1.685209	-1.280007	56.41044	
12:57:19	-6.795825	38.98533	122.261	0.1641316	-3.350996	0.26	3	100	0	4	1.63981	-0.9607982	56.47669	
12:57:19	-6.795825	38.98533	122.384	0.1478262	-4.346372	0.16	3	100	0	4	1.855508	-1.015804	56.55855	
12:57:19	-6.795824	38.98533	122.554	0.1412026	-4.543186	0.71	3	100	0	4	1.701716	-1.531857	56.61003	
12:57:19	-6.795824	38.98533	122.782	0.1437721	-4.127378	0.31	3	100	0	4	1.564082	-1.604928	56.6519	
12:57:19	-6.795824	38.98533	122.928	0.1486686	-4.066296	0.24	3	100	0	4	1.708107	-1.345204	56.68124	
12:57:20	-6.795824	38.98533	123.076	0.1545942	-3.536326	0.09	3	100	0	4	1.429773	-1.230246	56.74045	
12:57:20	-6.795825	38.98533	123.244	0.1302954	-5.049836	0.39	3	100	0	4	1.736004	-0.951308	56.80971	
12:57:20	-6.795827	38.98533	123.511	0.08908737	-6.603922	1.01	3	100	0	4	2.069238	-0.5142003	56.8788	
12:57:20	-6.79583	38.98533	123.795	0.05545893	-7.491522	0.9	3	100	0	4	2.252155	-0.2586627	56.97515	
12:57:20	-6.795831	38.98532	124.055	0.02159327	-8.74926	1.04	3	100	0	4	2.28924	-0.2026652	57.06626	
12:57:21	-6.795833	38.98532	124.266	-0.01470256	-10.12184	1.03	3	100	0	4	2.153527	0.01433784	57.18704	
12:57:21	-6.795835	38.98532	125.074	-0.05184015	-10.92048	2.04	3	100	0	4	2.084629	0.3568795	57.31432	
12:57:21	-6.795837	38.98532	126.392	-0.08109867	-11.33697	2.54	3	100	0	4	2.316318	0.940387	57.49114	
12:57:21	-6.795838	38.98532	127.755	-0.1042169	-11.42892	1.96	3	100	0	4	2.441039	0.8927683	57.66703	
12:57:21	-6.795839	38.98531	128.563	-0.1214206	-11.09492	1.18	3	100	0	4	2.034604	-0.07573708	57.80585	
12:57:22	-6.795841	38.98531	128.725	-0.1170501	-9.671794	0.77	3	100	0	4	1.820733	-1.1456	57.87872	
12:57:22	-6.795842	38.98531	128.942	-0.111491	-8.973705	0.42	3	100	0	5	2.254168	-1.85759	57.85833	
12:57:22	-6.795843	38.98531	129.235	-0.1095299	-8.062143	0.42	3	100	0	4	2.328087	-2.025445	57.7696	
12:57:22	-6.795846	38.98531	129.648	-0.1065256	-7.27784	1.41	3	100	0	4	2.250128	-1.423573	57.70894	
12:57:22	-6.795849	38.98531	130.008	-0.1048293	-6.605843	1.64	3	100	0	4	2.399046	-0.8001502	57.70119	
12:57:23	-6.795852	38.98531	130.179	-0.1015363	-5.63224	1.36	3	100	0	4	2.612161	-0.7502045	57.71408	
12:57:23	-6.795855	38.98531	130.141	-0.09766273	-5.245	1.02	3	100	0	4	2.726829	-1.200556	57.70818	
12:57:23	-6.795857	38.98531	130.149	-0.09323435	-4.375748	1.22	3	100	0	4	2.653995	-1.307031	57.67042	
12:57:23	-6.79586	38.9853	130.05	-0.05992554	-2.449771	1.25	3	100	0	4	2.494207	-1.016962	57.65085	
12:57:23	-6.795861	38.9853	130.285	-0.03273699	-1.160337	0.48	3	100	0	5	2.402493	-1.380363	57.64633	
12:57:24	-6.795862	38.9853	130.383	-0.03672686	-0.9792866	0.22	3	100	0	4	2.490409	-1.957626	57.6037	
12:57:24	-6.795861	38.9853	130.878	-0.03982754	-1.182365	0.26	3	100	0	4	2.73938	-2.193953	57.50441	
12:57:24	-6.795862	38.9853	131.01	-0.07527073	-2.851074	0.39	3	100	0	4	2.714952	-1.941332	57.38756	
12:57:24	-6.795862	38.9853	131.319	-0.1041907	-3.920392	0.89	3	100	0	4	2.653682	-1.242024	57.33698	
12:57:24	-6.795864	38.9853	131.523	-0.1156093	-3.924763	0.56	3	100	0	4	2.908518	-1.032937	57.32915	
12:57:25	-6.795864	38.9853	131.941	-0.1250319	-4.051246	0.35	3	100	0	4	2.747805	-1.21527	57.30643	
12:57:25	-6.795864	38.9853	132.609	-0.1361361	-4.148582	0.39	3	100	0	5	2.562742	-1.321577	57.30659	
12:57:25	-6.795864	38.9853	132.794	-0.1451101	-4.021137	0.31	3	100	0	4	1.990773	-1.095853	57.31118	
12:57:25	-6.795864	38.9853	132.961	-0.1288036	-2.688258	0.63	3	100	0	4	1.588941	-0.6443235	57.3868	
12:57:25	-6.795865	38.98529	133.141	-0.1146663	-1.216513	0.51	3	100	0	4	1.694923	-0.4531088	57.48765	
12:57:26	-6.795866	38.98529	133.032	-0.06602038	1.373091	0.29	3	100	0	5	1.776375	-0.599332	57.57329	
12:57:26	-6.795866	38.98529	133.086	-0.02194146	3.849363	0.82	3	100	0	4	1.666275	-0.30496	57.64731	
12:57:26	-6.795865	38.98529	133.617	0.03759042	6.44147	1.28	3	100	0	5	1.557712	0.2529992	57.76896	
12:57:26	-6.795864	38.98529	133.79	0.08494762	8.57225	0.45	3	100	0	4	1.68125	-0.3862849	57.92317	
12:57:26	-6.795862	38.98529	134.037	0.1246699	9.949591	0.42	3	100	0	4	1.815747	-1.200713	57.9838	
12:57:27	-6.795861	38.98529	134.04	0.147267	9.825869	0.93	3	100	0	4	1.443685	-1.688308	57.99961	
12:57:27	-6.79586	38.98529	134.034	0.1578496	9.407854	1.36	3	100	0	4	1.037267	-1.371817	58.02681	
12:57:27	-6.79586	38.98529	134.107	0.1537767	7.592884	0.22	3	100	0	4	1.541973	-1.184165	58.06907	
12:57:27	-6.795861	38.98529	134.135	0.1522214	7.293305	0.19	3	100	0	4	2.104011	-1.234355	58.06641	
12:57:27	-6.79586	38.98529	134.459	0.1539381	7.168742	0.45	3	100	0	4	2.233721	-1.907973	58.04714	
12:57:28	-6.79586	38.98528	134.585	0.1261693	5.892199	0.29	3	100	0	4	2.177398	-1.947406	57.96216	
12:57:28	-6.795862	38.98528	134.476	0.08186339	3.254322	0.29	3	100	0	4	2.300908	-1.58676	57.90456	
12:57:28	-6.795862	38.98528	134.815	0.04296579	0.867127	0.66	3	100	0	4	2.761444	-1.430191	57.85174	
12:57:28	-6.795862	38.98528	135.115	0.01182996	-0.747598	0.45	3	100	0	4	2.049163	-1.61169	57.81734	
12:57:28	-6.795858	38.98528	135.161	-0.02230534	-2.655101	0.88	3	100	0	4	1.20825	-2.451702	57.82233	
12:57:29	-6.795857	38.98528	135.619	-0.05852082	-4.04738	0.98	3	100	0	4	1.104462	-2.122453	57.79881	
12:57:29	-6.795858	38.98528	135.772	-0.07939231	-4.614437	0.97	3	100	0	5	1.47671	-1.541111	57.80097	
12:57:29	-6.795859	38.98528	135.62	-0.08949157	-5.200359	0.24	3	100	0	4	1.760183	-1.893161	57.7975	
12:57:29	-6.795858	38.98528	135.988	-0.1051469	-5.508349	0.71	3	100	0	4	1.572493	-1.93063	57.76508	
12:57:29	-6.795857	38.98528	135.846	-0.1210552	-6.100272	0.42	3	100	0	4	1.611154	-2.194568	57.74937	
12:57:30	-6.795858	38.98528	136.162	-0.1459558	-6.967379	0.85	3	100	0	4	2.286652	-2.253036	57.65297	
12:57:30	-6.795859	38.98528	136.268	-0.1746657	-7.774561	0.29	3	100	0	5	1.938045	-2.50875	57.58124	
12:57:30	-6.79586	38.98528	136.065	-0.1793276	-7.586432	0.29	3	100	0	4	1.501712	-2.711252	57.52249	
12:57:30	-6.795859	38.98528	136.292	-0.1714574	-7.184026	0.69	3	100	0	4	1.390967	-2.121072	57.47406	
12:57:30	-6.795857	38.98528	136.622	-0.1609096	-6.344157	0.5	3	100	0	4	1.339725	-2.073766	57.48686	
12:57:31	-6.795855	38.98528	136.448	-0.1477223	-5.265872	0.77	3	100	0	4	1.455764	-2.73614	57.47227	
12:57:31	-6.795856	38.98528	135.872	-0.1127812	-2.977874	0.77	3	100	0	4	1.850518	-3.005908	57.378	
12:57:31	-6.795856	38.98528	135.547	-0.06206985	-0.4166045	0.79	3	100	0	4	2.149152	-2.948788	57.25335	
12:57:31	-6.795854	38.98528	135.907	-0.01643742	2.07907	0.29	3	100	0	4	2.168316	-2.468033	57.15556	
12:57:31	-6.795854	38.98528	136.009	0.04211229	4.800345	0.13	3	100	0	4	2.325551	-2.034942	57.08903	
12:57:32	-6.795854	38.98528	136.113	0.0940674	6.891326	0.24	3	100	0	4	2.632858	-1.766422	57.02825	
12:57:32	-6.795853	38.98528	136.413	0.104959	6.513565	0.48	3	100	0	4	2.577236	-1.336801	56.99673	
12:57:32	-6.795854	38.98528	136.289	0.1123501	5.657098	0.14	3	100	0	4	2.467192	-1.686616	56.99841	
12:57:32	-6.795852	38.98528	136.8	0.1476108	6.726326	0.94	3	100	0	5	2.323222	-1.386934	56.97408	
12:57:32	-6.795853	38.98528	136.936	0.175229	7.448875	0.47	3	100	0	4	2.643335	-1.328221	56.97964	
12:57:33	-6.795855	38.98528	137.79	0.150511	5.104198	1.45	3	100	0	4	3.210212	-0.9756805	56.94254	
12:57:33	-6.795855	38.98528	138.393	0.1263198	3.694348	0.78	3	100	0	4	2.4672	-1.266045	56.94894	
12:57:33	-6.795856	38.98528	138.527	0.1172886	2.910801	0.25	3	100	0	4	2.190985	-1.893693	56.96786	
12:57:33	-6.795857	38.98528	138.965	0.1090208	2.094748	0.65	3	100	0	4	2.212328	-1.674713	56.93371	
12:57:33	-6.795858	38.98528	138.997	0.1142088	2.036564	0.52	3	100	0	4	2.087888	-1.583417	56.94743	
12:57:34	-6.795861	38.98528	138.48	0.1192495	2.573267	0.12	3	100	0	4	2.422453	-2.219522	56.93719	
12:57:34	-6.795862	38.98528	137.846	0.1091936	1.535376	0.57	3	100	0	4	2.632912	-2.902432	56.85139	
12:57:34	-6.795861	38.98528	138.078	0.1000127	0.37838	0.5	3	100	0	4	2.466587	-2.389052	56.73087	
12:57:34	-6.795859	38.98528	137.992	0.0935609	0.07822669	0.34	3	100	0	4	2.612751	-2.538856	56.67773	
12:57:34	-6.795859	38.98528	137.548	0.08707459	-0.4999252	0.75	3	100	0	4	2.633821	-2.551843	56.5686	
12:57:35	-6.795859	38.98529	137.119	0.09686048	-0.4932853	0.74	3	100	0	3	2.756164	-2.860643	56.47931	
12:57:35	-6.79586	38.98529	136.902	0.1056213	0.114475	0.28	3	100	0	4	2.887631	-2.803994	56.33938	
12:57:35	-6.79586	38.98529	137.19	0.1218403	1.072801	0.57	3	100	0	4	3.098406	-2.106179	56.22417	
12:57:35	-6.795858	38.98529	137.333	0.1365162	1.879342	0.32	3	100	0	4	3.076241	-1.532726	56.16187	
12:57:35	-6.795858	38.98529	137.333	0.09675157	-0.3720797	0.32	3	100	0	4	2.569154	-2.303381	56.13447	
12:57:36	-6.795855	38.98529	137.82	0.06141844	-1.709981	0.36	3	100	0	4	2.459774	-2.324568	56.07491	
12:57:36	-6.795855	38.98529	137.601	0.0783873	-0.6915316	0.48	3	100	0	4	2.850022	-3.161281	55.99239	
12:57:36	-6.795855	38.98529	137.437	0.09358602	-0.06275091	0.14	3	100	0	4	2.58671	-2.971462	55.87015	
12:57:36	-6.795856	38.98529	137.187	0.1145262	0.9954262	0.44	3	100	0	4	2.960546	-2.717132	55.76163	
12:57:36	-6.795855	38.98529	137.28	0.1399774	2.043932	0.51	3	100	0	4	3.352773	-2.671903	55.63751	
12:57:37	-6.795854	38.98529	137.167	0.1714792	3.432704	0.65	3	100	0	4	3.11867	-2.993545	55.53355	
12:57:37	-6.795851	38.98529	137.384	0.2073685	5.095132	0.5	3	100	0	4	2.915548	-3.12913	55.42528	
12:57:37	-6.79585	38.98529	137.391	0.2346608	5.85821	0.33	3	100	0	4	2.466105	-2.484138	55.34851	
12:57:37	-6.795849	38.98529	137.005	0.254797	5.816741	1.16	3	100	0	4	2.686463	-2.368123	55.30636	
12:57:37	-6.795848	38.98529	136.71	0.2551436	5.248972	0.39	3	100	0	4	3.144828	-3.343853	55.21849	
12:57:38	-6.795848	38.98529	136.808	0.2442946	3.956819	0.28	3	100	0	4	2.926769	-2.75595	55.10027	
12:57:38	-6.795849	38.9853	136.348	0.2560435	3.477463	0.5	3	100	0	4	3.028765	-2.069143	55.04185	
12:57:38	-6.795848	38.9853	135.925	0.2798748	4.212546	1.43	3	100	0	4	3.000782	-2.800004	55.01698	
12:57:38	-6.795846	38.9853	135.924	0.2618384	3.005862	0.53	3	100	0	4	3.135384	-4.043653	54.89706	
12:57:38	-6.795845	38.9853	136.095	0.2088069	-0.627394	0.69	3	100	0	4	3.119075	-3.520483	54.73122	
12:57:39	-6.795845	38.9853	136.6	0.1303087	-4.842403	1.09	3	100	0	4	2.882693	-2.525655	54.63999	
12:57:39	-6.795845	38.9853	136.977	0.03250992	-9.740071	0.65	3	100	0	4	3.103022	-1.820255	54.64031	
12:57:39	-6.795846	38.9853	136.896	-0.0001534475	-10.46284	0.11	3	100	0	4	3.239313	-1.949742	54.6288	
12:57:39	-6.795845	38.9853	136.981	0.006168829	-9.062976	0.57	3	100	0	4	3.497266	-2.850993	54.57938	
12:57:39	-6.795844	38.9853	136.902	0.01705456	-7.432669	0.72	3	100	0	4	3.50963	-3.730527	54.45526	
12:57:40	-6.795842	38.9853	136.816	0.03117451	-5.495597	1.05	3	100	0	6	3.488866	-3.959192	54.30227	
12:57:40	-6.795839	38.9853	136.687	0.05254167	-4.271797	1.16	3	100	0	4	3.159257	-4.34058	54.14765	
12:57:40	-6.795837	38.9853	137.034	0.0769271	-2.67838	0.74	3	100	0	4	2.593685	-4.21229	54.02186	
12:57:40	-6.795837	38.9853	136.793	0.1000668	-1.837919	0.45	3	100	0	4	2.499927	-3.27333	53.91312	
12:57:40	-6.795837	38.9853	136.825	0.1215258	-1.044828	0.45	3	100	0	4	3.282304	-3.646466	53.80405	
12:57:41	-6.795837	38.9853	136.967	0.1238721	-1.081214	1.25	3	100	0	4	3.678606	-3.55604	53.6286	
12:57:41	-6.795838	38.9853	137.333	0.1101069	-2.279874	0.82	3	100	0	4	4.410639	-3.588355	53.43935	
12:57:41	-6.795835	38.9853	137.572	0.09682615	-3.308661	0.63	3	100	0	4	4.03354	-2.788803	53.29344	
12:57:41	-6.795832	38.9853	137.752	0.1035293	-3.447329	1.1	3	100	0	4	3.147013	-3.660222	53.2466	
12:57:41	-6.79583	38.9853	137.363	0.1091296	-2.80018	1.77	3	100	0	4	3.761767	-4.778639	53.06553	
12:57:42	-6.795825	38.9853	136.957	0.1752327	0.01353486	2.39	3	100	0	4	3.014981	-5.506826	52.90963	
12:57:42	-6.795824	38.98531	136.349	0.2338446	2.387305	1.64	3	100	0	4	3.053036	-6.561856	52.68596	
12:57:42	-6.795823	38.98531	136.314	0.3307365	5.723697	0.94	3	100	0	4	3.569181	-6.198064	52.36652	
12:57:42	-6.795821	38.98531	135.928	0.4151109	8.277514	1.48	3	100	0	5	3.751845	-5.394365	52.0993	
12:57:42	-6.795823	38.98531	135.369	0.4194754	6.794682	1.11	3	100	0	4	3.672908	-5.652601	51.88325	
12:57:43	-6.795823	38.98531	135.409	0.4201664	4.995233	0.87	3	100	0	4	3.956334	-5.249977	51.64063	
12:57:43	-6.79582	38.98531	135.155	0.4439917	5.216496	0.97	3	100	0	5	3.417744	-4.053301	51.51698	
12:57:43	-6.795818	38.98531	134.908	0.4641259	5.300507	1.51	3	100	0	4	2.949863	-5.004217	51.47974	
12:57:43	-6.795816	38.98531	134.908	0.4362971	2.921847	0.97	3	100	0	4	2.487788	-4.893732	51.41156	
12:57:43	-6.795815	38.98531	135.218	0.4097064	0.567547	0.72	3	100	0	4	3.273352	-5.291612	51.2523	
12:57:44	-6.795814	38.98531	135.517	0.3675594	-2.32493	0.77	3	100	0	4	3.906046	-5.062494	51.03504	
12:57:44	-6.795815	38.98531	135.798	0.3276176	-5.472533	0.79	3	100	0	4	3.417344	-4.16199	50.92829	
12:57:44	-6.795816	38.98531	135.9	0.3202699	-5.552871	0.78	3	100	0	4	3.602214	-3.509459	50.87676	
12:57:44	-6.795817	38.98531	136.418	0.3142126	-5.919958	1.23	3	100	0	4	3.814099	-3.271007	50.85188	
12:57:44	-6.795821	38.98531	137.135	0.3386651	-3.982729	2.19	3	100	0	4	4.181257	-2.804618	50.80808	
12:57:45	-6.795825	38.9853	137.776	0.3624001	-1.710998	2.16	3	100	0	4	4.507273	-1.965956	50.80181	
12:57:45	-6.795827	38.9853	137.999	0.384495	0.5366691	0.75	3	100	0	4	5.264069	-2.1233	50.76167	
12:57:45	-6.795827	38.9853	138.495	0.4059292	2.069228	2.12	3	100	0	4	4.067037	-2.881294	50.74548	
12:57:45	-6.795828	38.9853	138.649	0.4134938	2.109887	0.55	3	100	0	4	2.738129	-2.323479	50.80115	
12:57:45	-6.795827	38.9853	138.887	0.4184871	1.628503	0.45	3	100	0	4	3.603388	-3.418921	50.80373	
12:57:46	-6.795826	38.9853	138.849	0.4413819	2.829987	1.16	3	100	0	4	3.682184	-3.730654	50.74381	
12:57:46	-6.795827	38.98529	138.653	0.4617222	3.385703	0.93	3	100	0	4	3.078729	-3.293467	50.72989	
12:57:46	-6.795829	38.9853	138.227	0.4747288	3.429412	1.05	3	100	0	4	3.152333	-3.301932	50.73319	
12:57:46	-6.795831	38.9853	137.952	0.4786768	3.330298	1.33	3	100	0	4	4.434086	-4.075843	50.60504	
12:57:46	-6.795833	38.9853	137.872	0.4984211	3.758828	0.36	3	100	0	4	5.039918	-4.195631	50.3986	
12:57:47	-6.795836	38.9853	137.61	0.5276635	4.884773	0.52	3	100	0	4	4.419435	-3.401259	50.26978	
12:57:47	-6.795839	38.9853	137.212	0.5597457	5.44847	0.26	3	100	0	4	4.296938	-2.605906	50.20832	
12:57:47	-6.795844	38.9853	136.55	0.5934358	6.84254	0.77	3	100	0	4	4.458351	-3.217609	50.17166	
12:57:47	-6.795846	38.9853	136.197	0.6043018	6.686804	0.44	3	100	0	4	4.847854	-2.893826	50.07138	
12:57:47	-6.795848	38.9853	135.772	0.5960165	5.979503	0.93	3	100	0	4	4.567706	-3.321006	50.00755	
12:57:48	-6.79585	38.9853	135.018	0.5795653	4.469614	0.29	3	100	0	4	4.75871	-4.214849	49.89786	
12:57:48	-6.795852	38.9853	134.399	0.5555221	2.662704	0.63	3	100	0	4	4.204818	-3.64626	49.80542	
12:57:48	-6.795853	38.9853	134.374	0.523436	0.620708	0.76	3	100	0	5	3.821249	-2.847245	49.78676	
12:57:48	-6.795853	38.9853	134.411	0.4813184	-1.381411	0.45	3	100	0	4	4.611692	-2.845066	49.75832	
12:57:48	-6.795855	38.98531	133.934	0.4437374	-3.10541	0.88	3	100	0	4	4.266966	-3.094702	49.74523	
12:57:49	-6.795857	38.98531	133.394	0.4107543	-4.230728	0.42	3	100	0	4	4.596819	-3.212662	49.68565	
12:57:49	-6.795857	38.98531	133.438	0.392682	-4.440907	0.52	3	100	0	4	4.090854	-2.9512	49.68045	
12:57:49	-6.795856	38.98531	133.257	0.3871112	-4.394288	0.26	3	100	0	4	3.82167	-2.272005	49.71173	
12:57:49	-6.795856	38.98531	133.174	0.3641217	-5.250626	0.32	3	100	0	4	3.116365	-2.755121	49.82562	
12:57:49	-6.795855	38.98531	133.111	0.3260129	-7.092415	1.14	3	100	0	4	3.5979	-3.014678	49.86044	
12:57:50	-6.795852	38.9853	133.051	0.2904718	-7.974086	1.16	3	100	0	4	2.784317	-2.293643	49.94974	
12:57:50	-6.79585	38.98531	132.776	0.2588398	-8.624099	1.1	3	100	0	4	2.409448	-3.145286	50.07307	
12:57:50	-6.795851	38.98531	132.162	0.2437553	-8.422773	0.56	3	100	0	4	3.552238	-3.874632	50.04913	
12:57:50	-6.795853	38.98531	131.506	0.2477603	-7.334831	0.51	3	100	0	5	3.814229	-3.30933	49.97913	
12:57:50	-6.795854	38.98531	130.818	0.2729128	-5.674249	1	3	100	0	4	3.811724	-3.094517	49.96208	
12:57:51	-6.795855	38.98531	130.178	0.3254219	-2.012608	0.62	3	100	0	4	4.353663	-3.14362	49.91837	
12:57:51	-6.795854	38.98531	130.199	0.3737423	0.4255747	0.25	3	100	0	4	3.99846	-2.830032	49.89587	
12:57:51	-6.795855	38.98531	130.065	0.402768	1.601873	0.61	3	100	0	4	3.680789	-2.402838	49.92996	
12:57:51	-6.795853	38.98531	130.106	0.4290079	3.244946	1.09	3	100	0	5	3.814826	-1.90473	49.98501	
12:57:51	-6.795853	38.98531	129.785	0.4625892	4.749277	0.45	3	100	0	4	2.365444	-1.48331	50.13847	
12:57:52	-6.795853	38.98531	129.536	0.4924676	6.146849	0.79	3	100	0	4	2.621223	-1.994339	50.31422	
12:57:52	-6.795855	38.98532	129.024	0.5282558	7.940036	0.95	3	100	0	4	3.60442	-2.007311	50.40245	
12:57:52	-6.795853	38.98532	129.316	0.5600967	8.783195	0.51	3	100	0	4	3.812434	-2.420829	50.44902	
12:57:52	-6.795851	38.98531	129.333	0.5410634	7.340613	0.61	3	100	0	4	2.764771	-1.573471	50.54271	
12:57:52	-6.795852	38.98531	128.781	0.5226198	5.680201	0.12	3	100	0	4	2.470914	-1.332256	50.73331	
12:57:53	-6.795852	38.98532	128.426	0.5189808	4.830316	0.26	3	100	0	4	2.875247	-1.733719	50.89232	
12:57:53	-6.795851	38.98532	128.128	0.514467	4.685428	1.11	3	100	0	4	2.834417	-1.940874	51.01006	
12:57:53	-6.795848	38.98532	128.214	0.5033839	3.31213	0.61	3	100	0	4	3.691597	-2.578104	51.0629	
12:57:53	-6.795848	38.98532	128.292	0.491798	2.96064	1.48	3	100	0	4	2.733193	-2.227603	51.13758	
12:57:53	-6.795849	38.98531	128.615	0.4926748	2.824363	0.79	3	100	0	4	1.692153	-1.668946	51.29662	
12:57:54	-6.795849	38.98531	129.081	0.4933654	3.047044	0.53	3	100	0	4	2.181797	-1.606519	51.46402	
12:57:54	-6.79585	38.98531	129.326	0.4739498	1.885878	0.58	3	100	0	5	2.549896	-1.585099	51.59883	
12:57:54	-6.795852	38.98531	129.542	0.4567551	1.313162	0.78	3	100	0	4	2.600358	-1.306819	51.73404	
12:57:54	-6.795857	38.98531	129.667	0.4543291	0.8362219	0.65	3	100	0	4	2.717621	-0.7967064	51.88	
12:57:54	-6.795862	38.98531	129.507	0.4512452	0.5744094	0.32	3	100	0	4	3.615071	-1.197144	52.0094	
12:57:55	-6.795866	38.98531	129.497	0.4849345	2.57968	1.01	3	100	0	4	2.6143	-1.014139	52.12923	
12:57:55	-6.79587	38.98531	129.397	0.5187092	4.246807	0.47	3	100	0	4	2.329376	-0.141884	52.31784	
12:57:55	-6.795875	38.98531	129.029	0.5089811	3.514187	0.63	3	100	0	4	3.334028	-0.6228034	52.50521	
12:57:55	-6.795877	38.98531	128.854	0.4998867	2.953004	1.04	3	100	0	4	2.545981	-1.983142	52.66871	
12:57:55	-6.795879	38.98531	128.218	0.5066178	3.371066	1.19	3	100	0	4	3.276595	-2.151201	52.71501	
12:57:56	-6.79588	38.98531	127.949	0.5118857	3.316722	1.07	3	100	0	5	3.674713	-1.8468	52.7258	
12:57:56	-6.79588	38.98531	127.826	0.5141299	3.112041	1.12	3	100	0	4	3.599893	-1.435014	52.76344	
12:57:56	-6.795879	38.98531	127.54	0.513061	3.348357	0.64	3	100	0	4	3.238503	-2.074043	52.83948	
12:57:56	-6.795879	38.98532	127.121	0.5178108	3.020186	1.16	3	100	0	4	2.792924	-1.592532	52.92918	
12:57:56	-6.795879	38.98532	126.765	0.5274107	3.654392	1.53	3	100	0	4	2.920727	-2.187871	53.00411	
12:57:57	-6.79588	38.98532	126.705	0.5280167	3.660649	0.82	3	100	0	4	3.366894	-2.19021	53.01655	
12:57:57	-6.795882	38.98532	126.486	0.5221801	3.629597	1.07	3	100	0	4	3.1362	-0.9547372	53.07198	
12:57:57	-6.795885	38.98532	125.946	0.502407	2.565193	1.44	3	100	0	4	2.487359	-0.05973106	53.23917	
12:57:57	-6.795887	38.98532	126.013	0.4746101	0.7170659	0.71	3	100	0	4	3.471826	-0.8705752	53.42704	
12:57:58	-6.795887	38.98532	126.072	0.4507438	-0.9582223	1.22	3	100	0	4	2.706017	-0.3094923	53.56858	
12:57:58	-6.795889	38.98532	125.516	0.4306704	-1.315822	0.48	3	100	0	4	3.651339	-1.02584	53.69112	
12:57:58	-6.795892	38.98532	125.113	0.4048612	-2.661281	1.66	3	100	0	4	2.3002	-0.679783	53.81091	
12:57:58	-6.795893	38.98532	125.236	0.3730944	-3.933031	1.2	3	100	0	4	3.147369	-0.8980096	53.95075	
12:57:58	-6.795895	38.98532	125.415	0.3434855	-4.724379	1.1	3	100	0	5	1.936982	0.3647226	54.11773	
12:57:58	-6.795894	38.98532	125.674	0.317791	-5.754312	0.84	3	100	0	4	2.529584	0.1122244	54.36741	
12:57:59	-6.795892	38.98532	125.915	0.2833782	-6.933518	0.35	3	100	0	4	1.781273	0.06346268	54.57604	
12:57:59	-6.79589	38.98532	126.076	0.2504419	-8.023497	0.58	3	100	0	4	2.245579	-1.425452	54.74255	
12:57:59	-6.795889	38.98532	125.72	0.2438444	-7.758113	0.75	3	100	0	4	2.315305	-1.764689	54.80059	
12:57:59	-6.795887	38.98532	125.268	0.2540405	-6.381498	1.95	3	100	0	4	1.504087	-2.142293	54.88401	
12:58:00	-6.795884	38.98532	125.304	0.2791598	-4.489605	1.17	3	100	0	5	2.164143	-3.222529	54.87321	
12:58:00	-6.795882	38.98533	125.182	0.3091203	-2.955526	2.15	3	100	0	4	1.967058	-2.635831	54.85673	
12:58:00	-6.795881	38.98533	125.069	0.3216145	-1.968827	2.01	3	100	0	4	3.016795	-3.162678	54.76418	
12:58:00	-6.795877	38.98534	124.842	0.3049946	-2.923768	1.36	3	100	0	4	2.924646	-2.791873	54.66708	
12:58:00	-6.795876	38.98534	124.342	0.2919398	-2.983288	0.98	3	100	0	4	1.226177	-2.087875	54.73132	
12:58:01	-6.795877	38.98534	124.033	0.2767931	-3.462928	1.03	3	100	0	4	1.011477	-1.23211	54.88047	
12:58:01	-6.795878	38.98533	124.014	0.264791	-3.830451	1.15	3	100	0	4	1.434212	-0.1654419	55.07156	
12:58:01	-6.79588	38.98533	123.71	0.2055945	-6.971645	0.84	3	100	0	4	1.73158	0.03634075	55.30355	
12:58:01	-6.795882	38.98533	123.397	0.1411419	-9.276279	0.47	3	100	0	4	2.006549	-0.3039348	55.50935	
12:58:01	-6.795884	38.98533	122.959	0.08162883	-11.12252	0.95	3	100	0	4	2.339566	-0.764358	55.6489	
12:58:02	-6.795885	38.98533	122.642	0.03476261	-12.3786	0.26	3	100	0	4	2.011815	-0.07505774	55.80493	
12:58:02	-6.795886	38.98533	122.712	0.008999842	-12.13006	0.81	3	100	0	4	2.044364	-0.836949	55.96088	
12:58:02	-6.795887	38.98533	122.792	-0.01212386	-11.9061	1.2	3	100	0	4	2.736828	-0.8955643	56.05216	
12:58:02	-6.795888	38.98533	122.988	-0.02181533	-10.96318	0.85	3	100	0	7	3.114151	-0.8734295	56.09702	
12:58:02	-6.795888	38.98533	123.396	-0.02704695	-9.417616	0.39	3	100	0	4	2.179596	-0.1312301	56.18585	
12:58:03	-6.795888	38.98533	123.124	-0.0049991	-7.14312	1.84	3	100	0	4	2.428566	-0.838734	56.31664	
12:58:03	-6.795887	38.98534	122.985	0.01514999	-4.690496	0.94	3	100	0	4	3.094893	-2.405516	56.28972	
12:58:03	-6.795885	38.98534	123.076	0.1024278	0.1719555	0.55	3	100	0	4	2.23327	-1.601586	56.26532	
12:58:03	-6.795883	38.98533	123.1	0.1812593	4.433242	1.27	3	100	0	5	1.738848	-1.040657	56.32493	
12:58:03	-6.795882	38.98533	122.664	0.2480253	7.712975	0.78	3	100	0	4	0.9803662	-0.2044128	56.47645	
12:58:04	-6.795884	38.98533	122.141	0.3022096	9.67982	0.24	3	100	0	4	1.479032	-0.4459008	56.65986	
12:58:04	-6.795884	38.98533	122.218	0.3485798	11.34296	0.5	3	100	0	4	2.065852	-0.3928099	56.77815	
12:58:04	-6.795883	38.98533	122.607	0.3890978	12.87811	0.66	3	100	0	4	2.804888	-0.3637122	56.88259	
12:58:04	-6.795886	38.98533	122.585	0.3656335	10.46598	0.69	3	100	0	4	2.974889	-0.6166158	56.92422	
12:58:04	-6.795887	38.98533	122.604	0.341488	7.950539	0.44	3	100	0	4	2.740741	-0.1036383	56.97127	
12:58:05	-6.795887	38.98533	122.068	0.3563944	9.007915	0.04	3	100	0	4	1.71405	-0.1303694	57.09986	
12:58:05	-6.795887	38.98533	121.741	0.3683258	8.780791	0.79	3	100	0	4	1.734413	-0.8159899	57.21947	
12:58:05	-6.795886	38.98533	121.369	0.3920663	8.878444	0.88	3	100	0	4	1.061451	-0.6222383	57.3229	
12:58:05	-6.795886	38.98533	121.206	0.4102832	8.28473	0.04	3	100	0	4	1.136859	-0.8160762	57.44062	
12:58:05	-6.795884	38.98533	121.409	0.4604016	9.734209	0.29	3	100	0	4	1.738487	-0.8272459	57.51572	
12:58:06	-6.795882	38.98533	121.707	0.499321	11.06444	0.5	3	100	0	4	1.748954	-1.017413	57.58569	
12:58:06	-6.795881	38.98533	122.371	0.5262084	11.0707	0.96	3	100	0	4	2.217024	-1.094626	57.64694	
12:58:06	-6.79588	38.98534	123.072	0.5330642	10.68142	0.87	3	100	0	4	2.503461	-1.25736	57.66764	
12:58:06	-6.795879	38.98534	123.907	0.5166798	9.190348	1.22	3	100	0	4	2.626107	-1.128302	57.6843	
12:58:06	-6.79588	38.98534	124.471	0.4708894	6.929121	1.64	3	100	0	4	3.196906	-1.059148	57.67076	
12:58:07	-6.795882	38.98534	124.898	0.4200337	4.153144	2.11	3	100	0	4	3.48404	-1.340031	57.62882	
12:58:07	-6.795883	38.98535	125.499	0.3739732	1.396157	2.08	3	100	0	4	4.068546	-1.297232	57.54633	
12:58:07	-6.795885	38.98535	126.371	0.3078966	-2.166431	1.04	3	100	0	5	4.033772	-0.8515742	57.45903	
12:58:07	-6.795886	38.98536	127.159	0.2331695	-5.526689	1.62	3	100	0	4	3.575366	-0.4547777	57.44252	
12:58:07	-6.795886	38.98536	127.778	0.1529486	-8.636009	2.02	3	100	0	4	3.7956	-1.496491	57.43381	
12:58:08	-6.795887	38.98536	128.306	0.08068521	-11.77122	0.48	3	100	0	4	3.559674	-2.259662	57.33462	
12:58:08	-6.795887	38.98536	128.81	0.02383552	-13.72799	1.01	3	100	0	4	2.846799	-0.8475537	57.28274	
12:58:08	-6.795887	38.98536	129.038	-0.007232643	-14.03594	0.28	3	100	0	4	1.964214	-0.2092979	57.38226	
12:58:08	-6.795885	38.98536	129.549	-0.02754492	-13.96286	0.96	3	100	0	5	2.318762	-0.9718082	57.48171	
12:58:08	-6.795885	38.98535	129.682	-0.04495806	-13.48141	0.79	3	100	0	5	2.21002	-0.3651246	57.56826	
12:58:09	-6.795885	38.98535	129.537	-0.07445794	-13.33462	1.26	3	100	0	4	1.7776	-0.7110949	57.66309	
12:58:09	-6.795887	38.98535	129.324	-0.1123987	-13.97296	0.11	3	100	0	5	1.774957	-0.4979239	57.77199	
12:58:09	-6.795887	38.98535	129.458	-0.1345313	-13.2842	0.79	3	100	0	5	2.325382	-0.9328793	57.83437	
12:58:09	-6.795887	38.98535	129.599	-0.1429274	-12.04237	0.18	3	100	0	5	1.926375	-0.5601717	57.90421	
12:58:09	-6.795888	38.98535	129.684	-0.1608488	-11.48036	0.79	3	100	0	4	2.837383	-0.8303644	57.952	
12:58:10	-6.795889	38.98535	129.846	-0.1816228	-11.4791	0.72	3	100	0	4	3.364396	-0.6895036	57.95514	
12:58:10	-6.795889	38.98535	129.518	-0.190546	-10.90871	1.26	3	100	0	4	3.145394	-1.145324	57.94568	
12:58:10	-6.795889	38.98536	129.08	-0.1805671	-8.898501	1.27	3	100	0	4	2.399873	-2.367656	57.89521	
12:58:10	-6.79589	38.98536	128.377	-0.1563028	-7.247625	1.04	3	100	0	4	2.465238	-2.250044	57.80702	
12:58:10	-6.795891	38.98536	128.383	-0.1055801	-3.204228	0.19	3	100	0	4	2.755005	-1.737602	57.73587	
12:58:11	-6.795894	38.98536	128.182	-0.06181808	-0.4532523	0.62	3	100	0	4	2.771219	-0.9449244	57.72193	
12:58:11	-6.795896	38.98536	127.839	0.03279687	5.099885	0.71	3	100	0	3	3.032198	-0.7558421	57.74586	
12:58:11	-6.795898	38.98536	127.249	0.1187628	9.108078	0.09	3	100	0	4	3.127793	-1.375419	57.71963	
12:58:11	-6.795899	38.98536	126.924	0.226694	14.16171	0.51	3	100	0	4	2.266195	-1.089105	57.71515	
12:58:11	-6.795899	38.98536	126.467	0.3138461	17.91355	0.31	3	100	0	4	1.827658	-1.063308	57.76067	
12:58:12	-6.795897	38.98536	126.441	0.4016444	20.354	1	3	100	0	4	2.476673	-1.477937	57.76107	
12:58:12	-6.795896	38.98536	126.363	0.4760792	22.3229	0.81	3	100	0	4	2.443349	-2.023725	57.72995	
12:58:12	-6.795896	38.98536	126.434	0.4351342	18.2021	0.25	3	100	0	4	2.373474	-1.611643	57.68107	
12:58:12	-6.795897	38.98536	126.405	0.4010468	14.52291	0.66	3	100	0	4	2.694793	-1.013014	57.66093	
12:58:12	-6.795902	38.98536	125.555	0.3712572	11.40794	0.71	3	100	0	4	2.932178	-0.3906072	57.68011	
12:58:13	-6.795907	38.98536	124.569	0.3445882	9.066151	0.95	3	100	0	5	2.776316	-0.5027515	57.72718	
12:58:13	-6.795907	38.98536	124.577	0.3311867	7.514973	0.07	3	100	0	5	3.003927	-1.496645	57.72037	
12:58:13	-6.795907	38.98536	124.81	0.317403	5.639816	0.61	3	100	0	4	2.691654	-0.7075405	57.71742	
12:58:13	-6.795907	38.98536	124.7	0.2906387	3.557773	0.37	3	100	0	4	3.144563	-0.6977331	57.72667	
12:58:13	-6.795907	38.98536	124.565	0.2663583	2.232133	0.79	3	100	0	5	2.330561	-0.1358953	57.78397	
12:58:14	-6.795907	38.98536	124.406	0.2385184	1.044977	0.91	3	100	0	4	1.486713	-0.05075177	57.90289	
12:58:14	-6.795908	38.98536	124.346	0.2111762	-0.467459	0.91	3	100	0	4	1.582432	0.1771904	58.05994	
12:58:14	-6.795909	38.98536	124.171	0.1567605	-3.45072	0.11	3	100	0	5	2.041267	-0.02140628	58.21675	
12:58:14	-6.795909	38.98536	123.812	0.107801	-5.64296	1.2	3	100	0	4	2.86662	-1.181184	58.25635	
12:58:14	-6.795909	38.98536	123.728	0.08230004	-6.289104	1	3	100	0	4	3.252482	-2.049546	58.1667	
12:58:15	-6.79591	38.98537	123.205	0.06235633	-7.065863	1.58	3	100	0	5	3.543988	-2.014782	58.02487	
12:58:15	-6.795912	38.98537	123.166	0.02483827	-8.21946	0.58	3	100	0	4	3.56463	-2.262461	57.87123	
12:58:15	-6.795913	38.98537	123.208	-0.008375268	-9.764179	0.5	3	100	0	4	3.407557	-1.308156	57.76104	
12:58:15	-6.795915	38.98537	123.062	-0.05687606	-11.00546	0.89	3	100	0	4	3.186615	-0.8998369	57.72647	
12:58:15	-6.795918	38.98536	123.091	-0.09502773	-11.86991	0.98	3	100	0	4	3.32863	-0.5547979	57.70271	
12:58:16	-6.795919	38.98536	123.067	-0.1263459	-12.2309	1.07	3	100	0	4	3.22381	-0.2449443	57.70848	
12:58:16	-6.795921	38.98536	122.852	-0.1445751	-11.57483	0.83	3	100	0	4	3.35635	-0.6007277	57.75253	
12:58:16	-6.79592	38.98536	123.052	-0.1850021	-11.89957	0.82	3	100	0	4	3.395354	-1.478341	57.68558	
12:58:16	-6.795921	38.98536	123.213	-0.2580204	-14.35191	0.97	3	100	0	4	2.759678	-0.6618167	57.66727	
12:58:16	-6.795922	38.98536	123.218	-0.3287072	-16.05455	0.82	3	100	0	4	3.235117	-0.4714362	57.68629	
12:58:17	-6.795923	38.98536	123.218	-0.3844388	-16.53988	0.85	3	100	0	4	3.801137	-1.019284	57.67501	
12:58:17	-6.795925	38.98536	123.048	-0.4048781	-16.12354	0.93	3	100	0	4	4.286795	-2.011575	57.54065	
12:58:17	-6.795924	38.98536	123.315	-0.3944478	-13.61458	0.58	3	100	0	4	4.149867	-2.136833	57.36143	
12:58:17	-6.795924	38.98536	123.05	-0.3929523	-11.8487	0.35	3	100	0	4	3.532391	-1.960819	57.23528	
12:58:17	-6.795925	38.98536	122.992	-0.3994765	-11.15629	0.61	3	100	0	4	3.25686	-1.658545	57.14817	
12:58:18	-6.795927	38.98536	123.101	-0.4315228	-11.89878	0.72	3	100	0	5	3.67592	-1.249274	57.08006	
12:58:18	-6.795925	38.98536	123.547	-0.4984483	-14.37089	0.19	3	100	0	4	3.122302	-1.217597	57.0534	
12:58:18	-6.795924	38.98536	123.658	-0.5699626	-16.90693	0.59	3	100	0	5	2.454981	-1.752213	57.06146	
12:58:18	-6.795925	38.98537	123.566	-0.6518321	-19.52043	0.87	3	100	0	4	2.95725	-1.939526	57.01386	
12:58:18	-6.795925	38.98537	123.643	-0.7037057	-20.60377	0.18	3	100	0	4	3.034435	-1.546805	56.93439	
12:58:19	-6.795926	38.98536	123.703	-0.73835	-20.1244	0.59	3	100	0	4	2.69999	-0.9513561	56.93505	
12:58:19	-6.795926	38.98536	123.724	-0.7454451	-18.8252	0.28	3	100	0	4	2.557321	-0.7786264	56.98871	
12:58:19	-6.795924	38.98536	124.333	-0.7291389	-16.49946	0.39	3	100	0	5	2.442548	-1.190782	57.0396	
12:58:19	-6.795923	38.98536	124.686	-0.7055873	-13.6373	1.1	3	100	0	4	2.985954	-1.793909	57.02067	
12:58:19	-6.795922	38.98536	124.959	-0.6805248	-11.04704	0.57	3	100	0	4	2.841505	-1.929063	56.96109	
12:58:20	-6.795919	38.98536	125.062	-0.6650473	-9.457646	1.04	3	100	0	4	2.406682	-1.721006	56.94641	
12:58:20	-6.795918	38.98537	124.928	-0.6614066	-8.657689	1.66	3	100	0	4	2.828091	-2.367013	56.88341	
12:58:20	-6.795918	38.98537	125.088	-0.6403607	-6.754365	0.45	3	100	0	4	3.256979	-2.214218	56.7581	
12:58:20	-6.795918	38.98537	124.89	-0.599308	-3.644929	1.97	3	100	0	4	3.314074	-2.314919	56.6869	
12:58:20	-6.795916	38.98537	124.866	-0.5644549	-1.499095	1.23	3	100	0	4	3.582273	-2.938776	56.5213	
12:58:21	-6.795915	38.98538	124.6	-0.5446203	-0.2485269	1.84	3	100	0	4	3.497434	-2.606406	56.39567	
12:58:21	-6.795914	38.98538	124.724	-0.5261371	0.9849964	1.25	3	100	0	4	3.64515	-2.636747	56.24165	
12:58:21	-6.795911	38.98538	125.306	-0.5021103	2.263808	0.72	3	100	0	4	3.291027	-1.936944	56.14228	
12:58:21	-6.79591	38.98538	125.478	-0.4819736	3.520265	0.61	3	100	0	5	3.120011	-1.454933	56.12143	
12:58:21	-6.79591	38.98538	125.158	-0.431758	5.78518	1.04	3	100	0	4	3.372517	-1.528772	56.09402	
12:58:22	-6.795909	38.98538	124.823	-0.388597	6.902242	1.27	3	100	0	4	3.351245	-1.905485	56.04387	
12:58:22	-6.795909	38.98538	124.716	-0.3689393	7.40049	1.45	3	100	0	4	3.446393	-2.069677	55.96111	
12:58:22	-6.795907	38.98538	124.918	-0.3517082	8.309618	1.37	3	100	0	4	3.689504	-1.990311	55.85727	
12:58:22	-6.795906	38.98539	125.166	-0.3090116	10.03716	1.48	3	100	0	4	3.847575	-1.849484	55.76892	
12:58:22	-6.795904	38.98539	125.382	-0.2785431	10.56118	0.89	3	100	0	4	3.591366	-1.685734	55.69628	
12:58:23	-6.795903	38.98539	125.337	-0.2676208	10.12822	0.16	3	100	0	4	3.372111	-0.9795328	55.66672	
12:58:23	-6.795902	38.98538	125.585	-0.2604433	9.647414	0.97	3	100	0	4	3.0497	-0.1521285	55.72039	
12:58:23	-6.795901	38.98538	125.774	-0.2643254	9.153383	1.27	3	100	0	4	2.529687	0.3168631	55.85963	
12:58:23	-6.795899	38.98538	125.774	-0.2684379	8.099168	0.64	3	100	0	4	2.720784	-0.2814218	56.03954	
12:58:23	-6.795898	38.98538	125.973	-0.2513006	8.738398	0.42	3	100	0	4	3.237775	-0.952193	56.07482	
12:58:24	-6.795897	38.98538	125.845	-0.2360961	8.816742	0.5	3	100	0	4	3.223674	-0.7798015	56.09449	
12:58:24	-6.795897	38.98538	125.917	-0.2179488	8.998923	0.9	3	100	0	4	3.013013	-0.3410324	56.14638	
