Date	Latitude(deg) 	Longitude(deg)	hamsl(m)	hafl(m)	climbrate(cm/s)	GroundSpeed(m/s)	Airspeed(m/s)	Mav_Link(%)	Rssi_Link(%)	Throttle	Roll(deg)	Pitch(deg)	Yaw(deg)
22:36:30	-6.795908	38.98533	119.09	0	0	0.69	0	100	0	0	0.9498588	-2.594811	15.12672	
22:36:30	-6.795907	38.98534	119.908	2.241683	-1.31833	1.45	2.00964E-31	100	0	12	1.151104	-2.722297	15.10033	
22:36:30	-6.795907	38.98534	119.727	2.241683	-1.31833	0.17	2.00964E-31	100	0	12	1.876767	-3.479746	15.04864	
22:36:31	-6.795907	38.98534	119.727	2.241683	-1.31833	0.17	2.00964E-31	100	0	12	0.7657648	-2.500602	15.07378	
22:36:31	-6.795907	38.98534	120.38	2.241683	-1.31833	0.28	2.00964E-31	100	0	12	-0.08545087	-1.717127	15.10586	
22:36:31	-6.795907	38.98534	120.38	2.241683	-1.31833	0.28	2.00964E-31	100	0	12	-0.3156829	-1.449162	15.1258	
22:36:31	-6.795906	38.98534	120.492	3.26469	42.02966	0.48	1.920929	100	0	12	-0.3943839	-1.348552	15.17946	
22:36:31	-6.795906	38.98534	120.492	3.26469	42.02966	0.25	1.920929	100	0	12	-0.2359449	-1.456034	15.19036	
22:36:32	-6.795906	38.98535	119.939	3.26469	42.02966	0.25	1.920929	100	0	12	-0.311697	-1.281936	15.2274	
22:36:32	-6.795906	38.98535	120.164	3.26469	42.02966	0.08	1.920929	100	0	12	-0.4332655	-1.161656	15.25846	
22:36:32	-6.795906	38.98535	120.666	3.26469	42.02966	0.42	1.920929	100	0	12	-0.7167708	-0.939688	15.29292	
22:36:32	-6.795906	38.98534	121.1	3.571432	32.24009	0.52	1.920929	100	0	12	-1.04708	-0.6772764	15.30211	
22:36:32	-6.795906	38.98534	121.163	3.571432	32.24009	0.25	1.920929	100	0	12	-0.9991164	-0.7161997	15.34932	
22:36:33	-6.795906	38.98534	121.193	3.571432	32.24009	0.09	1.920929	100	0	12	-0.7615015	-0.8983585	15.38955	
22:36:33	-6.795906	38.98535	120.881	3.571432	32.24009	0.59	1.920929	100	0	12	-0.2601142	-1.013919	15.3942	
22:36:33	-6.795906	38.98535	120.98	3.571432	32.24009	0.31	1.920929	100	0	12	0.08346727	-1.026341	15.4005	
22:36:33	-6.795906	38.98535	120.987	3.204211	-0.5900543	0.28	1.112387E-12	100	0	12	-0.1647703	-1.246786	15.39635	
22:36:33	-6.795906	38.98534	121.164	3.204211	-0.5900543	0.38	1.112387E-12	100	0	12	-0.2140194	-1.371578	15.40954	
22:36:34	-6.795905	38.98534	120.953	3.204211	-0.5900543	0.72	1.112387E-12	100	0	12	-0.5835541	-1.369483	15.44049	
22:36:34	-6.795905	38.98534	121.414	3.204211	-0.5900543	0.47	1.112387E-12	100	0	12	-0.7545706	-1.453034	15.45185	
22:36:34	-6.795905	38.98534	121.711	3.204211	-0.5900543	0.77	1.112387E-12	100	0	12	0.07421109	-1.692214	15.42846	
22:36:34	-6.795904	38.98534	121.538	2.808747	-21.1745	0.77	1.401298E-45	100	0	12	0.8131371	-2.034155	15.3978	
22:36:34	-6.795904	38.98535	121.601	2.808747	-21.1745	0.71	1.401298E-45	100	0	12	0.7717388	-1.964062	15.38997	
22:36:35	-6.795904	38.98535	121.484	2.808747	-21.1745	0.44	1.401298E-45	100	0	12	0.581456	-1.767917	15.37087	
22:36:35	-6.795903	38.98535	121.457	2.808747	-21.1745	0.48	1.401298E-45	100	0	12	-0.09003078	-1.876519	15.39596	
22:36:35	-6.795903	38.98535	121.141	2.808747	-21.1745	1.81	1.401298E-45	100	0	12	0.3784903	-1.864482	15.37018	
22:36:35	-6.795905	38.98536	120.935	2.707505	-20.2913	1.67	3.243112E-12	100	0	11	0.8559259	-1.481733	15.31958	
22:36:35	-6.795905	38.98536	120.601	2.707505	-20.2913	0.88	3.243112E-12	100	0	11	0.1319377	-1.788104	15.29613	
22:36:36	-6.795906	38.98536	120.608	2.707505	-20.2913	1.54	3.243112E-12	100	0	11	0.3923557	-1.791732	15.28898	
22:36:36	-6.795907	38.98536	120.633	2.707505	-20.2913	1.27	3.243112E-12	100	0	11	0.4126465	-1.316219	15.27052	
22:36:36	-6.795907	38.98536	120.564	2.707505	-20.2913	0.22	3.243112E-12	100	0	11	-0.6508039	-1.394029	15.29701	
22:36:36	-6.795906	38.98536	120.512	2.620969	-18.06735	0.77	1.439279	100	0	12	-1.336399	-1.916441	15.35433	
22:36:37	-6.795905	38.98536	120.347	2.620969	-18.06735	0.41	1.439279	100	0	12	-1.376315	-1.685259	15.35727	
22:36:37	-6.795905	38.98536	120.062	2.620969	-18.06735	0.19	1.439279	100	0	12	-0.8269043	-1.514948	15.35041	
22:36:37	-6.795904	38.98536	119.624	2.620969	-18.06735	0.66	1.439279	100	0	12	-0.516747	-2.024195	15.35231	
22:36:37	-6.795903	38.98536	119.493	2.620969	-18.06735	0.55	1.439279	100	0	12	-0.635587	-2.156645	15.33165	
22:36:37	-6.795903	38.98536	119.26	2.653371	-12.27511	0.38	4.633017E-12	100	0	13	-0.8633967	-2.034019	15.35988	
22:36:38	-6.795903	38.98536	119.26	2.653371	-12.27511	0.52	4.633017E-12	100	0	13	-0.7173724	-1.551229	15.36906	
22:36:38	-6.795902	38.98536	118.75	2.653371	-12.27511	0.52	4.633017E-12	100	0	13	-1.191545	-1.518811	15.39469	
22:36:38	-6.795902	38.98536	118.943	2.653371	-12.27511	0.52	4.633017E-12	100	0	13	-1.300894	-1.484707	15.42753	
22:36:38	-6.795902	38.98536	119.057	2.653371	-12.27511	0.52	4.633017E-12	100	0	13	-1.259198	-1.422175	15.44321	
22:36:38	-6.795902	38.98536	118.958	2.48424	-17.08178	0.52	3.243112E-12	100	0	12	-1.210918	-1.36109	15.457	
22:36:39	-6.795901	38.98536	118.996	2.48424	-17.08178	0.52	3.243112E-12	100	0	12	-1.170852	-1.307597	15.45955	
22:36:39	-6.7959	38.98536	118.492	2.48424	-17.08178	0.52	3.243112E-12	100	0	12	-1.146348	-1.269006	15.48525	
22:36:39	-6.7959	38.98536	118.389	2.48424	-17.08178	0.52	3.243112E-12	100	0	12	-1.099434	-1.228781	15.50049	
22:36:39	-6.7959	38.98536	118.131	2.48424	-17.08178	0.29	3.243112E-12	100	0	12	-1.064801	-1.177159	15.4932	
22:36:39	-6.7959	38.98536	117.521	2.20742	-23.41633	0.25	1.401298E-45	100	0	13	-0.3079475	-0.7165139	15.50819	
22:36:40	-6.7959	38.98536	117.817	2.20742	-23.41633	0.28	1.401298E-45	100	0	13	-0.3264208	-1.073163	15.51079	
22:36:40	-6.795901	38.98536	117.665	2.20742	-23.41633	0.26	1.401298E-45	100	0	13	-0.1590904	-0.7504806	15.49679	
22:36:40	-6.795901	38.98536	117.23	2.20742	-23.41633	0.62	1.401298E-45	100	0	13	-0.1156343	-0.6708534	15.48725	
22:36:40	-6.795899	38.98536	116.934	2.20742	-23.41633	0.33	1.401298E-45	100	0	13	-0.5916191	-1.244537	15.48782	
22:36:40	-6.795899	38.98536	117.303	2.580498	-0.7306558	0.48	8.099797E-12	100	0	12	-0.1763315	-1.177773	15.47936	
22:36:41	-6.795899	38.98536	117.71	2.580498	-0.7306558	0.65	8.099797E-12	100	0	12	0.5084158	-0.6584544	15.47883	
22:36:41	-6.795898	38.98536	117.762	2.580498	-0.7306558	0.96	8.099797E-12	100	0	12	0.5619121	-0.9145489	15.47186	
22:36:41	-6.795897	38.98536	117.88	2.580498	-0.7306558	0.22	8.099797E-12	100	0	12	0.5357807	-1.474437	15.44234	
22:36:41	-6.795898	38.98536	117.824	2.580498	-0.7306558	0.75	8.099797E-12	100	0	12	0.1421564	-0.801424	15.44192	
22:36:41	-6.795898	38.98536	118.081	2.552992	-4.410482	0.31	1.920929	100	0	12	-0.4096235	0.2440072	15.42349	
22:36:42	-6.795899	38.98536	118.417	2.552992	-4.410482	0.68	1.920929	100	0	12	-0.4511628	-0.4776095	15.43832	
22:36:42	-6.7959	38.98536	118.754	2.552992	-4.410482	0.26	1.920929	100	0	12	0.2078403	0.5469235	15.4611	
22:36:42	-6.7959	38.98536	118.674	2.552992	-4.410482	0.48	1.920929	100	0	12	0.1676048	0.1649856	15.45763	
22:36:42	-6.795901	38.98536	119.18	2.552992	-4.410482	0.58	1.920929	100	0	12	0.4794143	-1.003397	15.45053	
22:36:42	-6.795902	38.98535	120.158	2.430474	-10.64954	0.42	1.401298E-45	100	0	12	0.5194677	-0.2508809	15.43541	
22:36:43	-6.795902	38.98535	121.001	2.430474	-10.64954	0.19	1.401298E-45	100	0	12	0.08525519	-0.2261242	15.44399	
22:36:43	-6.795902	38.98535	121.571	2.430474	-10.64954	0.14	1.401298E-45	100	0	12	0.2124209	-0.4247722	15.4488	
22:36:43	-6.795904	38.98535	122.136	2.430474	-10.64954	0.97	1.401298E-45	100	0	12	0.2239684	-0.5558875	15.4257	
22:36:43	-6.795905	38.98534	122.15	2.430474	-10.64954	0.57	1.401298E-45	100	0	12	-0.3204118	0.09772308	15.43207	
22:36:43	-6.795904	38.98534	122.052	2.355678	-10.15758	0.9	1.920929	100	0	12	-0.07567902	-0.3867749	15.44095	
22:36:44	-6.795904	38.98534	121.379	2.355678	-10.15758	0.61	1.920929	100	0	12	-0.2827243	-0.9657778	15.46823	
22:36:44	-6.795904	38.98534	120.817	2.355678	-10.15758	0.44	1.920929	100	0	12	-0.1132558	0.1306307	15.4831	
22:36:44	-6.795905	38.98534	120.625	2.355678	-10.15758	0.21	1.920929	100	0	12	0.8954331	0.3308897	15.49751	
22:36:44	-6.795905	38.98534	120.647	2.355678	-10.15758	0.68	1.920929	100	0	12	0.5318165	0.1474963	15.47832	
22:36:44	-6.795906	38.98534	120.873	2.577424	1.751756	1.46	1.920929	100	0	12	0.2372041	0.7556499	15.45935	
22:36:45	-6.795906	38.98534	120.713	2.577424	1.751756	0.9	1.920929	100	0	12	-0.3612453	0.5009375	15.44733	
22:36:45	-6.795906	38.98534	120.713	2.577424	1.751756	0.9	1.920929	100	0	12	0.3050855	-0.8615946	15.45507	
22:36:45	-6.795906	38.98534	120.713	2.577424	1.751756	0.9	1.920929	100	0	12	0.9747692	-2.234619	15.43988	
22:36:45	-6.795906	38.98534	120.713	2.577424	1.751756	0.9	1.920929	100	0	12	1.652022	-3.573793	15.36677	
22:36:45	-6.795906	38.98534	120.713	2.654338	2.630056	0.9	4.797596	100	0	12	2.330434	-4.959931	15.2134	
22:36:46	-6.795902	38.98533	121.631	2.654338	2.630056	0.36	4.797596	100	0	12	2.896468	-5.871998	15.07655	
22:36:46	-6.795902	38.98533	121.631	2.654338	2.630056	0.26	4.797596	100	0	12	2.982328	-5.84185	14.96922	
22:36:46	-6.795902	38.98533	121.631	2.654338	2.630056	0.91	4.797596	100	0	12	3.0652	-6.118791	14.89272	
22:36:46	-6.795902	38.98533	121.631	2.654338	2.630056	0.36	4.797596	100	0	12	3.582255	-5.916659	14.7766	
22:36:46	-6.795902	38.98533	121.631	2.594306	-9.119313	0.58	1.344651	100	0	12	3.239555	-5.211874	14.71751	
22:36:47	-6.795901	38.98533	121.054	2.594306	-9.119313	0.58	1.344651	100	0	12	3.230518	-4.683313	14.64378	
22:36:47	-6.795901	38.98533	121.262	2.594306	-9.119313	0.58	1.344651	100	0	12	3.099207	-4.430364	14.58858	
22:36:47	-6.795901	38.98533	121.349	2.594306	-9.119313	1.14	1.344651	100	0	12	2.544128	-4.205935	14.56676	
22:36:47	-6.795901	38.98533	121.669	2.594306	-9.119313	1.04	1.344651	100	0	12	1.913534	-3.816535	14.58058	
22:36:47	-6.795901	38.98532	121.82	2.741301	-4.232528	0.97	1.262051	100	0	12	2.022588	-3.405599	14.51409	
22:36:48	-6.7959	38.98532	121.823	2.741301	-4.232528	0.18	1.262051	100	0	12	2.275595	-3.650422	14.43902	
22:36:48	-6.7959	38.98532	121.659	2.741301	-4.232528	0.81	1.262051	100	0	12	2.593511	-3.604196	14.35661	
22:36:48	-6.7959	38.98532	121.563	2.741301	-4.232528	0.82	1.262051	100	0	12	2.206349	-3.285402	14.32584	
22:36:48	-6.7959	38.98532	121.835	2.741301	-4.232528	0.74	1.262051	100	0	12	2.092827	-3.173398	14.29663	
22:36:48	-6.7959	38.98532	121.764	2.863635	0.08720651	0.63	5.450698E-13	100	0	12	2.911271	-3.206754	14.23407	
22:36:49	-6.795901	38.98532	121.548	2.863635	0.08720651	0.84	5.450698E-13	100	0	12	3.145006	-2.926373	14.15394	
22:36:49	-6.795901	38.98532	121.27	2.863635	0.08720651	0.68	5.450698E-13	100	0	12	2.403775	-2.698662	14.17226	
22:36:49	-6.795901	38.98532	121.069	2.863635	0.08720651	0.87	5.450698E-13	100	0	12	2.822426	-3.215389	14.10561	
22:36:49	-6.7959	38.98532	120.485	2.863635	0.08720651	0.71	5.450698E-13	100	0	12	3.389187	-3.287985	14.03641	
22:36:49	-6.7959	38.98532	120.145	2.760681	-6.602479	1.52	7.926108E-39	100	0	12	3.774369	-2.920179	13.98517	
22:36:50	-6.795901	38.98532	119.963	2.760681	-6.602479	0.76	7.926108E-39	100	0	12	3.554451	-2.46215	13.96	
22:36:50	-6.795901	38.98532	119.999	2.760681	-6.602479	0.61	7.926108E-39	100	0	12	2.943374	-2.143286	13.92565	
22:36:50	-6.795901	38.98532	120.078	2.760681	-6.602479	0.61	7.926108E-39	100	0	12	2.264717	-2.218851	13.93515	
22:36:50	-6.795899	38.98532	120.39	2.760681	-6.602479	0.84	7.926108E-39	100	0	12	1.696532	-2.309285	13.9929	
22:36:50	-6.795899	38.98532	120.439	2.612195	-13.08772	0.76	4.797596	100	0	12	1.531603	-1.659034	14.02346	
22:36:51	-6.795899	38.98532	120.41	2.612195	-13.08772	0.24	4.797596	100	0	12	2.403447	-1.341751	14.01575	
22:36:51	-6.795898	38.98532	119.939	2.612195	-13.08772	0.71	4.797596	100	0	12	3.032557	-1.638767	13.95712	
22:36:51	-6.795898	38.98532	120.347	2.612195	-13.08772	0.62	4.797596	100	0	12	2.575283	-1.221543	13.91162	
22:36:51	-6.795898	38.98532	120.311	2.612195	-13.08772	0.22	4.797596	100	0	12	2.492828	-1.227672	13.92648	
22:36:52	-6.795898	38.98532	120.34	2.532896	-12.72615	0.75	1.401298E-45	100	0	12	2.110287	-1.534928	13.92686	
22:36:52	-6.795897	38.98532	120.041	2.532896	-12.72615	0.41	1.401298E-45	100	0	12	2.494458	-1.667339	13.89651	
22:36:52	-6.795897	38.98532	119.893	2.532896	-12.72615	0.63	1.401298E-45	100	0	12	3.182043	-1.322113	13.86375	
22:36:52	-6.795896	38.98532	119.845	2.532896	-12.72615	0.61	1.401298E-45	100	0	12	3.069687	-1.436294	13.81964	
22:36:52	-6.795895	38.98532	120.04	2.532896	-12.72615	1.07	1.401298E-45	100	0	12	2.649415	-1.588344	13.7942	
22:36:53	-6.795895	38.98532	120.04	2.330692	-19.34409	0.48	1.401298E-45	100	0	12	3.541582	-1.379123	13.76567	
22:36:53	-6.795895	38.98532	120.04	2.330692	-19.34409	0.52	1.401298E-45	100	0	12	3.205674	-1.084159	13.72694	
22:36:53	-6.795895	38.98532	120.04	2.330692	-19.34409	0.48	1.401298E-45	100	0	12	2.920649	-0.3698548	13.7105	
22:36:53	-6.795895	38.98532	120.04	2.330692	-19.34409	1.51	1.401298E-45	100	0	12	2.941417	-0.4489264	13.66602	
22:36:53	-6.795895	38.98532	120.04	2.330692	-19.34409	1.13	1.401298E-45	100	0	12	3.852563	-0.8605549	13.61635	
22:36:54	-6.795895	38.98532	120.04	2.216852	-16.66684	0.57	3.171981E-12	100	0	12	3.644413	-0.8169063	13.55963	
22:36:54	-6.795895	38.98532	120.04	2.216852	-16.66684	0.42	3.171981E-12	100	0	12	2.621702	-0.3357543	13.53506	
22:36:54	-6.795895	38.98532	120.04	2.216852	-16.66684	0.83	3.171981E-12	100	0	12	3.314934	-0.3836102	13.53906	
22:36:54	-6.795895	38.98532	120.04	2.216852	-16.66684	0.32	3.171981E-12	100	0	12	3.857215	-0.780196	13.49643	
22:36:54	-6.795895	38.98532	120.04	2.216852	-16.66684	0.48	3.171981E-12	100	0	12	3.433841	-0.7023308	13.46936	
22:36:55	-6.795895	38.98532	120.04	2.363537	-4.703779	0.35	1.589125E-12	100	0	12	3.230256	-0.7760919	13.44649	
22:36:55	-6.795894	38.98532	121.236	2.363537	-4.703779	0.82	1.589125E-12	100	0	12	2.573555	-0.4738344	13.42779	
22:36:55	-6.795894	38.98532	121.366	2.363537	-4.703779	0.82	1.589125E-12	100	0	12	3.163406	-0.9363098	13.39858	
22:36:55	-6.795894	38.98532	121.366	2.363537	-4.703779	1.06	1.589125E-12	100	0	12	3.262432	-1.006401	13.36447	
22:36:55	-6.795891	38.98532	121.841	2.363537	-4.703779	1.06	1.589125E-12	100	0	12	3.553668	-0.8148155	13.32296	
22:36:56	-6.79589	38.98533	122.598	2.416816	-2.04701	1.06	7.650378E-24	100	0	12	3.52401	-0.6996232	13.30205	
22:36:56	-6.795889	38.98533	122.592	2.416816	-2.04701	0.28	7.650378E-24	100	0	12	3.37033	-0.5953488	13.25851	
22:36:56	-6.795889	38.98533	123.375	2.416816	-2.04701	0.18	7.650378E-24	100	0	12	2.727346	-0.1794726	13.2315	
22:36:56	-6.795889	38.98533	123.885	2.416816	-2.04701	0.48	7.650378E-24	100	0	12	2.424595	0.07745317	13.20366	
22:36:56	-6.795889	38.98533	124.158	2.416816	-2.04701	0.33	7.650378E-24	100	0	12	2.481258	0.5368294	13.20439	
22:36:57	-6.795888	38.98533	124.305	2.455395	0.8871906	0.95	7.458711E-33	100	0	12	2.247719	0.0337481	13.2083	
22:36:57	-6.795887	38.98532	124.951	2.455395	0.8871906	0.45	7.458711E-33	100	0	12	2.499483	-0.46125	13.20857	
22:36:57	-6.795887	38.98532	124.951	2.455395	0.8871906	0.45	7.458711E-33	100	0	12	1.578709	0.3394248	13.22526	
22:36:57	-6.795887	38.98532	124.697	2.455395	0.8871906	0.66	7.458711E-33	100	0	12	1.452713	0.2684563	13.25441	
22:36:57	-6.795886	38.98532	124.742	2.455395	0.8871906	0.39	7.458711E-33	100	0	12	1.029183	0.2858405	13.29236	
22:36:58	-6.795885	38.98532	124.625	2.642829	7.846567	0.66	1.401298E-45	100	0	12	1.851971	0.242603	13.33119	
22:36:58	-6.795885	38.98532	124.347	2.642829	7.846567	0.68	1.401298E-45	100	0	12	2.048427	0.07234854	13.37206	
22:36:58	-6.795885	38.98532	124.411	2.642829	7.846567	0.14	1.401298E-45	100	0	12	2.102906	0.3482408	13.38594	
22:36:58	-6.795885	38.98532	124.742	2.642829	7.846567	0.69	1.401298E-45	100	0	12	1.434576	0.7563529	13.41885	
22:36:58	-6.795885	38.98532	125.229	2.642829	7.846567	0.13	1.401298E-45	100	0	12	0.832589	0.8509483	13.43912	
22:36:59	-6.795885	38.98532	125.676	2.886666	16.04654	0.31	2.683997	100	0	12	1.864522	0.6447217	13.51136	
22:36:59	-6.795885	38.98532	126.271	2.886666	16.04654	0.04	2.683997	100	0	12	1.829615	0.852756	13.52541	
22:36:59	-6.795884	38.98532	127.815	2.886666	16.04654	1.05	2.683997	100	0	12	1.500645	0.5901696	13.52626	
22:36:59	-6.795884	38.98532	127.815	2.886666	16.04654	0.75	2.683997	100	0	12	0.851803	0.7682818	13.56091	
22:36:59	-6.795884	38.98532	128.279	2.886666	16.04654	0.75	2.683997	100	0	12	1.120911	0.8019347	13.6062	
22:37:00	-6.795885	38.98532	128.418	3.061068	17.20394	0.59	20.10709	100	0	12	1.213328	1.04646	13.62995	
22:37:00	-6.795886	38.98532	129.169	3.061068	17.20394	0.26	20.10709	100	0	12	1.544014	1.138386	13.63795	
22:37:00	-6.795886	38.98532	129.86	3.061068	17.20394	0.45	20.10709	100	0	12	1.673388	1.01543	13.65081	
22:37:00	-6.795886	38.98532	130.448	3.061068	17.20394	0.34	20.10709	100	0	12	1.245476	0.925653	13.65405	
22:37:00	-6.795887	38.98532	130.845	3.061068	17.20394	0.45	20.10709	100	0	12	1.266262	0.8366526	13.67273	
22:37:01	-6.795887	38.98531	131.69	2.89586	3.822479	0.58	24.19236	100	0	12	1.187107	1.112051	13.6891	
22:37:01	-6.795887	38.98531	131.69	2.89586	3.822479	0.58	24.19236	100	0	12	0.970973	1.1637	13.67829	
22:37:01	-6.795887	38.98531	133.095	2.89586	3.822479	1.71	24.19236	100	0	12	0.6593449	1.24098	13.72961	
22:37:01	-6.795887	38.98531	133.747	2.89586	3.822479	2.15	24.19236	100	0	12	-0.01164381	1.322086	13.76901	
22:37:01	-6.795887	38.98531	133.747	2.89586	3.822479	0.97	24.19236	100	0	12	-0.1365013	1.117103	13.83944	
22:37:02	-6.795887	38.98531	133.747	2.706452	-6.007898	0.75	21.98549	100	0	12	0.7692274	0.9710503	13.86748	
22:37:02	-6.795887	38.9853	135.238	2.706452	-6.007898	0.75	21.98549	100	0	12	0.9551184	1.085112	13.92556	
22:37:02	-6.795888	38.9853	135.724	2.706452	-6.007898	0.75	21.98549	100	0	12	0.8900647	1.098697	13.97559	
22:37:02	-6.795887	38.9853	136.289	2.706452	-6.007898	1.71	21.98549	100	0	12	0.536736	1.146238	14.0228	
22:37:02	-6.795887	38.98529	136.616	2.706452	-6.007898	1.71	21.98549	100	0	12	-0.08926959	1.216978	14.08921	
22:37:03	-6.795887	38.98529	136.857	2.685146	-4.252151	1.12	20.80016	100	0	12	0.1815753	0.7592459	14.18304	
22:37:03	-6.795886	38.98529	137.071	2.685146	-4.252151	0.72	20.80016	100	0	12	0.7993903	0.3904428	14.24092	
22:37:03	-6.795885	38.98529	136.628	2.685146	-4.252151	0.56	20.80016	100	0	12	1.186877	0.9370279	14.26615	
22:37:03	-6.795884	38.98529	136.006	2.685146	-4.252151	0.91	20.80016	100	0	12	1.214873	0.6669549	14.32053	
22:37:03	-6.795883	38.98529	135.654	2.685146	-4.252151	0.48	20.80016	100	0	12	1.222889	0.4929027	14.36758	
22:37:04	-6.795882	38.98529	135.385	2.537187	-7.893664	0.69	20.77815	100	0	12	1.261489	0.9847935	14.40016	
22:37:04	-6.795882	38.98529	135.354	2.537187	-7.893664	0.34	20.77815	100	0	12	1.227501	1.251169	14.43994	
22:37:04	-6.795882	38.98529	135.251	2.537187	-7.893664	0.58	20.77815	100	0	12	1.08502	1.142109	14.43792	
22:37:04	-6.795882	38.98529	135.407	2.537187	-7.893664	0.42	20.77815	100	0	12	1.353782	0.9246197	14.47787	
22:37:04	-6.795882	38.98529	135.725	2.537187	-7.893664	0.82	20.77815	100	0	12	1.132808	1.084954	14.50876	
22:37:05	-6.795882	38.98529	135.659	2.552539	-4.717396	0.07	21.50063	100	0	12	1.190153	1.002347	14.50098	
22:37:05	-6.795882	38.98529	136.467	2.552539	-4.717396	0.55	21.50063	100	0	12	1.503763	1.131797	14.51763	
22:37:05	-6.795882	38.98528	136.941	2.552539	-4.717396	1.13	21.50063	100	0	12	0.8655421	1.388556	14.48971	
22:37:05	-6.795882	38.98528	137.125	2.552539	-4.717396	0.69	21.50063	100	0	12	0.7359721	1.336149	14.49769	
22:37:06	-6.795882	38.98528	137.431	2.552539	-4.717396	0.09	21.50063	100	0	12	1.158429	0.9875293	14.53645	
22:37:06	-6.795882	38.98528	137.539	2.713801	3.366524	0.19	21.62287	100	0	12	1.18634	0.8351397	14.5404	
22:37:06	-6.795882	38.98528	137.539	2.713801	3.366524	0.71	21.62287	100	0	12	0.563966	0.9200648	14.54946	
22:37:06	-6.795882	38.98528	137.67	2.713801	3.366524	0.42	21.62287	100	0	12	0.6398818	1.155679	14.58716	
22:37:06	-6.795882	38.98528	138.163	2.713801	3.366524	0.66	21.62287	100	0	12	0.4914666	1.286219	14.57618	
22:37:07	-6.795883	38.98528	138.668	2.713801	3.366524	0.29	21.62287	100	0	12	1.03305	1.12731	14.62694	
22:37:07	-6.795885	38.98528	139.24	2.860195	9.307703	0.53	20.96556	100	0	12	1.996127	1.058124	14.64834	
22:37:07	-6.795885	38.98528	139.24	2.860195	9.307703	0.36	20.96556	100	0	12	1.883822	0.9555442	14.63463	
22:37:07	-6.795885	38.98528	139.24	2.860195	9.307703	0.26	20.96556	100	0	12	1.151436	1.032244	14.63871	
22:37:07	-6.795885	38.98528	139.24	2.860195	9.307703	0.93	20.96556	100	0	12	0.8885785	0.8122639	14.65689	
22:37:08	-6.795885	38.98529	139.924	2.860195	9.307703	0.93	20.96556	100	0	12	2.041411	0.58246	14.67765	
22:37:08	-6.795885	38.98529	139.868	2.761881	0.4969031	0.93	18.56222	100	0	12	2.284501	0.5428688	14.68396	
22:37:08	-6.795886	38.98529	139.971	2.761881	0.4969031	0.93	18.56222	100	0	12	2.194815	0.5587912	14.69928	
22:37:08	-6.795886	38.98529	139.749	2.761881	0.4969031	0.93	18.56222	100	0	12	2.073822	0.5895835	14.71773	
22:37:08	-6.795886	38.98529	139.648	2.761881	0.4969031	0.93	18.56222	100	0	12	1.955171	0.6345879	14.71785	
22:37:09	-6.795887	38.98529	139.473	2.761881	0.4969031	0.88	18.56222	100	0	12	1.841926	0.671965	14.65269	
22:37:09	-6.795887	38.98529	139.398	2.646683	-5.163691	1.04	8.126545	100	0	12	0.886236	1.302896	14.65486	
22:37:09	-6.795887	38.98529	138.983	2.646683	-5.163691	0.28	8.126545	100	0	12	2.183465	0.4016869	14.70811	
22:37:09	-6.795887	38.98529	138.979	2.646683	-5.163691	0.58	8.126545	100	0	12	1.542476	0.2673122	14.68713	
22:37:09	-6.795887	38.9853	138.814	2.646683	-5.163691	1.16	8.126545	100	0	12	1.943813	0.6538705	14.66031	
22:37:10	-6.795887	38.9853	138.654	2.646683	-5.163691	0.26	8.126545	100	0	12	2.755726	0.456569	14.62292	
22:37:10	-6.795887	38.9853	138.682	2.627355	-4.56522	0.24	14.94389	100	0	12	1.809263	0.7511719	14.5821	
22:37:10	-6.795887	38.9853	138.255	2.627355	-4.56522	0.22	14.94389	100	0	12	1.442272	0.666291	14.57401	
22:37:10	-6.795887	38.9853	138.454	2.627355	-4.56522	0.34	14.94389	100	0	12	1.454773	0.08529752	14.58184	
22:37:10	-6.795887	38.9853	138.588	2.627355	-4.56522	0.91	14.94389	100	0	12	1.374167	0.2986463	14.583	
22:37:11	-6.795886	38.9853	138.613	2.627355	-4.56522	1.04	14.94389	100	0	12	2.703453	-0.3160199	14.56856	
22:37:11	-6.795886	38.9853	138.372	2.624973	-2.456616	0.57	6.507271	100	0	12	2.40228	-0.5817134	14.53461	
22:37:11	-6.795886	38.9853	138.276	2.624973	-2.456616	0.58	6.507271	100	0	12	1.415999	0.1747732	14.53557	
22:37:11	-6.795885	38.9853	137.91	2.624973	-2.456616	0.08	6.507271	100	0	12	1.388839	0.2961484	14.57337	
22:37:11	-6.795884	38.9853	137.227	2.624973	-2.456616	0.48	6.507271	100	0	12	1.96677	-0.2664145	14.58815	
22:37:12	-6.795884	38.9853	137.04	2.624973	-2.456616	0.36	6.507271	100	0	12	2.17023	-0.465663	14.58226	
22:37:12	-6.795884	38.9853	136.97	2.547309	-4.794126	0.14	5.639351	100	0	12	2.146267	0.08101618	14.55591	
22:37:12	-6.795884	38.9853	136.672	2.547309	-4.794126	0.52	5.639351	100	0	12	1.824178	0.02664308	14.56025	
22:37:12	-6.795884	38.98531	137.216	2.547309	-4.794126	0.84	5.639351	100	0	12	2.039089	-0.4354583	14.58267	
22:37:12	-6.795884	38.98531	137.004	2.547309	-4.794126	0.11	5.639351	100	0	12	2.239567	-0.04420881	14.56075	
22:37:13	-6.795884	38.98531	137.004	2.547309	-4.794126	0.11	5.639351	100	0	12	1.269217	0.156725	14.57621	
22:37:13	-6.795884	38.98531	137.004	2.423571	-8.357387	0.11	10.32643	100	0	12	0.3188008	0.3419698	14.58851	
22:37:13	-6.795884	38.98531	137.077	2.423571	-8.357387	0.65	10.32643	100	0	12	-0.4268036	0.4701801	14.62296	
22:37:13	-6.795884	38.98531	137.327	2.423571	-8.357387	0.19	10.32643	100	0	12	-0.5102044	0.4043303	14.71156	
22:37:13	-6.795884	38.98531	137.327	2.423571	-8.357387	0.38	10.32643	100	0	12	-0.7506416	0.5121486	14.72987	
22:37:14	-6.795883	38.98531	136.886	2.423571	-8.357387	0.28	10.32643	100	0	12	-0.5050581	0.4780834	14.74088	
22:37:14	-6.795883	38.98531	136.988	2.449497	-3.168368	0.28	14.62988	100	0	12	-0.6786144	0.4646305	14.75829	
22:37:14	-6.795882	38.98531	136.797	2.449497	-3.168368	0.28	14.62988	100	0	12	-0.668202	0.4547065	14.82388	
22:37:14	-6.795882	38.98531	136.528	2.449497	-3.168368	0.62	14.62988	100	0	12	-0.4996904	0.3118645	14.87089	
22:37:14	-6.795882	38.98531	136.59	2.449497	-3.168368	0.22	14.62988	100	0	12	-0.2895249	0.3269239	14.89501	
22:37:15	-6.795882	38.98531	136.72	2.449497	-3.168368	0.61	14.62988	100	0	12	-0.6482111	0.6514976	14.92092	
22:37:15	-6.795882	38.98531	136.646	2.247358	-9.918827	0.38	20.92077	100	0	12	-0.418258	0.5575557	14.97441	
22:37:15	-6.795882	38.98531	136.476	2.247358	-9.918827	0.18	20.92077	100	0	12	0.1117231	0.5634454	15.00603	
22:37:15	-6.795882	38.98531	136.522	2.247358	-9.918827	0.39	20.92077	100	0	12	-0.3043579	0.5871469	15.02697	
22:37:15	-6.795882	38.98531	136.634	2.247358	-9.918827	0.45	20.92077	100	0	12	-0.2308353	0.5494464	15.06619	
22:37:16	-6.795883	38.98532	136.466	2.247358	-9.918827	1.33	20.92077	100	0	12	0.7306821	0.5325919	15.12913	
22:37:16	-6.795884	38.98532	136.518	2.306951	-2.168437	0.14	9.497909E-23	100	0	12	0.7304225	0.5993235	15.14154	
22:37:16	-6.795884	38.98532	136.565	2.306951	-2.168437	0.21	9.497909E-23	100	0	12	0.314876	0.7566199	15.12939	
22:37:16	-6.795885	38.98532	136.574	2.306951	-2.168437	0.21	9.497909E-23	100	0	12	0.3765639	0.6620812	15.10714	
22:37:16	-6.795886	38.98532	136.896	2.306951	-2.168437	0.55	9.497909E-23	100	0	12	0.298466	0.8653898	15.1214	
22:37:17	-6.795887	38.98532	137.083	2.306951	-2.168437	1.78	9.497909E-23	100	0	12	-0.4922909	1.161601	15.12925	
22:37:17	-6.795887	38.98531	137.143	2.385993	1.390789	0.25	1.920929	100	0	12	0.102901	0.7485919	15.19748	
22:37:17	-6.795887	38.98531	136.815	2.385993	1.390789	1.39	1.920929	100	0	12	-0.302288	0.6189904	15.22724	
22:37:17	-6.795887	38.98531	137.013	2.385993	1.390789	1.3	1.920929	100	0	12	-0.5956135	0.1647605	15.25181	
22:37:18	-6.795886	38.98531	137.18	2.385993	1.390789	0.26	1.920929	100	0	12	0.2717927	0.1441279	15.27326	
22:37:18	-6.795885	38.98531	136.992	2.385993	1.390789	0.37	1.920929	100	0	12	0.8779353	0.4020639	15.26613	
22:37:18	-6.795886	38.98531	136.814	2.548972	9.680448	0.61	1.401298E-45	100	0	12	0.462819	0.8335607	15.24853	
22:37:18	-6.795886	38.98531	136.814	2.548972	9.680448	0.61	1.401298E-45	100	0	12	-0.2685998	1.339908	15.22221	
22:37:18	-6.795886	38.98531	137.221	2.548972	9.680448	0.19	1.401298E-45	100	0	12	-0.3111704	1.243907	15.24616	
22:37:19	-6.795887	38.98531	137.934	2.548972	9.680448	0.42	1.401298E-45	100	0	12	-0.06053436	1.331822	15.29764	
22:37:19	-6.795887	38.98531	137.778	2.548972	9.680448	0.13	1.401298E-45	100	0	12	-0.349787	1.41719	15.30594	
22:37:19	-6.795887	38.98531	137.778	2.745971	13.83562	0.13	1.092911E-23	100	0	12	-0.3003692	1.233862	15.32557	
22:37:19	-6.795888	38.98531	137.663	2.745971	13.83562	0.06	1.092911E-23	100	0	12	-0.1636704	0.9606301	15.36114	
22:37:19	-6.795888	38.98531	137.663	2.745971	13.83562	0.09	1.092911E-23	100	0	12	-0.1780641	0.9174953	15.38695	
22:37:20	-6.795888	38.98531	137.663	2.745971	13.83562	0.44	1.092911E-23	100	0	12	-0.1627829	0.947116	15.41728	
22:37:20	-6.795888	38.98531	137.663	2.745971	13.83562	1.05	1.092911E-23	100	0	12	-0.627559	0.8309236	15.42819	
22:37:20	-6.795888	38.98531	137.663	2.851017	14.2357	0.36	1.401298E-45	100	0	12	-1.297542	0.5688902	15.46308	
22:37:20	-6.795888	38.98531	137.663	2.851017	14.2357	0.45	1.401298E-45	100	0	12	-0.8805642	0.8450074	15.52507	
22:37:20	-6.795888	38.98531	137.663	2.851017	14.2357	0.51	1.401298E-45	100	0	12	-0.7978152	0.8577024	15.57244	
22:37:21	-6.795887	38.98532	137.452	2.851017	14.2357	0.22	1.401298E-45	100	0	12	-0.003172766	0.3182776	15.58706	
22:37:21	-6.795887	38.98532	136.565	2.851017	14.2357	0.22	1.401298E-45	100	0	12	-0.09778247	0.5990222	15.55427	
22:37:21	-6.795887	38.98532	136.257	2.980282	15.26969	0.48	2.640007	100	0	12	-0.1429285	0.6598127	15.53444	
22:37:21	-6.795887	38.98532	136.168	2.980282	15.26969	0.48	2.640007	100	0	12	-0.3517118	0.3709378	15.54583	
22:37:21	-6.795887	38.98532	135.828	2.980282	15.26969	0.42	2.640007	100	0	12	-0.3836667	0.362574	15.57661	
22:37:22	-6.795887	38.98532	135.822	2.980282	15.26969	0.96	2.640007	100	0	12	0.3174419	0.3745166	15.60452	
22:37:22	-6.795888	38.98532	135.886	2.980282	15.26969	0.58	2.640007	100	0	12	0.9782606	0.7095302	15.59185	
22:37:22	-6.795888	38.98532	135.468	3.003866	10.64322	0.47	1.721568E-31	100	0	12	0.3616255	1.142988	15.57429	
22:37:22	-6.795888	38.98532	135.03	3.003866	10.64322	0.29	1.721568E-31	100	0	12	-0.2187805	0.9422036	15.56253	
22:37:22	-6.795887	38.98532	135.017	3.003866	10.64322	0.78	1.721568E-31	100	0	12	0.4965065	-0.1005161	15.59634	
22:37:23	-6.795887	38.98532	134.759	3.003866	10.64322	0.93	1.721568E-31	100	0	12	-0.3202834	-0.247392	15.58348	
22:37:23	-6.795887	38.98532	134.577	3.003866	10.64322	0.53	1.721568E-31	100	0	12	-0.6215845	0.278362	15.59158	
22:37:23	-6.795885	38.98532	134.167	2.852542	-0.02591995	0.39	1.920929	100	0	12	-0.1913523	0.1669896	15.62336	
22:37:23	-6.795885	38.98532	134.303	2.852542	-0.02591995	0.65	1.920929	100	0	12	0.5033399	-0.1705764	15.60879	
22:37:23	-6.795885	38.98532	134.287	2.852542	-0.02591995	0.61	1.920929	100	0	12	1.095082	0.05773744	15.58099	
22:37:24	-6.795885	38.98532	134.22	2.852542	-0.02591995	0.83	1.920929	100	0	12	1.032521	0.2389303	15.56909	
22:37:24	-6.795884	38.98532	133.97	2.852542	-0.02591995	0.33	1.920929	100	0	12	1.164878	0.182816	15.53486	
22:37:24	-6.795883	38.98532	133.622	2.66874	-8.168159	1.29	3.531945	100	0	12	0.2594259	-0.0449682	15.51223	
22:37:24	-6.795882	38.98532	133.313	2.66874	-8.168159	0.65	3.531945	100	0	12	-0.848016	-0.456589	15.51619	
22:37:24	-6.795882	38.98532	133.027	2.66874	-8.168159	0.41	3.531945	100	0	12	-0.1952156	-0.2508407	15.5382	
22:37:25	-6.795882	38.98532	132.71	2.66874	-8.168159	0.38	3.531945	100	0	12	-0.212384	0.3725836	15.54006	
22:37:25	-6.795882	38.98532	132.731	2.66874	-8.168159	0.14	3.531945	100	0	12	0.2308555	0.3587195	15.59698	
22:37:25	-6.795882	38.98532	132.38	2.645101	-4.986306	0.32	1.253585E-33	100	0	12	-0.3945413	0.2581406	15.58925	
22:37:25	-6.795882	38.98532	132.217	2.645101	-4.986306	0.55	1.253585E-33	100	0	12	-0.6104338	0.4523783	15.60929	
22:37:25	-6.795882	38.98532	132.106	2.645101	-4.986306	0.68	1.253585E-33	100	0	12	-0.7962907	0.3214314	15.67763	
22:37:26	-6.795883	38.98533	132.324	2.645101	-4.986306	0.79	1.253585E-33	100	0	12	0.005737308	0.1651069	15.70322	
22:37:26	-6.795883	38.98533	132.324	2.645101	-4.986306	0.79	1.253585E-33	100	0	12	0.1386699	0.8561527	15.73658	
22:37:26	-6.795883	38.98533	132.324	2.464526	-9.636268	0.79	0.6588787	100	0	12	0.2793673	1.544582	15.75338	
22:37:26	-6.795887	38.98533	131.611	2.464526	-9.636268	0.84	0.6588787	100	0	12	0.4035908	1.962905	15.7715	
22:37:26	-6.795887	38.98533	131.611	2.464526	-9.636268	0.19	0.6588787	100	0	12	0.2204309	1.857962	15.75801	
22:37:27	-6.795887	38.98533	131.611	2.464526	-9.636268	0.26	0.6588787	100	0	12	-0.5141631	1.788849	15.74532	
22:37:27	-6.795887	38.98533	131.486	2.464526	-9.636268	0.26	0.6588787	100	0	12	-0.8462123	1.737805	15.77748	
22:37:27	-6.795889	38.98533	131.49	2.451166	-5.758805	0.26	0.008919702	100	0	12	-0.8506238	1.692511	15.80355	
22:37:27	-6.79589	38.98533	131.423	2.451166	-5.758805	0.26	0.008919702	100	0	12	-0.8460873	1.629874	15.82453	
22:37:27	-6.795891	38.98534	131.204	2.451166	-5.758805	0.26	0.008919702	100	0	12	-0.8266442	1.569708	15.88024	
22:37:28	-6.795892	38.98534	131.293	2.451166	-5.758805	0.81	0.008919702	100	0	12	-0.5917245	1.845949	15.90967	
22:37:28	-6.795893	38.98534	131.049	2.451166	-5.758805	0.08	0.008919702	100	0	12	-0.431449	1.899241	15.92573	
22:37:28	-6.795893	38.98534	131.188	2.498637	-1.958785	0.37	8.332313E-20	100	0	12	-0.7366741	1.089505	15.88248	
22:37:28	-6.795892	38.98533	131.057	2.498637	-1.958785	0.51	8.332313E-20	100	0	12	-0.9504362	0.7692577	15.89292	
22:37:28	-6.795893	38.98534	130.966	2.498637	-1.958785	0.47	8.332313E-20	100	0	12	-0.7922059	0.8344362	15.90955	
22:37:29	-6.795893	38.98534	130.966	2.498637	-1.958785	0.12	8.332313E-20	100	0	12	-0.4187575	0.9143392	15.9379	
22:37:29	0	0	0	2.498637	-1.958785	0	8.332313E-20	100	0	12	-0.6861303	1.017211	15.96894	
22:37:29	0	0	0	2.04563	-128.8709	0	-1.17747E-05	100	0	12	-0.6535031	0.8770937	16.39552	
22:37:29	47.46364	-122.3077	0.02	2.04563	-128.8709	0	-1.17747E-05	100	0	12	-0.6642426	0.8688363	16.88371	
22:37:29	47.46364	-122.3077	0.02	2.04563	-128.8709	0	-1.17747E-05	100	0	12	-0.6470634	0.8653407	17.38984	
22:37:30	47.46364	-122.3077	0.02	2.04563	-128.8709	0	-1.17747E-05	100	0	12	-0.6199436	0.8819703	17.91971	
22:37:30	47.46364	-122.3077	0.02	2.04563	-128.8709	0	-1.17747E-05	100	0	12	-0.5901921	0.9228321	18.46425	
22:37:30	47.46364	-122.3077	0.02	-0.3036702	-168.5376	0	-1.17747E-05	100	0	12	-0.559063	0.9584753	19.01929	
22:37:30	47.46364	-122.3077	0.02	-0.3036702	-168.5376	0	-1.17747E-05	100	0	12	-0.5197037	0.9815634	19.60816	
22:37:30	47.46364	-122.3077	0.02	-0.3036702	-168.5376	0	-1.17747E-05	100	0	12	-0.4631776	0.9701961	20.23211	
22:37:31	47.46364	-122.3077	0.02	-0.3036702	-168.5376	0	-1.17747E-05	100	0	12	-0.4287407	0.9415689	20.877	
22:37:31	47.46364	-122.3077	0.02	-0.3036702	-168.5376	0	-1.17747E-05	100	0	12	-0.3992305	0.9162212	21.54629	
22:37:31	47.46364	-122.3077	0.02	-1.041398	-126.3496	0	-1.17747E-05	100	0	12	-0.3687761	0.9082798	22.24815	
22:37:31	47.46364	-122.3077	0.02	-1.041398	-126.3496	0	-1.17747E-05	100	0	12	-0.3386294	0.9073827	22.96015	
22:37:31	47.46364	-122.3077	0.02	-1.041398	-126.3496	0	-1.17747E-05	100	0	12	-0.3086579	0.9090017	23.73294	
22:37:32	47.46364	-122.3077	0.02	-1.041398	-126.3496	0	-1.17747E-05	100	0	12	-0.280243	0.9076927	24.508	
22:37:32	47.46364	-122.3077	0.02	-1.041398	-126.3496	0	-1.17747E-05	100	0	12	-0.2522164	0.8970376	25.31972	
22:37:32	47.46364	-122.3077	0.02	-0.9528995	-67.56356	0	-1.17747E-05	100	0	12	-0.2212367	0.8687994	26.23759	
22:37:32	47.46364	-122.3077	0.02	-0.9528995	-67.56356	0	-1.17747E-05	100	0	12	-0.1901503	0.8329484	27.22169	
22:37:33	47.46364	-122.3077	0.02	-0.9528995	-67.56356	0	-1.17747E-05	100	0	12	-0.1605394	0.7977733	28.22639	
22:37:33	47.46364	-122.3077	0.02	-0.9528995	-67.56356	0	-1.17747E-05	100	0	12	-0.1321395	0.7693783	29.27048	
22:37:33	47.46364	-122.3077	0.02	-0.9528995	-67.56356	0	-1.17747E-05	100	0	12	-0.1048349	0.7441898	30.36231	
22:37:33	47.46364	-122.3077	0.02	-0.5700132	-19.14584	0	-1.17747E-05	100	0	12	-0.07828274	0.7186508	31.49091	
22:37:33	47.46364	-122.3077	0.02	-0.5700132	-19.14584	0	-1.17747E-05	100	0	12	-0.05353888	0.6846587	32.67488	
22:37:34	47.46364	-122.3077	0.02	-0.5700132	-19.14584	0	-1.17747E-05	100	0	12	-0.03125388	0.6477539	33.86786	
22:37:34	47.46364	-122.3077	0.02	-0.5700132	-19.14584	0	-1.17747E-05	100	0	12	-0.009979127	0.6109031	35.07957	
22:37:34	47.46364	-122.3077	0.02	-0.5700132	-19.14584	0	-1.17747E-05	100	0	12	0.0092851	0.5761418	36.37716	
22:37:34	47.46364	-122.3077	0.02	-0.2012529	8.81736	0	-1.17747E-05	100	0	12	0.02916384	0.5468035	37.72494	
22:37:34	47.46364	-122.3077	0.02	-0.2012529	8.81736	0	-1.17747E-05	100	0	12	0.04652302	0.5218297	39.10998	
22:37:35	47.46364	-122.3077	0.02	-0.2012529	8.81736	0	-1.17747E-05	100	0	12	0.06299554	0.4963194	40.56499	
22:37:35	47.46364	-122.3077	0.02	-0.2012529	8.81736	0	-1.17747E-05	100	0	12	0.07907617	0.4688747	42.02655	
22:37:35	47.46364	-122.3077	0.02	-0.2012529	8.81736	0	-1.17747E-05	100	0	12	0.09466299	0.4390629	43.52266	
22:37:35	47.46364	-122.3077	0.02	0.04261608	19.88494	0	-1.17747E-05	100	0	12	0.1088146	0.4077582	45.10225	
22:37:35	47.46364	-122.3077	0.02	0.04261608	19.88494	0	-1.17747E-05	100	0	12	0.1218996	0.3780976	46.71674	
22:37:36	47.46364	-122.3077	0.02	0.04261608	19.88494	0	-1.17747E-05	100	0	12	0.1335054	0.3511359	48.37481	
22:37:36	47.46364	-122.3077	0.02	0.04261608	19.88494	0	-1.17747E-05	100	0	12	0.1436896	0.3250779	50.07436	
22:37:36	47.46364	-122.3077	0.02	0.04261608	19.88494	0	-1.17747E-05	100	0	12	0.1535592	0.299549	51.83217	
22:37:36	47.46364	-122.3077	0.02	0.1599253	20.73223	0	-1.17747E-05	100	0	12	0.1619769	0.2648158	53.62761	
22:37:36	47.46364	-122.3077	0.02	0.1599253	20.73223	0	-1.17747E-05	100	0	12	0.1691585	0.2554977	55.46256	
22:37:37	47.46364	-122.3077	0.02	0.1599253	20.73223	0	-1.17747E-05	100	0	12	0.1762722	0.2405102	57.38366	
22:37:37	47.46364	-122.3077	0.02	0.1599253	20.73223	0	-1.17747E-05	100	0	12	0.1824881	0.2157303	59.32732	
22:37:37	47.46364	-122.3077	0.02	0.1599253	20.73223	0	-1.17747E-05	100	0	12	0.1867333	0.1832952	61.30605	
22:37:37	47.46364	-122.3077	0.02	0.1892773	17.44262	0	-1.17747E-05	100	0	12	0.1901126	0.1523769	63.56094	
22:37:37	47.46364	-122.3077	0.02	0.1892773	17.44262	0	-1.17747E-05	100	0	12	0.1942587	0.1147204	66.00199	
22:37:38	47.46364	-122.3077	0.02	0.1892773	17.44262	0	-1.17747E-05	100	0	12	0.1965011	0.08655559	68.42486	
22:37:38	47.46364	-122.3077	0.02	0.1892773	17.44262	0	-1.17747E-05	100	0	12	0.197799	0.06532159	70.94528	
22:37:38	47.46364	-122.3077	0.02	0.1892773	17.44262	0	-1.17747E-05	100	0	12	0.1975501	0.04556002	73.48613	
22:37:38	47.46364	-122.3077	0.02	0.1740347	13.13487	0	-1.17747E-05	100	0	12	0.1969382	0.02509016	75.99775	
22:37:38	47.46364	-122.3077	0.02	0.1740347	13.13487	0	-1.17747E-05	100	0	12	0.194639	0.001813599	78.62402	
22:37:39	47.46364	-122.3077	0.02	0.1740347	13.13487	0	-1.17747E-05	100	0	12	0.1919143	-0.01735878	80.97858	
22:37:39	47.46364	-122.3077	0.02	0.1740347	13.13487	0	-1.17747E-05	100	0	12	0.188653	-0.03485852	82.85007	
22:37:39	47.46364	-122.3077	0.02	0.1740347	13.13487	0	-1.17747E-05	100	0	12	0.1839594	-0.05847542	85.20844	
22:37:39	47.46364	-122.3077	0.02	0.1444704	9.888783	0	-1.17747E-05	100	0	13	0.1764177	-0.08521849	87.91145	
22:37:39	47.46364	-122.3077	0.02	0.1444704	9.888783	0	-1.17747E-05	100	0	13	0.1693794	-0.1238206	90.59129	
22:37:40	47.46364	-122.3077	0.02	0.1444704	9.888783	0	-1.17747E-05	100	0	13	0.1618032	-0.1357727	93.15813	
22:37:40	47.46364	-122.3077	0.02	0.1444704	9.888783	0	-1.17747E-05	100	0	13	0.1541155	-0.1392411	95.87529	
22:37:40	47.46364	-122.3077	0.02	0.1444704	9.888783	0	-1.17747E-05	100	0	13	0.1449257	-0.156153	98.56287	
22:37:40	47.46364	-122.3077	0.02	0.1171968	7.591838	0	-1.17747E-05	100	0	12	0.1369515	-0.1709486	101.2698	
22:37:40	47.46364	-122.3077	0.02	0.1171968	7.591838	0	-1.17747E-05	100	0	12	0.1271901	-0.1850309	103.9381	
22:37:41	47.46364	-122.3077	0.02	0.1171968	7.591838	0	-1.17747E-05	100	0	12	0.1173764	-0.199507	106.5727	
22:37:41	47.46364	-122.3077	0.02	0.1171968	7.591838	0	-1.17747E-05	100	0	12	0.1098019	-0.2050211	109.145	
22:37:41	47.46364	-122.3077	0.02	0.1171968	7.591838	0	-1.17747E-05	100	0	12	0.1002338	-0.2132603	111.7645	
22:37:41	47.46364	-122.3077	0.02	0.09650509	6.234458	0	-1.17747E-05	100	0	12	0.09168159	-0.2251225	114.4117	
22:37:41	47.46364	-122.3077	0.02	0.09650509	6.234458	0	-1.17747E-05	100	0	12	0.08358918	-0.2364679	116.9798	
22:37:42	47.46364	-122.3077	0.02	0.09650509	6.234458	0	-1.17747E-05	100	0	12	0.0744157	-0.2465088	119.4977	
22:37:42	47.46364	-122.3077	0.02	0.09650509	6.234458	0	-1.17747E-05	100	0	12	0.06624922	-0.2494064	121.9147	
22:37:42	47.46364	-122.3077	0.02	0.09650509	6.234458	0	-1.17747E-05	100	0	12	0.05825782	-0.2443631	124.3338	
22:37:42	47.46364	-122.3077	0.02	0.08151744	5.318769	0	-1.17747E-05	100	0	12	0.05152459	-0.255866	126.7355	
22:37:42	47.46364	-122.3077	0.02	0.08151744	5.318769	0	-1.17747E-05	100	0	12	0.04052735	-0.2624854	129.593	
22:37:43	47.46364	-122.3077	0.02	0.08151744	5.318769	0	-1.17747E-05	100	0	12	0.03174494	-0.2695347	132.4199	
22:37:43	47.46364	-122.3077	0.02	0.08151744	5.318769	0	-1.17747E-05	100	0	12	0.02355517	-0.2760615	135.1263	
22:37:43	47.46364	-122.3077	0.02	0.08151744	5.318769	0	-1.17747E-05	100	0	12	0.01388565	-0.2845658	137.7512	
22:37:43	47.46364	-122.3077	0.02	0.07291561	4.942674	0	-1.17747E-05	100	0	12	0.0036999	-0.2923382	140.3457	
22:37:43	47.46364	-122.3077	0.02	0.07291561	4.942674	0	-1.17747E-05	100	0	12	-0.005544982	-0.2982024	142.8822	
22:37:44	47.46364	-122.3077	0.02	0.07291561	4.942674	0	-1.17747E-05	100	0	12	-0.01343947	-0.3023324	145.3221	
22:37:44	47.46364	-122.3077	0.02	0.07291561	4.942674	0	-1.17747E-05	100	0	12	-0.02190664	-0.3073296	147.7194	
22:37:44	47.46364	-122.3077	0.02	0.07291561	4.942674	0	-1.17747E-05	100	0	12	-0.02956278	-0.3097259	150.0063	
22:37:44	47.46364	-122.3077	0.02	0.06897227	4.898035	0	-1.17747E-05	100	0	12	-0.03623803	-0.3138371	152.2421	
22:37:44	47.46364	-122.3077	0.02	0.06897227	4.898035	0	-1.17747E-05	100	0	12	-0.04353471	-0.3203788	154.4333	
22:37:45	47.46364	-122.3077	0.02	0.06897227	4.898035	0	-1.17747E-05	100	0	12	-0.04963615	-0.3211263	156.536	
22:37:45	47.46364	-122.3077	0.02	0.06897227	4.898035	0	-1.17747E-05	100	0	12	-0.05560301	-0.3212617	158.431	
22:37:45	47.46364	-122.3077	0.02	0.06897227	4.898035	0	-1.17747E-05	100	0	12	-0.06025253	-0.3214635	160.0901	
22:37:45	47.46364	-122.3077	0.02	0.06769595	5.102007	0	-1.17747E-05	100	0	12	-0.06393263	-0.3217357	161.5752	
22:37:45	47.46364	-122.3077	0.02	0.06769595	5.102007	0	-1.17747E-05	100	0	12	-0.06690004	-0.3220696	162.9321	
22:37:46	47.46364	-122.3077	0.02	0.06769595	5.102007	0	-1.17747E-05	100	0	12	-0.06934401	-0.3224529	164.1944	
22:37:46	47.46364	-122.3077	0.02	0.06769595	5.102007	0	-1.17747E-05	100	0	12	-0.07087909	-0.3229938	165.8333	
22:37:46	47.46364	-122.3077	0.02	0.06769595	5.102007	0	-1.17747E-05	100	0	12	-0.07254443	-0.3240912	167.4906	
22:37:46	47.46364	-122.3077	0.02	0.06825566	4.883279	0	-1.17747E-05	100	0	12	-0.07367588	-0.3243533	169.1139	
22:37:46	47.46364	-122.3077	0.02	0.06825566	4.883279	0	-1.17747E-05	100	0	12	-0.07402726	-0.3266828	170.6111	
22:37:47	47.46364	-122.3077	0.02	0.06825566	4.883279	0	-1.17747E-05	100	0	12	-0.07395852	-0.3273474	172.1004	
22:37:47	47.46364	-122.3077	0.02	0.06825566	4.883279	0	-1.17747E-05	100	0	12	-0.0740286	-0.3270311	173.5301	
22:37:47	47.46364	-122.3077	0.02	0.06825566	4.883279	0	-1.17747E-05	100	0	12	-0.07445133	-0.3266811	174.8921	
22:37:47	47.46364	-122.3077	0.02	0.06501287	4.492383	0	-1.17747E-05	100	0	12	-0.07585084	-0.3262782	176.2686	
22:37:47	47.46364	-122.3077	0.02	0.06501287	4.492383	0	-1.17747E-05	100	0	12	-0.07729647	-0.3255612	177.8362	
22:37:48	47.46364	-122.3077	0.02	0.06501287	4.492383	0	-1.17747E-05	100	0	12	-0.07670104	-0.3193184	179.3585	
22:37:48	47.46364	-122.3077	0.02	0.06501287	4.492383	0	-1.17747E-05	100	0	12	-0.07508751	-0.3092354	-179.1709	
22:37:48	47.46364	-122.3077	0.02	0.06501287	4.492383	0	-1.17747E-05	100	0	12	-0.07551296	-0.3099215	-177.7778	
22:37:48	47.46364	-122.3077	0.02	0.06041845	3.751647	0	-1.17747E-05	100	0	12	-0.07493547	-0.310818	-176.4366	
22:37:48	47.46364	-122.3077	0.02	0.06041845	3.751647	0	-1.17747E-05	100	0	12	-0.07348214	-0.3101229	-175.155	
22:37:49	47.46364	-122.3077	0.02	0.06041845	3.751647	0	-1.17747E-05	100	0	12	-0.07239761	-0.3098826	-173.9113	
22:37:49	47.46364	-122.3077	0.02	0.06041845	3.751647	0	-1.17747E-05	100	0	12	-0.07139771	-0.3097849	-172.7257	
22:37:49	47.46364	-122.3077	0.02	0.06041845	3.751647	0	-1.17747E-05	100	0	12	-0.07055432	-0.3099319	-171.5772	
22:37:49	47.46364	-122.3077	0.02	0.05494269	3.373497	0	-1.17747E-05	100	0	12	-0.06872489	-0.316009	-170.4667	
22:37:49	47.46364	-122.3077	0.02	0.05494269	3.373497	0	-1.17747E-05	100	0	12	-0.06760287	-0.3158355	-169.3946	
22:37:50	47.46364	-122.3077	0.02	0.05494269	3.373497	0	-1.17747E-05	100	0	12	-0.06499452	-0.3168398	-168.381	
22:37:50	47.46364	-122.3077	0.02	0.05494269	3.373497	0	-1.17747E-05	100	0	12	-0.06313682	-0.3178993	-167.3819	
22:37:50	47.46364	-122.3077	0.02	0.05494269	3.373497	0	-1.17747E-05	100	0	12	-0.06048261	-0.3164204	-166.4378	
22:37:50	47.46364	-122.3077	0.02	0.05259231	3.286212	0	-1.17747E-05	100	0	12	-0.05949567	-0.3255817	-165.4565	
22:37:50	47.46364	-122.3077	0.02	0.05259231	3.286212	0	-1.17747E-05	100	0	12	-0.05908385	-0.3347244	-164.3969	
22:37:51	47.46364	-122.3077	0.02	0.05259231	3.286212	0	-1.17747E-05	100	0	12	-0.05915903	-0.343769	-163.289	
22:37:51	47.46364	-122.3077	0.02	0.05259231	3.286212	0	-1.17747E-05	100	0	12	-0.05965232	-0.3528112	-162.1358	
22:37:51	47.46364	-122.3077	0.02	0.05259231	3.286212	0	-1.17747E-05	100	0	12	-0.06050551	-0.3617639	-160.9591	
22:37:51	47.46364	-122.3077	0.02	0.04980686	2.89631	0	-1.17747E-05	100	0	12	-0.06168608	-0.370717	-159.7549	
22:37:51	47.46364	-122.3077	0.02	0.04980686	2.89631	0	-1.17747E-05	100	0	12	-0.06315118	-0.3795803	-158.5408	
22:37:52	47.46364	-122.3077	0.02	0.04980686	2.89631	0	-1.17747E-05	100	0	12	-0.06488211	-0.3883962	-157.3149	
22:37:52	47.46364	-122.3077	0.02	0.04980686	2.89631	0	-1.17747E-05	100	0	12	-0.06687066	-0.397206	-156.0743	
22:37:52	47.46364	-122.3077	0.02	0.04980686	2.89631	0	-1.17747E-05	100	0	12	-0.06908274	-0.4059188	-154.8334	
22:37:52	47.46364	-122.3077	0.02	0.04980968	2.881989	0	-1.17747E-05	100	0	12	-0.0715291	-0.4146184	-153.5817	
22:37:52	47.46364	-122.3077	0.02	0.04980968	2.881989	0	-1.17747E-05	100	0	12	-0.07419045	-0.4232577	-152.3264	
22:37:53	47.46364	-122.3077	0.02	0.04980968	2.881989	0	-1.17747E-05	100	0	12	-0.07704454	-0.43179	-151.0748	
22:37:53	47.46364	-122.3077	0.02	0.04980968	2.881989	0	-1.17747E-05	100	0	12	-0.07997943	-0.4393526	-149.8151	
22:37:53	47.46364	-122.3077	0.02	0.04980968	2.881989	0	-1.17747E-05	100	0	12	-0.07051434	-0.4396843	-149.5169	
22:37:53	47.46364	-122.3077	0.02	0.04868408	2.901531	0	-1.17747E-05	100	0	12	-0.06462888	-0.4361293	-149.1691	
22:37:53	47.46364	-122.3077	0.02	0.04868408	2.901531	0	-1.17747E-05	100	0	12	-0.06081677	-0.4278716	-148.7787	
22:37:54	47.46364	-122.3077	0.02	0.04868408	2.901531	0	-1.17747E-05	100	0	12	-0.05517061	-0.4190665	-148.5074	
22:37:54	47.46364	-122.3077	0.02	0.04868408	2.901531	0	-1.17747E-05	100	0	12	-0.04957746	-0.4107761	-148.16	
22:37:54	47.46364	-122.3077	0.02	0.04868408	2.901531	0	-1.17747E-05	100	0	12	-0.04564894	-0.4023573	-147.5765	
22:37:54	47.46364	-122.3077	0.02	0.0491924	3.388318	0	-1.17747E-05	100	0	12	-0.04283907	-0.3937939	-146.8136	
22:37:54	47.46364	-122.3077	0.02	0.0491924	3.388318	0	-1.17747E-05	100	0	12	-0.04081057	-0.3852097	-145.9248	
22:37:55	47.46364	-122.3077	0.02	0.0491924	3.388318	0	-1.17747E-05	100	0	12	-0.03927399	-0.3765428	-144.9358	
22:37:55	47.46364	-122.3077	0.02	0.0491924	3.388318	0	-1.17747E-05	100	0	12	-0.03804896	-0.3678513	-143.8756	
22:37:55	47.46364	-122.3077	0.02	0.0491924	3.388318	0	-1.17747E-05	100	0	12	-0.03699934	-0.3591896	-142.7689	
22:37:55	47.46364	-122.3077	0.02	0.05082107	3.639875	0	-1.17747E-05	100	0	12	-0.03601944	-0.350523	-141.6239	
22:37:55	47.46364	-122.3077	0.02	0.05082107	3.639875	0	-1.17747E-05	100	0	12	-0.03503695	-0.3418584	-140.4506	
22:37:56	47.46364	-122.3077	0.02	0.05082107	3.639875	0	-1.17747E-05	100	0	12	-0.03399971	-0.3332019	-139.2564	
22:37:56	47.46364	-122.3077	0.02	0.05082107	3.639875	0	-1.17747E-05	100	0	12	-0.03285803	-0.3244727	-138.0349	
22:37:56	47.46364	-122.3077	0.02	0.05082107	3.639875	0	-1.17747E-05	100	0	12	-0.03160793	-0.315849	-136.8141	
22:37:56	47.46364	-122.3077	0.02	0.05082341	3.627074	0	-1.17747E-05	100	0	12	-0.03021224	-0.307206	-135.5788	
22:37:56	47.46364	-122.3077	0.02	0.05082341	3.627074	0	-1.17747E-05	100	0	12	-0.0286714	-0.2986345	-134.3434	
22:37:57	47.46364	-122.3077	0.02	0.05082341	3.627074	0	-1.17747E-05	100	0	12	-0.02696051	-0.2900534	-133.0974	
22:37:57	47.46364	-122.3077	0.02	0.05082341	3.627074	0	-1.17747E-05	100	0	12	-0.02509008	-0.2815523	-131.8541	
22:37:57	47.46364	-122.3077	0.02	0.05082341	3.627074	0	-1.17747E-05	100	0	12	-0.02304757	-0.2730929	-130.6084	
22:37:57	47.46364	-122.3077	0.02	0.05082083	3.633918	0	-1.17747E-05	100	0	12	-0.02081867	-0.2646374	-129.3547	
22:37:57	47.46364	-122.3077	0.02	0.05082083	3.633918	0	-1.17747E-05	100	0	12	-0.0184115	-0.2562323	-128.0996	
22:37:58	47.46364	-122.3077	0.02	0.05082083	3.633918	0	-1.17747E-05	100	0	12	-0.01583855	-0.2479232	-126.8498	
22:37:58	47.46364	-122.3077	0.02	0.05082083	3.633918	0	-1.17747E-05	100	0	12	-0.01307395	-0.239631	-125.5929	
22:37:58	47.46364	-122.3077	0.02	0.05082083	3.633918	0	-1.17747E-05	100	0	12	-0.0101455	-0.2314424	-124.3418	
22:37:58	47.46364	-122.3077	0.02	0.05082357	3.619812	0	-1.17747E-05	100	0	12	-0.007024602	-0.2232792	-123.084	
22:37:58	47.46364	-122.3077	0.02	0.05082357	3.619812	0	-1.17747E-05	100	0	12	-0.003743399	-0.2152269	-121.8322	
22:37:59	47.46364	-122.3077	0.02	0.05082357	3.619812	0	-1.17747E-05	100	0	12	-3.076637E-05	0.0001161402	-3.118216E-11	
22:37:59	47.46364	-122.3077	0.02	0.05082357	3.619812	0	-1.17747E-05	100	0	12	-3.076637E-05	0.0001161402	-3.118216E-11	
22:37:59	47.46364	-122.3077	0.02	0.05082357	3.619812	0	-1.17747E-05	100	0	12	-3.076637E-05	0.0001161402	-3.118216E-11	
22:37:59	47.46364	-122.3077	0.02	0.05082079	3.627168	0	-1.17747E-05	100	0	12	-3.076637E-05	0.0001161402	-3.118216E-11	
22:37:59	47.46364	-122.3077	0.02	0.05082079	3.627168	0	-1.17747E-05	100	0	12	-3.076637E-05	0.0001161402	-3.118216E-11	
22:38:00	47.46364	-122.3077	0.02	0.05082079	3.627168	0	-1.17747E-05	100	0	12	0.03704496	-0.08314979	-0.9075811	
22:38:00	47.46364	-122.3077	0.02	0.05082079	3.627168	0	-1.17747E-05	100	0	12	0.08883279	-0.2039283	-2.394985	
22:38:00	47.46364	-122.3077	0.02	0.05082079	3.627168	0	-1.17747E-05	100	0	12	0.1487838	-0.2938907	-4.405181	
22:38:00	47.46364	-122.3077	0.02	0.05257001	3.512894	0	-1.17747E-05	100	0	12	0.1692505	-0.3043225	-7.38996	
22:38:00	47.46364	-122.3077	0.02	0.05257001	3.512894	0	-1.17747E-05	100	0	12	0.1545552	-0.2383166	-11.33526	
22:38:01	47.46364	-122.3077	0.02	0.05257001	3.512894	0	-1.17747E-05	100	0	12	0.1196468	-0.1474598	-15.87125	
22:38:01	47.46364	-122.3077	0.02	0.05257001	3.512894	0	-1.17747E-05	100	0	12	0.07091139	-0.05017187	-22.61791	
22:38:01	47.46364	-122.3077	0.02	0.05257001	3.512894	0	-1.17747E-05	100	0	12	0.02245042	0.00871928	-31.36519	
22:38:01	47.46364	-122.3077	0.02	0.04971562	2.713435	0	-1.17747E-05	100	0	12	-0.02219749	0.02845107	-42.62634	
22:38:02	47.46364	-122.3077	0.02	0.04971562	2.713435	0	-1.17747E-05	100	0	12	-0.04444931	0.008494631	-56.04844	
22:38:02	47.46364	-122.3077	0.02	0.04971562	2.713435	0	-1.17747E-05	100	0	12	-0.04231779	-0.02204495	-72.11951	
22:38:02	47.46364	-122.3077	0.02	0.04971562	2.713435	0	-1.17747E-05	100	0	12	-0.02424859	-0.04812738	-88.77538	
22:38:02	47.46364	-122.3077	0.02	0.04971562	2.713435	0	-1.17747E-05	100	0	12	0.004466522	-0.0503217	-106.1502	
22:38:02	47.46364	-122.3077	0.02	0.04449018	2.323805	0	-1.17747E-05	100	0	12	0.02488944	-0.03600452	-122.0501	
22:38:03	47.46364	-122.3077	0.02	0.04449018	2.323805	0	-1.17747E-05	100	0	12	0.02954764	-0.01670673	-135.5063	
22:38:03	47.46364	-122.3077	0.02	0.04449018	2.323805	0	-1.17747E-05	100	0	12	0.0248933	-0.002677118	-146.2203	
22:38:03	47.46364	-122.3077	0.02	0.04449018	2.323805	0	-1.17747E-05	100	0	12	0.01711227	0.005598863	-154.2502	
22:38:03	47.46364	-122.3077	0.02	0.04449018	2.323805	0	-1.17747E-05	100	0	12	0.009248328	0.004946898	-160.2279	
22:38:03	47.46364	-122.3077	0.02	0.04205962	2.255963	0	-1.17747E-05	100	0	12	0.004647862	-0.0008391504	-164.5838	
22:38:04	47.46364	-122.3077	0.02	0.04205962	2.255963	0	-1.17747E-05	100	0	12	0.00193485	-0.006168603	-167.7635	
22:38:04	47.46364	-122.3077	0.02	0.04205962	2.255963	0	-1.17747E-05	100	0	12	0.001400229	-0.01151764	-170.0399	
22:38:04	47.46364	-122.3077	0.02	0.04205962	2.255963	0	-1.17747E-05	100	0	12	0.002533463	-0.01491235	-171.6656	
22:38:04	47.46364	-122.3077	0.02	0.04205962	2.255963	0	-1.17747E-05	100	0	12	0.00382757	-0.0172285	-172.8347	
22:38:04	47.46364	-122.3077	0.02	0.04083369	2.263275	0	-1.17747E-05	100	0	12	0.005700728	-0.01705216	-173.6812	
22:38:05	47.46364	-122.3077	0.02	0.04083369	2.263275	0	-1.17747E-05	100	0	12	0.006380675	-0.01515066	-174.2927	
22:38:05	47.46364	-122.3077	0.02	0.04083369	2.263275	0	-1.17747E-05	100	0	12	0.007771567	-0.008498169	-174.8842	
22:38:05	47.46364	-122.3077	0.02	0.04083369	2.263275	0	-1.17747E-05	100	0	12	0.008012067	-0.007374886	-175.3659	
22:38:05	47.46364	-122.3077	0.02	0.04083369	2.263275	0	-1.17747E-05	100	0	12	0.006348596	-0.007631552	-175.7152	
22:38:05	47.46364	-122.3077	0.02	0.04068302	2.129697	0	-1.17747E-05	100	0	12	0.004459647	-0.006056914	-175.9745	
22:38:06	47.46364	-122.3077	0.02	0.04068302	2.129697	0	-1.17747E-05	100	0	12	0.003751747	-0.008560386	-176.1528	
22:38:06	47.46364	-122.3077	0.02	0.04068302	2.129697	0	-1.17747E-05	100	0	12	0.004022178	-0.01018506	-176.2815	
22:38:06	47.46364	-122.3077	0.02	0.04068302	2.129697	0	-1.17747E-05	100	0	12	0.007056116	-0.01132951	-176.3765	
22:38:06	47.46364	-122.3077	0.02	0.04068302	2.129697	0	-1.17747E-05	100	0	12	0.007478823	-0.01229315	-176.4497	
22:38:06	47.46364	-122.3077	0.02	0.03783403	1.664772	0	-1.17747E-05	100	0	12	0.007312723	-0.01382188	-176.4975	
22:38:07	47.46364	-122.3077	0.02	0.03783403	1.664772	0	-1.17747E-05	100	0	12	0.006715017	-0.002926814	-176.5294	
22:38:07	47.46364	-122.3077	0.02	0.03783403	1.664772	0	-1.17747E-05	100	0	12	0.005552029	0.004071579	-176.5538	
22:38:07	47.46364	-122.3077	0.02	0.03783403	1.664772	0	-1.17747E-05	100	0	12	0.005625496	0.0008128003	-176.5697	
22:38:07	47.46364	-122.3077	0.02	0.03783403	1.664772	0	-1.17747E-05	100	0	12	0.006051606	-0.002976734	-176.5816	
22:38:07	47.46364	-122.3077	0.02	0.03420478	1.349291	0	-1.17747E-05	100	0	12	0.006485428	-0.009427391	-176.5909	
22:38:08	47.46364	-122.3077	0.02	0.03420478	1.349291	0	-1.17747E-05	100	0	12	0.006346127	-0.01391506	-176.6018	
22:38:08	47.46364	-122.3077	0.02	0.03420478	1.349291	0	-1.17747E-05	100	0	12	0.00545116	-0.01668722	-176.6075	
22:38:08	47.46364	-122.3077	0.02	0.03420478	1.349291	0	-1.17747E-05	100	0	12	0.004741413	-0.0172518	-176.6301	
22:38:08	47.46364	-122.3077	0.02	0.03420478	1.349291	0	-1.17747E-05	100	0	12	0.004528317	-0.01756232	-176.6231	
22:38:08	47.46364	-122.3077	0.02	0.03331074	1.50863	0	-1.17747E-05	100	0	12	0.005235645	-0.01841555	-176.6153	
22:38:09	47.46364	-122.3077	0.02	0.03331074	1.50863	0	-1.17747E-05	100	0	12	0.006174132	-0.01714423	-176.6107	
22:38:09	47.46364	-122.3077	0.02	0.03331074	1.50863	0	-1.17747E-05	100	0	12	0.005710506	-0.01569859	-176.6095	
22:38:09	47.46364	-122.3077	0.02	0.03331074	1.50863	0	-1.17747E-05	100	0	12	0.005740249	-0.01478364	-176.6198	
22:38:09	47.46364	-122.3077	0.02	0.03331074	1.50863	0	-1.17747E-05	100	0	12	0.006082235	-0.01602586	-176.6163	
22:38:09	47.46364	-122.3077	0.02	0.03263275	1.526655	0	-1.17747E-05	100	0	12	0.006115912	-0.01337721	-176.6138	
22:38:10	47.46364	-122.3077	0.02	0.03263275	1.526655	0	-1.17747E-05	100	0	12	0.005176164	0.005658286	-176.612	
22:38:10	47.46364	-122.3077	0.02	0.03263275	1.526655	0	-1.17747E-05	100	0	12	0.004899252	0.009677066	-176.6065	
22:38:10	47.46364	-122.3077	0.02	0.03263275	1.526655	0	-1.17747E-05	100	0	12	0.005693051	-0.004970565	-176.6026	
22:38:10	47.46364	-122.3077	0.02	0.03263275	1.526655	0	-1.17747E-05	100	0	12	0.005463408	-0.002854437	-176.6011	
22:38:10	47.46364	-122.3077	0.02	0.03371485	1.692041	0	-1.17747E-05	100	0	12	0.004337777	-0.008671812	-176.5948	
22:38:11	47.46364	-122.3077	0.02	0.03371485	1.692041	0	-1.17747E-05	100	0	12	0.004807753	-0.00952285	-176.5914	
22:38:11	47.46364	-122.3077	0.02	0.03371485	1.692041	0	-1.17747E-05	100	0	12	0.005382601	-0.0101949	-176.5885	
22:38:11	47.46364	-122.3077	0.02	0.03371485	1.692041	0	-1.17747E-05	100	0	12	0.005777245	-0.01096694	-176.5886	
22:38:11	47.46364	-122.3077	0.02	0.03371485	1.692041	0	-1.17747E-05	100	0	12	0.005513039	-0.01074672	-176.5893	
22:38:11	47.46364	-122.3077	0.02	0.03324227	1.308119	0	-1.17747E-05	100	0	12	0.005174438	-0.019451	-176.5845	
22:38:12	47.46364	-122.3077	0.02	0.03324227	1.308119	0	-1.17747E-05	100	0	12	0.005808197	-0.02168822	-176.5864	
22:38:12	47.46364	-122.3077	0.02	0.03324227	1.308119	0	-1.17747E-05	100	0	12	0.006111001	-0.01955491	-176.5814	
22:38:12	47.46364	-122.3077	0.02	0.03324227	1.308119	0	-1.17747E-05	100	0	12	0.006259957	-0.0168854	-176.5878	
22:38:12	47.46364	-122.3077	0.02	0.03324227	1.308119	0	-1.17747E-05	100	0	12	0.005841787	-0.0125042	-176.5875	
22:38:12	47.46364	-122.3077	0.02	0.03059093	0.9800914	0	-1.17747E-05	100	0	12	0.005768498	-0.007640615	-176.5903	
22:38:13	47.46364	-122.3077	0.02	0.03059093	0.9800914	0	-1.17747E-05	100	0	12	0.006078878	-0.006115673	-176.5858	
22:38:13	47.46364	-122.3077	0.02	0.03059093	0.9800914	0	-1.17747E-05	100	0	12	0.00632969	-0.008341204	-176.5831	
22:38:13	47.46364	-122.3077	0.02	0.03059093	0.9800914	0	-1.17747E-05	100	0	12	0.004953907	-0.009491426	-176.5824	
22:38:13	47.46364	-122.3077	0.02	0.03059093	0.9800914	0	-1.17747E-05	100	0	12	0.003729754	-0.01143138	-176.5808	
22:38:13	47.46364	-122.3077	0.02	0.02822636	0.8027802	0	-1.17747E-05	100	0	12	0.004623611	-0.009158758	-176.5855	
22:38:14	47.46364	-122.3077	0.02	0.02822636	0.8027802	0	-1.17747E-05	100	0	12	0.00678869	-0.007445257	-176.5849	
22:38:14	47.46364	-122.3077	0.02	0.02822636	0.8027802	0	-1.17747E-05	100	0	12	0.006793182	-0.009536347	-176.5835	
22:38:14	47.46364	-122.3077	0.02	0.02822636	0.8027802	0	-1.17747E-05	100	0	12	0.00643819	-0.008468955	-176.5838	
22:38:14	47.46364	-122.3077	0.02	0.02822636	0.8027802	0	-1.17747E-05	100	0	12	0.005506231	-0.007560406	-176.5825	
22:38:14	47.46364	-122.3077	0.02	0.02675644	0.8075568	0	-1.17747E-05	100	0	12	0.005309164	-0.01199547	-176.5842	
22:38:15	47.46364	-122.3077	0.02	0.02675644	0.8075568	0	-1.17747E-05	100	0	12	0.005637713	-0.01152756	-176.6385	
22:38:15	47.46364	-122.3077	0.02	0.02675644	0.8075568	0	-1.17747E-05	100	0	12	0.006352273	-0.01518218	-176.8586	
22:38:15	47.46364	-122.3077	0.02	0.02675644	0.8075568	0	-1.17747E-05	100	0	12	0.00801182	-0.01640997	-177.0685	
22:38:15	47.46364	-122.3077	0.02	0.02675644	0.8075568	0	-1.17747E-05	100	0	12	0.009322395	-0.0185444	-177.2747	
22:38:15	47.46364	-122.3077	0.02	0.02793377	1.120787	0	-1.17747E-05	100	0	12	0.01120534	-0.02689019	-177.4691	
22:38:16	47.46364	-122.3077	0.02	0.02793377	1.120787	0	-1.17747E-05	100	0	12	0.01151729	-0.02863548	-177.6572	
22:38:16	47.46364	-122.3077	0.02	0.02793377	1.120787	0	-1.17747E-05	100	0	12	0.01283306	-0.01855382	-177.8396	
22:38:16	47.46364	-122.3077	0.02	0.02793377	1.120787	0	-1.17747E-05	100	0	12	0.01421784	-0.00753241	-178.0156	
22:38:16	47.46364	-122.3077	0.02	0.02793377	1.120787	0	-1.17747E-05	100	0	12	0.01587413	-0.0150862	-178.1803	
22:38:16	47.46364	-122.3077	0.02	0.02788433	0.8203082	0	-1.17747E-05	100	0	12	0.01760839	-0.0168186	-178.3389	
22:38:17	47.46364	-122.3077	0.02	0.02788433	0.8203082	0	-1.17747E-05	100	0	12	0.01709853	-0.03216191	-178.4971	
22:38:17	47.46364	-122.3077	0.02	0.02788433	0.8203082	0	-1.17747E-05	100	0	12	0.01832986	-0.03517855	-178.6564	
22:38:17	47.46364	-122.3077	0.02	0.02788433	0.8203082	0	-1.17747E-05	100	0	12	0.01956348	-0.03716015	-178.797	
22:38:17	47.46364	-122.3077	0.02	0.02788433	0.8203082	0	-1.17747E-05	100	0	12	0.01982836	-0.04169727	-178.9364	
22:38:17	47.46364	-122.3077	0.02	0.02604343	0.6218185	0	-1.17747E-05	100	0	12	0.02098687	-0.04083367	-179.0722	
22:38:18	47.46364	-122.3077	0.02	0.02604343	0.6218185	0	-1.17747E-05	100	0	12	0.02113316	-0.05427398	-179.199	
22:38:18	47.46364	-122.3077	0.02	0.02604343	0.6218185	0	-1.17747E-05	100	0	12	0.02188961	-0.06238171	-179.3209	
22:38:18	47.46364	-122.3077	0.02	0.02604343	0.6218185	0	-1.17747E-05	100	0	12	0.02231593	-0.05301581	-179.4368	
22:38:18	47.46364	-122.3077	0.02	0.02604343	0.6218185	0	-1.17747E-05	100	0	12	0.02315369	-0.04818884	-179.5492	
22:38:18	47.46364	-122.3077	0.02	0.02500109	0.7758347	0	-1.17747E-05	100	0	12	0.02369446	-0.05053863	-179.6647	
22:38:19	47.46364	-122.3077	0.02	0.02500109	0.7758347	0	-1.17747E-05	100	0	12	0.02449391	-0.05398839	-179.7691	
22:38:19	47.46364	-122.3077	0.02	0.02500109	0.7758347	0	-1.17747E-05	100	0	12	0.02461077	-0.05162116	-179.8792	
22:38:19	47.46364	-122.3077	0.02	0.02500109	0.7758347	0	-1.17747E-05	100	0	12	0.0256425	-0.05411137	-179.9798	
22:38:19	47.46364	-122.3077	0.02	0.02500109	0.7758347	0	-1.17747E-05	100	0	12	0.02660131	-0.05474443	179.9281	
22:38:19	47.46364	-122.3077	0.02	0.0254704	0.9511583	0	-1.17747E-05	100	0	12	0.02747017	-0.06406294	179.837	
22:38:20	47.46364	-122.3077	0.02	0.0254704	0.9511583	0	-1.17747E-05	100	0	12	0.0274686	-0.05641214	179.7553	
22:38:20	47.46364	-122.3077	0.02	0.0254704	0.9511583	0	-1.17747E-05	100	0	12	0.02544353	-0.04553343	179.7005	
22:38:20	47.46364	-122.3077	0.02	0.0254704	0.9511583	0	-1.17747E-05	100	0	12	0.0264594	-0.05204156	179.6455	
22:38:20	47.46364	-122.3077	0.02	0.0254704	0.9511583	0	-1.17747E-05	100	0	12	0.02699306	-0.0563571	179.5925	
22:38:20	47.46364	-122.3077	0.02	0.02729382	1.005186	0	-1.17747E-05	100	0	12	0.0292196	-0.06118413	179.5484	
