Date	Latitude(deg) 	Longitude(deg)	hamsl(m)	hafl(m)	climbrate(cm/s)	GroundSpeed(m/s)	Airspeed(m/s)	Mav_Link(%)	Rssi_Link(%)	Throttle	Roll(deg)	Pitch(deg)	Yaw(deg)
16:48:59	0	0	0	0	0	0	0	100	0	0	-1.511988	1.149915	116.8399	
16:48:59	0	0	0	0	0	0	0	100	0	0	-1.529492	1.103776	116.7616	
16:48:59	0	0	0	-0.6006505	-19.2661	0	3	100	0	50	-1.523281	1.062821	116.8013	
16:48:59	0	0	0	-0.6006505	-19.2661	0	3	100	0	50	-1.511725	1.048198	116.7853	
16:48:59	0	0	0	-0.6006505	-19.2661	0	3	100	0	50	-1.478635	1.061551	116.8885	
16:49:00	0	0	0	-0.6006505	-19.2661	0	3	100	0	50	-1.46499	1.080539	116.911	
16:49:00	0	0	0	-0.6006505	-19.2661	0	3	100	0	50	-1.478618	1.097312	116.9612	
16:49:00	0	0	0	-0.8998435	-18.56772	0	3	100	0	50	-1.48037	1.083465	116.9063	
16:49:00	0	0	0	-0.8998435	-18.56772	0	3	100	0	50	-1.456783	1.10539	116.9648	
16:49:00	0	0	0	-0.8998435	-18.56772	0	3	100	0	50	-1.425449	1.063599	116.9584	
16:49:01	0	0	0	-0.8998435	-18.56772	0	3	100	0	50	-1.426076	1.054721	117.0365	
16:49:01	0	0	0	-0.8998435	-18.56772	0	3	100	0	50	-1.413089	1.056771	117.0024	
16:49:01	0	0	0	-0.2287271	18.78743	0	3	100	0	50	-1.403327	1.041974	116.9393	
16:49:01	0	0	0	-0.2287271	18.78743	0	3	100	0	50	-1.426096	1.015355	116.8755	
16:49:01	0	0	0	-0.2287271	18.78743	0	3	100	0	50	-1.473402	0.9958925	116.7721	
16:49:02	0	0	0	-0.2287271	18.78743	0	3	100	0	50	-1.524257	0.9927406	116.7942	
16:49:02	0	0	0	-0.2287271	18.78743	0	3	100	0	50	-1.531775	1.003714	116.9281	
16:49:02	0	0	0	-0.1414246	14.76833	0	3	100	0	50	-1.533849	1.003737	117.0576	
16:49:02	0	0	0	-0.1414246	14.76833	0	3	100	0	50	-1.536117	1.008615	117.1973	
16:49:02	0	0	0	-0.1414246	14.76833	0	3	100	0	50	-1.538846	1.010588	117.3152	
16:49:03	0	0	0	-0.1414246	14.76833	0	3	100	0	50	-1.543695	1.038815	117.4413	
16:49:03	0	0	0	-0.1414246	14.76833	0	3	100	0	50	-1.531663	1.038889	117.5433	
16:49:03	0	0	0	-0.05026511	11.88404	0	3	100	0	50	-1.538666	1.049303	117.6552	
16:49:03	0	0	0	-0.05026511	11.88404	0	3	100	0	50	-1.538939	1.050326	117.763	
16:49:03	0	0	0	-0.05026511	11.88404	0	3	100	0	50	-1.531743	1.026878	117.8735	
16:49:04	0	0	0	-0.05026511	11.88404	0	3	100	0	50	-1.536539	1.022259	117.9652	
16:49:04	0	0	0	-0.05026511	11.88404	0	3	100	0	50	-1.546712	1.028405	118.0795	
16:49:04	0	0	0	-0.06208808	7.332092	0	3	100	0	50	-1.560823	1.033459	118.158	
16:49:04	0	0	0	-0.06208808	7.332092	0	3	100	0	50	-1.565806	1.024736	118.2339	
16:49:04	0	0	0	-0.06208808	7.332092	0	3	100	0	50	-1.583588	1.000405	118.3156	
16:49:05	0	0	0	-0.06208808	7.332092	0	3	100	0	50	-1.601622	1.005536	118.4025	
16:49:05	0	0	0	-0.06208808	7.332092	0	3	100	0	50	-1.610087	0.9993494	118.4594	
16:49:05	0	0	0	-0.2647243	-4.869828	0	3	100	0	50	-1.624969	0.9946064	118.538	
16:49:05	0	0	0	-0.2647243	-4.869828	0	3	100	0	50	-1.643906	0.9996121	118.5945	
16:49:05	0	0	0	-0.2647243	-4.869828	0	3	100	0	50	-1.650589	0.9911001	118.6598	
16:49:06	0	0	0	-0.2647243	-4.869828	0	3	100	0	50	-1.643388	0.9895179	118.7148	
16:49:06	0	0	0	-0.2647243	-4.869828	0	3	100	0	50	-1.641007	0.9920809	118.7862	
16:49:06	0	0	0	-0.5637564	-15.31573	0	3	100	0	50	-1.636602	0.9864967	118.8443	
16:49:06	0	0	0	-0.5637564	-15.31573	0	3	100	0	50	-1.640275	0.9846258	118.9029	
16:49:06	0	0	0	-0.5637564	-15.31573	0	3	100	0	50	-1.638539	0.9853391	118.9445	
16:49:07	0	0	0	-0.5637564	-15.31573	0	3	100	0	50	-1.63862	0.9911253	119	
16:49:07	0	0	0	-0.5637564	-15.31573	0	3	100	0	50	-1.643612	0.9994295	119.0544	
16:49:07	0	0	0	-0.2976709	3.136406	0	3	100	0	50	-1.649418	1.001673	119.1237	
16:49:07	0	0	0	-0.2976709	3.136406	0	3	100	0	50	-1.64277	1.000952	119.1525	
16:49:07	0	0	0	-0.2976709	3.136406	0	3	100	0	50	-1.643902	0.990948	119.1995	
16:49:08	0	0	0	-0.2976709	3.136406	0	3	100	0	50	-1.634371	0.9808349	119.2335	
16:49:08	0	0	0	-0.2976709	3.136406	0	3	100	0	50	-1.632361	0.9666869	119.2751	
16:49:08	0	0	0	-0.1902052	6.329206	0	3	100	0	50	-1.624353	0.956392	119.3081	
16:49:08	0	0	0	-0.1902052	6.329206	0	3	100	0	50	-1.625527	0.953665	119.3437	
16:49:08	0	0	0	-0.1902052	6.329206	0	3	100	0	50	-1.629833	0.9479727	119.3587	
16:49:09	0	0	0	-0.1902052	6.329206	0	3	100	0	50	-1.636895	0.9535233	119.3874	
16:49:09	0	0	0	-0.1902052	6.329206	0	3	100	0	50	-1.637997	0.9404312	119.391	
16:49:09	0	0	0	-0.5517769	-12.30653	0	3	100	0	50	-1.637217	0.9245762	119.4122	
16:49:09	0	0	0	-0.5517769	-12.30653	0	3	100	0	50	-1.638977	0.9250541	119.431	
16:49:09	0	0	0	-0.5517769	-12.30653	0	3	100	0	50	-1.640347	0.9249947	119.4514	
16:49:10	0	0	0	-0.5517769	-12.30653	0	3	100	0	50	-1.638454	0.9424095	119.4427	
16:49:10	0	0	0	-0.5517769	-12.30653	0	3	100	0	50	-1.634454	0.9348627	119.4526	
16:49:10	0	0	0	-0.5591421	-7.854218	0	3	100	0	50	-1.639316	0.9426761	119.4447	
16:49:10	0	0	0	-0.5591421	-7.854218	0	3	100	0	50	-1.65168	0.9397039	119.4517	
16:49:10	0	0	0	-0.5591421	-7.854218	0	3	100	0	50	-1.647227	0.9244218	119.4572	
16:49:11	0	0	0	-0.5591421	-7.854218	0	3	100	0	50	-1.635929	0.918887	119.4679	
16:49:11	0	0	0	-0.5591421	-7.854218	0	3	100	0	50	-1.636774	0.9106282	119.4501	
16:49:11	0	0	0	-0.748599	-15.21192	0	3	100	0	50	-1.63433	0.8941399	119.4603	
16:49:11	0	0	0	-0.748599	-15.21192	0	3	100	0	50	-1.639362	0.8751268	119.4435	
16:49:11	0	0	0	-0.748599	-15.21192	0	3	100	0	50	-1.638347	0.8616895	119.4482	
16:49:12	0	0	0	-0.748599	-15.21192	0	3	100	0	50	-1.641552	0.855413	119.4649	
16:49:12	0	0	0	-0.748599	-15.21192	0	3	100	0	50	-1.641701	0.8670132	119.4692	
16:49:12	0	0	0	-0.7847196	-10.84278	0	3	100	0	50	-1.641649	0.8716361	119.4538	
16:49:12	0	0	0	-0.7847196	-10.84278	0	3	100	0	50	-1.638477	0.8674796	119.4707	
16:49:12	0	0	0	-0.7847196	-10.84278	0	3	100	0	50	-1.65197	0.8482265	119.4683	
16:49:13	0	0	0	-0.7847196	-10.84278	0	3	100	0	50	-1.644264	0.8449677	119.4861	
16:49:13	0	0	0	-0.7847196	-10.84278	0	3	100	0	50	-1.639616	0.8377659	119.4864	
16:49:13	0	0	0	-0.6675045	-1.534074	0	3	100	0	50	-1.634605	0.8670615	119.4857	
16:49:13	0	0	0	-0.6675045	-1.534074	0	3	100	0	50	-1.63098	0.8808966	119.4968	
16:49:13	0	0	0	-0.6675045	-1.534074	0	3	100	0	50	-1.628711	0.8768256	119.5174	
16:49:14	0	0	0	-0.6675045	-1.534074	0	3	100	0	50	-1.613533	0.8658683	119.4776	
16:49:14	0	0	0	-0.6675045	-1.534074	0	3	100	0	50	-1.614036	0.865228	119.4565	
16:49:14	0	0	0	-0.6181056	2.754773	0	3	100	0	50	-1.610116	0.8564628	119.4135	
16:49:14	0	0	0	-0.6181056	2.754773	0	3	100	0	50	-1.620111	0.8476114	119.3811	
16:49:14	0	0	0	-0.6181056	2.754773	0	3	100	0	50	-1.623953	0.8502319	119.3538	
16:49:15	0	0	0	-0.6181056	2.754773	0	3	100	0	50	-1.622947	0.8604246	119.3386	
16:49:15	0	0	0	-0.6181056	2.754773	0	3	100	0	50	-1.629661	0.8557188	119.2978	
16:49:15	0	0	0	-0.5747863	3.43093	0	3	100	0	50	-1.632266	0.8695626	119.2711	
16:49:15	0	0	0	-0.5747863	3.43093	0	3	100	0	50	-1.624892	0.8886049	119.2425	
16:49:16	0	0	0	-0.5747863	3.43093	0	3	100	0	50	-1.631608	0.8886174	119.2303	
16:49:16	0	0	0	-0.5747863	3.43093	0	3	100	0	50	-1.610484	0.8864582	119.2107	
16:49:16	0	0	0	-0.5747863	3.43093	0	3	100	0	50	-1.608379	0.905026	119.193	
16:49:16	0	0	0	-0.4623308	6.116896	0	3	100	0	50	-1.61439	0.9114835	119.1708	
16:49:16	0	0	0	-0.4623308	6.116896	0	3	100	0	50	-1.612296	0.9239323	119.1605	
16:49:17	0	0	0	-0.4623308	6.116896	0	3	100	0	50	-1.604122	0.9235719	119.1404	
16:49:17	0	0	0	-0.4623308	6.116896	0	3	100	0	50	-1.604973	0.9460204	119.1354	
16:49:17	0	0	0	-0.4623308	6.116896	0	3	100	0	50	-1.602345	0.9379733	119.0955	
16:49:17	0	0	0	-0.2829006	12.44116	0	3	100	0	50	-1.611459	0.9338226	119.0944	
16:49:17	0	0	0	-0.2829006	12.44116	0	3	100	0	50	-1.614965	0.9327264	119.1038	
16:49:18	0	0	0	-0.2829006	12.44116	0	3	100	0	50	-1.618633	0.945471	119.1164	
16:49:18	0	0	0	-0.2829006	12.44116	0	3	100	0	50	-1.616639	0.9423305	119.1226	
16:49:18	0	0	0	-0.2829006	12.44116	0	3	100	0	50	-1.61526	0.9633333	119.1162	
16:49:18	0	0	0	-0.03073772	18.3091	0	3	100	0	50	-1.617789	0.969534	119.0926	
16:49:18	0	0	0	-0.03073772	18.3091	0	3	100	0	50	-1.620486	0.9974937	119.0745	
16:49:19	0	0	0	-0.03073772	18.3091	0	3	100	0	50	-1.626859	0.9806387	119.0617	
16:49:19	0	0	0	-0.03073772	18.3091	0	3	100	0	50	-1.627973	0.9734916	119.0272	
16:49:19	0	0	0	-0.03073772	18.3091	0	3	100	0	50	-1.612992	0.9879936	119.0012	
16:49:19	0	0	0	-0.1691968	5.055389	0	3	100	0	50	-1.595899	0.9886615	118.9604	
16:49:19	0	0	0	-0.1691968	5.055389	0	3	100	0	50	-1.601723	0.9576813	118.9178	
16:49:20	0	0	0	-0.1691968	5.055389	0	3	100	0	50	-1.599485	0.9556078	118.8777	
16:49:20	0	0	0	-0.1691968	5.055389	0	3	100	0	50	-1.597515	0.9514679	118.8503	
16:49:20	0	0	0	-0.1691968	5.055389	0	3	100	0	50	-1.588752	0.9486237	118.8068	
16:49:20	0	0	0	-0.4113013	-7.788364	0	3	100	0	50	-1.601851	0.951103	118.7726	
16:49:20	0	0	0	-0.4113013	-7.788364	0	3	100	0	50	-1.60824	0.9420094	118.7345	
16:49:21	0	0	0	-0.4113013	-7.788364	0	3	100	0	50	-1.606584	0.9630036	118.6992	
16:49:21	0	0	0	-0.4113013	-7.788364	0	3	100	0	50	-1.58929	0.9543664	118.676	
16:49:21	0	0	0	-0.4113013	-7.788364	0	3	100	0	50	-1.589959	0.9595169	118.66	
16:49:21	0	0	0	-0.544467	-11.24672	0	3	100	0	50	-1.592359	0.9626075	118.6385	
16:49:21	0	0	0	-0.544467	-11.24672	0	3	100	0	50	-1.589621	0.9617912	118.6168	
16:49:22	0	0	0	-0.544467	-11.24672	0	3	100	0	50	-1.586049	0.9865276	118.616	
16:49:22	0	0	0	-0.544467	-11.24672	0	3	100	0	50	-1.584444	0.9680634	118.5933	
16:49:22	0	0	0	-0.544467	-11.24672	0	3	100	0	50	-1.582393	0.9537379	118.5791	
16:49:22	0	0	0	-0.7456324	-14.94442	0	3	100	0	50	-1.589163	0.9689769	118.5509	
16:49:22	0	0	0	-0.7456324	-14.94442	0	3	100	0	50	-1.586879	0.9747581	118.5429	
16:49:23	0	0	0	-0.7456324	-14.94442	0	3	100	0	50	-1.589018	0.9762943	118.5287	
16:49:23	0	0	0	-0.7456324	-14.94442	0	3	100	0	50	-1.583159	0.9739224	118.5077	
16:49:23	0	0	0	-0.7456324	-14.94442	0	3	100	0	50	-1.59361	0.9783633	118.5087	
16:49:23	0	0	0	-0.6165984	-2.449126	0	3	100	0	50	-1.593048	0.9726411	118.4902	
16:49:23	0	0	0	-0.6165984	-2.449126	0	3	100	0	50	-1.595178	0.9719759	118.4608	
16:49:24	0	0	0	-0.6165984	-2.449126	0	3	100	0	50	-1.588857	0.9887915	118.4431	
16:49:24	0	0	0	-0.6165984	-2.449126	0	3	100	0	50	-1.583068	0.9803663	118.4362	
16:49:24	0	0	0	-0.6165984	-2.449126	0	3	100	0	50	-1.568705	1.00404	118.4059	
16:49:24	0	0	0	-0.4093398	8.212373	0	3	100	0	50	-1.560851	1.007632	118.3874	
16:49:24	0	0	0	-0.4093398	8.212373	0	3	100	0	50	-1.567118	1.006662	118.3412	
16:49:25	0	0	0	-0.4093398	8.212373	0	3	100	0	50	-1.569345	0.9813122	118.3067	
16:49:25	0	0	0	-0.4093398	8.212373	0	3	100	0	50	-1.572185	0.9909872	118.2765	
16:49:25	0	0	0	-0.4093398	8.212373	0	3	100	0	50	-1.568393	0.9985376	118.2334	
16:49:25	0	0	0	-0.436094	1.931738	0	3	100	0	50	-1.556412	1.010078	118.2215	
16:49:25	0	0	0	-0.436094	1.931738	0	3	100	0	50	-1.553356	0.9967786	118.1905	
16:49:26	0	0	0	-0.436094	1.931738	0	3	100	0	50	-1.547464	1.003003	118.1568	
16:49:26	0	0	0	-0.436094	1.931738	0	3	100	0	50	-1.560551	0.9849858	118.1297	
16:49:26	0	0	0	-0.436094	1.931738	0	3	100	0	50	-1.556184	1.006554	118.0964	
16:49:26	0	0	0	-0.5408903	-2.780332	0	3	100	0	50	-1.556573	0.9894642	118.0758	
16:49:26	0	0	0	-0.5408903	-2.780332	0	3	100	0	50	-1.554532	0.9613528	118.0357	
16:49:27	0	0	0	-0.5408903	-2.780332	0	3	100	0	50	-1.554798	0.9908015	118.01	
16:49:27	0	0	0	-0.5408903	-2.780332	0	3	100	0	50	-1.553204	0.9984292	117.987	
16:49:27	0	0	0	-0.5408903	-2.780332	0	3	100	0	50	-1.548407	0.9808055	117.966	
16:49:27	0	0	0	-0.5057973	1.135019	0	3	100	0	50	-1.547422	0.9726799	117.9459	
16:49:27	0	0	0	-0.5057973	1.135019	0	3	100	0	50	-1.540661	0.9589978	117.9419	
16:49:28	0	0	0	-0.5057973	1.135019	0	3	100	0	50	-1.540168	0.9580617	117.9237	
16:49:28	0	0	0	-0.5057973	1.135019	0	3	100	0	50	-1.529317	0.9709771	117.9109	
16:49:28	0	0	0	-0.5057973	1.135019	0	3	100	0	50	-1.541022	0.9773175	117.898	
16:49:28	0	0	0	-0.5121961	0.3319675	0	3	100	0	50	-1.540785	0.979592	117.8754	
16:49:28	0	0	0	-0.5121961	0.3319675	0	3	100	0	50	-1.535787	1.001308	117.8438	
16:49:29	0	0	0	-0.5121961	0.3319675	0	3	100	0	50	-1.52357	1.004057	117.8245	
16:49:29	0	0	0	-0.5121961	0.3319675	0	3	100	0	50	-1.521753	1.001094	117.8053	
16:49:29	0	0	0	-0.5121961	0.3319675	0	3	100	0	50	-1.51589	1.008234	117.7738	
16:49:29	0	0	0	-0.690643	-7.703275	0	3	100	0	50	-1.517706	1.01738	117.7418	
16:49:29	0	0	0	-0.690643	-7.703275	0	3	100	0	50	-1.517566	1.015628	117.704	
16:49:30	0	0	0	-0.690643	-7.703275	0	3	100	0	50	-1.517657	1.010997	117.6643	
16:49:30	0	0	0	-0.690643	-7.703275	0	3	100	0	50	-1.510764	0.9992913	117.6486	
16:49:30	0	0	0	-0.690643	-7.703275	0	3	100	0	50	-1.504283	0.9926133	117.6161	
16:49:30	0	0	0	-0.6636243	-3.746116	0	3	100	0	50	-1.514233	0.9827638	117.5946	
16:49:30	0	0	0	-0.6636243	-3.746116	0	3	100	0	50	-1.512479	0.9909721	117.5703	
16:49:31	0	0	0	-0.6636243	-3.746116	0	3	100	0	50	-1.521565	0.968751	117.546	
16:49:31	0	0	0	-0.6636243	-3.746116	0	3	100	0	50	-1.514135	0.9863787	117.5276	
16:49:31	0	0	0	-0.6636243	-3.746116	0	3	100	0	50	-1.513554	0.9792778	117.4952	
16:49:31	0	0	0	-0.4706876	7.189755	0	3	100	0	50	-1.519992	0.9833957	117.464	
16:49:31	0	0	0	-0.4706876	7.189755	0	3	100	0	50	-1.524211	0.9927577	117.4431	
16:49:32	0	0	0	-0.4706876	7.189755	0	3	100	0	50	-1.531427	0.9846986	117.4264	
16:49:32	0	0	0	-0.4706876	7.189755	0	3	100	0	50	-1.529646	0.9830891	117.4063	
16:49:32	0	0	0	-0.4706876	7.189755	0	3	100	0	50	-1.532659	0.9730142	117.3772	
16:49:32	0	0	0	-0.7308933	-7.465336	0	3	100	0	50	-1.542943	0.9704385	117.3676	
16:49:32	0	0	0	-0.7308933	-7.465336	0	3	100	0	50	-1.546967	0.9565225	117.3334	
16:49:33	0	0	0	-0.7308933	-7.465336	0	3	100	0	50	-1.54358	0.951504	117.314	
16:49:33	0	0	0	-0.7308933	-7.465336	0	3	100	0	50	-1.533736	0.9645035	117.2924	
16:49:33	0	0	0	-0.7308933	-7.465336	0	3	100	0	50	-1.527528	0.9746737	117.2905	
16:49:33	0	0	0	-0.8699821	-10.99651	0	3	100	0	50	-1.527041	1.00307	117.2636	
16:49:33	0	0	0	-0.8699821	-10.99651	0	3	100	0	50	-1.52864	1.015636	117.253	
16:49:34	0	0	0	-0.8699821	-10.99651	0	3	100	0	50	-1.525517	1.022293	117.2404	
16:49:34	0	0	0	-0.8699821	-10.99651	0	3	100	0	50	-1.531111	1.01725	117.236	
16:49:34	0	0	0	-0.8699821	-10.99651	0	3	100	0	50	-1.530916	1.028926	117.2084	
16:49:34	0	0	0	-0.8633897	-6.617179	0	3	100	0	50	-1.537392	1.049892	117.1902	
16:49:34	0	0	0	-0.8633897	-6.617179	0	3	100	0	50	-1.532536	1.053186	117.1641	
16:49:35	0	0	0	-0.8633897	-6.617179	0	3	100	0	50	-1.53423	1.06116	117.1569	
16:49:35	0	0	0	-0.8633897	-6.617179	0	3	100	0	50	-1.526804	1.069286	117.1474	
16:49:35	0	0	0	-0.8633897	-6.617179	0	3	100	0	50	-1.537405	1.060234	117.1478	
16:49:35	0	0	0	-0.5965374	8.94248	0	3	100	0	50	-1.549046	1.039334	117.1247	
16:49:35	0	0	0	-0.5965374	8.94248	0	3	100	0	50	-1.560192	1.022245	117.1247	
16:49:36	0	0	0	-0.5965374	8.94248	0	3	100	0	50	-1.562976	1.015643	117.106	
16:49:36	0	0	0	-0.5965374	8.94248	0	3	100	0	50	-1.561018	1.003429	117.0916	
16:49:36	0	0	0	-0.5965374	8.94248	0	3	100	0	50	-1.562741	1.005761	117.0747	
16:49:36	0	0	0	-0.8110913	-4.497645	0	3	100	0	50	-1.560271	0.9865149	117.0555	
16:49:36	0	0	0	-0.8110913	-4.497645	0	3	100	0	50	-1.567462	0.972392	117.0332	
16:49:37	0	0	0	-0.8110913	-4.497645	0	3	100	0	50	-1.561799	0.9936468	117.0392	
16:49:37	0	0	0	-0.8110913	-4.497645	0	3	100	0	50	-1.558774	0.9966076	117.0209	
16:49:37	0	0	0	-0.8110913	-4.497645	0	3	100	0	50	-1.554312	0.9888942	116.9984	
16:49:37	0	0	0	-0.6841133	4.526957	0	3	100	0	50	-1.539477	0.9934807	116.9841	
16:49:37	0	0	0	-0.6841133	4.526957	0	3	100	0	50	-1.522846	1.001613	116.9797	
16:49:38	0	0	0	-0.6841133	4.526957	0	3	100	0	50	-1.512469	1.02019	116.958	
16:49:38	0	0	0	-0.6841133	4.526957	0	3	100	0	50	-1.51581	1.034117	116.9621	
16:49:38	0	0	0	-0.6841133	4.526957	0	3	100	0	50	-1.511477	1.039393	116.9574	
16:49:38	0	0	0	-0.405456	14.54488	0	3	100	0	50	-1.499472	1.035952	116.9572	
16:49:38	0	0	0	-0.405456	14.54488	0	3	100	0	50	-1.491327	1.031022	116.937	
16:49:39	0	0	0	-0.405456	14.54488	0	3	100	0	50	-1.492525	1.003776	116.9349	
16:49:39	0	0	0	-0.405456	14.54488	0	3	100	0	50	-1.476334	1.015867	116.9249	
16:49:39	0	0	0	-0.405456	14.54488	0	3	100	0	50	-1.464386	0.987633	116.9152	
16:49:39	0	0	0	-0.3782404	9.284271	0	3	100	0	50	-1.464952	0.9924158	116.8968	
16:49:39	0	0	0	-0.3782404	9.284271	0	3	100	0	50	-1.461069	0.9932848	116.8847	
16:49:40	0	0	0	-0.3782404	9.284271	0	3	100	0	50	-1.463356	0.995657	116.8543	
16:49:40	0	0	0	-0.3782404	9.284271	0	3	100	0	50	-1.468257	1.004217	116.8489	
16:49:40	0	0	0	-0.3782404	9.284271	0	3	100	0	50	-1.467818	0.9978182	116.8292	
16:49:40	0	0	0	-0.4700017	1.012597	0	3	100	0	50	-1.467201	0.9927097	116.8395	
16:49:40	0	0	0	-0.4700017	1.012597	0	3	100	0	50	-1.467404	0.9880347	116.865	
16:49:41	0	0	0	-0.4700017	1.012597	0	3	100	0	50	-1.471178	0.9956352	116.8672	
16:49:41	0	0	0	-0.4700017	1.012597	0	3	100	0	50	-1.480203	1.013548	116.8642	
16:49:41	0	0	0	-0.4700017	1.012597	0	3	100	0	50	-1.4809	1.026217	116.8561	
16:49:41	0	0	0	-0.4967414	0.604176	0	3	100	0	50	-1.486878	1.029894	116.854	
16:49:41	0	0	0	-0.4967414	0.604176	0	3	100	0	50	-1.499201	1.035234	116.8398	
16:49:42	0	0	0	-0.4967414	0.604176	0	3	100	0	50	-1.50142	1.024724	116.8256	
16:49:42	0	0	0	-0.4967414	0.604176	0	3	100	0	50	-1.499629	1.029529	116.8174	
16:49:42	0	0	0	-0.4967414	0.604176	0	3	100	0	50	-1.508309	1.036443	116.7963	
16:49:42	0	0	0	-0.4531598	3.604748	0	3	100	0	50	-1.512761	1.020699	116.7967	
16:49:42	0	0	0	-0.4531598	3.604748	0	3	100	0	50	-1.518119	1.008867	116.7744	
16:49:43	0	0	0	-0.4531598	3.604748	0	3	100	0	50	-1.516444	1.003875	116.7777	
16:49:43	0	0	0	-0.4531598	3.604748	0	3	100	0	50	-1.523764	1.000769	116.7735	
16:49:43	0	0	0	-0.4531598	3.604748	0	3	100	0	50	-1.524602	0.9803208	116.7657	
16:49:43	0	0	0	-0.6987273	-8.939485	0	3	100	0	50	-1.520095	1.000948	116.7422	
16:49:44	0	0	0	-0.6987273	-8.939485	0	3	100	0	50	-1.518815	1.00055	116.7387	
16:49:44	0	0	0	-0.6987273	-8.939485	0	3	100	0	50	-1.506762	0.9967025	116.7219	
16:49:44	0	0	0	-0.6987273	-8.939485	0	3	100	0	50	-1.505155	0.9783274	116.7265	
16:49:44	0	0	0	-0.6987273	-8.939485	0	3	100	0	50	-1.483547	1.005412	116.7255	
16:49:44	0	0	0	-0.9801878	-17.17297	0	3	100	0	50	-1.476348	1.01521	116.7293	
16:49:45	0	0	0	-0.9801878	-17.17297	0	3	100	0	50	-1.467973	1.023692	116.7094	
16:49:45	0	0	0	-0.9801878	-17.17297	0	3	100	0	50	-1.464814	1.031362	116.7089	
16:49:45	0	0	0	-0.9801878	-17.17297	0	3	100	0	50	-1.468442	1.021605	116.6973	
16:49:45	0	0	0	-0.9801878	-17.17297	0	3	100	0	50	-1.478942	1.017114	116.6841	
16:49:45	0	0	0	-0.9831854	-11.30085	0	3	100	0	50	-1.4797	1.027999	116.674	
16:49:46	0	0	0	-0.9831854	-11.30085	0	3	100	0	50	-1.485059	1.045862	116.6676	
16:49:46	0	0	0	-0.9831854	-11.30085	0	3	100	0	50	-1.481698	1.054522	116.6501	
16:49:46	0	0	0	-0.9831854	-11.30085	0	3	100	0	50	-1.486097	1.05893	116.6472	
16:49:46	0	0	0	-0.9831854	-11.30085	0	3	100	0	50	-1.484051	1.073786	116.6365	
16:49:46	0	0	0	-1.108205	-13.08329	0	3	100	0	50	-1.478342	1.096901	116.6672	
16:49:47	0	0	0	-1.108205	-13.08329	0	3	100	0	50	-1.468353	1.107602	116.659	
16:49:47	0	0	0	-1.108205	-13.08329	0	3	100	0	50	-1.471463	1.094726	116.6644	
16:49:47	0	0	0	-1.108205	-13.08329	0	3	100	0	50	-1.469886	1.10222	116.665	
16:49:47	0	0	0	-1.108205	-13.08329	0	3	100	0	50	-1.465324	1.083199	116.6769	
16:49:47	0	0	0	-1.119592	-7.819324	0	3	100	0	50	-1.471476	1.082439	116.6648	
16:49:48	0	0	0	-1.119592	-7.819324	0	3	100	0	50	-1.472298	1.064356	116.6571	
16:49:48	0	0	0	-1.119592	-7.819324	0	3	100	0	50	-1.472367	1.072003	116.6542	
16:49:48	0	0	0	-1.119592	-7.819324	0	3	100	0	50	-1.46386	1.081255	116.6616	
16:49:48	0	0	0	-1.119592	-7.819324	0	3	100	0	50	-1.462758	1.063973	116.6462	
16:49:48	0	0	0	-0.8195863	8.468978	0	3	100	0	50	-1.454993	1.054169	116.6616	
16:49:49	0	0	0	-0.8195863	8.468978	0	3	100	0	50	-1.442096	1.055116	116.6628	
16:49:49	0	0	0	-0.8195863	8.468978	0	3	100	0	50	-1.43801	1.055831	116.6652	
16:49:49	0	0	0	-0.8195863	8.468978	0	3	100	0	50	-1.44106	1.048855	116.6431	
16:49:49	0	0	0	-0.8195863	8.468978	0	3	100	0	50	-1.444671	1.043347	116.643	
16:49:49	0	0	0	-0.6493599	12.5662	0	3	100	0	50	-1.455874	1.037544	116.615	
16:49:50	0	0	0	-0.6493599	12.5662	0	3	100	0	50	-1.452106	1.048036	116.6221	
16:49:50	0	0	0	-0.6493599	12.5662	0	3	100	0	50	-1.455798	1.047151	116.6102	
16:49:50	0	0	0	-0.6493599	12.5662	0	3	100	0	50	-1.45945	1.04053	116.6079	
16:49:50	0	0	0	-0.6493599	12.5662	0	3	100	0	50	-1.449128	1.046889	116.6148	
16:49:50	0	0	0	-0.7114449	4.563421	0	3	100	0	50	-1.442038	1.028813	116.6157	
16:49:51	0	0	0	-0.7114449	4.563421	0	3	100	0	50	-1.446147	1.015314	116.5966	
16:49:51	0	0	0	-0.7114449	4.563421	0	3	100	0	50	-1.437226	1.026423	116.5909	
16:49:51	0	0	0	-0.7114449	4.563421	0	3	100	0	50	-1.445405	1.020177	116.5659	
16:49:51	0	0	0	-0.7114449	4.563421	0	3	100	0	50	-1.45068	1.015019	116.5729	
16:49:51	0	0	0	-0.6361528	8.140926	0	3	100	0	50	-1.453698	1.027602	116.5655	
16:49:52	0	0	0	-0.6361528	8.140926	0	3	100	0	50	-1.456196	1.011474	116.5783	
16:49:52	0	0	0	-0.6361528	8.140926	0	3	100	0	50	-1.455952	0.9975611	116.568	
16:49:52	0	0	0	-0.6361528	8.140926	0	3	100	0	50	-1.443192	0.9847558	116.5659	
16:49:52	0	0	0	-0.6361528	8.140926	0	3	100	0	50	-1.435764	0.9758452	116.5539	
16:49:52	0	0	0	-0.3444523	17.44604	0	3	100	0	50	-1.434049	0.9795555	116.5581	
16:49:53	0	0	0	-0.3444523	17.44604	0	3	100	0	50	-1.431708	0.9702452	116.5546	
16:49:53	0	0	0	-0.3444523	17.44604	0	3	100	0	50	-1.443553	0.9697387	116.5562	
16:49:53	0	0	0	-0.3444523	17.44604	0	3	100	0	50	-1.440856	0.9626096	116.5534	
16:49:53	0	0	0	-0.3444523	17.44604	0	3	100	0	50	-1.44255	0.9602534	116.5487	
16:49:53	0	0	0	-0.5399855	0.4870099	0	3	100	0	50	-1.451745	0.9637476	116.5357	
16:49:54	0	0	0	-0.5399855	0.4870099	0	3	100	0	50	-1.4568	0.9610842	116.5323	
16:49:54	0	0	0	-0.5399855	0.4870099	0	3	100	0	50	-1.439184	0.9608661	116.5121	
16:49:54	0	0	0	-0.5399855	0.4870099	0	3	100	0	50	-1.444792	0.9535653	116.5156	
16:49:54	0	0	0	-0.5399855	0.4870099	0	3	100	0	50	-1.455736	0.9549496	116.5177	
16:49:54	0	0	0	-0.966212	-17.02312	0	3	100	0	50	-1.461468	0.9691099	116.5177	
16:49:55	0	0	0	-0.966212	-17.02312	0	3	100	0	50	-1.45608	0.9969319	116.5151	
16:49:55	0	0	0	-0.966212	-17.02312	0	3	100	0	50	-1.461231	1.012995	116.5215	
16:49:55	0	0	0	-0.966212	-17.02312	0	3	100	0	50	-1.463025	1.004525	116.5224	
16:49:55	0	0	0	-0.966212	-17.02312	0	3	100	0	50	-1.453385	0.9952549	116.5144	
16:49:55	0	0	0	-1.024097	-14.27591	0	3	100	0	50	-1.447894	0.9918804	116.5123	
16:49:56	0	0	0	-1.024097	-14.27591	0	3	100	0	50	-1.451797	0.9802992	116.5289	
16:49:56	0	0	0	-1.024097	-14.27591	0	3	100	0	50	-1.463921	0.973473	116.5311	
16:49:56	0	0	0	-1.024097	-14.27591	0	3	100	0	50	-1.475574	0.9709718	116.5212	
16:49:56	0	0	0	-1.024097	-14.27591	0	3	100	0	50	-1.487135	0.9769813	116.4935	
16:49:56	0	0	0	-1.08546	-11.51575	0	3	100	0	50	-1.491583	0.9969636	116.5042	
16:49:57	0	0	0	-1.08546	-11.51575	0	3	100	0	50	-1.481403	0.9932574	116.5615	
16:49:57	0	0	0	-1.08546	-11.51575	0	3	100	0	50	-1.492376	0.9836263	116.5752	
16:49:57	0	0	0	-1.08546	-11.51575	0	3	100	0	50	-1.492203	0.9774423	116.5676	
16:49:57	0	0	0	-1.08546	-11.51575	0	3	100	0	50	-1.486005	0.9801686	116.5542	
16:49:57	0	0	0	-1.192679	-12.97139	0	3	100	0	50	-1.488807	0.9732676	116.5239	
16:49:58	0	0	0	-1.192679	-12.97139	0	3	100	0	50	-1.484501	0.974066	116.4945	
16:49:58	0	0	0	-1.192679	-12.97139	0	3	100	0	50	-1.471662	0.9692604	116.5032	
16:49:58	0	0	0	-1.192679	-12.97139	0	3	100	0	50	-1.477606	0.9794142	116.4969	
16:49:58	0	0	0	-1.192679	-12.97139	0	3	100	0	50	-1.474603	0.9808032	116.4958	
16:49:58	0	0	0	-0.8885695	6.8303	0	3	100	0	50	-1.473312	0.9749936	116.4913	
16:49:59	0	0	0	-0.8885695	6.8303	0	3	100	0	50	-1.47802	0.9829847	116.4712	
16:49:59	0	0	0	-0.8885695	6.8303	0	3	100	0	50	-1.480028	0.9838678	116.4685	
16:49:59	0	0	0	-0.8885695	6.8303	0	3	100	0	50	-1.476354	1.000579	116.4885	
16:49:59	0	0	0	-0.8885695	6.8303	0	3	100	0	50	-1.477613	0.9978188	116.5042	
16:49:59	0	0	0	-0.8074988	7.822755	0	3	100	0	50	-1.482463	0.9963152	116.5042	
16:50:00	0	0	0	-0.8074988	7.822755	0	3	100	0	50	-1.484237	1.001788	116.5053	
16:50:00	0	0	0	-0.8074988	7.822755	0	3	100	0	50	-1.486053	1.004433	116.5069	
16:50:00	0	0	0	-0.8074988	7.822755	0	3	100	0	50	-1.484301	1.0033	116.5093	
16:50:00	0	0	0	-0.8074988	7.822755	0	3	100	0	50	-1.488778	1.011661	116.5237	
16:50:00	0	0	0	-0.7960169	3.135473	0	3	100	0	50	-1.489551	1.01808	116.5201	
16:50:01	0	0	0	-0.7960169	3.135473	0	3	100	0	50	-1.491053	1.021546	116.5126	
16:50:01	0	0	0	-0.7960169	3.135473	0	3	100	0	50	-1.498521	1.034119	116.5233	
16:50:01	0	0	0	-0.7960169	3.135473	0	3	100	0	50	-1.500278	1.026701	116.5299	
16:50:01	0	0	0	-0.7960169	3.135473	0	3	100	0	50	-1.504301	1.033186	116.5521	
16:50:01	0	0	0	-0.7752419	2.883055	0	3	100	0	50	-1.510876	1.035765	116.5449	
16:50:02	0	0	0	-0.7752419	2.883055	0	3	100	0	50	-1.515716	1.042024	116.5322	
16:50:02	0	0	0	-0.7752419	2.883055	0	3	100	0	50	-1.518402	1.045405	116.5252	
16:50:02	0	0	0	-0.7752419	2.883055	0	3	100	0	50	-1.524734	1.025886	116.5215	
16:50:02	0	0	0	-0.7752419	2.883055	0	3	100	0	50	-1.51502	1.022108	116.5434	
16:50:02	0	0	0	-0.5577621	10.80717	0	3	100	0	50	-1.504673	1.031711	116.5279	
16:50:03	0	0	0	-0.5577621	10.80717	0	3	100	0	50	-1.49507	1.041992	116.5223	
16:50:03	0	0	0	-0.5577621	10.80717	0	3	100	0	50	-1.49143	1.062826	116.5139	
16:50:03	0	0	0	-0.5577621	10.80717	0	3	100	0	50	-1.489524	1.06356	116.5143	
16:50:03	0	0	0	-0.5577621	10.80717	0	3	100	0	50	-1.483289	1.077459	116.5244	
16:50:03	0	0	0	-0.4545857	11.34178	0	3	100	0	50	-1.474588	1.081016	116.5103	
16:50:04	0	0	0	-0.4545857	11.34178	0	3	100	0	50	-1.481837	1.072526	116.5049	
16:50:04	0	0	0	-0.4545857	11.34178	0	3	100	0	50	-1.487556	1.066658	116.5157	
16:50:04	0	0	0	-0.4545857	11.34178	0	3	100	0	50	-1.479874	1.05922	116.5272	
16:50:04	0	0	0	-0.4545857	11.34178	0	3	100	0	50	-1.476486	1.051478	116.5291	
16:50:04	0	0	0	-0.4968904	3.780684	0	3	100	0	50	-1.473334	1.053634	116.5312	
16:50:05	0	0	0	-0.4968904	3.780684	0	3	100	0	50	-1.479957	1.045158	116.5314	
16:50:05	0	0	0	-0.4968904	3.780684	0	3	100	0	50	-1.47352	1.05331	116.5317	
16:50:05	0	0	0	-0.4968904	3.780684	0	3	100	0	50	-1.488881	1.055225	116.5471	
16:50:05	0	0	0	-0.4968904	3.780684	0	3	100	0	50	-1.490025	1.039276	116.541	
16:50:05	0	0	0	-0.7523276	-8.577165	0	3	100	0	50	-1.485924	1.033593	116.5326	
16:50:06	0	0	0	-0.7523276	-8.577165	0	3	100	0	50	-1.488125	1.035343	116.5194	
16:50:06	0	0	0	-0.7523276	-8.577165	0	3	100	0	50	-1.478891	1.035784	116.5168	
16:50:06	0	0	0	-0.7523276	-8.577165	0	3	100	0	50	-1.48112	1.03538	116.5084	
16:50:06	0	0	0	-0.7523276	-8.577165	0	3	100	0	50	-1.482578	1.065989	116.5026	
16:50:06	0	0	0	-0.8132777	-7.017481	0	3	100	0	50	-1.472564	1.097093	116.5106	
16:50:07	0	0	0	-0.8132777	-7.017481	0	3	100	0	50	-1.472367	1.10836	116.5017	
16:50:07	0	0	0	-0.8132777	-7.017481	0	3	100	0	50	-1.475425	1.129599	116.5008	
16:50:07	0	0	0	-0.8132777	-7.017481	0	3	100	0	50	-1.480935	1.115763	116.4991	
16:50:07	0	0	0	-0.8132777	-7.017481	0	3	100	0	50	-1.470203	1.12738	116.5156	
16:50:07	0	0	0	-0.7818628	-1.748137	0	3	100	0	50	-1.47572	1.121347	116.5131	
16:50:08	0	0	0	-0.7818628	-1.748137	0	3	100	0	50	-1.479366	1.131766	116.5202	
16:50:08	0	0	0	-0.7818628	-1.748137	0	3	100	0	50	-1.487066	1.113898	116.4955	
16:50:08	0	0	0	-0.7818628	-1.748137	0	3	100	0	50	-1.483315	1.115425	116.499	
16:50:08	0	0	0	-0.7818628	-1.748137	0	3	100	0	50	-1.478188	1.131249	116.4958	
16:50:09	0	0	0	-0.8777826	-6.18541	0	3	100	0	50	-1.481687	1.138564	116.5036	
16:50:09	0	0	0	-0.8777826	-6.18541	0	3	100	0	50	-1.483194	1.123572	116.5024	
16:50:09	0	0	0	-0.8777826	-6.18541	0	3	100	0	50	-1.48575	1.11723	116.5161	
16:50:09	0	0	0	-0.8777826	-6.18541	0	3	100	0	50	-1.493211	1.096829	116.5153	
16:50:09	0	0	0	-0.8777826	-6.18541	0	3	100	0	50	-1.488974	1.111416	116.5256	
16:50:10	0	0	0	-0.6970742	4.666063	0	3	100	0	50	-1.485935	1.114161	116.5218	
16:50:10	0	0	0	-0.6970742	4.666063	0	3	100	0	50	-1.489559	1.092338	116.5254	
16:50:10	0	0	0	-0.6970742	4.666063	0	3	100	0	50	-1.489096	1.091231	116.5252	
16:50:10	0	0	0	-0.6970742	4.666063	0	3	100	0	50	-1.504102	1.08245	116.5158	
16:50:10	0	0	0	-0.6970742	4.666063	0	3	100	0	50	-1.497097	1.087254	116.517	
16:50:11	0	0	0	-0.6927705	1.051632	0	3	100	0	50	-1.497727	1.080747	116.5168	
16:50:11	0	0	0	-0.6927705	1.051632	0	3	100	0	50	-1.495405	1.065687	116.5247	
16:50:11	0	0	0	-0.6927705	1.051632	0	3	100	0	50	-1.487778	1.049046	116.514	
16:50:11	0	0	0	-0.6927705	1.051632	0	3	100	0	50	-1.488003	1.04562	116.5156	
16:50:11	0	0	0	-0.6927705	1.051632	0	3	100	0	50	-1.492702	1.017816	116.5123	
16:50:12	0	0	0	-0.8400002	-3.93203	0	3	100	0	50	-1.500825	0.9944189	116.5023	
16:50:12	0	0	0	-0.8400002	-3.93203	0	3	100	0	50	-1.510514	1.004746	116.513	
16:50:12	0	0	0	-0.8400002	-3.93203	0	3	100	0	50	-1.504422	0.9916623	116.5171	
16:50:12	0	0	0	-0.8400002	-3.93203	0	3	100	0	50	-1.499944	0.9946399	116.5266	
16:50:12	0	0	0	-0.8400002	-3.93203	0	3	100	0	50	-1.496202	0.9999622	116.5418	
16:50:13	0	0	0	-0.7555035	2.297263	0	3	100	0	50	-1.48795	0.983383	116.5506	
16:50:13	0	0	0	-0.7555035	2.297263	0	3	100	0	50	-1.488349	0.9816028	116.5533	
16:50:13	0	0	0	-0.7555035	2.297263	0	3	100	0	50	-1.492944	0.9859539	116.5434	
16:50:13	0	0	0	-0.7555035	2.297263	0	3	100	0	50	-1.485779	0.9812029	116.5441	
16:50:13	0	0	0	-0.7555035	2.297263	0	3	100	0	50	-1.478988	0.9748325	116.5321	
16:50:14	0	0	0	-0.834434	-1.068626	0	3	100	0	50	-1.47131	0.9788902	116.5296	
16:50:14	0	0	0	-0.834434	-1.068626	0	3	100	0	50	-1.460989	0.9848814	116.5118	
16:50:14	0	0	0	-0.834434	-1.068626	0	3	100	0	50	-1.45965	1.001828	116.518	
16:50:14	0	0	0	-0.834434	-1.068626	0	3	100	0	50	-1.453473	1.025009	116.5214	
16:50:14	0	0	0	-0.834434	-1.068626	0	3	100	0	50	-1.43895	1.029104	116.5305	
16:50:15	0	0	0	-0.6002154	9.367465	0	3	100	0	50	-1.432691	1.02122	116.5044	
16:50:15	0	0	0	-0.6002154	9.367465	0	3	100	0	50	-1.427393	1.02205	116.5015	
16:50:15	0	0	0	-0.6002154	9.367465	0	3	100	0	50	-1.425268	1.018341	116.4976	
16:50:15	0	0	0	-0.6002154	9.367465	0	3	100	0	50	-1.410248	1.013901	116.4998	
16:50:15	0	0	0	-0.6002154	9.367465	0	3	100	0	50	1.735615	1.880876	116.1067	
16:50:16	0	0	0	-0.701947	25.55477	0	3	100	0	50	6.753946	-1.841154	113.7061	
16:50:16	0	0	0	-0.701947	25.55477	0	3	100	0	50	6.807543	-9.048437	112.0441	
16:50:16	0	0	0	-0.701947	25.55477	0	3	100	0	50	2.935754	-5.85573	112.4686	
16:50:16	0	0	0	-0.701947	25.55477	0	3	100	0	50	-0.3437666	-1.113714	112.2506	
16:50:16	0	0	0	-0.701947	25.55477	0	3	100	0	50	-1.036366	0.315347	112.3586	
16:50:17	0	0	0	-0.77289	5.003676	0	3	100	0	50	0.3422357	0.6113646	112.5198	
16:50:17	0	0	0	-0.77289	5.003676	0	3	100	0	50	3.958104	-2.766247	112.7528	
16:50:17	0	0	0	-0.77289	5.003676	0	3	100	0	50	5.283323	-7.184668	112.0463	
16:50:17	0	0	0	-0.77289	5.003676	0	3	100	0	50	2.814595	-8.296854	111.5926	
16:50:17	0	0	0	-0.77289	5.003676	0	3	100	0	50	-0.5008976	-4.715778	112.4164	
16:50:18	0	0	0	-0.5195898	1.26838	0	3	100	0	50	-3.101752	-1.629341	113.0943	
16:50:18	0	0	0	-0.5195898	1.26838	0	3	100	0	50	-2.969009	-0.7774937	113.4305	
16:50:18	0	0	0	-0.5195898	1.26838	0	3	100	0	50	0.09456297	-4.557663	113.1405	
16:50:18	0	0	0	-0.5195898	1.26838	0	3	100	0	50	1.452494	-8.16693	112.3503	
16:50:18	0	0	0	-0.5195898	1.26838	0	3	100	0	50	0.7001771	-7.128941	111.8144	
16:50:19	0	0	0	-0.4569087	-4.318467	0	3	100	0	50	-2.634415	-3.048548	111.5591	
16:50:19	0	0	0	-0.4569087	-4.318467	0	3	100	0	50	-2.790499	-1.033881	111.5267	
16:50:19	0	0	0	-0.4569087	-4.318467	0	3	100	0	50	-2.977964	-1.749094	111.838	
16:50:19	0	0	0	-0.4569087	-4.318467	0	3	100	0	50	-2.382459	-6.151582	111.7988	
16:50:19	0	0	0	-0.4569087	-4.318467	0	3	100	0	50	-3.231606	-8.694898	112.3773	
16:50:20	0	0	0	-0.3107288	-6.712358	0	3	100	0	50	-3.573829	-4.649733	112.1048	
16:50:20	0	0	0	-0.3107288	-6.712358	0	3	100	0	50	-3.516359	-0.6015093	111.7011	
16:50:20	0	0	0	-0.3107288	-6.712358	0	3	100	0	50	-3.327457	0.5255144	112.5128	
16:50:20	0	0	0	-0.3107288	-6.712358	0	3	100	0	50	-3.792607	-2.830224	112.1665	
16:50:20	0	0	0	-0.3107288	-6.712358	0	3	100	0	50	-4.557485	-6.05416	110.7675	
16:50:21	0	0	0	-0.5058169	4.135551	0	3	100	0	50	-6.580158	-9.124796	111.1339	
16:50:21	0	0	0	-0.5058169	4.135551	0	3	100	0	50	-5.553223	-4.67896	110.3569	
16:50:21	0	0	0	-0.5058169	4.135551	0	3	100	0	50	-4.860773	-0.2832915	109.7743	
16:50:21	0	0	0	-0.5058169	4.135551	0	3	100	0	50	-3.513617	1.373928	109.9407	
16:50:21	0	0	0	-0.5058169	4.135551	0	3	100	0	50	-1.730777	1.106678	110.2672	
16:50:22	0	0	0	-0.6112973	38.36248	0	3	100	0	50	-0.1927021	-0.9215638	110.2591	
16:50:22	0	0	0	-0.6112973	38.36248	0	3	100	0	50	-0.9019083	-5.211785	111.561	
16:50:22	0	0	0	-0.6112973	38.36248	0	3	100	0	50	-3.639699	-9.652732	111.9402	
16:50:22	0	0	0	-0.6112973	38.36248	0	3	100	0	50	-5.848484	-14.73427	112.8521	
16:50:22	0	0	0	-0.6112973	38.36248	0	3	100	0	50	-4.469959	-10.3892	112.3551	
16:50:23	0	0	0	-0.5081514	-60.61008	0	3	100	0	50	-3.723144	-2.763929	110.6893	
16:50:23	0	0	0	-0.5081514	-60.61008	0	3	100	0	50	-3.308653	-0.4050143	109.398	
16:50:23	0	0	0	-0.5081514	-60.61008	0	3	100	0	50	-2.92663	0.8057529	109.645	
16:50:23	0	0	0	-0.5081514	-60.61008	0	3	100	0	50	-2.462996	2.209991	110.0745	
16:50:23	0	0	0	-0.5081514	-60.61008	0	3	100	0	50	0.5084658	-3.421156	109.4278	
16:50:24	0	0	0	-0.08696711	67.11811	0	3	100	0	50	-1.950325	-8.38882	109.3241	
16:50:24	0	0	0	-0.08696711	67.11811	0	3	100	0	50	-6.969336	-14.90986	108.6341	
16:50:24	0	0	0	-0.08696711	67.11811	0	3	100	0	50	-8.221408	-19.47436	107.4331	
16:50:24	0	0	0	-0.08696711	67.11811	0	3	100	0	50	-7.012313	-14.66487	106.6938	
16:50:24	0	0	0	-0.08696711	67.11811	0	3	100	0	50	-4.383371	-6.419031	104.7389	
16:50:25	0	0	0	-0.3029126	-37.84244	0	3	100	0	50	-1.182317	-2.026755	104.3081	
16:50:25	0	0	0	-0.3029126	-37.84244	0	3	100	0	50	0.2489034	0.2582259	104.304	
16:50:25	0	0	0	-0.3029126	-37.84244	0	3	100	0	50	0.01008592	2.007139	104.8546	
16:50:25	0	0	0	-0.3029126	-37.84244	0	3	100	0	50	-1.077773	1.839523	105.8609	
16:50:25	0	0	0	-0.3029126	-37.84244	0	3	100	0	50	-0.9058317	-6.158502	107.4641	
16:50:26	0	0	0	-0.1746638	48.42192	0	3	100	0	50	-2.971534	-12.03339	107.7932	
16:50:26	0	0	0	-0.1746638	48.42192	0	3	100	0	50	-1.783001	-13.70381	106.6262	
16:50:26	0	0	0	-0.1746638	48.42192	0	3	100	0	50	-0.698198	-6.8343	105.626	
16:50:26	0	0	0	-0.1746638	48.42192	0	3	100	0	50	-1.179747	-3.808005	103.5641	
16:50:26	0	0	0	-0.1746638	48.42192	0	3	100	0	50	-1.116562	-1.449838	102.0741	
16:50:27	0	0	0	-0.6866369	-32.69714	0	3	100	0	50	-1.037758	-0.2281813	101.6166	
16:50:27	0	0	0	-0.6866369	-32.69714	0	3	100	0	50	-1.458413	0.3763777	101.4227	
16:50:27	0	0	0	-0.6866369	-32.69714	0	3	100	0	50	-2.346907	1.400278	101.6385	
16:50:27	0	0	0	-0.6866369	-32.69714	0	3	100	0	50	-1.068568	-5.458124	100.5524	
16:50:27	0	0	0	-0.6866369	-32.69714	0	3	100	0	50	-4.634248	-12.55624	100.9669	
16:50:28	0	0	0	-0.7801874	-28.43053	0	3	100	0	50	-5.094764	-16.09465	99.71049	
16:50:28	0	0	0	-0.7801874	-28.43053	0	3	100	0	50	-3.730501	-11.82127	98.0691	
16:50:28	0	0	0	-0.7801874	-28.43053	0	3	100	0	50	-2.140918	-4.739863	97.73204	
16:50:28	0	0	0	-0.7801874	-28.43053	0	3	100	0	50	-0.7188085	-0.4219502	98.66103	
16:50:28	0	0	0	-0.7801874	-28.43053	0	3	100	0	50	-1.713772	-0.03374967	102.5871	
16:50:29	0	0	0	-0.9864435	-5.160911	0	3	100	0	50	-1.771492	-0.06836905	102.4493	
16:50:29	0	0	0	-0.9864435	-5.160911	0	3	100	0	50	-2.082732	0.3935131	102.3768	
16:50:29	0	0	0	-0.9864435	-5.160911	0	3	100	0	50	-2.111158	0.4975908	102.3061	
16:50:29	0	0	0	-0.9864435	-5.160911	0	3	100	0	50	-2.097634	0.5425397	102.2531	
16:50:29	0	0	0	-0.9864435	-5.160911	0	3	100	0	50	-2.089577	0.591621	102.2065	
16:50:30	0	0	0	-0.9004226	-1.264624	0	3	100	0	50	-2.080978	0.608901	102.1451	
16:50:30	0	0	0	-0.9004226	-1.264624	0	3	100	0	50	-2.064588	0.6393194	102.1133	
16:50:30	0	0	0	-0.9004226	-1.264624	0	3	100	0	50	-2.048024	0.6643052	102.0873	
16:50:30	0	0	0	-0.9004226	-1.264624	0	3	100	0	50	-2.02599	0.6690369	102.0267	
16:50:30	0	0	0	-0.9004226	-1.264624	0	3	100	0	50	-2.003933	0.7045937	101.9955	
16:50:31	0	0	0	-0.9106923	-2.758814	0	3	100	0	50	-1.981101	0.7338451	101.96	
16:50:31	0	0	0	-0.9106923	-2.758814	0	3	100	0	50	-1.968533	0.759094	101.9422	
16:50:31	0	0	0	-0.9106923	-2.758814	0	3	100	0	50	-1.948023	0.770192	101.9226	
16:50:31	0	0	0	-0.9106923	-2.758814	0	3	100	0	50	-1.934763	0.7958058	101.9044	
16:50:31	0	0	0	-0.9106923	-2.758814	0	3	100	0	50	-1.932459	0.8151765	101.8838	
16:50:32	0	0	0	-1.075427	-8.988259	0	3	100	0	50	-1.91039	0.8473983	101.8593	
16:50:32	0	0	0	-1.075427	-8.988259	0	3	100	0	50	-1.895955	0.8815867	101.8345	
16:50:32	0	0	0	-1.075427	-8.988259	0	3	100	0	50	-1.866176	0.9163398	101.8224	
16:50:32	0	0	0	-1.075427	-8.988259	0	3	100	0	50	-1.847393	0.9379719	101.7862	
16:50:32	0	0	0	-1.075427	-8.988259	0	3	100	0	50	-1.835932	0.9549544	101.7929	
16:50:33	0	0	0	-0.958811	0.05145883	0	3	100	0	50	-1.833159	0.9622536	101.7709	
16:50:33	0	0	0	-0.958811	0.05145883	0	3	100	0	50	-1.814554	0.9687613	101.7566	
16:50:33	0	0	0	-0.958811	0.05145883	0	3	100	0	50	0.2702765	5.708945	102.8634	
16:50:33	0	0	0	-0.958811	0.05145883	0	3	100	0	50	10.65544	2.140463	101.1945	
16:50:33	0	0	0	-0.958811	0.05145883	0	3	100	0	50	1.798622	-12.29275	98.22738	
16:50:34	0	0	0	-0.7376696	-12.98877	0	3	100	0	50	-0.8668867	-16.71906	98.29952	
16:50:34	0	0	0	-0.7376696	-12.98877	0	3	100	0	50	-1.83405	-7.721623	97.6417	
16:50:34	0	0	0	-0.7376696	-12.98877	0	3	100	0	50	-0.7815387	0.225467	96.41861	
16:50:34	0	0	0	-0.7376696	-12.98877	0	3	100	0	50	-1.347309	2.92909	97.45241	
16:50:34	0	0	0	-0.7376696	-12.98877	0	3	100	0	50	-1.621131	-0.7058707	97.82399	
16:50:35	0	0	0	-0.8258715	-1.747845	0	3	100	0	50	-1.371354	-0.6685329	97.66967	
16:50:35	0	0	0	-0.8258715	-1.747845	0	3	100	0	50	-1.324878	-0.7146512	97.51682	
16:50:35	0	0	0	-0.8258715	-1.747845	0	3	100	0	50	-1.336118	-0.632338	97.36823	
16:50:35	0	0	0	-0.8258715	-1.747845	0	3	100	0	50	-1.362591	-0.5620742	97.2447	
16:50:36	0	0	0	-0.8258715	-1.747845	0	3	100	0	50	-1.38335	-0.496894	97.12682	
16:50:36	0	0	0	-0.8783321	-3.805773	0	3	100	0	50	-1.407298	-0.4280356	97.00519	
16:50:36	0	0	0	-0.8783321	-3.805773	0	3	100	0	50	-1.418377	-0.3467013	96.88242	
16:50:36	0	0	0	-0.8783321	-3.805773	0	3	100	0	50	-1.448571	-0.2667938	96.77417	
16:50:36	0	0	0	-0.8783321	-3.805773	0	3	100	0	50	-1.455557	-0.1821723	96.67167	
16:50:37	0	0	0	-0.8783321	-3.805773	0	3	100	0	50	9.273847	5.14726	98.32083	
16:50:37	0	0	0	-0.742412	127.9855	0	3	100	0	50	9.317217	-9.569492	100.0211	
16:50:37	0	0	0	-0.742412	127.9855	0	3	100	0	50	0.7784627	-25.56183	103.2046	
16:50:37	0	0	0	-0.742412	127.9855	0	3	100	0	50	-3.314602	-23.75607	105.118	
16:50:37	0	0	0	-0.742412	127.9855	0	3	100	0	50	-3.314998	-15.99495	103.2555	
16:50:38	0	0	0	-0.742412	127.9855	0	3	100	0	50	0.3344932	-2.628231	99.82022	
16:50:38	0	0	0	-0.54697	-15.49708	0	3	100	0	50	0.8093141	3.462571	98.51351	
16:50:38	0	0	0	-0.54697	-15.49708	0	3	100	0	50	-2.551636	-0.5001991	100.0434	
16:50:38	0	0	0	-0.54697	-15.49708	0	3	100	0	50	-2.35676	-0.2998451	99.96569	
16:50:38	0	0	0	-0.54697	-15.49708	0	3	100	0	50	-2.295812	-0.2325438	99.89191	
16:50:39	0	0	0	-0.54697	-15.49708	0	3	100	0	50	-2.147993	-0.1047333	99.82782	
16:50:39	0	0	0	-0.5268465	0.9064701	0	3	100	0	50	-2.051544	-0.02632925	99.75587	
16:50:39	0	0	0	-0.5268465	0.9064701	0	3	100	0	50	-2.007299	0.04963247	99.70396	
16:50:39	0	0	0	-0.5268465	0.9064701	0	3	100	0	50	-1.882811	0.1610359	99.64423	
16:50:39	0	0	0	-0.5268465	0.9064701	0	3	100	0	50	-2.021777	0.1552719	99.5862	
16:50:40	0	0	0	-0.5268465	0.9064701	0	3	100	0	50	-2.008132	0.2907656	99.90931	
16:50:40	0	0	0	-0.5821751	44.44296	0	3	100	0	50	0.4003961	2.072836	94.79227	
16:50:40	0	0	0	-0.5821751	44.44296	0	3	100	0	50	-1.925045	-15.91326	93.0216	
16:50:40	0	0	0	-0.5821751	44.44296	0	3	100	0	50	-7.752905	-20.20786	95.45598	
16:50:40	0	0	0	-0.5821751	44.44296	0	3	100	0	50	-7.396799	-18.1429	96.31186	
16:50:41	0	0	0	-0.5821751	44.44296	0	3	100	0	50	-4.47617	-5.57129	95.88119	
16:50:41	0	0	0	-0.7199449	-71.70249	0	3	100	0	50	-2.270509	4.225873	98.66767	
16:50:41	0	0	0	-0.7199449	-71.70249	0	3	100	0	50	-2.171191	0.6530247	100.3041	
16:50:41	0	0	0	-0.7199449	-71.70249	0	3	100	0	50	-2.201411	0.8638692	100.2018	
16:50:41	0	0	0	-0.7199449	-71.70249	0	3	100	0	50	-2.270483	1.023476	100.1865	
16:50:42	0	0	0	-0.7199449	-71.70249	0	3	100	0	50	-2.325334	1.050487	100.1724	
16:50:42	0	0	0	-0.9544864	-39.23779	0	3	100	0	50	-2.311944	1.089254	100.1774	
16:50:42	0	0	0	-0.9544864	-39.23779	0	3	100	0	50	-2.288515	1.120327	100.1651	
16:50:42	0	0	0	-0.9544864	-39.23779	0	3	100	0	50	-2.196615	1.181126	100.1686	
16:50:42	0	0	0	-0.9544864	-39.23779	0	3	100	0	50	-0.1200357	9.208975	100.0273	
16:50:43	0	0	0	-0.9544864	-39.23779	0	3	100	0	50	-2.267372	-2.118278	99.84752	
16:50:43	0	0	0	-0.7506638	50.65823	0	3	100	0	50	-7.027899	-16.67117	100.8692	
16:50:43	0	0	0	-0.7506638	50.65823	0	3	100	0	50	-9.523184	-19.9857	102.1524	
16:50:43	0	0	0	-0.7506638	50.65823	0	3	100	0	50	-6.054618	-12.29228	100.7825	
16:50:43	0	0	0	-0.7506638	50.65823	0	3	100	0	50	-1.723578	-3.731001	102.4794	
16:50:44	0	0	0	-0.7506638	50.65823	0	3	100	0	50	-2.364025	4.274174	107.9697	
16:50:44	0	0	0	-0.9250984	-41.45686	0	3	100	0	50	-1.321676	1.590271	111.0171	
16:50:44	0	0	0	-0.9250984	-41.45686	0	3	100	0	50	-0.9987631	1.626821	111.0644	
16:50:44	0	0	0	-0.9250984	-41.45686	0	3	100	0	50	-0.815334	1.687649	111.1181	
16:50:44	0	0	0	-0.9250984	-41.45686	0	3	100	0	50	-1.083355	1.646157	111.1189	
16:50:45	0	0	0	-0.9250984	-41.45686	0	3	100	0	50	-1.244894	1.586498	110.7964	
16:50:45	0	0	0	-1.202333	-33.05187	0	3	100	0	50	-1.359762	1.598386	110.7141	
16:50:45	0	0	0	-1.202333	-33.05187	0	3	100	0	50	0.9505541	5.106364	110.5809	
16:50:45	0	0	0	-1.202333	-33.05187	0	3	100	0	50	-0.08232214	-9.43499	106.9228	
16:50:45	0	0	0	-1.202333	-33.05187	0	3	100	0	50	-4.137372	-18.33518	107.4439	
16:50:46	0	0	0	-1.202333	-33.05187	0	3	100	0	50	-6.633131	-18.09474	107.5855	
16:50:46	0	0	0	-1.03675	-66.54298	0	3	100	0	50	-7.558165	-12.1723	109.4689	
16:50:46	0	0	0	-1.03675	-66.54298	0	3	100	0	50	-2.728431	-1.749584	114.2869	
16:50:46	0	0	0	-1.03675	-66.54298	0	3	100	0	50	-0.5048768	3.611429	117.1106	
16:50:46	0	0	0	-1.03675	-66.54298	0	3	100	0	50	-2.536503	2.392915	117.8145	
16:50:47	0	0	0	-1.03675	-66.54298	0	3	100	0	50	-2.49229	2.444487	117.5713	
16:50:47	0	0	0	-1.129265	9.444494	0	3	100	0	50	-2.511181	2.412658	117.6646	
16:50:47	0	0	0	-1.129265	9.444494	0	3	100	0	50	4.717014	4.315528	118.2231	
16:50:47	0	0	0	-1.129265	9.444494	0	3	100	0	50	-2.009334	-13.69612	114.6575	
16:50:47	0	0	0	-1.129265	9.444494	0	3	100	0	50	-8.578417	-19.7269	115.841	
16:50:48	0	0	0	-1.129265	9.444494	0	3	100	0	50	-11.37002	-9.122077	121.1916	
16:50:48	0	0	0	-0.9258698	-54.5653	0	3	100	0	50	-3.320009	0.3322539	125.0212	
16:50:48	0	0	0	-0.9258698	-54.5653	0	3	100	0	50	-2.763729	1.339651	128.0312	
16:50:48	0	0	0	-0.9258698	-54.5653	0	3	100	0	50	-2.253551	1.286921	128.1068	
16:50:48	0	0	0	-0.9258698	-54.5653	0	3	100	0	50	-2.149167	1.323539	128.1379	
16:50:49	0	0	0	-0.9258698	-54.5653	0	3	100	0	50	-2.069063	1.355518	128.1715	
16:50:49	0	0	0	-0.6214518	9.565349	0	3	100	0	50	-2.014795	1.36734	128.1759	
16:50:49	0	0	0	-0.6214518	9.565349	0	3	100	0	50	-1.977892	1.372059	128.2075	
16:50:49	0	0	0	-0.6214518	9.565349	0	3	100	0	50	-1.955545	1.385823	128.2303	
16:50:49	0	0	0	-0.6214518	9.565349	0	3	100	0	50	-1.899414	1.399142	128.282	
16:50:50	0	0	0	-0.6214518	9.565349	0	3	100	0	50	-1.877974	1.391554	128.2985	
16:50:50	0	0	0	-0.504965	14.88647	0	3	100	0	50	-1.837414	1.395754	128.3297	
16:50:50	0	0	0	-0.504965	14.88647	0	3	100	0	50	-1.80229	1.398407	128.3543	
16:50:50	0	0	0	-0.504965	14.88647	0	3	100	0	50	-1.752506	1.399757	128.4089	
16:50:50	0	0	0	-0.504965	14.88647	0	3	100	0	50	-1.706863	1.405065	128.4403	
16:50:51	0	0	0	-0.504965	14.88647	0	3	100	0	50	-1.670726	1.386735	128.4688	
16:50:51	0	0	0	-0.616064	7.086528	0	3	100	0	50	-1.620409	1.364885	128.4862	
16:50:51	0	0	0	-0.616064	7.086528	0	3	100	0	50	-1.591403	1.378762	128.5102	
16:50:51	0	0	0	-0.616064	7.086528	0	3	100	0	50	-1.556957	1.368936	128.5458	
16:50:51	0	0	0	-0.616064	7.086528	0	3	100	0	50	-1.529115	1.375105	128.5758	
16:50:52	0	0	0	-0.616064	7.086528	0	3	100	0	50	-1.507601	1.368768	128.6231	
16:50:52	0	0	0	-0.7439237	2.757262	0	3	100	0	50	-1.47338	1.389109	128.6666	
16:50:52	0	0	0	-0.7439237	2.757262	0	3	100	0	50	-1.450904	1.374835	128.7056	
16:50:52	0	0	0	-0.7439237	2.757262	0	3	100	0	50	-1.418281	1.383874	128.7416	
16:50:52	0	0	0	-0.7439237	2.757262	0	3	100	0	50	-1.378917	1.421425	128.768	
16:50:53	0	0	0	-0.7439237	2.757262	0	3	100	0	50	-1.333696	1.440003	128.8034	
16:50:53	0	0	0	-0.8917364	-3.285658	0	3	100	0	50	-1.31049	1.445007	128.8254	
16:50:53	0	0	0	-0.8917364	-3.285658	0	3	100	0	50	-1.290305	1.468827	128.8706	
16:50:53	0	0	0	-0.8917364	-3.285658	0	3	100	0	50	-1.26501	1.457492	128.8925	
16:50:53	0	0	0	-0.8917364	-3.285658	0	3	100	0	50	-1.251124	1.498366	128.9458	
16:50:54	0	0	0	-0.8917364	-3.285658	0	3	100	0	50	-1.23052	1.524399	128.968	
16:50:54	0	0	0	-0.8918375	2.707162	0	3	100	0	50	-1.211574	1.540359	129.0185	
16:50:54	0	0	0	-0.8918375	2.707162	0	3	100	0	50	-1.201836	1.559431	129.0493	
16:50:54	0	0	0	-0.8918375	2.707162	0	3	100	0	50	-1.172116	1.568705	129.0885	
16:50:54	0	0	0	-0.8918375	2.707162	0	3	100	0	50	-1.152291	1.584537	129.1143	
16:50:55	0	0	0	-0.8918375	2.707162	0	3	100	0	50	-1.130129	1.601965	129.1528	
16:50:55	0	0	0	-0.4757661	23.10992	0	3	100	0	50	-1.101917	1.604924	129.1908	
16:50:55	0	0	0	-0.4757661	23.10992	0	3	100	0	50	-1.086623	1.601425	129.2463	
16:50:55	0	0	0	-0.4757661	23.10992	0	3	100	0	50	-1.063488	1.628907	129.2862	
16:50:55	0	0	0	-0.4757661	23.10992	0	3	100	0	50	-1.046691	1.637902	129.3473	
16:50:56	0	0	0	-0.4757661	23.10992	0	3	100	0	50	-1.036691	1.637069	129.3901	
16:50:56	0	0	0	-0.6531239	8.765355	0	3	100	0	50	-1.019234	1.623979	129.4342	
16:50:56	0	0	0	-0.6531239	8.765355	0	3	100	0	50	-1.006464	1.61854	129.4647	
16:50:56	0	0	0	-0.6531239	8.765355	0	3	100	0	50	-0.9899386	1.602828	129.5198	
16:50:56	0	0	0	-0.6531239	8.765355	0	3	100	0	50	-0.9729053	1.602975	129.5575	
16:50:57	0	0	0	-0.6531239	8.765355	0	3	100	0	50	-0.9555137	1.607353	129.6076	
16:50:57	0	0	0	-0.8094096	2.032428	0	3	100	0	50	-0.9383161	1.59985	129.6468	
16:50:57	0	0	0	-0.8094096	2.032428	0	3	100	0	50	-0.9206201	1.591103	129.6826	
16:50:57	0	0	0	-0.8094096	2.032428	0	3	100	0	50	-0.9144896	1.597676	129.7058	
16:50:57	0	0	0	-0.8094096	2.032428	0	3	100	0	50	-0.9066556	1.601159	129.7433	
16:50:58	0	0	0	-0.8094096	2.032428	0	3	100	0	50	-0.8932686	1.613222	129.7636	
16:50:58	0	0	0	-1.044171	-7.856645	0	3	100	0	50	-0.8805372	1.601475	129.7868	
16:50:58	0	0	0	-1.044171	-7.856645	0	3	100	0	50	-0.8668388	1.595149	129.8074	
16:50:58	0	0	0	-1.044171	-7.856645	0	3	100	0	50	-0.8591719	1.614776	129.8496	
16:50:58	0	0	0	-1.044171	-7.856645	0	3	100	0	50	-0.8456647	1.625424	129.884	
16:50:59	0	0	0	-1.044171	-7.856645	0	3	100	0	50	-0.8496625	1.631637	129.9315	
16:50:59	0	0	0	-1.188841	-8.71417	0	3	100	0	50	-0.8375031	1.628122	129.9695	
16:50:59	0	0	0	-1.188841	-8.71417	0	3	100	0	50	-0.834874	1.628771	130.0179	
16:50:59	0	0	0	-1.188841	-8.71417	0	3	100	0	50	-0.8240239	1.623324	130.0481	
16:50:59	0	0	0	-1.188841	-8.71417	0	3	100	0	50	-0.8081059	1.625495	130.0936	
16:51:00	0	0	0	-1.188841	-8.71417	0	3	100	0	50	-0.7903859	1.631135	130.1177	
16:51:00	0	0	0	-1.176683	-1.532896	0	3	100	0	50	-0.784954	1.629448	130.1571	
16:51:00	0	0	0	-1.176683	-1.532896	0	3	100	0	50	-0.7813338	1.627153	130.1912	
16:51:00	0	0	0	-1.176683	-1.532896	0	3	100	0	50	-0.7675883	1.629404	130.2291	
16:51:00	0	0	0	-1.176683	-1.532896	0	3	100	0	50	-0.7485195	1.626683	130.2693	
16:51:01	0	0	0	-1.176683	-1.532896	0	3	100	0	50	-0.7392506	1.61957	130.296	
16:51:01	0	0	0	-0.9178096	11.60366	0	3	100	0	50	-0.7444642	1.595436	130.3093	
16:51:01	0	0	0	-0.9178096	11.60366	0	3	100	0	50	-0.7434474	1.595162	130.3407	
16:51:01	0	0	0	-0.9178096	11.60366	0	3	100	0	50	-0.7314808	1.588916	130.3711	
16:51:02	0	0	0	-0.9178096	11.60366	0	3	100	0	50	-0.7197011	1.59251	130.4111	
16:51:02	0	0	0	-0.9178096	11.60366	0	3	100	0	50	-0.7288699	1.587307	130.4408	
16:51:02	0	0	0	-0.799294	13.83806	0	3	100	0	50	-0.7256697	1.580022	130.4693	
16:51:02	0	0	0	-0.799294	13.83806	0	3	100	0	50	-0.7243913	1.581802	130.4817	
16:51:02	0	0	0	-0.799294	13.83806	0	3	100	0	50	-0.725113	1.579611	130.5033	
16:51:03	0	0	0	-0.799294	13.83806	0	3	100	0	50	-0.7196155	1.580711	130.5218	
16:51:03	0	0	0	-0.799294	13.83806	0	3	100	0	50	-0.7182108	1.571504	130.5558	
16:51:03	0	0	0	-0.8644977	6.818168	0	3	100	0	50	-0.7175449	1.565691	130.5855	
16:51:03	0	0	0	-0.8644977	6.818168	0	3	100	0	50	-0.7078583	1.561147	130.6199	
16:51:03	0	0	0	-0.8644977	6.818168	0	3	100	0	50	-0.7035173	1.527497	130.6354	
16:51:04	0	0	0	-0.8644977	6.818168	0	3	100	0	50	-0.6920034	1.532729	130.6249	
16:51:04	0	0	0	-0.8644977	6.818168	0	3	100	0	50	-0.7016429	1.526364	130.6203	
16:51:04	0	0	0	-0.9950215	0.2963101	0	3	100	0	50	-0.7005107	1.543001	130.6412	
16:51:04	0	0	0	-0.9950215	0.2963101	0	3	100	0	50	-0.6933419	1.559119	130.6671	
16:51:04	0	0	0	-0.9950215	0.2963101	0	3	100	0	50	-0.6814921	1.564617	130.6821	
16:51:05	0	0	0	-0.9950215	0.2963101	0	3	100	0	50	-0.6906483	1.565453	130.6857	
16:51:05	0	0	0	-0.9950215	0.2963101	0	3	100	0	50	-0.6982219	1.565229	130.7038	
16:51:05	0	0	0	-1.114156	-3.572905	0	3	100	0	50	-0.6930172	1.558312	130.7213	
16:51:05	0	0	0	-1.114156	-3.572905	0	3	100	0	50	-0.6922426	1.585285	130.7378	
16:51:05	0	0	0	-1.114156	-3.572905	0	3	100	0	50	-0.6810433	1.576385	130.7611	
16:51:06	0	0	0	-1.114156	-3.572905	0	3	100	0	50	-0.6740626	1.556525	130.7849	
16:51:06	0	0	0	-1.114156	-3.572905	0	3	100	0	50	-0.6737615	1.56022	130.7904	
16:51:06	0	0	0	-1.153669	-4.17871	0	3	100	0	50	-0.6788733	1.570711	130.8194	
16:51:06	0	0	0	-1.153669	-4.17871	0	3	100	0	50	-0.6878165	1.586568	130.8133	
16:51:06	0	0	0	-1.153669	-4.17871	0	3	100	0	50	-0.6804357	1.592205	130.8265	
16:51:07	0	0	0	-1.153669	-4.17871	0	3	100	0	50	-0.6783445	1.59969	130.8471	
16:51:07	0	0	0	-1.153669	-4.17871	0	3	100	0	50	-0.684383	1.571127	130.8651	
16:51:07	0	0	0	-1.20491	-3.385114	0	3	100	0	50	-0.6817892	1.564847	130.8766	
16:51:07	0	0	0	-1.20491	-3.385114	0	3	100	0	50	-0.6822273	1.551	130.8858	
16:51:07	0	0	0	-1.20491	-3.385114	0	3	100	0	50	-0.6923898	1.550527	130.8908	
16:51:08	0	0	0	-1.20491	-3.385114	0	3	100	0	50	-0.6884249	1.527236	130.885	
16:51:08	0	0	0	-1.20491	-3.385114	0	3	100	0	50	-0.6944878	1.50732	130.8882	
16:51:08	0	0	0	-1.092057	4.399218	0	3	100	0	50	-0.6922078	1.512239	130.8963	
16:51:08	0	0	0	-1.092057	4.399218	0	3	100	0	50	-0.6931306	1.479683	130.8832	
16:51:08	0	0	0	-1.092057	4.399218	0	3	100	0	50	-0.6892977	1.463158	130.8834	
16:51:09	0	0	0	-1.092057	4.399218	0	3	100	0	50	-0.6868194	1.451111	130.8922	
16:51:09	0	0	0	-1.092057	4.399218	0	3	100	0	50	-0.6821274	1.454399	130.8968	
16:51:09	0	0	0	-1.051025	4.738043	0	3	100	0	50	-0.6796474	1.446889	130.8938	
16:51:09	0	0	0	-1.051025	4.738043	0	3	100	0	50	-0.6721922	1.430557	130.901	
16:51:09	0	0	0	-1.051025	4.738043	0	3	100	0	50	-0.6643589	1.436542	130.8982	
16:51:10	0	0	0	-1.051025	4.738043	0	3	100	0	50	-0.66008	1.437623	130.8961	
16:51:10	0	0	0	-1.051025	4.738043	0	3	100	0	50	-0.6596534	1.422462	130.8982	
16:51:10	0	0	0	-1.221684	-4.107597	0	3	100	0	50	-0.6552178	1.401787	130.892	
16:51:10	0	0	0	-1.221684	-4.107597	0	3	100	0	50	-0.6703576	1.386546	130.8913	
16:51:10	0	0	0	-1.221684	-4.107597	0	3	100	0	50	-0.6771611	1.373563	130.9071	
16:51:11	0	0	0	-1.221684	-4.107597	0	3	100	0	50	-0.6865107	1.376687	130.9068	
16:51:11	0	0	0	-1.221684	-4.107597	0	3	100	0	50	-0.6814011	1.365128	130.8965	
16:51:11	0	0	0	-1.094286	4.393877	0	3	100	0	50	-0.6804478	1.350769	130.8891	
16:51:11	0	0	0	-1.094286	4.393877	0	3	100	0	50	-0.6763406	1.356391	130.8787	
16:51:11	0	0	0	-1.094286	4.393877	0	3	100	0	50	-0.6719099	1.334975	130.8959	
16:51:12	0	0	0	-1.094286	4.393877	0	3	100	0	50	-0.6625425	1.339832	130.8825	
16:51:12	0	0	0	-1.094286	4.393877	0	3	100	0	50	-0.6616386	1.321249	130.9145	
16:51:12	0	0	0	-1.011274	8.478856	0	3	100	0	50	-0.6637557	1.312067	130.921	
16:51:12	0	0	0	-1.011274	8.478856	0	3	100	0	50	-0.6638855	1.302031	130.9103	
16:51:12	0	0	0	-1.011274	8.478856	0	3	100	0	50	-1.189967	2.079551	129.9583	
16:51:13	0	0	0	-1.011274	8.478856	0	3	100	0	50	1.694956	7.588377	131.2414	
16:51:13	0	0	0	-1.011274	8.478856	0	3	100	0	50	-0.1803814	-2.645475	129.0352	
16:51:13	0	0	0	-1.065971	24.24903	0	3	100	0	50	-3.506345	-10.51501	128.9919	
16:51:13	0	0	0	-1.065971	24.24903	0	3	100	0	50	-3.989977	-11.86795	128.8241	
16:51:13	0	0	0	-1.065971	24.24903	0	3	100	0	50	-3.999771	-8.190389	127.1149	
16:51:14	0	0	0	-1.065971	24.24903	0	3	100	0	50	-3.325109	-3.622652	127.041	
16:51:14	0	0	0	-1.065971	24.24903	0	3	100	0	50	-1.39666	-1.516679	128.3053	
16:51:14	0	0	0	-1.013051	-5.446085	0	3	100	0	50	-0.3740417	-2.594823	130.1166	
16:51:14	0	0	0	-1.013051	-5.446085	0	3	100	0	50	-0.4226018	1.389679	131.5758	
16:51:14	0	0	0	-1.013051	-5.446085	0	3	100	0	50	-0.5486799	1.35098	131.6333	
16:51:15	0	0	0	-1.013051	-5.446085	0	3	100	0	50	-0.5307259	1.335635	131.6897	
16:51:15	0	0	0	-1.013051	-5.446085	0	3	100	0	50	-0.5291656	1.318564	131.7291	
16:51:15	0	0	0	-1.293139	-11.77389	0	3	100	0	50	-0.5262852	1.300099	131.7488	
16:51:15	0	0	0	-1.293139	-11.77389	0	3	100	0	50	-0.5427638	1.295241	131.7375	
16:51:15	0	0	0	-1.293139	-11.77389	0	3	100	0	50	-0.5570456	1.29973	131.7858	
16:51:16	0	0	0	-1.293139	-11.77389	0	3	100	0	50	-0.5918055	1.3085	131.8355	
16:51:16	0	0	0	-1.293139	-11.77389	0	3	100	0	50	-0.605028	1.288185	131.8616	
16:51:16	0	0	0	-1.44528	-12.81081	0	3	100	0	50	-0.6039016	1.253085	131.8954	
16:51:16	0	0	0	-1.44528	-12.81081	0	3	100	0	50	-0.6079671	1.255674	131.8768	
16:51:16	0	0	0	-1.44528	-12.81081	0	3	100	0	50	-0.5968934	1.257092	131.9558	
16:51:17	0	0	0	-1.44528	-12.81081	0	3	100	0	50	-0.613207	1.264721	131.989	
16:51:17	0	0	0	-1.44528	-12.81081	0	3	100	0	50	-0.6317288	1.258813	132.0078	
16:51:17	0	0	0	-1.474059	-8.072702	0	3	100	0	50	-0.6421723	1.248235	132.0363	
16:51:17	0	0	0	-1.474059	-8.072702	0	3	100	0	50	-0.6486866	1.24486	132.0209	
16:51:17	0	0	0	-1.474059	-8.072702	0	3	100	0	50	-0.6544619	1.222808	132.0352	
16:51:18	0	0	0	-1.474059	-8.072702	0	3	100	0	50	-0.6627628	1.215731	132.0865	
16:51:18	0	0	0	-1.474059	-8.072702	0	3	100	0	50	-0.6710882	1.203643	132.1545	
16:51:18	0	0	0	-1.45588	-4.243474	0	3	100	0	50	-0.6663187	1.199456	132.1627	
16:51:18	0	0	0	-1.45588	-4.243474	0	3	100	0	50	-0.6701869	1.193722	132.0793	
16:51:18	0	0	0	-1.45588	-4.243474	0	3	100	0	50	-0.663476	1.180686	132.1176	
16:51:19	0	0	0	-1.45588	-4.243474	0	3	100	0	50	-0.6681287	1.174959	132.1396	
16:51:19	0	0	0	-1.45588	-4.243474	0	3	100	0	50	-0.680177	1.16782	132.1571	
16:51:19	0	0	0	-1.348968	3.379265	0	3	100	0	50	-0.6824065	1.17402	132.1656	
16:51:19	0	0	0	-1.348968	3.379265	0	3	100	0	50	-0.6843809	1.17422	132.1857	
16:51:19	0	0	0	-1.348968	3.379265	0	3	100	0	50	-0.709596	1.169336	132.1432	
16:51:20	0	0	0	-1.348968	3.379265	0	3	100	0	50	-0.7183129	1.163067	132.1594	
16:51:20	0	0	0	-1.348968	3.379265	0	3	100	0	50	-0.7304107	1.143272	132.1767	
16:51:20	0	0	0	-1.226183	6.695511	0	3	100	0	50	-0.7308784	1.144722	132.1669	
16:51:20	0	0	0	-1.226183	6.695511	0	3	100	0	50	-0.7328929	1.136172	132.1606	
16:51:20	0	0	0	-1.226183	6.695511	0	3	100	0	50	-0.7366567	1.139888	132.1662	
16:51:21	0	0	0	-1.226183	6.695511	0	3	100	0	50	-0.7314982	1.142081	132.2208	
16:51:21	0	0	0	-1.226183	6.695511	0	3	100	0	50	-0.7438204	1.128947	132.2434	
16:51:21	0	0	0	-1.150508	9.743523	0	3	100	0	50	-0.7326478	1.12516	132.2811	
16:51:21	0	0	0	-1.150508	9.743523	0	3	100	0	50	-0.7247869	1.122189	132.2986	
16:51:21	0	0	0	-1.150508	9.743523	0	3	100	0	50	-0.732107	1.112658	132.3093	
16:51:22	0	0	0	-1.150508	9.743523	0	3	100	0	50	-0.7335049	1.11412	132.3211	
16:51:22	0	0	0	-1.150508	9.743523	0	3	100	0	50	-0.7411535	1.113066	132.3244	
16:51:22	0	0	0	-1.100648	8.058234	0	3	100	0	50	-0.7474948	1.096201	132.3218	
16:51:22	0	0	0	-1.100648	8.058234	0	3	100	0	50	-0.7467095	1.08806	132.3101	
16:51:22	0	0	0	-1.100648	8.058234	0	3	100	0	50	-0.7447498	1.078087	132.2642	
16:51:23	0	0	0	-1.100648	8.058234	0	3	100	0	50	-0.7345275	1.085554	132.2683	
16:51:23	0	0	0	-1.100648	8.058234	0	3	100	0	50	-0.7399068	1.11214	132.2745	
16:51:23	0	0	0	-1.172212	4.972271	0	3	100	0	50	-0.748926	1.109368	132.2862	
16:51:23	0	0	0	-1.172212	4.972271	0	3	100	0	50	-0.7460213	1.116837	132.276	
16:51:23	0	0	0	-1.172212	4.972271	0	3	100	0	50	-0.7500954	1.125699	132.2808	
16:51:24	0	0	0	-1.172212	4.972271	0	3	100	0	50	-0.7631921	1.133764	132.2618	
16:51:24	0	0	0	-1.172212	4.972271	0	3	100	0	50	-0.7708938	1.126207	132.2611	
16:51:24	0	0	0	-0.9588193	13.19587	0	3	100	0	50	-0.7951488	1.122761	132.2718	
16:51:24	0	0	0	-0.9588193	13.19587	0	3	100	0	50	-0.8076292	1.12993	132.2778	
16:51:24	0	0	0	-0.9588193	13.19587	0	3	100	0	50	-0.8135573	1.135508	132.2451	
16:51:25	0	0	0	-0.9588193	13.19587	0	3	100	0	50	-0.8240224	1.146261	132.2374	
16:51:25	0	0	0	-0.9588193	13.19587	0	3	100	0	50	-0.8322248	1.139299	132.2571	
16:51:25	0	0	0	-0.7516114	16.7891	0	3	100	0	50	-0.8229156	1.132098	132.2702	
16:51:25	0	0	0	-0.7516114	16.7891	0	3	100	0	50	-0.8257098	1.133403	132.2581	
16:51:25	0	0	0	-0.7516114	16.7891	0	3	100	0	50	-0.8278548	1.139406	132.2442	
16:51:26	0	0	0	-0.7516114	16.7891	0	3	100	0	50	-0.8299035	1.122933	132.2519	
16:51:26	0	0	0	-0.7516114	16.7891	0	3	100	0	50	-0.8326246	1.13801	132.2767	
16:51:26	0	0	0	-0.5666467	17.39244	0	3	100	0	50	-0.8427247	1.133527	132.2852	
16:51:26	0	0	0	-0.5666467	17.39244	0	3	100	0	50	-0.8440324	1.121263	132.2868	
16:51:26	0	0	0	-0.5666467	17.39244	0	3	100	0	50	-0.8516506	1.12545	132.2651	
16:51:27	0	0	0	-0.5666467	17.39244	0	3	100	0	50	-0.8561325	1.133004	132.2723	
16:51:27	0	0	0	-0.5666467	17.39244	0	3	100	0	50	-0.8592635	1.13591	132.2497	
16:51:27	0	0	0	-0.4639117	16.28945	0	3	100	0	50	-0.8674523	1.153826	132.2451	
16:51:27	0	0	0	-0.4639117	16.28945	0	3	100	0	50	-0.868597	1.135689	132.2467	
16:51:27	0	0	0	-0.4639117	16.28945	0	3	100	0	50	-0.8652167	1.133365	132.2403	
16:51:28	0	0	0	-0.4639117	16.28945	0	3	100	0	50	-0.865592	1.126716	132.2527	
16:51:28	0	0	0	-0.4639117	16.28945	0	3	100	0	50	-0.8721229	1.114165	132.2494	
16:51:28	0	0	0	-0.6349205	2.09844	0	3	100	0	50	-0.8745013	1.114422	132.239	
16:51:28	0	0	0	-0.6349205	2.09844	0	3	100	0	50	-0.8809257	1.109851	132.2513	
16:51:28	0	0	0	-0.6349205	2.09844	0	3	100	0	50	-0.8836183	1.118814	132.2422	
16:51:29	0	0	0	-0.6349205	2.09844	0	3	100	0	50	-0.8767399	1.119533	132.2485	
16:51:29	0	0	0	-0.6349205	2.09844	0	3	100	0	50	-0.8828952	1.121722	132.2264	
16:51:29	0	0	0	-0.7032831	-1.002403	0	3	100	0	50	-0.8911431	1.119123	132.2218	
16:51:29	0	0	0	-0.7032831	-1.002403	0	3	100	0	50	-0.8917975	1.120926	132.2124	
16:51:29	0	0	0	-0.7032831	-1.002403	0	3	100	0	50	-0.9017922	1.100251	132.2041	
16:51:30	0	0	0	-0.7032831	-1.002403	0	3	100	0	50	-0.9003741	1.090601	132.2038	
16:51:30	0	0	0	-0.7032831	-1.002403	0	3	100	0	50	-0.9007121	1.078732	132.2157	
16:51:30	0	0	0	-0.6346255	3.802636	0	3	100	0	50	-0.9045972	1.033116	132.1869	
16:51:30	0	0	0	-0.6346255	3.802636	0	3	100	0	50	-0.9132075	1.014917	132.1864	
16:51:30	0	0	0	-0.6346255	3.802636	0	3	100	0	50	-0.9181433	1.026427	132.174	
16:51:31	0	0	0	-0.6346255	3.802636	0	3	100	0	50	-0.9152898	1.016585	132.1768	
16:51:31	0	0	0	-0.6346255	3.802636	0	3	100	0	50	-0.917161	1.023982	132.1533	
16:51:31	0	0	0	-0.7690253	-3.968846	0	3	100	0	50	-0.9118121	1.033358	132.1552	
16:51:31	0	0	0	-0.7690253	-3.968846	0	3	100	0	50	-0.9127224	1.06002	132.1445	
16:51:32	0	0	0	-0.7690253	-3.968846	0	3	100	0	50	-0.9132987	1.062972	132.1375	
16:51:32	0	0	0	-0.7690253	-3.968846	0	3	100	0	50	-0.9229687	1.042845	132.1205	
16:51:32	0	0	0	-0.7690253	-3.968846	0	3	100	0	50	-0.9222395	1.042711	132.1243	
16:51:32	0	0	0	-0.9013994	-7.498871	0	3	100	0	50	-0.9268712	1.044212	132.1001	
16:51:32	0	0	0	-0.9013994	-7.498871	0	3	100	0	50	-0.917441	1.040626	132.0689	
16:51:33	0	0	0	-0.9013994	-7.498871	0	3	100	0	50	-0.9175864	1.049601	132.0695	
16:51:33	0	0	0	-0.9013994	-7.498871	0	3	100	0	50	-0.9240028	1.040794	132.0596	
16:51:33	0	0	0	-0.9013994	-7.498871	0	3	100	0	50	-0.9345635	1.050594	132.0368	
16:51:33	0	0	0	-0.9647822	-6.557399	0	3	100	0	50	-0.939218	1.064208	132.0309	
16:51:33	0	0	0	-0.9647822	-6.557399	0	3	100	0	50	-0.9440167	1.05312	132.0203	
16:51:34	0	0	0	-0.9647822	-6.557399	0	3	100	0	50	-0.9399278	1.042635	132.0102	
16:51:34	0	0	0	-0.9647822	-6.557399	0	3	100	0	50	-0.9537975	1.030246	132.0015	
16:51:34	0	0	0	-0.9647822	-6.557399	0	3	100	0	50	-0.9555531	1.030888	132.0008	
