Date	Latitude(deg) 	Longitude(deg)	hamsl(m)	hafl(m)	climbrate(cm/s)	GroundSpeed(m/s)	Airspeed(m/s)	Mav_Link(%)	Rssi_Link(%)	Throttle	Roll(deg)	Pitch(deg)	Yaw(deg)
18:10:40	47.46362	-122.3077	0.035	0.035	0	0	3	100	0	4	-0.0003113603	0.0006082978	0.2699367	
18:10:41	47.46362	-122.3077	0.035	0.035	0	0	3	100	0	4	-0.0002804828	0.0005473371	0.2429434	
18:10:43	47.46362	-122.3077	0.035	0.035	0	0	3	100	0	4	-0.0003113603	0.0006082978	0.2699367	
18:10:45	47.46362	-122.3077	0.035	0.035	0	0	3	100	0	4	-0.0003113603	0.0006082978	0.2699367	
18:10:46	47.46362	-122.3077	0.035	0.035	0	0	3	100	0	4	-0.0003421803	0.0006692872	0.29693	
18:10:48	47.46362	-122.3077	0.035	0.035	0	0	3	100	0	4	-0.0003113603	0.0006082978	0.2699367	
18:10:50	47.46362	-122.3077	0.035	-0.1456625	-38.8649	0	3	100	0	4	-3.50271	-2.881384	-13.10253	
18:10:51	47.46362	-122.3077	0.035	-0.201151	-15.59159	0	3	100	0	4	-1.086555	0.05319836	-40.29702	
18:10:53	47.46362	-122.3077	0.035	-0.0308047	2.40145	0	3	100	0	4	-1.194606	-0.3579709	-43.04387	
18:10:55	47.46362	-122.3077	0.035	0.07629809	7.401437	0	3	100	0	4	-1.197847	-0.3301943	-43.45218	
18:10:57	47.46362	-122.3077	0.035	0.09803213	6.079744	0	3	100	0	5	-1.196979	-0.3266151	-43.37249	
18:10:58	47.46362	-122.3077	0.035	0.0843173	3.875114	0	3	100	0	4	-1.197384	-0.3261824	-43.21872	
18:11:00	47.46362	-122.3077	0.035	0.06792004	2.521255	0	3	100	0	4	-1.19564	-0.332722	-43.47131	
18:11:02	47.46362	-122.3077	0.035	0.05822437	1.934523	0	3	100	0	4	-1.196969	-0.3275256	-43.44509	
18:11:03	47.46362	-122.3077	0.035	0.05350877	1.65961	0	3	100	0	4	-1.196974	-0.3282902	-43.41543	
18:11:05	47.46362	-122.3077	0.035	0.05061061	1.35834	0	3	100	0	4	-1.9219	-0.1080865	-24.02432	
18:11:07	47.46362	-122.3077	0.035	0.04460176	0.5349177	0	3	100	0	4	-2.257837	1.127602	8.497894	
18:11:09	47.46362	-122.3077	0.041	-0.08995597	-106.3957	0.43	3	100	0	11	47.52593	3.488188	41.40417	
18:11:10	47.46363	-122.3077	-0.015	-5.155511	-1091.239	2.02	3	100	0	16	-129.2463	8.918192	13.62863	
18:11:12	47.46363	-122.3077	-0.015	-13.65792	-1707.797	2.02	3	100	0	4	118.5511	18.06213	23.3743	
18:11:14	47.46363	-122.3078	0.026	-17.34019	-1889.291	0	3	100	0	12	108.1023	27.18195	22.94496	
18:11:15	47.46365	-122.3078	0.016	-16.08095	-1179.537	0.92	3	100	0	11	85.251	43.72139	-33.22527	
18:11:17	47.46364	-122.3078	0.029	-7.857598	-512.8105	0	3	100	0	45	82.73518	-0.4395359	63.39579	
18:11:19	47.46365	-122.3078	-0.052	-6.66337	-803.6136	1.88	3	100	0	4	57.56297	-12.56576	96.35963	
18:11:21	47.46365	-122.3078	-0.052	-7.26669	-698.2506	1.88	3	100	0	4	165.6712	-25.20101	128.6132	
18:11:22	47.46363	-122.3077	0.163	-11.53496	-1741.653	1.25	3	100	0	4	-132.6637	-28.9906	60.36646	
18:11:24	47.46361	-122.3077	1.539	-12.28123	-916.5004	3.32	3.673173	100	0	18	-63.78082	-21.46594	37.32622	
18:11:26	47.46359	-122.3077	-0.085	-3.391097	215.7205	1.56	3	100	0	4	-130.7368	25.06609	155.9542	
18:11:27	47.46359	-122.3077	-0.083	5.264583	928.0339	0	3	100	0	5	-168.419	51.33635	164.5092	
18:11:29	47.46359	-122.3077	-0.083	8.359274	809.946	0	3	100	0	4	172.4447	66.45456	-177.8927	
18:11:31	47.46359	-122.3077	-0.083	4.947095	181.8707	0	3	100	0	9	113.8803	73.56748	149.3788	
18:11:32	47.46359	-122.3077	-0.083	-1.464411	-536.0335	0	3	100	0	4	55.92451	67.21465	115.5114	
18:11:34	47.46359	-122.3077	-0.083	-8.225993	-1190.834	0	3	100	0	6	26.41363	50.27884	109.9147	
18:11:36	47.46359	-122.3077	-0.083	-13.99348	-1648.385	0	3	100	0	6	-31.72336	26.89362	79.71893	
18:11:38	47.46359	-122.3077	-0.083	-14.52335	-1154.363	0	3	100	0	6	-84.90344	-13.40299	94.51444	
18:11:39	47.46363	-122.3078	0.032	-6.12797	-3.459726	0	3	100	0	6	-71.48723	-16.2851	86.62472	
18:11:41	47.46364	-122.3078	0.022	4.636225	853.3091	1.33	3	100	0	4	-31.14325	7.483195	95.97952	
18:11:43	47.46364	-122.3078	0.029	11.13144	1433.334	0	3	100	0	4	-25.48513	21.57534	107.1481	
18:11:44	47.46364	-122.3078	0.028	14.99431	1610.766	0	3	100	0	4	-15.40907	15.14229	117.8218	
18:11:46	47.46364	-122.3078	0.026	15.30945	1471.021	0	3	100	0	4	-14.65495	7.887452	131.6447	
18:11:48	47.46364	-122.3078	-0.115	13.36192	1467.225	1.06	3	100	0	17	162.4613	-30.34928	95.17307	
18:11:50	47.46364	-122.3078	-0.115	19.34504	1835.619	1.06	3	100	0	4	-123.4923	-41.89115	-132.368	
18:11:51	47.46363	-122.3078	0.027	12.89988	219.1822	0	3	100	0	7	-166.3015	-19.9752	130.5212	
18:11:53	47.46364	-122.3078	0.025	-11.18982	-2464.418	0.26	3	100	0	6	167.7721	-14.17824	-152.1396	
18:11:55	47.46364	-122.3078	0.023	-25.59585	-2879.494	0	3	100	0	8	143.6717	-25.43164	-157.7247	
18:11:56	47.46364	-122.3078	-0.085	-19.55662	-1117.384	0	3	100	0	8	-108.535	10.65451	-147.1404	
18:11:58	47.46364	-122.3078	-0.083	-5.437825	110.9524	0	3	100	0	7	-101.2081	5.966079	-178.9649	
18:12:00	47.46364	-122.3078	-0.083	0.8783612	207.91	0	3	100	0	4	-94.44669	14.52689	147.0724	
18:12:01	47.46364	-122.3078	-0.083	0.4860747	-46.33564	0	3	100	0	4	-92.47544	14.60345	113.8474	
18:12:03	47.46364	-122.3078	-0.083	-1.528163	-261.3816	0	3	100	0	21	-88.15079	10.86356	81.42626	
18:12:05	47.46364	-122.3078	-0.083	-3.271612	-406.5412	0	3	100	0	78	-82.45418	8.824642	48.43007	
18:12:07	47.46364	-122.3078	-0.083	-4.598155	-510.5198	0	3	100	0	4	-78.63486	16.42257	16.56601	
18:12:08	47.46364	-122.3078	-0.083	-5.090244	-496.131	0	3	100	0	4	-79.03466	20.50403	-20.17642	
18:12:10	47.46364	-122.3078	-0.083	-4.231281	-288.6285	0	3	100	0	4	-94.11207	56.3256	-72.76049	
18:12:12	47.46364	-122.3078	-0.083	0.3931863	465.2233	0	3	100	0	4	-158.3387	50.21775	179.3021	
18:12:13	47.46363	-122.3077	0.03	1.164222	-100.8276	0.03	3	100	0	4	-77.4476	69.11439	-148.2806	
18:12:15	47.46363	-122.3077	0.043	3.743277	861.5814	0.61	3	100	0	4	-28.18436	62.30698	20.18254	
18:12:17	47.46363	-122.3077	0.033	12.41487	1608.63	0.68	3	100	0	4	-14.75183	59.47724	85.38363	
18:12:19	47.46363	-122.3077	0.04	15.70924	1581.06	0.48	3	100	0	4	3.464884	63.83913	170.841	
18:12:20	47.46363	-122.3077	0.033	14.38592	1284.993	0.77	3	100	0	4	-10.55867	60.85972	16.70293	
18:12:22	47.46363	-122.3077	0.032	11.65973	1000.143	0.76	3	100	0	4	-28.17859	59.55644	-140.603	
18:12:24	47.46363	-122.3077	0.032	9.331839	781.7806	0.73	3	100	0	4	62.27806	1.128242	-153.7671	
18:12:25	47.46363	-122.3077	0.025	6.644635	534.3703	0.02	3	100	0	4	14.30398	-42.25923	-134.2487	
18:12:27	47.46363	-122.3077	0.034	3.771419	211.9532	0.1	3	100	0	5	-43.41449	-18.23727	32.83785	
18:12:29	47.46362	-122.3077	0.04	1.601501	101.2356	0.24	3	100	0	5	-26.75196	-1.715264	-144.1328	
18:12:30	47.46362	-122.3077	0.023	-1.626806	-479.5521	0	3	100	0	4	-88.26917	-24.55935	-72.9327	
18:12:32	47.46362	-122.3077	0.022	-9.100139	-1365.829	0.07	3	100	0	4	-114.9873	52.76855	-27.67328	
18:12:34	47.46362	-122.3077	0.034	-8.918877	-470.0526	0.1	3	100	0	10	32.87557	-11.83231	152.7398	
18:12:36	47.46362	-122.3077	0.04	-4.24241	-573.3711	0.27	3	100	0	16	90.07095	-18.11217	76.64452	
18:12:37	47.46362	-122.3077	0.002	-9.227954	-1021.076	1.83	3	100	0	22	-17.7419	-16.64699	90.94527	
18:12:39	47.46362	-122.3077	0.002	-9.180985	-886.0834	1.83	3	100	0	23	-119.1865	-22.50291	93.21877	
18:12:41	47.46363	-122.3078	0.669	-10.56625	-1245.98	4.63	3	100	0	22	-90.31882	46.39476	-4.296684	
18:12:42	47.46379	-122.3079	0.054	-5.193922	-689.782	14.69	12.33179	100	0	32	-57.69502	5.013584	-67.80864	
18:12:44	47.46391	-122.3081	-0.084	-11.61377	-1397.811	2.88	3	100	0	46	52.56555	15.8759	62.9435	
18:12:46	47.46391	-122.3081	-0.084	-13.33024	-1307.307	0.01	3.332659	100	0	99	49.20359	18.30641	155.6369	
18:12:48	47.46391	-122.3081	-0.084	-12.76547	-1259.923	0.01	3	100	0	37	33.52861	14.42145	-109.4236	
18:12:49	47.46391	-122.3081	-0.084	-12.50829	-1157.182	0.01	3	100	0	42	25.21016	43.23561	-29.35904	
18:12:51	47.46391	-122.3081	-0.084	-7.753993	-314.576	0.01	3	100	0	43	81.5491	35.5349	102.6694	
18:12:53	47.46391	-122.3081	-0.084	-0.885524	120.1961	0.01	3	100	0	52	58.14827	-13.67861	177.3976	
18:12:54	47.46391	-122.3081	-0.084	-2.918297	-651.8822	0.01	3	100	0	4	-7.276709	-4.008526	-106.6101	
18:12:56	47.46391	-122.3081	-0.084	-7.303084	-633.3079	0.01	3	100	0	4	-76.9421	64.30061	-113.2319	
18:12:58	47.46391	-122.3081	-0.084	3.05164	1204.426	0.01	3	100	0	4	131.0932	6.292427	142.0736	
18:13:00	47.46391	-122.3081	-0.084	12.81082	1343.793	0.02	3	100	0	4	67.30022	-57.73268	-177.0283	
18:13:01	47.46391	-122.3081	-0.084	5.75261	-52.84076	0.01	3	100	0	4	-56.3054	-20.03275	-99.33455	
18:13:03	47.46391	-122.3081	-0.084	1.256685	442.5596	0.01	3	100	0	4	-150.9497	18.51481	-167.4213	
18:13:05	47.46391	-122.3081	-0.084	11.39778	1685.083	0.01	3	100	0	4	149.2419	-41.81449	142.1846	
18:13:06	47.46391	-122.3081	-0.084	12.92581	953.223	0.01	3	100	0	4	-73.22736	-73.72273	-52.8985	
18:13:08	47.46391	-122.3081	-0.084	4.964271	176.1378	0.01	3	100	0	4	-111.2286	-19.84917	-106.9032	
18:13:10	47.46391	-122.3081	-0.084	5.767986	928.7959	0.01	3	100	0	4	-166.1185	-19.92998	168.4733	
18:13:11	47.46391	-122.3081	-0.084	10.56245	1116.675	0.02	3	100	0	4	179.1276	-64.40538	98.75581	
18:13:13	47.46391	-122.3081	-0.083	6.662765	282.8438	0.02	3	100	0	4	-104.2163	-50.72797	-56.09649	
18:13:15	47.46391	-122.3081	-0.084	2.022224	133.9649	0	3	100	0	4	-130.3077	-34.40992	-97.79887	
18:13:17	47.46391	-122.3081	-0.084	3.095376	422.087	0	3	100	0	4	169.0625	-58.62067	-72.27274	
18:13:18	47.46391	-122.3081	-0.084	3.001127	159.4849	0	3	100	0	4	107.9412	-57.92715	-32.4386	
18:13:20	47.46391	-122.3081	-0.084	-1.98338	-598.9399	0	3	100	0	4	71.71159	-28.283	-10.21167	
18:13:22	47.46391	-122.3081	-0.084	-9.616131	-1371.628	0	3	100	0	4	53.58921	16.81343	-2.109767	
18:13:23	47.46391	-122.3081	-0.084	-13.86933	-1375.994	0	3	100	0	4	39.55401	70.96632	9.691467	
18:13:25	47.46391	-122.3081	-0.084	-7.862312	-100.5842	0	3	100	0	4	-167.4099	51.62496	-161.2573	
18:13:27	47.46391	-122.3081	-0.084	5.638937	989.4538	0	3	100	0	4	168.4621	8.944971	-138.3051	
18:13:29	47.46363	-122.3078	0.02	-2.140458	-1065.672	0	3	100	0	4	163.9765	11.5904	-148.5043	
18:13:30	47.46363	-122.3078	0.02	-14.21491	-1873.038	0	3	100	0	4	156.2029	13.5806	-158.5496	
18:13:32	47.46363	-122.3078	0.02	-17.12758	-1641.598	0	3	100	0	4	144.4252	13.63467	-170.4785	
18:13:34	47.46363	-122.3078	0.02	-13.4025	-1025.287	0	3	100	0	4	129.6031	11.16573	178.5147	
18:13:35	47.46363	-122.3078	0.02	-8.673906	-497.0911	0	3	100	0	4	112.4901	6.712111	170.4238	
18:13:37	47.46363	-122.3078	0.02	-8.673906	-497.0911	0	3	100	0	5	95.4621	3.788236	165.46	
18:13:39	47.46363	-122.3078	0.02	-8.673906	-497.0911	0	3	100	0	4	78.76402	-0.2192771	161.5836	
18:13:40	47.46363	-122.3078	0.02	-7.378354	-72.86258	0	3	100	0	4	11.94916	-2.747787	0.9231631	
18:13:42	47.46363	-122.3078	0.02	10.09241	2033.891	0	3	100	0	4	-0.8749786	3.369158	88.00901	
18:13:44	47.46363	-122.3078	0.02	22.17863	2561.771	0	3	100	0	4	0.07440513	-0.9356871	170.1312	
18:13:46	47.46363	-122.3078	0.02	23.34224	2188.827	0	3	100	0	4	0.6846218	-0.6093605	178.9436	
18:13:47	47.46363	-122.3078	0.02	19.38091	1665.473	0	3	100	0	5	0.6217146	-0.5185213	-179.5909	
18:13:49	47.46363	-122.3078	0.02	15.02835	1277.911	0	3	100	0	4	0.6198297	-0.525923	-179.4722	
18:13:51	47.46363	-122.3078	0.02	11.82641	1030.211	0.14	3	100	0	7	0.6306524	-0.5156851	179.7713	
18:13:52	47.46362	-122.3078	0.02	9.684418	862.8342	1.91	3	100	0	44	0.7652341	1.139468	171.0038	
18:13:54	47.46357	-122.3077	0.021	8.120877	730.5199	6.22	6.235456	100	0	72	2.205711	2.302066	167.468	
18:13:56	47.46341	-122.3077	0.078	7.190428	799.1853	14.12	14.13514	100	0	98	20.60576	11.03949	166.7784	
18:13:57	47.46318	-122.3077	8.419	14.314	961.6141	13.92	13.6223	100	0	98	-43.71344	15.57635	-178.0161	
18:13:59	47.4629	-122.3077	14.034	18.37424	846.2769	19.93	18.12368	100	0	99	10.27914	13.23296	172.3538	
18:14:01	47.46258	-122.3076	22.94	27.16049	1395.221	20.21	18.72821	100	0	98	0.5950633	30.06999	172.3821	
18:14:03	47.46229	-122.3075	40.881	41.93792	1048.815	18.98	17.48695	100	0	95	8.529604	24.35775	171.7368	
18:14:04	47.46196	-122.3074	45.067	47.19043	244.1914	24.34	21.22937	100	0	95	-1.400704	-0.2996007	168.6978	
18:14:06	47.46161	-122.3073	43.27	46.51259	241.565	28.15	25.63587	100	0	95	15.67577	-0.6128383	168.4571	
18:14:08	47.46118	-122.3072	43.009	45.64968	251.507	30	27.49928	100	0	95	-4.063621	0.1830941	169.0556	
18:14:10	47.46067	-122.3071	45.095	46.60041	245.0333	29.93	27.40414	100	0	95	-4.154693	0.3941247	164.5116	
18:14:11	47.46025	-122.3069	47.004	48.33023	292.1055	29.56	26.49423	100	0	95	4.436644	0.6920695	167.1326	
18:14:13	47.45983	-122.3066	49.74	50.51507	134.5943	24.69	20.96833	100	0	16	-1.566269	-1.742739	146.8957	
18:14:15	47.45953	-122.3064	49.54	50.6218	84.41444	21.43	17.70316	100	0	16	4.227859	-3.294508	143.8659	
18:14:16	47.45926	-122.3062	49.175	50.05462	46.45451	19.52	15.98168	100	0	16	16.27995	-2.445602	147.7467	
18:14:18	47.45901	-122.306	49.03	49.33242	6.868418	18.08	14.40698	100	0	16	16.01497	-2.791864	161.4673	
18:14:20	47.45875	-122.3059	49.003	49.11916	6.950817	16.65	13.48441	100	0	16	14.75552	-2.342471	176.7784	
18:14:22	47.4585	-122.3059	49.174	49.38057	41.5369	15.37	12.51951	100	0	16	-1.681379	-0.4582067	-176.6039	
18:14:23	47.45826	-122.3059	48.602	48.67916	-135.4089	14.52	11.15123	100	0	17	-29.81927	-4.345586	167.0741	
18:14:25	47.45808	-122.3057	45.512	46.02905	-0.271048	15.27	11.87773	100	0	16	-2.520616	0.1241093	143.0475	
18:14:27	47.45788	-122.3055	44.208	44.60136	-118.4397	14.69	11.34324	100	0	16	32.45919	-0.1170189	142.9769	
18:14:29	47.45768	-122.3053	39.529	39.53418	-309.7318	15.93	12.4141	100	0	16	37.58216	-8.100141	-178.2152	
18:14:30	47.45744	-122.3054	36.349	36.91766	41.23889	15.82	14.79828	100	0	16	8.38128	1.579892	-130.5368	
18:14:32	47.45727	-122.3057	37.591	37.26334	-145.6837	13.93	13.34294	100	0	16	-21.62123	-3.725577	-129.5499	
18:14:34	47.45708	-122.3059	33.939	34.335	-93.47127	16.02	14.13205	100	0	36	-1.324579	-2.900562	-141.8639	
18:14:35	47.45689	-122.3061	34.003	34.23741	76.69133	16.37	14.81546	100	0	36	-1.33257	3.614744	-140.6787	
18:14:37	47.4567	-122.3062	35.245	35.06122	8.02225	16.31	14.66297	100	0	36	-0.4640911	1.290936	-142.1636	
18:14:39	47.45646	-122.3065	35.471	35.43801	18.86001	17.24	15.58323	100	0	62	-0.0171518	0.8851299	-142.7794	
18:14:41	47.45621	-122.3067	36.41	36.50746	145.4913	20.57	18.86504	100	0	82	-0.4112351	3.340621	-143.8223	
18:14:42	47.45593	-122.307	39.1	38.90997	116.2899	23.37	21.64454	100	0	80	-6.436591	1.950932	-144.1087	
18:14:44	47.4556	-122.3073	41.003	40.812	74.16895	25.38	23.45173	100	0	83	-10.18388	0.4187935	-148.9656	
18:14:46	47.45524	-122.3075	42.094	42.16994	71.80267	26.83	24.65732	100	0	80	-10.92656	0.1410421	-154.4955	
18:14:47	47.45485	-122.3077	42.875	43.00116	48.45165	27.75	25.32246	100	0	81	-14.62162	0.0009801321	-161.1099	
18:14:49	47.45438	-122.3079	43.334	43.46368	27.38234	28.58	25.81992	100	0	80	-16.91409	-0.1064113	-168.1404	
18:14:51	47.45398	-122.308	43.543	43.71894	54.33009	28.86	25.94765	100	0	81	-0.4246234	0.2398706	-175.6888	
18:14:53	47.45355	-122.308	44.302	44.36481	40.9636	29.02	26.20156	100	0	71	2.701846	0.0307108	-173.559	
18:14:54	47.45311	-122.308	45.253	45.30225	65.45354	27.27	24.55261	100	0	63	-2.306079	0.2779385	-174.6482	
18:14:56	47.4527	-122.3081	46.483	46.33234	8.641956	24.47	21.72929	100	0	4	0.3420464	-0.5027039	179.5839	
18:14:58	47.45232	-122.3081	47.636	47.53069	84.80188	19.67	16.9042	100	0	16	-1.904099	3.63972	-175.5917	
18:15:00	47.45204	-122.3082	47.446	47.4262	-92.29706	18.5	15.78247	100	0	33	-0.3423305	-1.823668	-174.1764	
18:15:01	47.45175	-122.3082	46.209	46.4824	-12.03232	19.07	16.34323	100	0	35	-0.1153113	0.6063445	-173.8737	
18:15:03	47.45146	-122.3083	45.889	45.96618	-25.45472	19.17	16.47829	100	0	35	-0.003060738	0.6332083	-173.3358	
18:15:05	47.4512	-122.3083	45.49	45.37951	-40.53047	19.31	16.64296	100	0	36	-0.003678201	0.1942495	-172.8631	
18:15:06	47.45089	-122.3084	44.844	44.73972	-40.86054	19.5	16.85607	100	0	23	0.01562981	0.1089639	-172.432	
18:15:08	47.4506	-122.3084	43.852	43.8191	-66.02456	19.01	16.3942	100	0	53	-0.05492551	-0.5995338	-172.082	
18:15:10	47.45028	-122.3085	43.475	43.77433	116.7249	22.6	19.96411	100	0	64	-0.8186359	3.077422	-172.8074	
18:15:12	47.4499	-122.3086	45.517	45.3165	97.20376	22.31	20.18316	100	0	4	1.798064	2.9347	-170.5103	
18:15:13	47.44958	-122.3087	47.635	47.28249	35.59106	18.05	15.58294	100	0	5	5.067451	2.803308	-168.0447	
18:15:15	47.44933	-122.3087	46.336	46.18578	-254.4333	16.72	14.48102	100	0	19	6.779097	-8.324139	-162.9538	
18:15:17	47.44908	-122.3089	41.947	42.80068	-62.84015	16.86	14.75386	100	0	29	4.625037	-1.409782	-139.3304	
18:15:19	47.44889	-122.3091	41.294	41.51899	-39.73263	15.61	14.24612	100	0	48	0.4879519	2.127988	-133.0815	
18:15:20	47.4487	-122.3093	41.05	40.88668	-40.10713	16	12.75984	100	0	61	-13.58348	-0.8521448	-178.952	
18:15:22	47.44843	-122.3093	41.253	41.16237	34.21712	16.66	13.02282	100	0	62	-3.026646	3.192494	158.0546	
18:15:24	47.4482	-122.3093	41.693	41.4902	-26.572	16.99	13.82199	100	0	54	1.504686	1.436323	147.16	
18:15:25	47.44794	-122.3091	41.105	41.10698	-28.51158	18.21	14.6027	100	0	55	7.388445	1.094192	151.8971	
18:15:27	47.44767	-122.309	40.818	40.82446	-20.31827	19.02	14.14465	100	0	55	2.216686	0.3968747	152.7745	
18:15:29	47.44739	-122.3088	40.971	41.02306	32.34752	18.61	11.61053	100	0	54	7.519961	1.51065	163.8646	
18:15:31	47.44712	-122.3087	41.423	41.26474	-4.877359	17.59	9.182922	100	0	54	-5.471135	0.7002388	156.72	
18:15:32	47.44688	-122.3085	41.029	40.91573	-30.92286	18.46	8.519873	100	0	54	-3.999128	-0.3901561	139.4706	
18:15:34	47.44663	-122.3082	40.889	40.87629	16.78713	18.2	6.801057	100	0	54	2.027354	2.063471	139.8895	
18:15:36	47.44638	-122.308	40.875	40.82788	-29.45577	18.61	6.38723	100	0	55	3.470909	0.07081836	146.6501	
18:15:38	47.44613	-122.3078	40.614	40.61541	-24.97143	18.6	6.041895	100	0	54	9.066489	-1.990983	170.0116	
18:15:39	47.44585	-122.3077	39.962	40.00897	-36.33981	18.03	7.747725	100	0	54	3.074687	-0.1400175	176.9617	
18:15:41	47.44559	-122.3077	39.7	39.7311	0.5821755	18.84	8.867789	100	0	54	0.5149385	0.9636428	-179.8088	
18:15:43	47.4453	-122.3076	39.515	39.04854	-196.9269	19.01	7.758024	100	0	53	0.2160896	-5.155373	-174.8079	
18:15:44	47.44499	-122.3076	37.223	37.51555	12.66763	20.2	7.441624	100	0	54	3.071584	0.5041472	-172.3666	
18:15:46	47.44467	-122.3076	37.355	37.14327	-174.0405	18.93	5.472799	100	0	56	-4.048344	-4.330161	-175.0078	
18:15:48	47.44436	-122.3076	33.129	33.6925	-150.1533	19.61	5.54728	100	0	54	2.333395	-4.602257	174.7719	
18:15:50	47.44408	-122.3076	32.223	32.5312	49.75915	19.04	5.578273	100	0	54	-4.600144	1.921431	167.6049	
18:15:51	47.44382	-122.3076	33.431	33.1445	3.769276	17.56	3	100	0	53	0.006252163	1.524111	-179.8724	
18:15:53	47.44355	-122.3076	33.064	32.86544	-25.8566	18.65	3.51119	100	0	53	4.797543	-0.7840023	-172.4416	
18:15:55	47.44323	-122.3076	32.865	32.93607	26.47596	18.57	3.571723	100	0	53	-0.6927795	1.239881	-169.5591	
18:15:57	47.44294	-122.3076	32.904	32.93386	-21.14138	19.15	3.61926	100	0	54	-1.312909	-0.2735146	-175.4615	
18:15:58	47.44264	-122.3076	32.796	32.88338	27.12828	19.01	3.454044	100	0	54	-3.516054	1.575142	-175.6477	
18:16:00	47.44238	-122.3076	33.042	33.04539	-7.837852	18.67	3.218673	100	0	54	-3.914792	0.5338666	177.9426	
18:16:02	47.44209	-122.3077	33.009	33.01023	-0.7444678	18.63	3.292192	100	0	49	-7.278882	-0.03623868	173.9431	
18:16:03	47.44177	-122.3077	32.543	32.61968	-29.22961	18.38	3	100	0	38	-1.202823	0.2117827	170.2435	
18:16:05	47.44149	-122.3077	31.735	31.85061	-39.93678	16.57	3	100	0	22	7.413383	-0.2609947	-177.1371	
18:16:07	47.44126	-122.3077	30.119	30.15842	-146.2842	15.49	3	100	0	16	-2.480877	-3.193856	172.4794	
18:16:09	47.44102	-122.3077	26.665	26.53774	-362.7522	15.38	3	100	0	10	1.466599	-11.68102	-179.6328	
18:16:10	47.44078	-122.3077	18.255	18.08891	-669.9679	17.45	3	100	0	10	3.763818	-20.90461	-174.1238	
18:16:12	47.44051	-122.3078	7.236	9.741589	229.8515	20.83	5.846381	100	0	6	-20.83039	11.08775	174.6198	
18:16:14	47.4402	-122.3077	9.81	8.748016	-216.64	16.94	4.33523	100	0	6	-22.19066	-0.298064	163.3533	
18:16:15	47.43994	-122.3076	7.112	6.790966	-28.31617	18.66	6.995599	100	0	90	20.20485	1.961331	166.4311	
18:16:17	47.43962	-122.3075	11.761	11.47382	351.6487	21.35	8.326111	100	0	89	10.9264	9.790917	169.7145	
18:16:19	47.43925	-122.3075	16.63	15.99856	387.2054	23.86	9.870671	100	0	89	15.17829	10.15573	-171.8698	
18:16:21	47.43891	-122.3076	17.622	17.50469	-71.60908	26.37	13.68085	100	0	88	26.88013	-0.5132843	-163.5122	
18:16:22	47.43851	-122.3078	17.076	18.73116	312.5448	27.35	15.68627	100	0	89	-31.30128	5.611227	-159.1909	
18:16:24	47.43808	-122.308	19.622	19.88562	167.7486	25.79	13.88992	100	0	89	3.036715	3.383159	-159.3308	
18:16:26	47.43776	-122.3082	23.771	24.06738	147.2247	23.53	8.525453	100	0	89	-37.2334	5.774813	-175.8441	
18:16:28	47.43737	-122.3081	27.997	27.02365	21.09207	23.22	10.55597	100	0	89	-5.461444	-1.122544	168.5918	
18:16:29	47.437	-122.3081	29.585	31.74685	1111.22	23.1	7.966943	100	0	90	9.165314	25.80567	-175.8221	
18:16:31	47.43663	-122.3081	36.766	36.05299	-132.8634	24.72	8.924383	100	0	89	-28.78427	1.318287	-176.8695	
18:16:33	47.43629	-122.3081	32.663	33.1399	-106.0577	26.32	12.04105	100	0	89	36.2112	3.763435	170.6514	
18:16:34	47.43585	-122.3081	27.953	29.09212	44.75284	25.6	9.230547	100	0	6	1.752776	3.419853	-179.7018	
18:16:36	47.43554	-122.3081	30.135	30.10087	62.00078	20.12	3.550911	100	0	4	9.213652	8.092665	-170.3781	
18:16:38	47.43524	-122.3082	32.076	30.79397	-194.3386	16.95	3	100	0	18	0.9896997	-2.142685	-167.8541	
18:16:40	47.43497	-122.3083	29.185	29.0591	-122.9928	17.87	3	100	0	36	-20.68982	-0.6016873	-169.1179	
18:16:41	47.43471	-122.3083	26.602	26.96909	-20.21127	19.06	3.182089	100	0	30	9.166966	0.7277599	179.3154	
18:16:43	47.4344	-122.3083	26.194	26.1317	-94.36641	19.1	3	100	0	40	-26.9066	0.5910143	176.5523	
18:16:45	47.4341	-122.3083	27.164	28.63969	584.1873	17.01	4.695745	100	0	40	-2.393003	24.06254	166.5632	
18:16:47	47.43387	-122.3082	29.535	28.41034	-53.35305	17.13	4.790822	100	0	40	-2.454805	3.469317	165.6708	
18:16:48	47.43359	-122.3081	27.515	27.22321	-179.3919	18.8	3.938263	100	0	40	23.91454	-2.950267	177.0073	
18:16:50	47.43327	-122.3082	24.528	24.95564	-103.5856	20.25	4.345929	100	0	41	-32.61095	0.5793872	-174.3184	
18:16:52	47.43293	-122.3082	21.627	22.10785	-15.23911	21.06	7.691038	100	0	40	-15.49407	2.62105	168.8171	
18:16:53	47.43268	-122.308	26.509	25.84255	195.5842	16.9	14.37518	100	0	40	-49.52182	17.10859	128.2292	
18:16:55	47.43258	-122.3076	30.813	28.9322	-78.75294	15.81	20.97859	100	0	40	-41.16768	5.221946	89.96688	
18:16:57	47.43266	-122.3073	30.844	30.16064	-181.685	15.94	25.08017	100	0	40	-37.98516	-2.831461	49.23022	
18:16:59	47.43289	-122.3071	25.616	26.45022	-203.466	18.46	27.7414	100	0	40	-38.13629	-3.117723	11.71725	
18:17:00	47.43319	-122.3072	20.918	22.06399	-190.9989	20.05	27.6333	100	0	40	-40.14111	-0.803904	-20.03498	
18:17:02	47.43345	-122.3074	17.125	17.68026	-131.0717	20.68	24.76986	100	0	40	-41.84836	2.164029	-57.06749	
18:17:04	47.43352	-122.3078	15.551	15.27617	-102.89	20.41	20.3063	100	0	40	-40.42338	2.785012	-92.18303	
18:17:06	47.43345	-122.3083	14.912	14.41579	-94.03003	19.77	16.16742	100	0	40	-40.94899	1.640632	-127.7114	
18:17:07	47.43319	-122.3085	13.317	13.31036	-82.03701	19.51	14.63355	100	0	40	-40.60816	0.9702836	-165.0544	
18:17:09	47.43289	-122.3086	10.622	10.9321	-67.93149	19.9	16.36263	100	0	40	-13.09694	-1.623795	163.4487	
18:17:11	47.43258	-122.3084	8.609	8.907711	-127.3951	20.46	17.05418	100	0	40	2.390755	-3.240083	160.6612	
18:17:12	47.43228	-122.3082	6.059	6.457765	-49.52944	21.18	17.71045	100	0	40	8.540515	-0.8633826	164.6232	
18:17:14	47.43196	-122.3081	4.795	4.683209	-159.3746	21.31	17.53086	100	0	40	7.665616	-3.642823	172.4388	
18:17:16	47.43161	-122.3081	3.323	3.437917	-9.188469	21.28	17.35118	100	0	40	-0.3017058	0.9278072	177.0518	
18:17:18	47.43129	-122.3081	3.297	3.155931	-33.07493	20.83	16.90693	100	0	40	-0.5377207	0.2805629	178.3899	
18:17:19	47.43099	-122.308	2.823	2.731448	-37.05313	20.71	16.70648	100	0	40	-0.135351	-0.07179903	-179.6641	
18:17:21	47.43066	-122.3081	2.209	2.222844	-33.34361	20.61	16.56988	100	0	40	-0.005642508	-0.07176042	-177.4168	
18:17:23	47.43032	-122.3081	1.561	1.628249	-33.01952	20.59	16.52703	100	0	40	-0.0729645	-0.03394971	-175.0073	
18:17:24	47.43003	-122.3081	0.958	1.037341	-31.25391	20.58	16.47238	100	0	40	-0.001325408	0.02707201	-172.503	
18:17:26	47.4297	-122.3082	0.451	0.5406163	-29.04048	20.53	16.402	100	0	40	-1.16778	0.2806551	-169.9202	
18:17:28	47.42938	-122.3083	0.026	0.1153182	-12.13229	20.46	16.48265	100	0	40	-0.4981175	0.08382717	-168.331	
18:17:30	47.42906	-122.3083	0.061	0.13576	47.83295	22.68	18.6943	100	0	95	-0.5021545	1.570706	-165.2941	
18:17:31	47.42873	-122.3085	1.647	1.64986	92.05452	25.87	21.89781	100	0	95	0.2481899	1.903673	-162.1618	
18:17:33	47.42833	-122.3087	3.262	3.133451	56.2269	27.95	24.00257	100	0	95	0.261906	0.6504819	-158.6552	
18:17:35	47.4279	-122.3089	4.14	4.110064	44.72171	29.36	25.44313	100	0	95	0.09843958	0.1300147	-155.244	
18:17:37	47.42748	-122.3092	4.796	4.859555	44.62615	30.17	26.3061	100	0	95	0.01848993	0.05838086	-152.0446	
18:17:38	47.42704	-122.3095	5.563	5.34908	-53.4173	30.42	26.54812	100	0	95	-25.72712	-0.18221	-151.6313	
18:17:40	47.42662	-122.3098	5.249	5.235816	57.79214	29.01	25.07926	100	0	95	1.851779	1.825723	-148.4216	
18:17:42	47.42629	-122.3101	8.092	7.622225	62.50905	25.65	19.57881	100	0	95	2.130199	1.332	-142.2162	
18:17:43	47.42596	-122.3105	10.267	10.00144	78.38428	24.37	16.70572	100	0	95	-0.3004168	0.3113775	-133.0421	
18:17:45	47.42568	-122.3108	11.696	12.06356	228.125	24.2	13.46964	100	0	95	9.58884	2.856786	-133.6467	
18:17:47	47.42539	-122.3112	14.874	13.88945	55.45242	24.6	13.81412	100	0	95	1.065215	-0.3074523	-131.7405	
18:17:49	47.42513	-122.3115	17.453	17.03909	111.8399	23.94	12.64014	100	0	95	4.907971	0.7507705	-141.2693	
18:17:50	47.42481	-122.3119	20.57	19.78015	-30.23122	24.43	12.87118	100	0	95	-38.96	5.620644	-136.7155	
18:17:52	47.4245	-122.3121	20.927	20.42865	-34.82954	26	14.84944	100	0	95	15.40953	-1.094469	-157.0374	
18:17:54	47.42408	-122.3124	20.453	21.28467	209.3403	28.52	17.13964	100	0	95	2.127625	1.12886	-150.2075	
18:17:56	47.42369	-122.3127	25.135	25.57267	319.376	28.25	16.79432	100	0	95	1.265553	3.650525	-146.1542	
18:17:57	47.42333	-122.3131	29.497	29.732	382.3535	27.47	15.10082	100	0	95	12.48535	3.488941	-128.9641	
18:17:59	47.42305	-122.3135	34.777	34.91851	276.7178	24.92	11.05322	100	0	95	-13.66555	0.3440653	-137.6607	
18:18:01	47.42281	-122.314	36.342	37.1755	103.4053	24.89	10.95239	100	0	95	-2.143113	-0.9284707	-108.1222	
18:18:02	47.42258	-122.3145	36.032	37.10416	64.36615	25.34	12.8054	100	0	95	-4.495555	-0.3722335	-105.5406	
18:18:04	47.42247	-122.315	35.486	36.4364	68.69689	25.61	14.01037	100	0	95	-3.888451	0.1150251	-107.8349	
18:18:06	47.42239	-122.3156	36.321	36.54847	46.02843	24.45	11.29931	100	0	95	0.4471747	1.604925	-89.03596	
18:18:08	47.42234	-122.3161	36.592	36.25345	-44.88686	25.84	12.21594	100	0	95	-4.837092	-0.5811391	-99.01814	
18:18:09	47.42227	-122.3168	37.78	37.02749	49.39363	26.23	11.94169	100	0	95	8.676497	0.524881	-84.40359	
18:18:11	47.42223	-122.3173	41.206	40.62661	236.8158	24.64	11.24847	100	0	95	-11.92133	1.240147	-121.4151	
18:18:13	47.4222	-122.3178	46.112	45.41573	131.0765	22.81	7.63936	100	0	95	-2.581807	0.08644257	-92.8927	
18:18:15	47.42218	-122.3184	50.341	49.8274	142.5794	22.62	8.195919	100	0	95	1.709841	-0.5299137	-89.4108	
18:18:16	47.42223	-122.319	51.795	51.98542	143.8587	26.08	12.77522	100	0	95	5.021377	-0.3483234	-73.71895	
18:18:18	47.42234	-122.3195	53.472	53.96418	133.9683	26.88	16.33919	100	0	95	-7.053761	-0.465941	-82.6893	
18:18:20	47.4225	-122.3201	55.294	55.62908	95.13241	27	17.86677	100	0	95	4.937485	-0.2008562	-64.04037	
18:18:21	47.42269	-122.3206	55.259	55.87735	66.56503	28.43	21.23026	100	0	95	6.215109	0.250457	-52.55288	
18:18:23	47.42294	-122.3211	55.47	56.11633	28.07263	28.24	22.44575	100	0	95	-6.735755	1.290554	-47.4257	
18:18:25	47.42323	-122.3216	54.546	55.22888	38.28235	26.01	18.9412	100	0	95	-3.792209	4.160295	-61.58126	
18:18:27	47.42353	-122.322	53.075	52.93544	-236.7593	26.29	19.61716	100	0	95	2.965641	-0.5337471	-35.62088	
18:18:28	47.42385	-122.3224	49.356	49.65992	-133.4154	26.31	20.31906	100	0	95	2.60688	1.022424	-47.97292	
18:18:30	47.42418	-122.3228	45.926	46.41916	-132.8321	25.88	18.00933	100	0	95	11.7412	2.396382	-28.61576	
18:18:32	47.42452	-122.323	43.513	43.05539	-317.42	25.51	16.17227	100	0	95	-2.261662	-0.794807	-29.27002	
18:18:34	47.42485	-122.3232	39.115	38.34188	-239.2297	27.03	16.71387	100	0	95	-4.941011	0.8041942	-35.22315	
18:18:35	47.42526	-122.3234	35.329	34.25832	-304.8878	25.44	14.76494	100	0	95	-1.774042	0.3455859	-9.758611	
18:18:37	47.42567	-122.3236	31.376	30.88695	-227.9144	26.05	13.26475	100	0	95	-10.54649	0.2302365	-21.09838	
18:18:39	47.42608	-122.3237	28.034	27.61457	-208.7761	27.8	15.4494	100	0	95	-0.7376841	0.02964329	-15.11275	
18:18:40	47.42652	-122.3238	25.065	24.89935	-208.2695	26.94	15.55291	100	0	95	4.590985	1.048049	-12.68375	
18:18:42	47.42689	-122.3239	24.232	22.9806	-142.2561	26.59	15.83329	100	0	95	6.630066	-0.3047433	2.942939	
18:18:44	47.42732	-122.3239	25.034	24.3243	42.9755	25.66	13.87723	100	0	95	-9.266258	0.5546687	-9.560777	
18:18:46	47.42775	-122.3239	25.63	25.49577	33.79221	26.7	12.72158	100	0	95	3.809356	-0.129784	-2.425666	
18:18:47	47.42815	-122.3239	25.68	25.99634	74.08564	28.46	14.80295	100	0	95	4.583325	0.336157	2.336121	
18:18:49	47.42861	-122.3238	27.016	27.32914	147.5144	27.22	13.5229	100	0	95	3.04537	3.142863	5.994178	
18:18:51	47.42904	-122.3238	28.953	28.72919	66.43659	26.97	12.82653	100	0	95	-4.315856	1.081314	13.05242	
18:18:53	47.42946	-122.3237	30.149	30.06479	72.66644	27.36	13.79845	100	0	95	-0.5645986	0.7044467	0.9265496	
18:18:54	47.42983	-122.3236	30.721	30.8812	48.76925	28.16	14.83591	100	0	95	1.046897	-0.2182942	4.425937	
18:18:56	47.43029	-122.3234	31.17	31.57222	129.5452	28.58	15.84523	100	0	95	5.966536	1.723568	8.789254	
18:18:58	47.43068	-122.3232	31.755	31.76806	-13.63277	29.06	18.41929	100	0	95	5.571264	-0.116632	15.98166	
18:18:59	47.43108	-122.3229	31.864	31.97747	-79.81146	28.07	16.73565	100	0	95	-5.18577	-0.5244948	12.19185	
18:19:01	47.43148	-122.3226	31.198	31.12399	-48.46963	28.78	17.00708	100	0	95	4.00314	-0.1195271	18.5431	
18:19:03	47.4319	-122.3223	31.019	31.089	54.91244	28.19	16.53662	100	0	95	5.901457	1.857755	26.88434	
18:19:05	47.43229	-122.322	32.22	31.80451	40.92347	27.43	13.21959	100	0	95	10.04766	1.867513	32.56894	
18:19:06	47.43264	-122.3217	32.887	32.82174	103.2887	27.24	11.63654	100	0	95	8.810799	0.4663928	43.28078	
18:19:08	47.43299	-122.3214	34.831	34.68126	27.43278	25.4	9.573804	100	0	95	-6.894653	0.3988891	34.66161	
18:19:10	47.43338	-122.3212	34.991	35.03598	-15.57564	26.18	8.084177	100	0	95	0.6622272	0.8863294	36.81167	
18:19:12	47.4338	-122.321	33.938	34.16153	-64.49526	26.8	7.741683	100	0	95	-0.1100131	0.3310814	36.9696	
18:19:13	47.43421	-122.3209	32.101	32.37208	-159.8103	28.11	8.736856	74	0	95	-2.727903	-1.016994	39.74337	
18:19:15	47.43464	-122.3208	29.979	30.25119	-106.103	29.32	9.306453	75	0	95	0.6129755	-0.6796913	29.30786	
18:19:17	47.43507	-122.3206	28.655	28.74535	-50.71485	31.1	11.06387	77	0	95	-1.28157	-0.2567864	26.46765	
18:19:18	47.43557	-122.3205	28.126	28.10727	-19.8029	31.99	11.89349	78	0	95	-0.8460551	-0.05725387	23.11953	
18:19:20	47.43605	-122.3203	28.261	28.17875	13.04958	32.38	12.2221	79	0	95	0.1429522	-0.05426423	21.04724	
18:19:22	47.4365	-122.3201	28.773	28.71859	38.12816	32.51	12.32635	80	0	95	0.08981899	0.01168148	19.39374	
18:19:24	47.43697	-122.3199	29.571	29.5185	-9.662954	32.52	12.33406	81	0	95	32.76631	-0.3033151	17.92854	
18:19:25	47.43746	-122.3196	29.759	29.87511	210.4267	32.52	15.08106	83	0	94	22.56465	1.061263	39.47901	
18:19:27	47.43784	-122.3191	34.449	33.79846	193.4666	30.73	17.02989	84	0	66	16.56328	-0.3943959	50.95128	
18:19:29	47.43813	-122.3186	38.803	38.08264	80.4404	27.97	18.54168	85	0	54	38.39316	-2.855959	63.33655	
18:19:31	47.43829	-122.318	41.077	41.04951	198.8101	26.06	24.87751	86	0	54	42.72211	-1.166571	95.55782	
18:19:32	47.43823	-122.3176	43.103	44.30249	268.9818	24.94	31.28411	86	0	54	40.69555	1.029246	133.1895	
18:19:34	47.43794	-122.3172	45.018	46.45057	198.5216	24.06	35.54817	87	0	54	39.67377	0.1807734	170.0436	
18:19:36	47.43755	-122.3171	45.06	47.13768	295.2297	24.66	36.661	88	0	72	-2.047677	3.096252	-166.7705	
18:19:37	47.43717	-122.3172	48.305	48.7048	106.8945	25.36	37.37157	89	0	72	6.278228	2.139277	-168.0182	
18:19:39	47.43678	-122.3173	48.169	47.25461	-279.02	26.5	37.22912	90	0	72	38.04234	-5.052487	-146.7442	
18:19:41	47.4364	-122.3177	45.875	46.50533	118.1159	27.79	37.7581	90	0	72	0.2267853	1.854741	-142.2399	
18:19:43	47.43605	-122.318	47.694	47.35636	15.49677	27.8	37.8722	91	0	72	-1.608439	0.655908	-147.4599	
18:19:44	47.43568	-122.3184	48.711	48.18262	-0.2102602	28.05	38.16255	91	0	72	-0.307921	0.10246	-149.7961	
18:19:46	47.43531	-122.3187	49.461	49.04177	12.02061	28.28	38.40904	92	0	72	-0.008263201	0.01422588	-150.8518	
18:19:48	47.43493	-122.3191	50.15	49.84527	18.53662	28.42	38.54292	92	0	72	0.02467615	0.009481823	-151.3916	
18:19:50	47.43454	-122.3194	50.806	50.56155	21.60796	28.51	38.61839	93	0	72	0.01284549	0.01362173	-151.5335	
18:19:51	47.43416	-122.3198	51.495	51.25671	24.59251	28.57	38.66749	93	0	72	0.0118773	0.03440276	-151.4441	
18:19:53	47.43382	-122.3201	52.124	51.94977	25.84393	28.62	38.69025	94	0	72	0.05326563	0.03315131	-151.0174	
18:19:55	47.43348	-122.3204	52.645	52.58223	20.41369	28.66	38.72753	94	0	54	0.119867	-0.07281382	-150.4089	
18:19:56	47.43307	-122.3208	53.062	52.98783	14.93273	27.71	37.7006	95	0	68	-0.1191406	-0.09378187	-149.8052	
18:19:58	47.43276	-122.3211	53.42	54.18272	292.0914	28.08	38.10551	95	0	5	1.068922	6.472865	-146.6504	
18:20:00	47.43244	-122.3214	59.927	59.75063	125.624	20.17	28.89839	95	0	95	1.215099	6.478815	-144.6487	
18:20:02	47.43218	-122.3217	61.491	61.15646	29.28073	23.94	32.59728	96	0	95	-0.8623	1.008749	-143.369	
18:20:03	47.43188	-122.3221	61.732	62.09336	79.03354	27.67	35.28002	96	0	95	0.1934403	0.8823247	-141.2415	
18:20:05	47.43148	-122.3226	62.546	62.66299	44.56569	29.95	37.43893	96	0	95	0.2624465	0.3249587	-139.2377	
18:20:07	47.43113	-122.3231	63.161	63.17819	31.70047	31.05	38.42671	96	0	95	0.03696806	0.1103137	-137.5422	
18:20:09	47.43077	-122.3236	63.823	63.74535	30.69368	31.69	38.96311	97	0	95	0.07545477	-0.003839136	-135.8829	
18:20:10	47.43042	-122.3241	64.546	64.416	34.99436	32.02	39.19464	97	0	80	0.08248044	-0.01970197	-134.347	
18:20:12	47.43011	-122.3245	64.913	64.90434	21.28266	31.16	38.2472	97	0	79	-0.01870761	-0.2860541	-132.8493	
18:20:14	47.42976	-122.3251	66.007	65.51637	38.93029	30.69	37.67918	97	0	83	0.05639047	-0.09909789	-131.4671	
18:20:16	47.42943	-122.3257	68.844	67.85564	99.44135	30.22	37.10241	97	0	80	0.1248169	-0.145728	-130.0737	
18:20:17	47.42914	-122.3262	71.313	70.99841	166.038	30.12	36.903	97	0	81	-0.05059139	0.03488194	-128.8556	
18:20:19	47.42887	-122.3267	74.137	74.14645	189.9085	30.07	36.7647	98	0	85	-0.04515919	0.08870947	-127.7182	
18:20:21	47.42857	-122.3273	77.702	77.67024	356.1388	29.47	36.06333	98	0	66	0.1386519	3.178908	-126.4584	
18:20:22	47.42835	-122.3277	81.53	81.35021	62.6161	28	34.81239	98	0	66	-32.82013	-1.013755	-131.999	
18:20:24	47.42801	-122.3282	82.466	83.02	156.3092	27.65	35.76108	98	0	66	-36.42834	0.176729	-156.7306	
18:20:26	47.42756	-122.3283	83.648	84.67068	184.9367	27.07	34.6961	98	0	66	-8.850354	0.4188595	-178.8895	
18:20:28	47.42717	-122.3283	85.499	86.10802	119.2086	26.69	34.30535	98	0	70	4.657188	0.9368415	-177.2189	
18:20:29	47.4267	-122.3284	87.344	87.18404	52.36288	26.96	34.61673	98	0	66	1.428106	0.3414384	-173.4813	
18:20:31	47.42629	-122.3284	88.415	88.02341	-3.044549	25.87	33.53791	98	0	5	0.4540314	-0.7758655	-171.235	
18:20:33	47.42592	-122.3285	90.906	90.16424	216.4597	21.58	29.2426	98	0	36	3.464239	6.828716	-168.7807	
18:20:35	47.42561	-122.3286	94.308	93.023	18.13382	20.54	28.22003	99	0	55	-0.8599302	-0.5648074	-167.5338	
18:20:36	47.42529	-122.3287	95.784	95.38988	137.6493	21.32	28.64336	99	0	95	-0.7802762	0.3639785	-167.7766	
18:20:38	47.42493	-122.3288	99.066	99.31866	288.419	25.84	33.10978	99	0	95	-0.02354224	2.525005	-167.7334	
18:20:40	47.42456	-122.329	102.031	102.3954	176.7421	28.11	35.75648	99	0	95	0.2505032	0.9333986	-166.5536	
18:20:41	47.42413	-122.3292	104.393	104.5442	122.875	29.66	37.29422	99	0	95	0.1476458	0.2279715	-165.3008	
18:20:43	47.42365	-122.3293	106.642	106.3946	105.9433	30.15	37.76916	99	0	81	-0.03981275	-0.06354263	-164.1124	
18:20:45	47.4232	-122.3296	108.609	108.4521	123.9853	31.03	38.51975	99	0	95	0.01330873	0.1239304	-163.1166	
18:20:47	47.42279	-122.3297	110.632	110.6908	126.0545	31.57	39.16082	99	0	95	0.0955836	0.09409989	-162.0671	
18:20:48	47.42234	-122.33	112.769	112.955	126.9533	31.9	39.4703	99	0	95	-0.04991242	0.05082899	-161.0429	
18:20:50	47.42185	-122.3302	114.284	114.667	105.6155	32.14	39.68243	70	0	95	-0.07539108	-0.04257357	-159.9662	
18:20:52	47.42134	-122.3305	115.099	115.4444	66.52645	32.29	39.80213	72	0	95	-0.03183362	0.07109962	-159.0222	
18:20:54	47.42086	-122.3308	115.867	115.879	31.07894	32.35	39.8422	73	0	95	0.1222851	-0.02576682	-158.1709	
18:20:55	47.42047	-122.3311	116.644	116.5103	31.00791	32.18	39.64416	74	0	95	-2.29357	0.02325259	-160.5161	
18:20:57	47.42001	-122.3314	118.359	118.0064	18.2195	30.3	37.67768	76	0	95	-5.764753	-0.2190921	-161.6996	
18:20:59	47.4196	-122.3317	120.487	120.2153	76.00356	28.01	34.26278	77	0	95	5.194335	1.501583	-163.9424	
18:21:00	47.41929	-122.3319	121.164	121.2236	59.3559	27.57	31.32687	79	0	95	-26.89021	5.925749	-146.9466	
18:21:02	47.41877	-122.3321	108.426	107.3602	-1655.035	26.72	29.58693	80	0	62	7.222812	-4.377405	-95.10044	
18:21:04	47.4184	-122.3323	75.64	80.47092	-1252.011	26.94	27.19483	81	0	4	16.05426	-1.892109	-71.64098	
18:21:06	47.41819	-122.3328	52.092	56.41059	-787.4459	31.19	30.79655	82	0	41	-22.0013	3.204625	-73.53407	
18:21:07	47.41796	-122.3335	39.017	38.69134	-625.3607	31.6	31.31377	83	0	42	-41.8004	12.18465	-80.94177	
18:21:09	47.41774	-122.334	35.563	29.27329	-982.1709	28.81	28.78393	84	0	41	19.80456	-1.166319	-88.354	
18:21:11	47.41747	-122.3346	27.464	25.19458	-217.8319	28.1	27.66218	85	0	41	1.44061	0.8490251	-87.48386	
18:21:13	47.41722	-122.3351	27.441	26.04688	-115.749	26.14	25.69073	86	0	41	-41.02809	-2.485059	-95.39423	
18:21:14	47.41694	-122.3355	25.543	25.54299	-84.10873	25.11	24.52167	87	0	41	-42.30833	-4.040514	-125.4047	
18:21:16	47.41663	-122.3357	23.779	24.99487	145.0417	24.17	24.74709	88	0	41	-9.251715	0.3495241	-160.7295	
18:21:18	47.41628	-122.3357	24.346	25.46722	101.5205	22.82	23.57	89	0	5	3.472413	2.212507	-167.3439	
18:21:19	47.41593	-122.3357	25.387	25.88038	50.89167	19.43	20.0878	89	0	20	6.695474	3.660711	-170.7346	
18:21:21	47.41564	-122.3357	24.702	24.53112	-127.8202	18.19	18.79584	90	0	31	-0.9894012	-2.095567	-174.7222	
18:21:23	47.41534	-122.3358	22.236	22.78835	-12.24008	19.28	19.98604	91	0	34	-1.042315	0.9978529	179.2968	
18:21:25	47.41503	-122.3358	21.536	21.87516	-19.28318	19.69	19.89973	91	0	39	-0.01800787	1.071495	175.3282	
18:21:26	47.41469	-122.3358	20.844	21.21849	57.682	22.32	21.78862	92	0	95	-0.7896318	2.481029	172.2321	
18:21:28	47.41436	-122.3358	24.841	23.59082	123.7983	26.13	26.22129	92	0	94	-25.94536	3.020509	172.0638	
18:21:30	47.41392	-122.3357	29.363	28.71623	257.2768	27.05	27.43544	93	0	55	-2.39975	-0.03080386	150.0372	
18:21:32	47.41352	-122.3356	33.383	33.80828	258.3598	24.45	25.00337	93	0	37	3.14255	-0.7681995	159.835	
18:21:33	47.41314	-122.3355	35.894	36.57962	210.3217	23.1	23.72506	94	0	38	-0.05707925	-1.231426	155.1959	
18:21:35	47.4128	-122.3354	37.8	38.73241	195.8042	22.62	23.29082	94	0	60	-0.4111116	-0.2064288	153.5799	
18:21:37	47.41245	-122.3353	39.129	39.95135	151.4577	23.33	23.93953	94	0	51	-0.1915272	0.7757052	153.1749	
18:21:38	47.41212	-122.3352	40.694	40.94603	87.04396	23.81	24.50954	95	0	50	-0.0768856	0.4378279	153.8956	
18:21:40	47.41174	-122.335	42.37	42.15309	71.07162	24.27	24.97059	95	0	58	-0.06304938	0.2547559	154.952	
18:21:42	47.41135	-122.3349	43.845	43.54768	61.55861	24.36	25.08059	95	0	55	0.008974559	-0.1262854	156.385	
18:21:44	47.411	-122.3348	46.949	45.68906	100.1526	24.17	24.82842	96	0	50	-0.05464282	-0.2624366	158.3267	
18:21:45	47.41068	-122.3347	50.151	49.74693	205.3507	24.2	24.84196	96	0	63	-0.119746	0.1109665	160.3476	
18:21:47	47.41028	-122.3346	54.562	54.46567	270.7153	24.99	25.5951	96	0	58	0.05030432	0.3944697	162.2901	
18:21:49	47.40988	-122.3344	59.064	59.00074	276.4449	24.91	25.46732	96	0	78	-0.2493894	0.1054791	164.4436	
18:21:51	47.40948	-122.3344	62.755	63.45164	363.4773	26.47	26.987	97	0	40	0.01590395	2.346815	166.7972	
18:21:52	47.40911	-122.3343	79.661	74.03582	478.6204	23.29	23.77829	97	0	41	-0.5853943	0.779118	168.3061	
18:21:54	47.40879	-122.3342	93.074	91.70834	821.9916	23.13	23.59598	97	0	41	16.25002	-0.7740503	170.7301	
18:21:56	47.40843	-122.3341	98.504	103.9631	1237.788	22.81	23.39559	97	0	41	-8.449479	13.06304	166.9912	
18:21:57	47.40812	-122.334	108.738	109.4189	-128.7414	18.91	16.14923	97	0	41	-0.2407561	-12.61156	165.2397	
18:21:59	47.40783	-122.3339	116.993	116.524	315.9615	18.03	14.04855	98	0	41	0.8859518	2.38345	169.111	
18:22:01	47.40755	-122.3338	116.915	118.5846	102.2416	19.83	15.15377	98	0	41	0.154374	-1.761465	171.2767	
18:22:03	47.40722	-122.3338	114.621	116.2081	-8.385806	21.1	16.40243	98	0	40	0.1772231	0.1268255	173.0872	
18:22:04	47.40689	-122.3337	113.877	113.9243	-99.74067	21.52	16.78457	98	0	4	0.02295445	0.3552424	174.5054	
18:22:06	47.40661	-122.3337	113.466	112.9504	-91.45844	19.88	15.16502	98	0	29	2.089703	1.502784	176.5907	
18:22:08	47.40631	-122.3336	112.435	111.4556	-212.1992	18.59	13.87812	98	0	4	0.8579393	-2.762017	178.5713	
18:22:10	47.40603	-122.3336	108.874	107.7002	-395.5976	18	13.32291	98	0	7	3.134493	-10.19164	-179.1802	
18:22:11	47.40569	-122.3336	102.008	102.859	-31.15383	20	15.33965	98	0	49	-0.9890642	1.359619	-177.0961	
18:22:13	47.4054	-122.3336	103.398	103.2256	86.60847	19.88	14.97146	98	0	5	-0.5743002	6.038347	-176.2677	
18:22:15	47.40516	-122.3337	105.416	104.5749	-91.76122	16.7	11.78759	99	0	4	1.82385	0.3257094	-175.6964	
18:22:16	47.40488	-122.3337	102.865	102.4575	-189.6244	16.42	11.25036	99	0	49	-3.412367	-4.47398	-175.1867	
18:22:18	47.40461	-122.3338	101.737	102.124	126.9045	17.26	12.20745	99	0	51	-10.30293	4.542498	177.9005	
18:22:20	47.40439	-122.3338	102.966	102.586	-57.29081	16.38	10.88842	99	0	48	-8.975373	-1.06157	156.6418	
18:22:22	47.40413	-122.3337	102.211	102.0327	-58.05777	16.42	11.62679	99	0	60	-0.7914602	0.1432951	142.8584	
18:22:23	47.40389	-122.3336	101.707	101.6449	-32.27236	16.17	10.00126	99	0	46	16.8065	-1.025407	-176.5807	
18:22:25	47.40363	-122.3336	101.088	101.124	7.097797	16.47	11.53902	99	0	56	-3.259751	2.603726	-162.8536	
18:22:27	47.40336	-122.3337	101.693	101.5323	14.60426	17.04	10.62787	99	0	56	-4.129436	2.552878	-169.7801	
18:22:29	47.40311	-122.3338	102.007	101.7374	-17.11507	17.74	10.82753	99	0	56	3.896393	0.7886107	-156.8181	
18:22:30	47.40284	-122.3339	101.922	101.8678	-9.214744	17.25	10.50487	99	0	43	-0.5318211	1.114292	-164.3887	
18:22:32	47.40258	-122.3341	101.014	101.1349	-36.41153	18.18	11.29941	99	0	44	-9.533818	0.1395758	-162.1125	
18:22:34	47.40231	-122.3342	100.17	100.3915	-7.815433	19.1	12.24613	99	0	43	-0.8993998	1.079877	-164.1158	
18:22:35	47.40203	-122.3343	100.077	99.97351	-25.22386	19.72	12.84814	99	0	43	0.2979576	0.7951298	-160.4815	
18:22:37	47.40177	-122.3344	100.159	99.91576	-17.95786	20.27	13.55896	99	0	43	0.2085771	0.3796225	-158.5509	
18:22:39	47.40145	-122.3346	99.978	99.97607	-4.368667	20.82	14.18622	99	0	43	0.06385896	0.2516295	-157.2866	
18:22:41	47.40113	-122.3348	99.678	99.75823	-9.045641	21.19	14.61562	99	0	43	0.01681883	0.1842716	-156.5882	
18:22:42	47.40081	-122.335	99.401	99.46053	-13.57381	21.46	14.942	99	0	43	-0.03103106	0.1721069	-156.0812	
18:22:44	47.40052	-122.3352	99.139	99.14444	-18.18989	21.64	15.12863	99	0	43	-0.003798461	0.09719037	-155.8236	
18:22:46	47.40019	-122.3354	98.809	98.82973	-19.56909	21.79	15.31757	99	0	43	0.02985969	0.03242394	-155.6319	
18:22:48	47.39992	-122.3356	98.518	98.50863	-18.5863	21.9	15.48649	99	0	43	-0.009465801	0.03644973	-155.4391	
18:22:49	47.39958	-122.3358	98.19	98.20422	-17.54703	21.97	15.58529	99	0	43	0.007496709	0.07052486	-155.3015	
18:22:51	47.39927	-122.336	97.879	97.89007	-19.51937	22.02	15.65809	99	0	42	-0.04563159	0.02072433	-155.1344	
18:22:53	47.39896	-122.3363	97.56	97.5703	-19.5438	22.07	15.75068	99	0	43	0.009032605	0.004073685	-154.8769	
18:22:54	47.39865	-122.3365	97.23	97.24361	-19.84312	22.1	15.81942	99	0	43	-0.0163478	-0.0002011237	-154.606	
18:22:56	47.39835	-122.3367	96.886	96.90679	-19.29785	22.13	15.87774	99	0	43	-0.007091038	0.0255529	-154.2353	
18:22:58	47.39808	-122.3369	96.572	96.55988	-19.9074	22.15	15.94071	99	0	42	0.03590175	0.01996097	-153.8176	
18:23:00	47.39777	-122.3372	96.095	95.99419	-64.75979	21.29	15.13515	99	0	22	0.3309332	-1.060551	-152.9782	
18:23:01	47.39751	-122.3374	94.879	94.77621	-75.4594	20.27	14.19585	99	0	22	0.006363819	-1.198585	-152.3132	
18:23:03	47.39722	-122.3376	93.461	93.46602	-67.82692	19.51	13.49505	99	0	22	-0.06297888	-0.6728158	-151.8129	
18:23:05	47.39698	-122.3378	92.316	92.22186	-70.66073	18.93	12.97367	99	0	23	-0.07778287	-0.5762345	-151.2868	
18:23:07	47.39672	-122.3381	91.035	91.01919	-69.60133	18.43	12.52931	99	0	22	-0.0778248	-0.328468	-150.7184	
18:23:08	47.39647	-122.3382	89.807	89.73892	-75.89744	18.07	12.22438	99	0	22	-0.03122951	-0.343846	-150.1748	
18:23:10	47.39622	-122.3385	88.444	88.4755	-70.49767	17.84	12.03528	99	0	38	-0.1831437	-0.1565812	-149.7733	
18:23:12	47.39597	-122.3387	87.641	87.71195	-12.89724	18.75	12.94832	99	0	38	-0.1782596	1.419391	-149.5398	
18:23:13	47.39572	-122.3389	87.506	87.44742	-25.02469	19.16	13.38869	99	0	38	0.06464848	0.845517	-149.0379	
18:23:15	47.39547	-122.3392	87.059	87.03529	-34.63499	19.6	13.80158	99	0	38	-0.0008337324	0.2684361	-148.3685	
18:23:17	47.39523	-122.3394	86.511	86.48303	-30.94124	19.95	14.24509	99	0	38	0.007497169	0.2316531	-147.7104	
18:23:19	47.39494	-122.3397	85.875	85.91788	-32.27031	20.25	14.60135	99	0	38	0.02714246	0.1543027	-147.0332	
18:23:20	47.39468	-122.3399	85.303	85.3476	-30.97371	20.48	14.8519	99	0	38	0.01357371	0.1516724	-146.3025	
18:23:22	47.39443	-122.3402	84.778	84.79951	-32.99437	20.62	15.06622	99	0	38	0.02488729	0.05640642	-145.5816	
18:23:24	47.39417	-122.3405	84.225	84.24311	-29.75664	20.74	15.24716	99	0	38	0.01949793	0.1179052	-144.8754	
18:23:26	47.39391	-122.3408	83.699	83.69508	-32.0379	20.81	15.37579	99	0	38	-0.009012633	0.03608989	-144.1697	
18:23:27	47.39365	-122.341	83.155	83.15248	-32.30469	20.89	15.51508	99	0	38	0.02523274	-0.000152271	-143.4591	
18:23:29	47.39338	-122.3413	82.572	82.61249	-31.89763	20.93	15.62518	99	0	38	0.01438827	0.01102094	-142.7599	
18:23:31	47.39312	-122.3417	82.005	82.0704	-32.0274	20.97	15.7102	99	0	37	-0.04492634	0.0004849268	-142.0977	
18:23:32	47.39289	-122.3419	81.519	81.51316	-30.845	21.02	15.82657	99	0	38	0.01197044	0.03558541	-141.4004	
18:23:34	47.39263	-122.3422	80.979	80.96929	-32.24895	21.03	15.90459	99	0	38	-0.04273462	-0.01460355	-140.6761	
18:23:36	47.39238	-122.3425	80.431	80.41496	-32.61651	21.05	15.99169	99	0	38	-0.01057793	-0.03306225	-139.9895	
18:23:38	47.39214	-122.3429	79.886	79.88143	-29.47252	21.06	16.0766	99	0	38	-0.0128407	0.04079993	-139.2689	
18:23:39	47.39188	-122.3432	79.362	79.38358	-28.82367	21.06	16.14903	99	0	38	0.008605308	0.05229049	-138.5546	
18:23:41	47.39164	-122.3435	78.859	78.89026	-30.09499	21.05	16.20847	99	0	38	0.02879723	-0.002018187	-137.8492	
18:23:43	47.3914	-122.3438	78.32	78.36039	-30.20036	21.06	16.29902	99	0	38	-0.01715493	-0.01175053	-137.1327	
18:23:45	47.39115	-122.3442	77.757	77.81655	-31.37103	21.06	16.36203	99	0	38	0.0284272	-0.0214362	-136.4336	
18:23:46	47.39091	-122.3445	77.201	77.25953	-31.41012	21.08	16.46746	99	0	38	-0.002673227	-0.01738376	-135.7199	
18:23:48	47.39071	-122.3448	76.736	76.72672	-29.43602	21.09	16.53789	99	0	38	0.02919842	0.04711169	-135.0544	
18:23:50	47.39048	-122.3452	76.213	76.20592	-31.28116	21.08	16.6062	99	0	38	0.01621423	-0.01323981	-134.38	
18:23:51	47.39024	-122.3456	75.654	75.68781	-29.84309	21.07	16.66879	99	0	38	-0.008743372	0.03009248	-133.7346	
18:23:53	47.39005	-122.3458	75.216	75.16469	-30.84317	21.06	16.72587	99	0	38	-0.008427103	0.007056242	-133.0686	
18:23:55	47.38981	-122.3462	74.644	74.63898	-30.3773	21.07	16.81316	99	0	37	-0.006183966	0.01178859	-132.4123	
18:23:57	47.38958	-122.3466	74.043	74.06912	-33.05733	21.09	16.91299	99	0	38	-0.01888962	-0.07028566	-131.7608	
18:23:58	47.38937	-122.347	73.481	73.50597	-31.47201	21.1	16.98724	99	0	38	0.006606394	-0.004542897	-131.1039	
18:24:00	47.38914	-122.3474	72.917	72.98164	-29.32597	21.1	17.06186	99	0	38	-0.02281466	0.05368639	-130.4342	
18:24:02	47.38894	-122.3477	72.437	72.46787	-30.77857	21.08	17.12679	99	0	38	0.003222397	0.0105384	-129.7743	
18:24:04	47.38874	-122.3481	71.941	71.95773	-30.36561	21.09	17.21384	99	0	38	-0.01618158	-0.006302697	-129.1013	
18:24:05	47.38855	-122.3484	71.432	71.41165	-29.94925	21.13	17.32141	99	0	38	0.001409118	0.01834454	-128.4672	
18:24:07	47.38834	-122.3488	70.87	70.86208	-32.18497	21.11	17.38647	99	0	38	-0.05951861	-0.004510537	-127.8308	
18:24:09	47.38814	-122.3492	70.322	70.30908	-32.03291	21.12	17.46103	99	0	37	-0.01226011	-0.0003924854	-127.1956	
18:24:10	47.38794	-122.3496	69.758	69.77531	-30.83378	21.14	17.56377	99	0	38	0.005563095	0.01889586	-126.5528	
18:24:12	47.38774	-122.35	69.19	69.23752	-32.28612	21.13	17.63799	99	0	38	0.03367583	-0.03208338	-125.9065	
18:24:14	47.38757	-122.3504	68.675	68.66269	-33.2242	21.12	17.69884	99	0	38	0.05466572	-0.01655139	-125.2462	
18:24:16	47.38736	-122.3508	68.068	68.10658	-32.75742	21.13	17.79288	99	0	38	0.01206977	-0.02430839	-124.5968	
18:24:17	47.38717	-122.3512	67.504	67.56028	-31.38305	21.13	17.85742	99	0	38	-0.04762271	0.01031358	-123.9582	
18:24:19	47.38702	-122.3516	67.032	67.01942	-31.3276	21.11	17.92131	99	0	38	-0.02862803	0.01488847	-123.3496	
18:24:21	47.38686	-122.352	66.527	66.48122	-30.28514	21.14	18.00953	99	0	38	-0.01195474	0.02709225	-122.7424	
18:24:23	47.38667	-122.3524	65.942	65.93865	-30.72352	21.15	18.10591	99	0	38	-0.03170078	0.008709205	-122.089	
18:24:24	47.38649	-122.3528	65.41	65.40282	-30.73888	21.13	18.17067	99	0	38	-0.01434146	0.0160852	-121.4481	
18:24:26	47.38632	-122.3533	64.839	64.86327	-31.22988	21.15	18.26553	99	0	38	0.0005786059	-0.0001237054	-120.7917	
18:24:28	47.38617	-122.3537	64.344	64.31087	-31.67103	21.14	18.3357	99	0	38	0.02862049	0.01735961	-120.1523	
18:24:29	47.386	-122.3541	63.79	63.78705	-30.87961	21.15	18.41829	99	0	38	0.0195421	0.008188522	-119.5444	
18:24:31	47.38584	-122.3545	63.264	63.25231	-31.7792	21.15	18.49358	99	0	38	0.01070031	-0.01317171	-118.885	
18:24:33	47.38568	-122.3549	62.693	62.70202	-31.33102	21.14	18.56989	99	0	38	0.016546	-0.001891453	-118.2767	
18:24:35	47.38552	-122.3554	62.129	62.16766	-30.58244	21.15	18.65163	99	0	38	-0.01339029	0.009660283	-117.6416	
18:24:36	47.38539	-122.3558	61.659	61.62041	-30.79304	21.15	18.72441	99	0	39	-0.03087144	0.02591109	-117.0463	
18:24:38	47.38525	-122.3562	61.124	61.08774	-30.9419	21.14	18.78848	99	0	38	0.01800806	0.003186244	-116.4593	
18:24:40	47.38509	-122.3567	60.529	60.54903	-30.61073	21.13	18.86402	99	0	38	-0.03365516	0.01835543	-115.8518	
18:24:42	47.38496	-122.3571	60.03	59.99573	-33.95631	21.11	18.91521	99	0	38	0.03320454	-0.05415764	-115.25	
18:24:43	47.38483	-122.3575	59.473	59.43557	-30.55134	21.14	19.01825	99	0	38	-0.02076949	0.02007677	-114.665	
18:24:45	47.38469	-122.358	58.922	58.91747	-31.40151	21.14	19.09204	99	0	38	0.04443106	-0.02072523	-114.0773	
18:24:47	47.38455	-122.3585	58.361	58.36936	-30.64446	21.14	19.16886	99	0	38	-0.01501168	0.01687021	-113.5101	
18:24:48	47.38444	-122.3588	57.894	57.84742	-30.37341	21.14	19.23888	99	0	38	-0.01289114	0.0063884	-112.9302	
18:24:50	47.38429	-122.3594	57.274	57.32	-29.95165	21.15	19.32906	99	0	38	0.04337537	-0.002873556	-112.3451	
18:24:52	47.38418	-122.3598	56.78	56.76225	-31.94654	21.15	19.39267	99	0	38	-0.01623532	-0.01343119	-111.7898	
18:24:54	47.38407	-122.3602	56.289	56.23657	-31.90321	21.16	19.46855	99	0	38	0.05317499	-0.03393102	-111.2314	
18:24:55	47.38395	-122.3607	55.726	55.69579	-30.89855	21.16	19.54556	99	0	38	0.042574	0.01358161	-110.6817	
18:24:57	47.38383	-122.3611	55.151	55.1441	-31.03944	21.16	19.61482	99	0	38	-0.03855887	0.02875259	-110.1363	
18:24:59	47.38372	-122.3616	54.58	54.59909	-31.51044	21.16	19.68601	99	0	38	0.003255554	0.01668162	-109.6256	
18:25:01	47.38361	-122.3621	54.034	54.05456	-32.09604	21.16	19.75901	99	0	40	0.02071367	-0.01947786	-109.0723	
18:25:02	47.3835	-122.3626	53.464	53.51289	-30.92492	21.18	19.83351	99	0	38	-0.01901606	0.01298407	-108.5413	
18:25:04	47.38342	-122.363	52.994	52.98629	-31.40659	21.17	19.90001	99	0	38	0.0025745	-0.02630443	-107.9553	
18:25:06	47.38332	-122.3634	52.448	52.44255	-31.40345	21.18	19.97923	99	0	38	0.03375278	-0.00454144	-107.3881	
18:25:07	47.38322	-122.3639	51.893	51.88461	-32.42283	21.18	20.05001	99	0	38	-0.03041569	-0.006254547	-106.8362	
18:25:09	47.38312	-122.3644	51.292	51.34928	-31.41428	21.17	20.11136	99	0	38	-0.0340571	0.006219897	-106.2915	
18:25:11	47.38305	-122.3648	50.827	50.80998	-32.01578	21.18	20.185	99	0	38	-0.03485513	-0.01344114	-105.7643	
18:25:13	47.38295	-122.3653	50.263	50.26188	-32.57465	21.17	20.24127	99	0	37	0.05106875	-0.02469546	-105.2327	
18:25:14	47.38287	-122.3658	49.69	49.71334	-32.35741	21.17	20.31934	99	0	38	0.00406103	-0.01310537	-104.6945	
18:25:16	47.38279	-122.3663	49.15	49.1982	-31.00685	21.15	20.3673	99	0	38	-0.002507316	-0.006473914	-104.1476	
18:25:18	47.38272	-122.3667	48.659	48.66268	-30.76639	21.16	20.4378	99	0	38	0.01209915	0.01173231	-103.6448	
18:25:19	47.38271	-122.3668	48.6	48.57557	-31.86331	21.17	20.45002	99	0	38	-0.361536	-0.03537808	-103.0678	
18:25:21	47.38258	-122.3677	47.768	48.18957	-43.37016	21.11	20.65838	99	0	38	0.1522215	-0.008621802	-101.8523	
18:25:23	47.38252	-122.3682	47.416	47.25236	-53.01876	21.09	21.03642	99	0	38	0.5555698	0.0386803	-97.8652	
18:25:25	47.38249	-122.3687	46.922	46.80687	-37.60196	21.14	21.40796	99	0	38	0.1093797	0.01984739	-95.07182	
18:25:26	47.38247	-122.3691	46.125	46.09902	-89.21457	21.19	22.00072	99	0	38	5.384841	-1.745139	-86.98185	
18:25:28	47.38249	-122.3695	45.119	46.16425	262.9486	21.3	22.70377	99	0	38	0.2777535	9.082611	-81.16402	
18:25:30	47.38255	-122.37	47.038	46.54804	-88.05467	20.43	21.866	99	0	78	-0.2152232	-0.4319101	-76.87774	
18:25:32	47.38263	-122.3706	46.179	46.33067	37.44365	24.27	25.3964	99	0	79	-0.1750249	1.220806	-75.13859	
18:25:33	47.38271	-122.3711	46.673	46.29686	-124.2837	26.26	27.33589	99	0	79	-41.48623	0.05158957	-78.37273	
18:25:35	47.38271	-122.3717	44.571	44.28312	-84.30183	27.47	25.68714	99	0	79	-13.49139	-3.395144	-101.7684	
18:25:37	47.38263	-122.3723	46.857	46.55566	92.92318	26.15	24.64454	99	0	63	1.526028	1.003542	-97.15443	
18:25:38	47.38257	-122.3729	48.291	48.13404	56.61859	25.69	24.54663	99	0	64	1.651943	-0.3590084	-91.50896	
18:25:40	47.38255	-122.3736	49.023	49.18917	70.75777	26.1	25.37307	99	0	64	0.2892554	0.09670084	-90.04568	
18:25:42	47.38255	-122.3741	49.677	49.846	47.87645	26.29	25.45502	99	0	64	1.179531	0.01579429	-87.05772	
18:25:44	47.38256	-122.3748	50.283	50.34454	36.3725	26.36	25.76089	99	0	64	-0.3881407	0.02144441	-87.25621	
18:25:45	47.38258	-122.3754	50.868	50.89125	56.94505	25.83	25.36636	99	0	64	2.854398	0.3995039	-84.91137	
18:25:47	47.38261	-122.3759	52.044	52.02414	96.44815	23.95	23.96013	99	0	64	2.425478	2.061721	-94.55113	
18:25:49	47.38264	-122.3763	52.876	52.86557	18.81745	22.84	22.81794	99	0	64	-2.324864	-0.3210658	-78.42863	
18:25:51	47.38266	-122.3769	53.572	53.58096	32.12679	21.94	21.33253	99	0	64	5.650416	0.2472416	-81.15692	
18:25:52	47.38268	-122.3774	53.47	53.46414	-12.2567	23.29	22.4226	99	0	64	-0.01407185	-0.6222216	-91.25279	
18:25:54	47.38268	-122.378	53.348	53.44353	19.99685	24.68	22.93227	99	0	64	0.141842	0.1537329	-92.47849	
18:25:56	47.38266	-122.3786	53.722	53.70009	18.11183	25.46	23.53773	99	0	64	-0.1708318	0.1097784	-94.42348	
18:25:57	47.38264	-122.3792	54.083	54.03281	15.35561	25.93	23.84533	99	0	64	-0.8310158	0.0519316	-97.9885	
18:25:59	47.38261	-122.3798	54.393	54.37601	24.91994	26.02	23.73435	99	0	64	1.475733	0.1840985	-95.90255	
18:26:01	47.38258	-122.3803	54.798	54.79296	21.32263	25.58	23.41272	99	0	64	-0.3324838	0.1874418	-102.3751	
18:26:03	47.38255	-122.381	55.287	55.22802	30.71285	25.14	22.43628	71	0	64	0.45843	0.3068421	-96.56623	
18:26:04	47.38251	-122.3815	55.66	55.66339	22.38353	25.07	22.27389	72	0	64	0.936463	-0.1693529	-103.7798	
18:26:06	47.38247	-122.3821	56.091	56.09411	23.28792	25.73	22.9458	74	0	64	0.07347713	-0.01681424	-102.3537	
18:26:08	47.38243	-122.3826	56.508	56.51029	24.32816	26.14	23.32127	75	0	4	-0.09476399	0.07832553	-101.6292	
18:26:10	47.38239	-122.3832	58.934	59.10088	272.7719	21.73	19.155	77	0	4	2.865993	9.549763	-99.23117	
18:26:11	47.38236	-122.3837	63.323	62.39744	-36.50445	17.29	15.00395	78	0	40	-0.436722	1.092669	-97.12101	
18:26:13	47.38235	-122.384	61.794	61.71406	-61.40645	18.38	14.62513	79	0	40	-6.316348	-1.92487	-110.498	
18:26:15	47.38226	-122.3845	60.186	60.7234	-19.46193	18.09	11.94198	81	0	46	-5.689618	-0.64841	-129.734	
18:26:16	47.38212	-122.3848	59.361	59.63452	-29.34908	17.89	10.82895	82	0	48	-1.31654	0.7103861	-143.5249	
18:26:18	47.38192	-122.3851	58.518	58.61179	-60.28912	17.7	10.35978	83	0	45	-0.2232588	0.2217523	-154.7782	
18:26:20	47.38169	-122.3854	57.319	57.43859	-72.97906	17.52	10.50259	84	0	45	0.1937381	-0.231021	-164.8857	
18:26:22	47.38146	-122.3855	56.062	56.17662	-69.99821	17.44	11.01036	85	0	44	0.2019094	-0.1769279	-175.1725	
18:26:23	47.38122	-122.3856	54.846	54.82524	-71.73587	17.33	11.70956	86	0	40	-0.3595641	-0.2579359	174.8365	
18:26:25	47.38095	-122.3857	53.821	53.79844	-58.30537	17.72	12.26272	87	0	40	4.776228	0.2493042	-177.2447	
18:26:27	47.38065	-122.3857	52.96	52.90709	-52.32286	18.39	12.94811	87	0	40	0.7364922	0.147197	179.6763	
18:26:29	47.38037	-122.3858	52.291	52.26549	-36.35489	18.81	13.58088	88	0	40	0.3842731	0.3414224	177.6599	
18:26:30	47.38007	-122.3858	51.792	51.7531	-31.17494	19.15	14.12118	89	0	40	0.5066195	0.3252402	176.2884	
18:26:32	47.37977	-122.3858	51.343	51.31582	-28.22589	19.5	14.62656	90	0	40	0.4433181	0.2068519	175.3275	
18:26:34	47.37947	-122.3858	50.951	50.92274	-23.48521	19.84	15.0859	90	0	40	0.4099814	0.2591836	174.3955	
18:26:35	47.37914	-122.3858	50.556	50.54956	-23.81743	20.16	15.51294	91	0	40	0.3223635	0.1469971	173.948	
18:26:37	47.37883	-122.3857	50.227	50.22899	-19.26404	20.46	15.88787	92	0	40	0.3849726	0.2117796	173.6866	
18:26:39	47.37854	-122.3857	49.922	49.91017	-20.27849	20.71	16.18303	92	0	40	0.2997572	0.1272076	173.5038	
18:26:41	47.37821	-122.3857	49.605	49.57789	-21.2147	20.95	16.4529	93	0	40	0.2015634	0.09664349	173.4206	
18:26:42	47.37785	-122.3856	49.253	49.27338	-18.69812	21.16	16.68479	93	0	40	0.1321185	0.1171897	173.4718	
18:26:44	47.37756	-122.3856	48.97	48.94715	-19.13765	21.31	16.8368	94	0	40	0.1080331	0.09389973	173.5863	
18:26:46	47.37719	-122.3855	48.615	48.63158	-19.10114	21.44	16.966	94	0	40	0.1217521	0.05858485	173.6825	
18:26:48	47.3769	-122.3855	48.345	48.32367	-18.86128	21.52	17.03479	94	0	40	0.05751147	0.06464536	173.8681	
18:26:49	47.37657	-122.3854	48.015	48.00105	-20.61706	21.6	17.10657	95	0	46	0.04619741	-0.01181183	174.0709	
18:26:51	47.37622	-122.3854	47.743	47.7233	-25.15144	20.92	15.70159	95	0	42	4.027914	-0.3091898	-172.677	
18:26:53	47.37589	-122.3854	47.126	47.14292	-49.65088	19.37	13.45232	95	0	42	3.737138	-0.7942013	-157.9213	
18:26:54	47.37562	-122.3856	46.092	46.13559	-70.87767	18.16	12.15209	96	0	41	1.483388	-0.8002113	-145.7523	
18:26:56	47.37536	-122.3858	44.708	44.93175	-45.04259	18.32	12.17706	96	0	44	-4.328904	0.8921167	-144.7059	
18:26:58	47.37514	-122.3859	43.973	44.00644	-42.03954	18.87	12.86005	96	0	45	-1.388544	0.3740672	-147.0032	
18:27:00	47.37487	-122.3862	43.311	43.30353	-38.03967	19.34	13.3747	96	0	44	-0.3362474	0.3418014	-144.0526	
