Date	Latitude(deg) 	Longitude(deg)	hamsl(m)	hafl(m)	climbrate(cm/s)	GroundSpeed(m/s)	Airspeed(m/s)	Mav_Link(%)	Rssi_Link(%)	Throttle	Roll(deg)	Pitch(deg)	Yaw(deg)
11:27:44	-6.728691	38.94615	136.486	0.08297884	9.28037	0.03	3	100	0	6546	-2.717782	3.12758	-23.86563	
11:27:44	-6.728691	38.94615	136.507	0.08297884	9.28037	0.02	3	100	0	6546	-2.714799	3.166031	-23.79372	
11:27:45	-6.728691	38.94615	136.507	0.08297884	9.28037	0.02	3	100	0	6546	-2.732012	3.134937	-23.78962	
11:27:45	-6.728691	38.94615	136.574	0.08297884	9.28037	0.03	3	100	0	6546	-2.736677	3.126114	-23.81729	
11:27:45	-6.728691	38.94615	136.667	0.01212725	1.234205	0.03	3	100	0	6546	-2.726929	3.143485	-23.81625	
11:27:45	-6.728691	38.94615	136.697	0.01212725	1.234205	0.01	3	100	0	6546	-2.681554	3.110039	-23.8151	
11:27:46	-6.728691	38.94615	136.719	0.01212725	1.234205	0.01	3	100	0	6546	-2.707206	3.126791	-23.75201	
11:27:46	-6.728691	38.94615	136.719	0.01212725	1.234205	0.01	3	100	0	6546	-2.726955	3.137815	-23.72495	
11:27:46	-6.728691	38.94615	136.771	0.01212725	1.234205	0.02	3	100	0	6546	-2.731935	3.115322	-23.68718	
11:27:46	-6.728691	38.94615	136.785	0.025577	0.6287482	0.02	3	100	0	6546	-2.715359	3.124677	-23.688	
11:27:46	-6.728691	38.94615	136.782	0.025577	0.6287482	0.04	3	100	0	6546	-2.697234	3.106521	-23.71832	
11:27:46	-6.728691	38.94615	136.799	0.025577	0.6287482	0.04	3	100	0	6546	-2.763625	3.116245	-23.72568	
11:27:47	-6.728691	38.94615	136.799	0.025577	0.6287482	0.03	3	100	0	6546	-2.803747	3.11611	-23.75607	
11:27:47	-6.728691	38.94615	136.815	0.025577	0.6287482	0.09	3	100	0	6546	-2.808665	3.122779	-23.79866	
11:27:47	-6.728691	38.94615	136.858	0.1412472	4.897954	0.02	3	100	0	6546	-2.822245	3.023627	-23.75241	
11:27:47	-6.728691	38.94615	136.907	0.1412472	4.897954	0.03	3	100	0	6546	-2.782476	3.071594	-23.76484	
11:27:47	-6.728691	38.94615	136.965	0.1412472	4.897954	0.04	3	100	0	6546	-2.81565	3.137299	-23.72162	
11:27:48	-6.728691	38.94615	136.988	0.1412472	4.897954	0.03	3	100	0	6546	-2.857577	3.117444	-23.79296	
11:27:48	-6.728691	38.94615	136.991	0.1412472	4.897954	0.01	3	100	0	6546	-2.816303	3.091397	-23.76806	
11:27:48	-6.728691	38.94615	136.971	0.04162736	-2.087888	0.04	3	100	0	6546	-2.806009	3.112128	-23.73872	
11:27:48	-6.728691	38.94615	136.965	0.04162736	-2.087888	0.03	3	100	0	6546	-2.849476	3.130991	-23.73987	
11:27:49	-6.728691	38.94615	136.961	0.04162736	-2.087888	0.04	3	100	0	6546	-2.797587	3.111413	-23.69419	
11:27:49	-6.728691	38.94615	136.998	0.04162736	-2.087888	0.03	3	100	0	6546	-2.799143	3.166744	-23.69144	
11:27:49	-6.728691	38.94615	137.01	0.04162736	-2.087888	0.07	3	100	0	6546	-2.791059	3.144217	-23.74603	
11:27:49	-6.728691	38.94615	137.049	-0.005291971	-2.45362	0.01	3	100	0	6546	-2.766597	3.182615	-23.77069	
11:27:49	-6.728691	38.94615	137.03	-0.005291971	-2.45362	0.01	3	100	0	6546	-2.770509	3.098385	-23.75121	
11:27:49	-6.728691	38.94615	137.091	-0.005291971	-2.45362	0.04	3	100	0	6546	-2.805919	3.091141	-23.79362	
11:27:50	-6.728691	38.94615	137.118	-0.005291971	-2.45362	0.03	3	100	0	6546	-2.775556	3.12016	-23.80843	
11:27:50	-6.728691	38.94615	137.105	-0.005291971	-2.45362	0.04	3	100	0	6546	-2.8226	3.070441	-23.79222	
11:27:50	-6.728691	38.94615	137.108	0.08927089	3.151906	0.04	3	100	0	6546	-2.814154	3.11346	-23.75809	
11:27:50	-6.728691	38.94615	137.117	0.08927089	3.151906	0.01	3	100	0	6546	-2.837646	3.059049	-23.78617	
11:27:51	-6.728691	38.94615	137.117	0.08927089	3.151906	0.04	3	100	0	6546	-2.793479	3.064649	-23.79638	
11:27:51	-6.728691	38.94615	137.074	0.08927089	3.151906	0.02	3	100	0	6546	-2.78329	3.1157	-23.76838	
11:27:51	-6.728691	38.94614	137.081	0.08927089	3.151906	0.01	3	100	0	6546	-2.784013	3.079462	-23.71823	
11:27:51	-6.728691	38.94614	137.1	-0.01982869	-3.548129	0.03	3	100	0	6546	-2.788352	3.080446	-23.711	
11:27:51	-6.728691	38.94614	137.136	-0.01982869	-3.548129	0.04	3	100	0	6546	-2.807015	3.094	-23.67301	
11:27:51	-6.728691	38.94614	137.137	-0.01982869	-3.548129	0.01	3	100	0	6546	-2.720179	3.075425	-23.62305	
11:27:52	-6.728691	38.94614	137.112	-0.01982869	-3.548129	0	3	100	0	6546	-2.777269	3.046648	-23.58916	
11:27:52	-6.728691	38.94614	137.137	-0.01982869	-3.548129	0.04	3	100	0	6546	-2.806842	3.025057	-23.56093	
11:27:52	-6.728691	38.94614	137.137	-0.1657347	-8.872017	0.02	3	100	0	6546	-2.846097	3.029344	-23.5301	
11:27:52	-6.728691	38.94614	137.194	-0.1657347	-8.872017	0.04	3	100	0	6546	-2.813698	3.053708	-23.51261	
11:27:52	-6.728691	38.94614	137.193	-0.1657347	-8.872017	0.04	3	100	0	6546	-2.799704	3.078133	-23.52352	
11:27:53	-6.728691	38.94614	137.198	-0.1657347	-8.872017	0.06	3	100	0	6546	-2.765916	3.08199	-23.50011	
11:27:53	-6.728691	38.94614	137.243	-0.1657347	-8.872017	0.06	3	100	0	6546	-2.832199	2.974522	-23.50154	
11:27:53	-6.728691	38.94614	137.285	-0.1309679	-3.923707	0.04	3	100	0	6546	-2.794722	3.083611	-23.52495	
11:27:53	-6.728691	38.94614	137.305	-0.1309679	-3.923707	0.04	3	100	0	6546	-2.820111	3.078254	-23.59101	
11:27:53	-6.728691	38.94614	137.319	-0.1309679	-3.923707	0.04	3	100	0	6546	-2.858355	3.048335	-23.53639	
11:27:54	-6.728691	38.94614	137.341	-0.1309679	-3.923707	0.04	3	100	0	6546	-2.782905	2.988168	-23.56247	
11:27:54	-6.728691	38.94614	137.365	-0.1309679	-3.923707	0.06	3	100	0	6546	-2.875564	2.971177	-23.52754	
11:27:54	-6.728691	38.94614	137.393	-0.1270333	-2.399077	0.02	3	100	0	6546	-2.849994	2.954737	-23.44976	
11:27:54	-6.728691	38.94614	137.404	-0.1270333	-2.399077	0.04	3	100	0	6546	-2.850277	2.980267	-23.49997	
11:27:54	-6.728691	38.94614	137.383	-0.1270333	-2.399077	0.04	3	100	0	6546	-2.859829	2.964237	-23.55071	
11:27:55	-6.728691	38.94614	137.367	-0.1270333	-2.399077	0.03	3	100	0	6546	-2.873555	2.969396	-23.57122	
11:27:55	-6.728691	38.94614	137.364	-0.1270333	-2.399077	0.03	3	100	0	6546	-2.840863	3.068581	-23.52654	
11:27:55	-6.728691	38.94614	137.364	-0.1803293	-5.389037	0.02	3	100	0	6546	-2.861849	3.065176	-23.51249	
11:27:55	-6.728691	38.94614	137.377	-0.1803293	-5.389037	0.02	3	100	0	6546	-2.823265	3.05018	-23.49142	
11:27:56	-6.728691	38.94614	137.435	-0.1803293	-5.389037	0.02	3	100	0	6546	-2.804698	2.991089	-23.44313	
11:27:56	-6.728691	38.94614	137.46	-0.1803293	-5.389037	0.04	3	100	0	6546	-2.830888	2.991497	-23.41238	
11:27:56	-6.728691	38.94614	137.443	-0.1803293	-5.389037	0.09	3	100	0	6546	-2.865713	3.000492	-23.46589	
11:27:56	-6.728691	38.94614	137.431	-0.1184152	-0.4256566	0.04	3	100	0	6546	-2.856482	2.909327	-23.44029	
11:27:56	-6.728691	38.94614	137.414	-0.1184152	-0.4256566	0.06	3	100	0	6546	-2.873626	3.011553	-23.46612	
11:27:56	-6.728691	38.94614	137.429	-0.1184152	-0.4256566	0.04	3	100	0	6546	-2.820491	3.057295	-23.48465	
11:27:57	-6.728691	38.94614	137.508	-0.1184152	-0.4256566	0.03	3	100	0	6546	-2.876276	3.035726	-23.52563	
11:27:57	-6.728691	38.94614	137.508	-0.1184152	-0.4256566	0.04	3	100	0	6546	-2.858437	3.029013	-23.46169	
11:27:57	-6.728691	38.94614	137.557	0.2410232	14.21544	0.01	3	100	0	6546	-2.83742	3.078207	-23.42144	
11:27:57	-6.728691	38.94614	137.613	0.2410232	14.21544	0.03	3	100	0	6546	-2.806337	3.031067	-23.40936	
11:27:57	-6.728691	38.94614	137.657	0.2410232	14.21544	0.07	3	100	0	6546	-2.795332	3.022195	-23.38096	
11:27:58	-6.728691	38.94614	137.657	0.2410232	14.21544	0.03	3	100	0	6546	-2.842312	2.987714	-23.42255	
11:27:58	-6.728691	38.94614	137.7	0.2410232	14.21544	0.02	3	100	0	6546	-2.812025	3.101743	-23.39036	
11:27:58	-6.728691	38.94614	137.718	0.1598442	4.78562	0.08	3	100	0	6546	-2.789807	3.074093	-23.3318	
11:27:58	-6.728691	38.94614	137.756	0.1598442	4.78562	0.04	3	100	0	6546	-2.860744	3.086572	-23.36468	
11:27:58	-6.728691	38.94614	137.784	0.1598442	4.78562	0.07	3	100	0	6546	-2.815166	3.177839	-23.32503	
11:27:59	-6.728691	38.94614	137.799	0.1598442	4.78562	0.08	3	100	0	6546	-2.805974	3.202387	-23.33365	
11:27:59	-6.728691	38.94614	137.813	0.1598442	4.78562	0.07	3	100	0	6546	-2.869936	3.127852	-23.32281	
11:27:59	-6.728691	38.94614	137.824	-0.0299122	-5.126239	0.04	3	100	0	6546	-2.81915	3.0964	-23.3525	
11:27:59	-6.728691	38.94614	137.879	-0.0299122	-5.126239	0.04	3	100	0	6546	-2.852105	3.130863	-23.38619	
11:27:59	-6.728691	38.94614	137.894	-0.0299122	-5.126239	0.02	3	100	0	6546	-2.845485	3.138204	-23.37372	
11:28:00	-6.728691	38.94614	137.914	-0.0299122	-5.126239	0.04	3	100	0	6546	-2.829152	3.15032	-23.37993	
11:28:00	-6.728691	38.94614	137.928	-0.0299122	-5.126239	0.04	3	100	0	6546	-2.829011	3.188107	-23.36436	
11:28:00	-6.728691	38.94614	137.95	-0.1214805	-7.967936	0.04	3	100	0	6546	-2.76391	3.169522	-23.30363	
11:28:00	-6.728691	38.94614	138.054	-0.1214805	-7.967936	0.04	3	100	0	6546	-2.775187	3.17925	-23.34816	
11:28:01	-6.728691	38.94614	138.054	-0.1214805	-7.967936	0.03	3	100	0	6546	-2.788518	3.198252	-23.28973	
11:28:01	-6.728691	38.94614	138.069	-0.1214805	-7.967936	0.04	3	100	0	6546	-2.818348	3.199871	-23.30846	
11:28:01	-6.728691	38.94614	138.092	-0.1214805	-7.967936	0.01	3	100	0	6546	-2.75739	3.215041	-23.33295	
11:28:01	-6.728691	38.94614	138.124	-0.2662678	-11.09229	0.07	3	100	0	6546	-2.766317	3.188505	-23.33497	
11:28:01	-6.728691	38.94614	138.151	-0.2662678	-11.09229	0.08	3	100	0	6546	-2.726077	3.209039	-23.33661	
11:28:02	-6.728691	38.94614	138.191	-0.2662678	-11.09229	0.04	3	100	0	6546	-2.782243	3.242577	-23.29181	
11:28:02	-6.728691	38.94614	138.222	-0.2662678	-11.09229	0.07	3	100	0	6546	-2.744529	3.228414	-23.21202	
11:28:02	-6.728691	38.94614	138.278	-0.2662678	-11.09229	0.03	3	100	0	6546	-2.763777	3.23991	-23.26031	
11:28:02	-6.728691	38.94614	138.308	-0.2794954	-7.937702	0.01	3	100	0	6547	-2.742277	3.176147	-23.31074	
11:28:02	-6.728691	38.94614	138.335	-0.2794954	-7.937702	0	3	100	0	6547	-2.780399	3.162614	-23.33388	
11:28:03	-6.728691	38.94614	138.348	-0.2794954	-7.937702	0.02	3	100	0	6547	-2.784811	3.160176	-23.33121	
11:28:03	-6.728691	38.94614	138.394	-0.2794954	-7.937702	0.03	3	100	0	6547	-2.781557	3.15304	-23.32098	
11:28:03	-6.728691	38.94614	138.426	-0.2794954	-7.937702	0.09	3	100	0	6547	-2.76938	3.133613	-23.30034	
11:28:03	-6.728691	38.94614	138.464	-0.1344102	0.04199596	0.01	3	100	0	6546	-2.761262	3.135249	-23.27896	
11:28:03	-6.728691	38.94614	138.471	-0.1344102	0.04199596	0.02	3	100	0	6546	-2.834564	3.13318	-23.36821	
11:28:04	-6.728691	38.94614	138.47	-0.1344102	0.04199596	0.04	3	100	0	6546	-2.824892	3.139038	-23.36069	
11:28:04	-6.728691	38.94615	138.466	-0.1344102	0.04199596	0.04	3	100	0	6546	-2.789684	3.109057	-23.33947	
11:28:04	-6.728691	38.94615	138.444	-0.1344102	0.04199596	0.01	3	100	0	6546	-2.766687	3.155867	-23.28525	
11:28:04	-6.728691	38.94615	138.48	-0.02681118	5.22334	0.04	3	100	0	6546	-2.815281	3.176074	-23.32162	
11:28:04	-6.728691	38.94615	138.497	-0.02681118	5.22334	0.03	3	100	0	6546	-2.787831	3.16636	-23.29919	
11:28:05	-6.728691	38.94615	138.543	-0.02681118	5.22334	0.01	3	100	0	6546	-2.777669	3.164961	-23.2898	
11:28:05	-6.728691	38.94615	138.617	-0.02681118	5.22334	0.01	3	100	0	6546	-2.791173	3.167718	-23.26326	
11:28:05	-6.728691	38.94615	138.561	-0.02681118	5.22334	0.04	3	100	0	6546	-2.789322	3.174227	-23.23302	
11:28:05	-6.728691	38.94615	138.561	0.1267534	8.869017	0.07	3	100	0	6546	-2.8294	3.132761	-23.23727	
11:28:05	-6.728691	38.94615	138.572	0.1267534	8.869017	0.03	3	100	0	6546	-2.85013	3.092081	-23.25487	
11:28:06	-6.728691	38.94615	138.564	0.1267534	8.869017	0.02	3	100	0	6546	-2.812924	3.144754	-23.30136	
11:28:06	-6.728691	38.94615	138.577	0.1267534	8.869017	0.07	3	100	0	6546	-2.820648	3.155499	-23.25148	
11:28:06	-6.728691	38.94615	138.581	0.1267534	8.869017	0.06	3	100	0	6546	-2.87038	3.123169	-23.27487	
11:28:06	-6.728691	38.94615	138.581	0.08780944	3.974067	0.06	3	100	0	6546	-2.858411	3.120127	-23.30053	
11:28:06	-6.728691	38.94615	138.571	0.08780944	3.974067	0.04	3	100	0	6546	-2.826742	3.109861	-23.34542	
11:28:06	-6.728691	38.94615	138.555	0.08780944	3.974067	0.04	3	100	0	6546	-2.799295	3.138717	-23.31343	
11:28:07	-6.728691	38.94615	138.585	0.08780944	3.974067	0.04	3	100	0	6546	-2.832627	3.150464	-23.32575	
11:28:07	-6.728691	38.94615	138.585	0.08780944	3.974067	0.03	3	100	0	6546	-2.868098	3.117159	-23.33124	
11:28:07	-6.728691	38.94615	138.598	0.06529402	2.051196	0.04	3	100	0	6546	-2.850588	3.129622	-23.30516	
11:28:07	-6.728691	38.94615	138.598	0.06529402	2.051196	0.07	3	100	0	6546	-2.907625	3.107636	-23.32486	
11:28:08	-6.728691	38.94615	138.607	0.06529402	2.051196	0.01	3	100	0	6546	-2.899307	3.078714	-23.34205	
11:28:08	-6.728691	38.94615	138.578	0.06529402	2.051196	0.04	3	100	0	6546	-2.864825	3.083418	-23.35172	
11:28:08	-6.728691	38.94615	138.609	0.06529402	2.051196	0.03	3	100	0	6546	-2.877451	3.115236	-23.30573	
11:28:08	-6.728691	38.94615	138.598	-0.01914231	-3.225518	0.02	3	100	0	6546	-2.856884	3.111641	-23.2737	
11:28:09	-6.728691	38.94615	138.626	-0.01914231	-3.225518	0.07	3	100	0	6546	-2.819003	3.134467	-23.1948	
11:28:09	-6.728691	38.94615	138.666	-0.01914231	-3.225518	0.03	3	100	0	6546	-2.834361	3.132666	-23.25433	
11:28:09	-6.728691	38.94615	138.711	-0.01914231	-3.225518	0.04	3	100	0	6546	-2.861899	3.112491	-23.19526	
11:28:09	-6.728691	38.94615	138.704	-0.01914231	-3.225518	0.03	3	100	0	6546	-2.835836	3.076081	-23.17453	
11:28:09	-6.728691	38.94615	138.745	0.04330952	-0.09765095	0.02	3	100	0	6546	-2.840561	3.036541	-23.19232	
11:28:10	-6.728691	38.94615	138.765	0.04330952	-0.09765095	0.01	3	100	0	6546	-2.838269	3.04511	-23.20544	
11:28:10	-6.728691	38.94615	138.812	0.04330952	-0.09765095	0.04	3	100	0	6546	-2.852415	3.088219	-23.23814	
11:28:10	-6.728691	38.94615	138.823	0.04330952	-0.09765095	0.04	3	100	0	6546	-2.839427	3.027208	-23.21301	
11:28:10	-6.728691	38.94615	138.846	0.04330952	-0.09765095	0.02	3	100	0	6546	-2.819129	2.988364	-23.13448	
11:28:10	-6.728691	38.94615	138.914	0.114624	4.596858	0.08	3	100	0	6546	-2.905123	3.002116	-23.18821	
11:28:11	-6.728691	38.94615	138.895	0.114624	4.596858	0.03	3	100	0	6546	-2.859533	3.025718	-23.16035	
11:28:11	-6.728691	38.94615	138.901	0.114624	4.596858	0.06	3	100	0	6546	-2.837417	2.981318	-23.17531	
11:28:11	-6.728691	38.94615	138.911	0.114624	4.596858	0.03	3	100	0	6546	-2.857576	2.996825	-23.20774	
11:28:11	-6.728691	38.94615	138.935	0.114624	4.596858	0.02	3	100	0	6546	-2.823102	3.024434	-23.21027	
11:28:11	-6.728691	38.94615	138.944	0.03834804	-0.9214941	0.02	3	100	0	6546	-2.853565	3.023945	-23.28326	
11:28:11	-6.728691	38.94615	138.959	0.03834804	-0.9214941	0.01	3	100	0	6546	-2.843006	3.014344	-23.30142	
11:28:12	-6.728691	38.94615	138.95	0.03834804	-0.9214941	0.01	3	100	0	6546	-2.843207	3.011394	-23.3206	
11:28:12	-6.728691	38.94615	138.969	0.03834804	-0.9214941	0.03	3	100	0	6546	-2.861903	3.03713	-23.3023	
11:28:12	-6.728691	38.94615	138.962	0.03834804	-0.9214941	0.02	3	100	0	6546	-2.8754	3.036314	-23.26997	
11:28:12	-6.728691	38.94615	138.954	-0.03166622	-3.594603	0.02	3	100	0	6546	-2.824758	3.03331	-23.25554	
11:28:12	-6.728691	38.94615	139.015	-0.03166622	-3.594603	0.06	3	100	0	6546	-2.871502	3.00868	-23.34327	
11:28:13	-6.728691	38.94615	138.998	-0.03166622	-3.594603	0.02	3	100	0	6546	-2.849981	3.018863	-23.37277	
11:28:13	-6.728691	38.94615	138.998	-0.03166622	-3.594603	0.04	3	100	0	6546	-2.844166	2.980061	-23.38759	
11:28:13	-6.728691	38.94615	138.991	-0.03166622	-3.594603	0.03	3	100	0	6546	-2.868354	2.992679	-23.35856	
11:28:13	-6.728691	38.94615	138.962	-0.1048637	-6.84826	0.03	3	100	0	6546	-2.795972	2.985332	-23.34705	
11:28:13	-6.728691	38.94615	138.962	-0.1048637	-6.84826	0.03	3	100	0	6546	-2.777624	2.956616	-23.3047	
11:28:14	-6.728691	38.94615	138.956	-0.1048637	-6.84826	0.01	3	100	0	6546	-2.795487	2.956395	-23.27307	
11:28:14	-6.728691	38.94615	138.957	-0.1048637	-6.84826	0.03	3	100	0	6546	-2.799598	2.933268	-23.29993	
11:28:14	-6.728691	38.94615	138.916	-0.1048637	-6.84826	0.11	3	100	0	6546	-2.784983	2.943964	-23.22127	
11:28:14	-6.728691	38.94615	138.93	-0.2123139	-8.210271	0.02	3	100	0	6546	-2.755989	3.104553	-23.21045	
11:28:15	-6.728691	38.94615	138.94	-0.2123139	-8.210271	0.07	3	100	0	6546	-2.792086	3.018344	-23.15813	
11:28:15	-6.728691	38.94615	138.912	-0.2123139	-8.210271	0.02	3	100	0	6546	-2.740994	2.984461	-23.13578	
11:28:15	-6.728691	38.94615	138.912	-0.2123139	-8.210271	0.02	3	100	0	6546	-2.777274	3.044057	-23.11254	
11:28:15	-6.728691	38.94615	138.92	-0.2123139	-8.210271	0.07	3	100	0	6546	-2.801285	3.026538	-23.06828	
11:28:16	-6.728691	38.94615	138.926	-0.1189221	-0.1720712	0.04	3	100	0	6546	-2.866199	3.02889	-23.09141	
11:28:16	-6.728691	38.94615	138.909	-0.1189221	-0.1720712	0.04	3	100	0	6546	-2.870259	3.049874	-23.05757	
11:28:16	-6.728691	38.94615	138.918	-0.1189221	-0.1720712	0.04	3	100	0	6546	-2.777319	3.070708	-23.04926	
11:28:16	-6.728691	38.94615	138.926	-0.1189221	-0.1720712	0.02	3	100	0	6546	-2.810916	3.114854	-23.12959	
11:28:16	-6.728691	38.94615	138.927	-0.1189221	-0.1720712	0.01	3	100	0	6546	-2.813513	3.075502	-23.14804	
11:28:16	-6.728691	38.94615	138.941	-0.229957	-7.001774	0.04	3	100	0	6546	-2.819857	3.062985	-23.23669	
11:28:16	-6.728691	38.94614	138.957	-0.229957	-7.001774	0.03	3	100	0	6546	-2.810872	3.024374	-23.23868	
11:28:17	-6.728691	38.94614	138.903	-0.229957	-7.001774	0.04	3	100	0	6546	-2.825324	3.102148	-23.23359	
11:28:17	-6.728691	38.94614	138.882	-0.229957	-7.001774	0.02	3	100	0	6546	-2.783921	3.084257	-23.27402	
11:28:17	-6.728691	38.94614	138.846	-0.229957	-7.001774	0.01	3	100	0	6546	-2.805079	3.107481	-23.26375	
11:28:17	-6.728691	38.94614	138.794	-0.2598359	-5.073758	0.04	3	100	0	6546	-2.793615	3.088391	-23.25614	
11:28:17	-6.728691	38.94614	138.778	-0.2598359	-5.073758	0.02	3	100	0	6546	-2.785516	3.058585	-23.23528	
11:28:18	-6.728691	38.94614	138.719	-0.2598359	-5.073758	0.06	3	100	0	6546	-2.796227	3.083869	-23.32222	
11:28:18	-6.728691	38.94614	138.702	-0.2598359	-5.073758	0.04	3	100	0	6546	-2.727098	3.087314	-23.31953	
11:28:18	-6.728691	38.94614	138.69	-0.2598359	-5.073758	0.03	3	100	0	6546	-2.776724	3.048773	-23.30904	
11:28:18	-6.728691	38.94614	138.666	0.09828712	12.06207	0.04	3	100	0	6546	-2.725704	3.081233	-23.29071	
11:28:19	-6.728691	38.94614	138.649	0.09828712	12.06207	0.04	3	100	0	6546	-2.713174	3.095607	-23.243	
11:28:19	-6.728691	38.94614	138.65	0.09828712	12.06207	0.04	3	100	0	6546	-2.776416	3.124329	-23.27405	
11:28:19	-6.728691	38.94614	138.62	0.09828712	12.06207	0.06	3	100	0	6546	-2.80409	3.057508	-23.276	
11:28:19	-6.728691	38.94614	138.625	0.09828712	12.06207	0.04	3	100	0	6546	-2.731174	3.104337	-23.21072	
11:28:20	-6.728691	38.94614	138.626	0.2064048	10.39518	0.06	3	100	0	6546	-2.761202	3.123635	-23.16902	
11:28:20	-6.728691	38.94614	138.629	0.2064048	10.39518	0.02	3	100	0	6546	-2.806697	3.039647	-23.16793	
11:28:20	-6.728691	38.94614	138.565	0.2064048	10.39518	0.04	3	100	0	6546	-2.790385	3.100656	-23.1077	
11:28:20	-6.728691	38.94614	138.535	0.2064048	10.39518	0.02	3	100	0	6546	-2.720289	3.130505	-23.13367	
11:28:20	-6.728691	38.94614	138.51	0.2064048	10.39518	0.04	3	100	0	6546	-2.764375	3.100343	-23.12973	
11:28:20	-6.728691	38.94614	138.483	-0.001102954	-3.904727	0.04	3	100	0	6546	-2.734254	3.153389	-23.14107	
11:28:21	-6.728691	38.94614	138.437	-0.001102954	-3.904727	0.02	3	100	0	6546	-2.779881	3.142314	-23.08228	
11:28:21	-6.728691	38.94614	138.434	-0.001102954	-3.904727	0.03	3	100	0	6546	-2.752207	3.164471	-23.13807	
11:28:21	-6.728691	38.94614	138.402	-0.001102954	-3.904727	0.02	3	100	0	6546	-2.742748	3.157952	-23.13313	
11:28:21	-6.728691	38.94614	138.358	-0.001102954	-3.904727	0.02	3	100	0	6546	-2.721164	3.177353	-23.14709	
11:28:22	-6.728691	38.94614	138.348	-0.1265682	-6.921311	0.02	3	100	0	6546	-2.712131	3.177882	-23.0948	
11:28:22	-6.728691	38.94614	138.343	-0.1265682	-6.921311	0.03	3	100	0	6546	-2.740375	3.198881	-23.14594	
11:28:22	-6.728691	38.94614	138.28	-0.1265682	-6.921311	0.04	3	100	0	6546	-2.678887	3.199058	-23.14796	
11:28:22	-6.728691	38.94614	138.284	-0.1265682	-6.921311	0.04	3	100	0	6546	-2.665624	3.192206	-23.15938	
11:28:22	-6.728691	38.94614	138.237	-0.1265682	-6.921311	0.04	3	100	0	6546	-2.678976	3.172645	-23.21216	
11:28:23	-6.728691	38.94614	138.204	-0.1975626	-7.06612	0.03	3	100	0	6546	-2.762387	3.112527	-23.18942	
11:28:23	-6.728691	38.94614	138.132	-0.1975626	-7.06612	0.06	3	100	0	6546	-2.708321	3.215489	-23.20165	
11:28:23	-6.728691	38.94614	138.051	-0.1975626	-7.06612	0.01	3	100	0	6546	-2.69236	3.240827	-23.18934	
11:28:23	-6.728691	38.94614	138.045	-0.1975626	-7.06612	0.04	3	100	0	6546	-2.746984	3.188381	-23.24568	
11:28:23	-6.728691	38.94614	138.031	-0.1975626	-7.06612	0.01	3	100	0	6546	-2.71955	3.222744	-23.18563	
11:28:24	-6.728691	38.94614	138.023	-0.2296384	-5.021059	0.04	3	100	0	6546	-2.762448	3.151424	-23.16529	
11:28:24	-6.728691	38.94614	138.023	-0.2296384	-5.021059	0.01	3	100	0	6546	-2.777448	3.120077	-23.17163	
11:28:24	-6.728691	38.94614	137.976	-0.2296384	-5.021059	0.03	3	100	0	6546	-2.744213	3.126048	-23.16028	
11:28:24	-6.728691	38.94614	137.944	-0.2296384	-5.021059	0.03	3	100	0	6546	-2.767617	3.124413	-23.14279	
11:28:24	-6.728691	38.94614	137.941	-0.2296384	-5.021059	0.06	3	100	0	6546	-2.744401	3.169598	-23.20036	
11:28:25	-6.728691	38.94614	137.92	0.005910222	6.879652	0.02	3	100	0	6546	-2.719453	3.236087	-23.1733	
11:28:25	-6.728691	38.94614	137.863	0.005910222	6.879652	0.03	3	100	0	6546	-2.757107	3.205439	-23.12376	
11:28:25	-6.728691	38.94614	137.802	0.005910222	6.879652	0.03	3	100	0	6546	-2.791493	3.182084	-23.15034	
11:28:25	-6.728691	38.94614	137.757	0.005910222	6.879652	0.03	3	100	0	6546	-2.814124	3.198646	-23.21719	
11:28:26	-6.728691	38.94614	137.727	0.005910222	6.879652	0.03	3	100	0	6546	-2.793614	3.183022	-23.21068	
11:28:26	-6.728691	38.94614	137.716	0.07229738	7.051423	0.04	3	100	0	6546	-2.762858	3.237159	-23.16026	
11:28:26	-6.728691	38.94614	137.716	0.07229738	7.051423	0.08	3	100	0	6546	-2.736254	3.220819	-23.22747	
11:28:26	-6.728691	38.94614	137.684	0.07229738	7.051423	0.04	3	100	0	6546	-2.842745	3.168285	-23.23936	
11:28:26	-6.728691	38.94614	137.616	0.07229738	7.051423	0.02	3	100	0	6546	-2.773219	3.176857	-23.20403	
11:28:27	-6.728691	38.94614	137.569	0.07229738	7.051423	0.02	3	100	0	6546	-2.756182	3.176937	-23.21249	
11:28:27	-6.728691	38.94614	137.545	-0.0127896	1.707008	0.03	3	100	0	6546	-2.722818	3.175869	-23.16232	
11:28:27	-6.728691	38.94614	137.535	-0.0127896	1.707008	0.04	3	100	0	6546	-2.729021	3.193488	-23.20511	
11:28:27	-6.728691	38.94614	137.525	-0.0127896	1.707008	0.03	3	100	0	6546	-2.778822	3.208038	-23.21538	
11:28:27	-6.728691	38.94614	137.49	-0.0127896	1.707008	0.04	3	100	0	6546	-2.742373	3.138892	-23.228	
11:28:28	-6.728691	38.94614	137.469	-0.0127896	1.707008	0.02	3	100	0	6546	-2.765237	3.186688	-23.21961	
11:28:28	-6.728691	38.94614	137.455	-0.04181776	1.10067	0.04	3	100	0	6546	-2.711567	3.211723	-23.24739	
11:28:28	-6.728691	38.94614	137.449	-0.04181776	1.10067	0.01	3	100	0	6546	-2.713518	3.23288	-23.22693	
11:28:28	-6.728691	38.94614	137.445	-0.04181776	1.10067	0.04	3	100	0	6546	-2.743479	3.207999	-23.32633	
11:28:28	-6.728691	38.94614	137.43	-0.04181776	1.10067	0.04	3	100	0	6546	-2.779798	3.236244	-23.36452	
11:28:28	-6.728691	38.94614	137.409	-0.04181776	1.10067	0.04	3	100	0	6546	-2.801262	3.157763	-23.45465	
11:28:28	-6.728691	38.94614	137.414	-0.1491976	-4.904649	0.07	3	100	0	6546	-2.797637	3.171369	-23.50582	
11:28:28	-6.728691	38.94614	137.313	-0.1491976	-4.904649	0.03	3	100	0	6546	-2.784441	3.241349	-23.46999	
11:28:29	-6.728691	38.94614	137.276	-0.1491976	-4.904649	0.04	3	100	0	6546	-2.735766	3.163893	-23.51215	
11:28:29	-6.728691	38.94614	137.276	-0.1491976	-4.904649	0.04	3	100	0	6546	-2.726478	3.173743	-23.46803	
11:28:29	-6.728691	38.94614	137.224	-0.1491976	-4.904649	0.07	3	100	0	6546	-2.740237	3.193405	-23.47001	
11:28:29	-6.728691	38.94614	137.197	-0.05326751	1.081168	0.08	3	100	0	6546	-2.788632	3.181869	-23.49692	
11:28:30	-6.728691	38.94614	137.194	-0.05326751	1.081168	0.08	3	100	0	6546	-2.836356	3.111385	-23.48227	
11:28:30	-6.728691	38.94614	137.163	-0.05326751	1.081168	0.03	3	100	0	6546	-2.745795	3.11569	-23.49999	
11:28:30	-6.728691	38.94614	137.156	-0.05326751	1.081168	0.03	3	100	0	6546	-2.818205	3.046069	-23.53674	
11:28:30	-6.728691	38.94614	137.101	-0.05326751	1.081168	0.03	3	100	0	6546	-2.832526	3.103361	-23.50377	
11:28:30	-6.728691	38.94614	137.101	-0.04186821	1.170221	0.03	3	100	0	6546	-2.859567	3.087137	-23.53947	
11:28:30	-6.728691	38.94614	137.101	-0.04186821	1.170221	0.02	3	100	0	6546	-2.867071	3.056357	-23.47898	
11:28:31	-6.728692	38.94614	137.079	-0.04186821	1.170221	0.02	3	100	0	6546	-2.86242	3.046379	-23.49138	
11:28:31	-6.728692	38.94614	136.979	-0.04186821	1.170221	0.02	3	100	0	6546	-2.831578	3.075336	-23.4593	
11:28:31	-6.728692	38.94614	136.917	-0.04186821	1.170221	0.03	3	100	0	6546	-2.822962	3.093141	-23.51067	
11:28:31	-6.728692	38.94614	136.885	0.2295933	13.28248	0.01	3	100	0	6546	-2.818715	3.090402	-23.48496	
11:28:31	-6.728692	38.94614	136.874	0.2295933	13.28248	0.03	3	100	0	6546	-2.793292	3.079746	-23.47901	
11:28:32	-6.728692	38.94614	136.836	0.2295933	13.28248	0.02	3	100	0	6546	-2.785873	3.070415	-23.48364	
11:28:32	-6.728692	38.94614	136.776	0.2295933	13.28248	0.02	3	100	0	6546	-2.792819	3.069462	-23.45167	
11:28:32	-6.728692	38.94614	136.789	0.2295933	13.28248	0.04	3	100	0	6546	-2.805314	3.047928	-23.40008	
11:28:32	-6.728692	38.94614	136.766	0.2957733	11.72405	0.04	3	100	0	6546	-2.817188	3.056639	-23.37921	
11:28:32	-6.728693	38.94614	136.76	0.2957733	11.72405	0.03	3	100	0	6546	-2.819237	3.077964	-23.35658	
11:28:33	-6.728693	38.94614	136.761	0.2957733	11.72405	0.04	3	100	0	6546	-2.81919	3.065912	-23.3899	
11:28:33	-6.728693	38.94614	136.742	0.2957733	11.72405	0.07	3	100	0	6546	-2.78498	3.107439	-23.42325	
11:28:33	-6.728693	38.94614	136.758	0.2957733	11.72405	0.07	3	100	0	6546	-2.81009	3.10445	-23.37894	
11:28:33	-6.728693	38.94614	136.76	0.2813799	6.157652	0.04	3	100	0	6546	-2.852477	3.096969	-23.41675	
11:28:33	-6.728693	38.94614	136.708	0.2813799	6.157652	0.01	3	100	0	6546	-2.809443	3.089181	-23.34875	
11:28:34	-6.728693	38.94614	136.708	0.2813799	6.157652	0.02	3	100	0	6546	-2.799979	3.087547	-23.36971	
11:28:34	-6.728693	38.94614	136.684	0.2813799	6.157652	0.03	3	100	0	6546	-2.803121	3.073505	-23.36033	
11:28:34	-6.728693	38.94614	136.642	0.2813799	6.157652	0.03	3	100	0	6546	-2.796183	3.09085	-23.42105	
11:28:34	-6.728693	38.94614	136.639	0.1289928	-2.2696	0.04	3	100	0	6545	-2.774704	3.125003	-23.4564	
11:28:34	-6.728693	38.94614	136.626	0.1289928	-2.2696	0.03	3	100	0	6545	-2.754274	3.101815	-23.48446	
11:28:35	-6.728693	38.94614	136.623	0.1289928	-2.2696	0.02	3	100	0	6545	-2.785883	3.091424	-23.55648	
11:28:35	-6.728693	38.94614	136.594	0.1289928	-2.2696	0.06	3	100	0	6545	-2.762164	3.033978	-23.55074	
11:28:35	-6.728693	38.94614	136.563	0.1289928	-2.2696	0.01	3	100	0	6545	-2.749753	3.040796	-23.49177	
11:28:36	-6.728693	38.94614	136.547	0.2809526	3.749594	0.03	3	100	0	6546	-2.781918	3.058756	-23.43666	
11:28:36	-6.728693	38.94614	136.523	0.2809526	3.749594	0.11	3	100	0	6546	-2.847876	3.035811	-23.4837	
11:28:36	-6.728693	38.94614	136.518	0.2809526	3.749594	0.06	3	100	0	6546	-2.793522	3.085374	-23.43182	
11:28:36	-6.728693	38.94614	136.516	0.2809526	3.749594	0.06	3	100	0	6546	-2.733058	3.155894	-23.46181	
11:28:36	-6.728693	38.94614	136.488	0.2809526	3.749594	0.04	3	100	0	6546	-2.711978	3.102856	-23.45664	
11:28:37	-6.728693	38.94614	136.487	0.01222985	-9.706673	0.01	3	100	0	6546	-2.710236	3.084771	-23.44387	
11:28:37	-6.728693	38.94614	136.44	0.01222985	-9.706673	0	3	100	0	6546	-2.740028	3.087745	-23.4649	
11:28:37	-6.728693	38.94614	136.423	0.01222985	-9.706673	0.02	3	100	0	6546	-2.722044	3.085908	-23.49622	
11:28:37	-6.728693	38.94614	136.436	0.01222985	-9.706673	0.02	3	100	0	6546	-2.728482	3.090132	-23.46485	
11:28:37	-6.728693	38.94614	136.475	0.01222985	-9.706673	0.04	3	100	0	6546	-2.743264	3.113104	-23.4827	
11:28:37	-6.728693	38.94614	136.503	-0.02953828	-8.145947	0.04	3	100	0	6546	-2.782991	3.085441	-23.49862	
11:28:38	-6.728693	38.94614	136.497	-0.02953828	-8.145947	0.06	3	100	0	6546	-2.753639	3.093645	-23.43956	
11:28:38	-6.728693	38.94614	136.465	-0.02953828	-8.145947	0.07	3	100	0	6546	-2.729807	3.085481	-23.5086	
11:28:38	-6.728693	38.94614	136.472	-0.02953828	-8.145947	0.02	3	100	0	6546	-2.745223	3.044565	-23.46991	
11:28:38	-6.728693	38.94614	136.47	-0.02953828	-8.145947	0.04	3	100	0	6546	-2.775861	3.026505	-23.48796	
11:28:38	-6.728693	38.94614	136.478	-0.2088447	-13.4072	0.04	3	100	0	6546	-2.769935	3.024195	-23.4763	
11:28:39	-6.728693	38.94614	136.502	-0.2088447	-13.4072	0.04	3	100	0	6546	-2.753522	2.967241	-23.50552	
11:28:39	-6.728693	38.94614	136.524	-0.2088447	-13.4072	0.03	3	100	0	6546	-2.814472	2.980598	-23.50384	
11:28:39	-6.728693	38.94614	136.516	-0.2088447	-13.4072	0.03	3	100	0	6546	-2.825842	3.002239	-23.55034	
11:28:39	-6.728693	38.94614	136.499	-0.2088447	-13.4072	0.07	3	100	0	6546	-2.850101	2.932908	-23.53629	
11:28:39	-6.728693	38.94614	136.487	-0.2215218	-9.025754	0.04	3	100	0	6546	-2.888506	2.902476	-23.56218	
11:28:40	-6.728693	38.94614	136.487	-0.2215218	-9.025754	0.06	3	100	0	6546	-2.821336	2.935124	-23.53084	
11:28:40	-6.728692	38.94614	136.483	-0.2215218	-9.025754	0.01	3	100	0	6546	-2.832181	2.91371	-23.5371	
11:28:40	-6.728692	38.94614	136.492	-0.2215218	-9.025754	0.06	3	100	0	6546	-2.831096	2.906364	-23.51608	
11:28:40	-6.728692	38.94614	136.46	-0.2215218	-9.025754	0.02	3	100	0	6546	-2.891984	2.883519	-23.48337	
11:28:40	-6.728692	38.94614	136.418	-0.2432528	-6.478746	0.04	3	100	0	6546	-2.927795	2.861642	-23.43906	
11:28:41	-6.728692	38.94614	136.408	-0.2432528	-6.478746	0.08	3	100	0	6546	-2.960318	2.821239	-23.46696	
11:28:41	-6.728692	38.94614	136.416	-0.2432528	-6.478746	0.04	3	100	0	6546	-2.953477	2.817509	-23.45615	
11:28:41	-6.728692	38.94614	136.389	-0.2432528	-6.478746	0.03	3	100	0	6546	-2.940785	2.885481	-23.49833	
11:28:41	-6.728692	38.94614	136.386	-0.2432528	-6.478746	0.03	3	100	0	6546	-2.952408	2.88749	-23.50151	
11:28:41	-6.728692	38.94614	136.411	-0.06308677	4.190695	0.09	3	100	0	6546	-2.908001	2.963166	-23.50337	
11:28:42	-6.728692	38.94614	136.44	-0.06308677	4.190695	0.01	3	100	0	6546	-2.932994	2.937789	-23.47525	
11:28:42	-6.728692	38.94614	136.453	-0.06308677	4.190695	0.01	3	100	0	6546	-2.947159	2.926336	-23.51906	
11:28:42	-6.728692	38.94614	136.437	-0.06308677	4.190695	0.04	3	100	0	6546	-2.95904	2.913866	-23.47884	
11:28:42	-6.728692	38.94614	136.432	-0.06308677	4.190695	0.04	3	100	0	6546	-2.998426	2.940349	-23.45879	
11:28:42	-6.728692	38.94614	136.4	0.1063708	9.456317	0.01	3	100	0	6546	-2.956826	2.962585	-23.46068	
11:28:43	-6.728692	38.94614	136.409	0.1063708	9.456317	0.03	3	100	0	6546	-2.951286	2.985195	-23.48696	
11:28:43	-6.728692	38.94614	136.427	0.1063708	9.456317	0	3	100	0	6546	-2.951173	2.967181	-23.4396	
11:28:43	-6.728692	38.94614	136.411	0.1063708	9.456317	0.04	3	100	0	6546	-2.948259	2.945879	-23.4675	
11:28:43	-6.728692	38.94614	136.381	0.1063708	9.456317	0.02	3	100	0	6546	-2.908418	2.906246	-23.44364	
11:28:43	-6.728692	38.94614	136.403	0.1945486	9.704725	0.03	3	100	0	6546	-2.940839	2.942071	-23.41887	
11:28:44	-6.728692	38.94614	136.409	0.1945486	9.704725	0.04	3	100	0	6546	-2.93472	2.920846	-23.40996	
11:28:44	-6.728692	38.94614	136.474	0.1945486	9.704725	0.01	3	100	0	6546	-2.915898	2.958641	-23.40721	
11:28:44	-6.728692	38.94614	136.522	0.1945486	9.704725	0.04	3	100	0	6546	-2.95183	2.947258	-23.38827	
11:28:44	-6.728692	38.94614	136.537	0.1945486	9.704725	0.02	3	100	0	6546	-2.976094	2.911311	-23.41676	
11:28:44	-6.728692	38.94614	136.566	0.000124523	-2.750064	0.04	3	100	0	6546	-2.943824	2.904096	-23.39336	
11:28:45	-6.728692	38.94614	136.639	0.000124523	-2.750064	0.03	3	100	0	6546	-2.968037	2.945576	-23.40416	
11:28:45	-6.728692	38.94614	136.709	0.000124523	-2.750064	0.02	3	100	0	6546	-2.93922	2.857715	-23.42998	
11:28:45	-6.728692	38.94614	136.731	0.000124523	-2.750064	0.04	3	100	0	6546	-2.909368	2.868627	-23.43289	
11:28:45	-6.728692	38.94614	136.794	0.000124523	-2.750064	0.03	3	100	0	6546	-2.972103	2.901304	-23.423	
11:28:45	-6.728692	38.94614	136.828	0.1172964	4.260515	0.08	3	100	0	6546	-2.955995	2.905367	-23.37571	
11:28:46	-6.728692	38.94614	136.866	0.1172964	4.260515	0.01	3	100	0	6546	-2.916146	2.942178	-23.36992	
11:28:46	-6.728692	38.94614	136.864	0.1172964	4.260515	0.01	3	100	0	6546	-2.954576	2.881835	-23.35054	
11:28:46	-6.728692	38.94614	136.882	0.1172964	4.260515	0.04	3	100	0	6546	-2.963883	2.860157	-23.38941	
11:28:46	-6.728692	38.94614	136.959	0.1172964	4.260515	0.04	3	100	0	6546	-3.015376	2.866366	-23.38961	
11:28:46	-6.728692	38.94614	136.996	0.2393516	8.162838	0.03	3	100	0	6546	-3.033904	2.894072	-23.35085	
11:28:47	-6.728692	38.94614	137.034	0.2393516	8.162838	0.03	3	100	0	6546	-2.965742	2.867352	-23.34862	
11:28:47	-6.728692	38.94614	137.079	0.2393516	8.162838	0.03	3	100	0	6546	-2.963421	2.814271	-23.3332	
11:28:47	-6.728692	38.94614	137.071	0.2393516	8.162838	0.02	3	100	0	6546	-2.959133	2.900494	-23.29648	
11:28:47	-6.728692	38.94614	137.113	0.2393516	8.162838	0.04	3	100	0	6546	-2.955375	2.890093	-23.27747	
11:28:47	-6.728692	38.94614	137.133	0.2177835	2.977622	0.03	3	100	0	6546	-2.942957	2.863228	-23.25497	
11:28:48	-6.728692	38.94614	137.209	0.2177835	2.977622	0.01	3	100	0	6546	-2.919753	2.894803	-23.25836	
11:28:48	-6.728692	38.94614	137.265	0.2177835	2.977622	0.03	3	100	0	6546	-2.964532	2.851538	-23.27083	
11:28:48	-6.728692	38.94614	137.335	0.2177835	2.977622	0.07	3	100	0	6546	-2.991261	2.835616	-23.2916	
11:28:48	-6.728692	38.94614	137.357	0.2177835	2.977622	0.03	3	100	0	6546	-2.991215	2.774317	-23.26271	
11:28:48	-6.728692	38.94614	137.355	0.2322636	3.836156	0.06	3	100	0	6546	-2.964897	2.863149	-23.30956	
11:28:49	-6.728692	38.94614	137.355	0.2322636	3.836156	0.06	3	100	0	6546	-2.913225	2.818403	-23.22164	
11:28:49	-6.728692	38.94614	137.338	0.2322636	3.836156	0.04	3	100	0	6546	-2.983372	2.847996	-23.20626	
11:28:49	-6.728692	38.94614	137.355	0.2322636	3.836156	0.03	3	100	0	6546	-2.944603	2.833731	-23.24288	
11:28:49	-6.728692	38.94614	137.363	0.2322636	3.836156	0.06	3	100	0	6546	-2.939803	2.876642	-23.26238	
11:28:49	-6.728692	38.94614	137.36	0.4345606	11.07432	0.01	3	100	0	6546	-3.004204	2.913627	-23.2583	
11:28:50	-6.728692	38.94614	137.336	0.4345606	11.07432	0.01	3	100	0	6546	-2.924644	2.895114	-23.23336	
11:28:50	-6.728692	38.94614	137.302	0.4345606	11.07432	0.02	3	100	0	6546	-2.857991	2.894437	-23.20305	
11:28:50	-6.728692	38.94614	137.309	0.4345606	11.07432	0.03	3	100	0	6546	-2.894727	2.95169	-23.21281	
11:28:50	-6.728691	38.94614	137.348	0.4462306	6.491316	0.04	3	100	0	6546	-2.920899	2.931411	-23.19456	
11:28:51	-6.728691	38.94614	137.378	0.4462306	6.491316	0.03	3	100	0	6546	-2.894362	2.902382	-23.21975	
11:28:51	-6.728691	38.94614	137.377	0.4462306	6.491316	0.03	3	100	0	6546	-2.87014	2.942408	-23.16052	
11:28:51	-6.728691	38.94614	137.443	0.4462306	6.491316	0.04	3	100	0	6546	-2.938663	2.886812	-23.19053	
11:28:51	-6.728691	38.94614	137.471	0.4462306	6.491316	0.06	3	100	0	6546	-2.958722	2.877185	-23.17624	
11:28:51	-6.728691	38.94614	137.471	0.2505799	-5.663784	0.03	3	100	0	6546	-2.959249	2.878073	-23.1689	
11:28:52	-6.728691	38.94614	137.54	0.2505799	-5.663784	0.03	3	100	0	6546	-2.891707	2.914272	-23.08045	
11:28:52	-6.728691	38.94614	137.539	0.2505799	-5.663784	0.04	3	100	0	6546	-2.883589	2.918952	-23.12906	
11:28:52	-6.728691	38.94614	137.531	0.2505799	-5.663784	0.09	3	100	0	6546	-2.859159	2.967633	-23.19777	
11:28:52	-6.728691	38.94614	137.559	0.2505799	-5.663784	0.04	3	100	0	6546	-2.801171	2.932532	-23.22792	
11:28:52	-6.728691	38.94614	137.569	0.01865465	-12.7859	0.03	3	100	0	6546	-2.937665	2.896787	-23.29546	
11:28:53	-6.728691	38.94614	137.605	0.01865465	-12.7859	0.06	3	100	0	6546	-2.928577	2.914507	-23.28186	
11:28:53	-6.728691	38.94614	137.68	0.01865465	-12.7859	0.03	3	100	0	6546	-2.920234	2.839086	-23.25793	
11:28:53	-6.728691	38.94614	137.728	0.01865465	-12.7859	0.09	3	100	0	6546	-2.886564	2.898034	-23.24229	
11:28:53	-6.728691	38.94614	137.801	0.01865465	-12.7859	0.04	3	100	0	6546	-2.923115	2.769271	-23.25653	
11:28:54	-6.728691	38.94614	137.832	0.2031807	-0.3536268	0.03	3	100	0	6546	-2.881146	2.830588	-23.23038	
11:28:54	-6.728691	38.94614	137.887	0.2031807	-0.3536268	0.02	3	100	0	6546	-2.928322	2.829682	-23.16509	
11:28:54	-6.728691	38.94614	137.926	0.2031807	-0.3536268	0	3	100	0	6546	-2.921911	2.886774	-23.15665	
11:28:54	-6.728691	38.94614	137.945	0.2031807	-0.3536268	0.04	3	100	0	6546	-2.883636	2.883938	-23.10138	
11:28:54	-6.728691	38.94614	137.994	0.2031807	-0.3536268	0.04	3	100	0	6546	-2.873433	2.875873	-23.15677	
11:28:54	-6.728691	38.94614	138.009	0.2912764	2.741473	0.03	3	100	0	6546	-2.939656	2.896342	-23.14869	
11:28:55	-6.728691	38.94614	138.078	0.2912764	2.741473	0.01	3	100	0	6546	-2.884655	2.9079	-23.10998	
11:28:55	-6.728691	38.94614	138.141	0.2912764	2.741473	0.04	3	100	0	6546	-2.875007	2.905485	-23.07185	
11:28:55	-6.728692	38.94614	138.182	0.2912764	2.741473	0.06	3	100	0	6546	-2.907351	2.907272	-23.0843	
11:28:55	-6.728692	38.94614	138.255	0.2912764	2.741473	0.02	3	100	0	6546	-2.897996	2.928321	-23.04097	
11:28:55	-6.728692	38.94614	138.304	0.2110059	-2.630255	0.01	3	100	0	6546	-2.857212	2.891888	-23.04734	
11:28:56	-6.728692	38.94614	138.321	0.2110059	-2.630255	0.03	3	100	0	6546	-2.833694	2.879491	-23.07327	
11:28:56	-6.728692	38.94614	138.345	0.2110059	-2.630255	0.03	3	100	0	6546	-2.838759	2.900775	-23.01806	
11:28:56	-6.728692	38.94614	138.394	0.2110059	-2.630255	0.02	3	100	0	6546	-2.861861	2.874469	-23.0181	
11:28:56	-6.728692	38.94614	138.394	0.2110059	-2.630255	0.01	3	100	0	6546	-2.842849	2.86208	-22.98129	
11:28:56	-6.728692	38.94614	138.441	0.09946459	-6.068071	0.04	3	100	0	6546	-2.810249	2.853252	-22.92863	
11:28:57	-6.728693	38.94614	138.527	0.09946459	-6.068071	0.01	3	100	0	6546	-2.818145	2.841614	-22.99322	
11:28:57	-6.728693	38.94614	138.628	0.09946459	-6.068071	0.01	3	100	0	6546	-2.814854	2.877287	-23.03953	
11:28:57	-6.728693	38.94614	138.628	0.09946459	-6.068071	0.04	3	100	0	6546	-2.834505	2.884801	-23.04262	
11:28:57	-6.728693	38.94614	138.622	0.09946459	-6.068071	0.07	3	100	0	6546	-2.855432	2.867427	-23.04979	
11:28:57	-6.728693	38.94614	138.638	0.1367473	-1.682252	0.04	3	100	0	6546	-2.89248	2.80865	-23.00061	
11:28:58	-6.728693	38.94614	138.687	0.1367473	-1.682252	0.04	3	100	0	6546	-2.890036	2.844451	-22.92411	
11:28:58	-6.728693	38.94614	138.698	0.1367473	-1.682252	0.01	3	100	0	6546	-2.835992	2.846259	-22.97525	
11:28:58	-6.728693	38.94614	138.79	0.1367473	-1.682252	0.03	3	100	0	6546	-2.841255	2.898471	-22.96984	
11:28:58	-6.728693	38.94614	138.809	0.1367473	-1.682252	0.02	3	100	0	6546	-2.853428	2.912476	-22.99608	
11:28:59	-6.728693	38.94614	138.844	0.2449244	4.66161	0.02	3	100	0	6546	-2.874842	2.932474	-23.00085	
11:28:59	-6.728693	38.94614	138.889	0.2449244	4.66161	0.03	3	100	0	6546	-2.835862	2.957639	-22.97876	
11:28:59	-6.728693	38.94614	138.931	0.2449244	4.66161	0.04	3	100	0	6546	-2.832457	2.938327	-22.922	
11:28:59	-6.728693	38.94614	138.988	0.2449244	4.66161	0.02	3	100	0	6546	-2.833332	2.969969	-22.91637	
11:28:59	-6.728693	38.94614	139.047	0.2449244	4.66161	0.06	3	100	0	6546	-2.829941	2.986675	-22.98159	
11:28:59	-6.728693	38.94614	139.102	0.3157906	5.204158	0.03	3	100	0	6546	-2.86732	3.018105	-23.00355	
11:29:00	-6.728693	38.94614	139.15	0.3157906	5.204158	0.09	3	100	0	6546	-2.806654	3.103368	-23.04368	
11:29:00	-6.728693	38.94614	139.186	0.3157906	5.204158	0.01	3	100	0	6546	-2.763725	3.141808	-23.05128	
11:29:00	-6.728693	38.94614	139.201	0.3157906	5.204158	0.02	3	100	0	6546	-2.779493	3.106625	-23.06295	
11:29:00	-6.728693	38.94614	139.245	0.3157906	5.204158	0.04	3	100	0	6546	-2.806954	3.08987	-23.12607	
11:29:00	-6.728694	38.94614	139.288	0.1178127	-6.650414	0.06	3	100	0	6546	-2.787355	3.108231	-23.0649	
11:29:01	-6.728694	38.94614	139.332	0.1178127	-6.650414	0.07	3	100	0	6546	-2.721524	3.12719	-23.12035	
11:29:01	-6.728694	38.94614	139.332	0.1178127	-6.650414	0	3	100	0	6546	-2.743327	3.108286	-23.16783	
11:29:01	-6.728694	38.94614	139.337	0.1178127	-6.650414	0.03	3	100	0	6546	-2.812274	3.112756	-23.19245	
11:29:01	-6.728694	38.94614	139.377	0.1178127	-6.650414	0.03	3	100	0	6546	-2.834629	3.122029	-23.22554	
11:29:02	-6.728694	38.94614	139.41	-0.04312615	-10.30802	0.03	3	100	0	6546	-2.819593	3.108428	-23.2108	
11:29:02	-6.728694	38.94614	139.427	-0.04312615	-10.30802	0.01	3	100	0	6546	-2.799897	3.095752	-23.20973	
11:29:02	-6.728694	38.94614	139.478	-0.04312615	-10.30802	0.03	3	100	0	6546	-2.800049	3.104466	-23.21944	
11:29:02	-6.728694	38.94614	139.431	-0.04312615	-10.30802	0.04	3	100	0	6546	-2.792089	3.097373	-23.23001	
11:29:02	-6.728694	38.94614	139.378	-0.04312615	-10.30802	0.04	3	100	0	6546	-2.77495	3.068287	-23.20889	
11:29:03	-6.728694	38.94614	139.39	0.04299543	-2.103319	0.04	3	100	0	6546	-2.823042	3.091861	-23.22453	
11:29:03	-6.728694	38.94615	139.415	0.04299543	-2.103319	0.04	3	100	0	6546	-2.816207	3.087157	-23.21396	
11:29:03	-6.728694	38.94615	139.416	0.04299543	-2.103319	0	3	100	0	6546	-2.804859	3.081959	-23.21458	
11:29:03	-6.728694	38.94615	139.463	0.04299543	-2.103319	0.08	3	100	0	6546	-2.8702	3.062449	-23.21408	
11:29:03	-6.728694	38.94615	139.516	0.04299543	-2.103319	0.04	3	100	0	6546	-2.850583	3.050904	-23.22306	
11:29:04	-6.728694	38.94615	139.496	0.118899	2.479115	0.01	3	100	0	6546	-2.813426	3.067088	-23.15017	
11:29:04	-6.728694	38.94615	139.504	0.118899	2.479115	0.06	3	100	0	6546	-2.880079	3.079861	-23.16947	
11:29:04	-6.728694	38.94615	139.5	0.118899	2.479115	0.02	3	100	0	6546	-2.871381	3.079671	-23.13563	
11:29:04	-6.728694	38.94615	139.518	0.118899	2.479115	0.04	3	100	0	6546	-2.852209	3.076769	-23.13676	
11:29:04	-6.728694	38.94615	139.518	0.118899	2.479115	0.04	3	100	0	6546	-2.820255	3.116537	-23.1235	
11:29:05	-6.728694	38.94615	139.516	0.2414667	7.429976	0.03	3	100	0	6546	-2.825446	3.150491	-23.09931	
11:29:05	-6.728694	38.94615	139.559	0.2414667	7.429976	0.01	3	100	0	6546	-2.840102	3.097213	-23.07473	
11:29:05	-6.728694	38.94615	139.557	0.2414667	7.429976	0.08	3	100	0	6546	-2.888274	3.097215	-23.09862	
11:29:05	-6.728694	38.94615	139.581	0.2414667	7.429976	0.06	3	100	0	6546	-2.896034	3.119122	-23.15021	
11:29:05	-6.728694	38.94615	139.56	0.2414667	7.429976	0.03	3	100	0	6546	-2.805726	3.097309	-23.14379	
11:29:06	-6.728694	38.94615	139.643	0.3115278	7.412899	0.03	3	100	0	6547	-2.766439	3.054631	-23.15097	
11:29:06	-6.728694	38.94615	139.657	0.3115278	7.412899	0.01	3	100	0	6547	-2.768848	3.089424	-23.14289	
11:29:06	-6.728694	38.94615	139.755	0.3115278	7.412899	0.03	3	100	0	6547	-2.762075	3.1059	-23.17325	
11:29:06	-6.728694	38.94615	139.755	0.3115278	7.412899	0.03	3	100	0	6547	-2.769225	3.084173	-23.15807	
11:29:06	-6.728694	38.94615	139.784	0.3115278	7.412899	0.11	3	100	0	6547	-2.736822	3.037448	-23.18465	
11:29:07	-6.728694	38.94615	139.751	0.2751986	2.871398	0.04	3	100	0	6546	-2.7655	3.084623	-23.14238	
11:29:07	-6.728694	38.94615	139.769	0.2751986	2.871398	0.04	3	100	0	6546	-2.811946	3.117836	-23.13605	
11:29:07	-6.728694	38.94615	139.779	0.2751986	2.871398	0.06	3	100	0	6546	-2.824602	3.152514	-23.12693	
11:29:07	-6.728694	38.94615	139.78	0.2751986	2.871398	0.02	3	100	0	6546	-2.84953	3.100382	-23.15643	
11:29:07	-6.728694	38.94615	139.759	0.2751986	2.871398	0.04	3	100	0	6546	-2.87597	3.107242	-23.18865	
11:29:07	-6.728694	38.94615	139.787	0.2585167	-0.5842881	0.04	3	100	0	6546	-2.838367	3.05961	-23.1734	
11:29:08	-6.728694	38.94615	139.779	0.2585167	-0.5842881	0.04	3	100	0	6546	-2.85351	3.019692	-23.23224	
11:29:08	-6.728694	38.94615	139.723	0.2585167	-0.5842881	0.03	3	100	0	6546	-2.867694	3.030457	-23.20115	
11:29:08	-6.728694	38.94615	139.739	0.2585167	-0.5842881	0.02	3	100	0	6546	-2.860596	3.030722	-23.23793	
11:29:08	-6.728694	38.94615	139.726	0.2585167	-0.5842881	0.02	3	100	0	6546	-2.883421	3.071259	-23.20805	
11:29:09	-6.728694	38.94615	139.762	0.07174978	-8.444553	0.04	3	100	0	6546	-2.935713	3.042927	-23.27392	
11:29:09	-6.728694	38.94615	139.798	0.07174978	-8.444553	0.02	3	100	0	6546	-2.902797	3.04683	-23.25763	
11:29:09	-6.728694	38.94615	139.798	0.07174978	-8.444553	0.03	3	100	0	6546	-2.88634	3.028081	-23.23115	
11:29:09	-6.728694	38.94615	139.806	0.07174978	-8.444553	0.04	3	100	0	6546	-2.916383	3.014897	-23.29611	
11:29:09	-6.728694	38.94615	139.815	0.07174978	-8.444553	0.03	3	100	0	6546	-2.910872	3.026866	-23.3368	
11:29:10	-6.728694	38.94615	139.842	0.2038761	1.708225	0.04	3	100	0	6546	-2.924651	3.038548	-23.34825	
11:29:10	-6.728694	38.94615	139.842	0.2038761	1.708225	0.04	3	100	0	6546	-2.934047	2.997747	-23.31242	
11:29:10	-6.728694	38.94615	139.89	0.2038761	1.708225	0.04	3	100	0	6546	-2.910026	3.01829	-23.27642	
11:29:10	-6.728694	38.94615	139.887	0.2038761	1.708225	0.01	3	100	0	6546	-2.933137	3.011732	-23.28714	
11:29:10	-6.728694	38.94615	139.929	0.2038761	1.708225	0.04	3	100	0	6546	-2.886394	3.032724	-23.32747	
11:29:11	-6.728694	38.94615	139.993	0.2727945	3.909121	0.02	3	100	0	6546	-2.887171	2.99478	-23.29505	
11:29:11	-6.728694	38.94615	139.993	0.2727945	3.909121	0.02	3	100	0	6546	-2.869011	3.00934	-23.25233	
11:29:11	-6.728694	38.94615	140.065	0.2727945	3.909121	0	3	100	0	6546	-2.890316	3.02914	-23.30956	
11:29:11	-6.728694	38.94615	140.071	0.2727945	3.909121	0.04	3	100	0	6546	-2.870141	3.010619	-23.31235	
11:29:11	-6.728694	38.94615	140.127	0.2727945	3.909121	0.07	3	100	0	6546	-2.820507	2.98396	-23.25907	
11:29:12	-6.728694	38.94615	140.168	0.1076714	-5.191404	0.06	3	100	0	6546	-2.812299	3.043482	-23.29893	
11:29:12	-6.728694	38.94615	140.168	0.1076714	-5.191404	0.06	3	100	0	6546	-2.798831	2.978976	-23.2867	
11:29:12	-6.728694	38.94615	140.279	0.1076714	-5.191404	0.04	3	100	0	6546	-2.796036	2.998926	-23.23837	
11:29:12	-6.728694	38.94615	140.317	0.1076714	-5.191404	0.02	3	100	0	6546	-2.834637	2.954681	-23.29672	
11:29:12	-6.728694	38.94615	140.368	0.1076714	-5.191404	0.02	3	100	0	6546	-2.888083	2.974942	-23.32995	
11:29:13	-6.728694	38.94615	140.402	0.1491941	-0.9404715	0.01	3	100	0	6546	-2.862952	2.979645	-23.29886	
11:29:13	-6.728693	38.94615	140.42	0.1491941	-0.9404715	0.06	3	100	0	6546	-2.886228	2.932321	-23.24466	
11:29:13	-6.728693	38.94615	140.436	0.1491941	-0.9404715	0.03	3	100	0	6546	-2.83101	2.913887	-23.2331	
11:29:13	-6.728693	38.94615	140.467	0.1491941	-0.9404715	0.04	3	100	0	6546	-2.932194	2.928107	-23.2792	
11:29:13	-6.728693	38.94615	140.505	0.1491941	-0.9404715	0.01	3	100	0	6546	-2.862505	2.927095	-23.2759	
11:29:14	-6.728693	38.94615	140.542	0.06694464	-6.179523	0.04	3	100	0	6546	-2.895401	2.935721	-23.25582	
11:29:14	-6.728693	38.94615	140.558	0.06694464	-6.179523	0.01	3	100	0	6546	-2.900553	2.926792	-23.30278	
11:29:14	-6.728693	38.94615	140.567	0.06694464	-6.179523	0.04	3	100	0	6546	-2.896327	2.988195	-23.29177	
11:29:14	-6.728693	38.94615	140.55	0.06694464	-6.179523	0.08	3	100	0	6546	-2.88749	3.029987	-23.297	
11:29:14	-6.728693	38.94615	140.578	0.06694464	-6.179523	0.02	3	100	0	6546	-2.947818	2.906665	-23.29033	
11:29:15	-6.728693	38.94615	140.575	-0.2386612	-17.34352	0.04	3	100	0	6546	-2.923723	2.95641	-23.2686	
11:29:15	-6.728693	38.94615	140.586	-0.2386612	-17.34352	0.01	3	100	0	6546	-2.88218	2.938968	-23.28073	
11:29:15	-6.728693	38.94615	140.645	-0.2386612	-17.34352	0.08	3	100	0	6546	-2.90201	2.968282	-23.2421	
11:29:15	-6.728693	38.94615	140.649	-0.2386612	-17.34352	0.04	3	100	0	6546	-2.954992	2.91476	-23.25505	
11:29:15	-6.728693	38.94615	140.592	-0.2386612	-17.34352	0.03	3	100	0	6546	-2.84237	2.961617	-23.30087	
11:29:16	-6.728693	38.94615	140.551	-0.3183052	-12.88597	0.03	3	100	0	6546	-2.868914	2.945328	-23.28792	
11:29:16	-6.728693	38.94615	140.504	-0.3183052	-12.88597	0.03	3	100	0	6546	-2.877952	3.010557	-23.27578	
11:29:16	-6.728693	38.94615	140.401	-0.3183052	-12.88597	0	3	100	0	6546	-2.891024	3.017055	-23.26674	
11:29:16	-6.728693	38.94615	140.401	-0.3183052	-12.88597	0.03	3	100	0	6546	-2.889277	2.99969	-23.23792	
11:29:16	-6.728693	38.94615	140.329	-0.3183052	-12.88597	0.01	3	100	0	6546	-2.911211	2.961258	-23.26379	
11:29:17	-6.728693	38.94615	140.268	-0.06352527	4.752061	0.01	3	100	0	6546	-2.89173	2.988136	-23.2456	
11:29:17	-6.728693	38.94615	140.239	-0.06352527	4.752061	0.06	3	100	0	6546	-2.88648	2.973326	-23.23775	
11:29:17	-6.728693	38.94615	140.177	-0.06352527	4.752061	0.02	3	100	0	6546	-2.934055	2.991829	-23.22117	
11:29:17	-6.728693	38.94615	140.15	-0.06352527	4.752061	0.04	3	100	0	6546	-2.872074	3.030803	-23.20324	
11:29:17	-6.728693	38.94615	140.136	-0.06352527	4.752061	0.04	3	100	0	6546	-2.794542	3.00385	-23.21577	
11:29:18	-6.728693	38.94615	140.069	0.01986224	7.252336	0.03	3	100	0	6546	-2.915692	3.01982	-23.27454	
11:29:18	-6.728693	38.94615	140.014	0.01986224	7.252336	0.06	3	100	0	6546	-2.842265	3.038002	-23.26011	
11:29:18	-6.728693	38.94615	139.858	0.01986224	7.252336	0.04	3	100	0	6546	-2.808709	3.060845	-23.31754	
11:29:18	-6.728693	38.94615	139.598	0.01986224	7.252336	0.04	3	100	0	6546	-2.842396	3.077178	-23.31572	
11:29:18	-6.728693	38.94615	139.598	0.01986224	7.252336	0.04	3	100	0	6546	-2.904965	3.023059	-23.29039	
11:29:19	-6.728692	38.94615	139.492	0.3577164	20.3161	0.02	3	100	0	6546	-2.861441	3.013306	-23.31311	
11:29:19	-6.728692	38.94615	139.269	0.3577164	20.3161	0.09	3	100	0	6546	-2.866443	3.060719	-23.34421	
11:29:19	-6.728692	38.94615	139.269	0.3577164	20.3161	0.02	3	100	0	6546	-2.788175	3.130759	-23.4004	
11:29:19	-6.728692	38.94615	139.126	0.3577164	20.3161	0.04	3	100	0	6546	-2.885163	3.087758	-23.39064	
11:29:19	-6.728692	38.94615	139.008	0.3577164	20.3161	0.07	3	100	0	6546	-2.826397	3.125314	-23.38803	
11:29:20	-6.728692	38.94615	138.873	0.6534283	24.97255	0.01	3	100	0	6546	-2.851273	3.042223	-23.32196	
11:29:20	-6.728692	38.94615	138.775	0.6534283	24.97255	0.08	3	100	0	6546	-2.827327	3.140061	-23.3935	
11:29:20	-6.728692	38.94615	138.647	0.6534283	24.97255	0.01	3	100	0	6546	-2.878335	3.193824	-23.35268	
11:29:20	-6.728691	38.94615	138.564	0.6534283	24.97255	0.04	3	100	0	6546	-2.807839	3.182578	-23.3731	
11:29:20	-6.728691	38.94615	138.508	0.6534283	24.97255	0.04	3	100	0	6546	-2.825683	3.125335	-23.37274	
11:29:21	-6.728691	38.94615	138.403	0.3954247	3.06237	0.11	3	100	0	6546	-2.854762	3.092173	-23.3779	
11:29:21	-6.728691	38.94615	138.254	0.3954247	3.06237	0.04	3	100	0	6546	-2.921475	3.113239	-23.31083	
11:29:21	-6.728691	38.94615	138.108	0.3954247	3.06237	0.01	3	100	0	6546	-2.838741	3.135486	-23.33224	
11:29:21	-6.728691	38.94615	138.035	0.3954247	3.06237	0.03	3	100	0	6546	-2.800748	3.131534	-23.29804	
11:29:21	-6.728691	38.94615	137.844	0.3954247	3.06237	0.06	3	100	0	6546	-2.77359	3.136927	-23.37411	
11:29:22	-6.728691	38.94615	137.844	0.2404957	-5.697194	0.01	3	100	0	6546	-2.780964	3.196841	-23.37798	
11:29:22	-6.728691	38.94615	137.759	0.2404957	-5.697194	0	3	100	0	6546	-2.798555	3.166028	-23.39542	
11:29:22	-6.728691	38.94615	137.653	0.2404957	-5.697194	0.04	3	100	0	6546	-2.809657	3.150092	-23.42842	
11:29:22	-6.728691	38.94615	137.577	0.2404957	-5.697194	0.02	3	100	0	6546	-2.827084	3.10667	-23.39037	
11:29:23	-6.728691	38.94615	137.515	0.2404957	-5.697194	0.04	3	100	0	6546	-2.808695	3.107373	-23.428	
11:29:23	-6.728691	38.94615	137.46	0.03880244	-13.63139	0.07	3	100	0	6547	-2.786126	3.159558	-23.36193	
11:29:23	-6.728691	38.94615	137.399	0.03880244	-13.63139	0.01	3	100	0	6547	-2.852852	3.194216	-23.42242	
11:29:23	-6.728691	38.94615	137.331	0.03880244	-13.63139	0.03	3	100	0	6547	-2.840971	3.148092	-23.41701	
11:29:24	-6.728691	38.94615	137.214	0.03880244	-13.63139	0.03	3	100	0	6547	-2.865612	3.143761	-23.36185	
11:29:24	-6.728691	38.94615	137.13	0.03880244	-13.63139	0.02	3	100	0	6547	-2.861371	3.145599	-23.35896	
11:29:24	-6.728691	38.94615	137.069	0.03734124	-7.973405	0.03	3	100	0	6547	-2.841007	3.137501	-23.38957	
11:29:24	-6.728691	38.94615	137.017	0.03734124	-7.973405	0.03	3	100	0	6547	-2.81708	3.091014	-23.35689	
11:29:24	-6.728691	38.94615	136.967	0.03734124	-7.973405	0.03	3	100	0	6547	-2.805297	3.088957	-23.42109	
11:29:24	-6.728691	38.94615	136.925	0.03734124	-7.973405	0.02	3	100	0	6547	-2.790196	3.126039	-23.41144	
11:29:24	-6.728691	38.94615	136.827	0.03734124	-7.973405	0.04	3	100	0	6547	-2.827159	3.133857	-23.4432	
11:29:25	-6.728691	38.94615	136.827	0.1172516	-1.024289	0.03	3	100	0	6546	-2.8158	3.09938	-23.45527	
11:29:25	-6.728691	38.94615	136.791	0.1172516	-1.024289	0	3	100	0	6546	-2.773225	3.128535	-23.42766	
11:29:25	-6.728691	38.94615	136.714	0.1172516	-1.024289	0.08	3	100	0	6546	-2.818569	3.100943	-23.4472	
11:29:25	-6.728691	38.94615	136.629	0.1172516	-1.024289	0.06	3	100	0	6546	-2.865676	3.067031	-23.43921	
11:29:25	-6.728691	38.94615	136.553	0.1172516	-1.024289	0.02	3	100	0	6546	-2.833955	3.07782	-23.42166	
11:29:26	-6.728691	38.94615	136.517	0.1543878	0.08649863	0.02	3	100	0	6546	-2.809081	3.141545	-23.40054	
11:29:26	-6.728691	38.94615	136.481	0.1543878	0.08649863	0.04	3	100	0	6546	-2.782878	3.121118	-23.42236	
11:29:26	-6.728691	38.94615	136.421	0.1543878	0.08649863	0.01	3	100	0	6546	-2.781993	3.147711	-23.369	
11:29:27	-6.728691	38.94615	136.379	0.1543878	0.08649863	0.06	3	100	0	6546	-2.809453	3.139352	-23.33415	
11:29:27	-6.728691	38.94615	136.336	0.1543878	0.08649863	0.04	3	100	0	6546	-2.783549	3.117537	-23.30452	
11:29:27	-6.728691	38.94615	136.336	0.3792551	9.633002	0.04	3	100	0	6546	-2.593293	3.153368	-23.32859	
11:29:27	-6.728691	38.94615	136.2	0.3792551	9.633002	0.06	3	100	0	6546	-2.514286	3.167327	-23.34571	
11:29:28	-6.728691	38.94616	136.135	0.3792551	9.633002	0.03	3	100	0	6546	-2.518069	3.186259	-23.35079	
11:29:28	-6.728691	38.94616	136.048	0.3792551	9.633002	0.07	3	100	0	6546	-2.544294	3.182936	-23.43757	
11:29:28	-6.728691	38.94615	135.9	0.3792551	9.633002	0.03	3	100	0	6546	-2.560352	3.192716	-23.46582	
11:29:28	-6.728691	38.94615	135.9	0.4287584	8.780308	0.03	3	100	0	6546	-2.549023	3.175154	-23.53755	
11:29:28	-6.728691	38.94615	135.871	0.4287584	8.780308	0.02	3	100	0	6546	-2.570066	3.152535	-23.52443	
11:29:29	-6.728691	38.94616	135.781	0.4287584	8.780308	0.07	3	100	0	6546	-2.564036	3.195387	-23.574	
11:29:29	-6.728691	38.94616	135.716	0.4287584	8.780308	0.07	3	100	0	6546	-2.521642	3.242966	-23.59525	
11:29:29	-6.728691	38.94616	135.645	0.4287584	8.780308	0.04	3	100	0	6546	-2.513796	3.197277	-23.58874	
11:29:29	-6.728691	38.94616	135.574	0.3663281	2.165512	0.04	3	100	0	6546	-2.573632	3.197507	-23.55402	
11:29:29	-6.728691	38.94616	135.531	0.3663281	2.165512	0.04	3	100	0	6546	-2.590724	3.190929	-23.57792	
11:29:29	-6.728691	38.94615	135.49	0.3663281	2.165512	0.02	3	100	0	6546	-2.687978	3.247366	-23.57457	
11:29:30	-6.728691	38.94615	135.443	0.3663281	2.165512	0.01	3	100	0	6546	-2.648916	3.184271	-23.64249	
11:29:30	-6.728692	38.94615	135.41	0.3663281	2.165512	0.06	3	100	0	6546	-2.663541	3.202088	-23.6297	
11:29:30	-6.728692	38.94615	135.354	0.2869478	-2.741401	0.03	3	100	0	6546	-2.620671	3.259588	-23.6	
11:29:30	-6.728692	38.94615	135.294	0.2869478	-2.741401	0.01	3	100	0	6546	-2.700194	3.173988	-23.58112	
11:29:30	-6.728692	38.94615	135.294	0.2869478	-2.741401	0.01	3	100	0	6546	-2.705573	3.186378	-23.57719	
11:29:31	-6.728692	38.94615	135.258	0.2869478	-2.741401	0.07	3	100	0	6546	-2.688155	3.194809	-23.52627	
11:29:31	-6.728692	38.94615	135.213	0.2869478	-2.741401	0.11	3	100	0	6546	-2.741691	3.175998	-23.55506	
11:29:31	-6.728692	38.94615	135.149	0.3144525	-1.267761	0.06	3	100	0	6546	-2.821029	3.189232	-23.51593	
11:29:31	-6.728692	38.94615	135.13	0.3144525	-1.267761	0.06	3	100	0	6546	-2.803362	3.22501	-23.59567	
11:29:31	-6.728692	38.94615	135.105	0.3144525	-1.267761	0.04	3	100	0	6546	-2.813947	3.197728	-23.63153	
11:29:32	-6.728692	38.94615	135.105	0.3144525	-1.267761	0.04	3	100	0	6546	-2.826578	3.148955	-23.60773	
11:29:32	-6.728692	38.94615	135.052	0.3144525	-1.267761	0.02	3	100	0	6546	-2.790257	3.152683	-23.64615	
11:29:32	-6.728692	38.94615	135.078	0.3144525	-1.267761	0.04	3	100	0	6546	-2.796255	3.121583	-23.63488	
11:29:32	-6.728692	38.94615	135.08	0.3144525	-1.267761	0.09	3	100	0	6546	-2.715594	3.139681	-23.65379	
11:29:32	-6.728692	38.94615	135.075	0.3144525	-1.267761	0.06	3	100	0	6546	-2.717722	3.162277	-23.62135	
11:29:32	-6.728692	38.94615	135.105	0.3144525	-1.267761	0.04	3	100	0	6546	-2.783314	3.206452	-23.62052	
11:29:33	-6.728692	38.94615	135.097	0.3144525	-1.267761	0.02	3	100	0	6546	-2.803649	3.155374	-23.60804	
11:29:33	-6.728692	38.94615	135.097	0.1823491	-6.059572	0.01	3	100	0	6546	-2.796005	3.142647	-23.65981	
11:29:33	-6.728692	38.94615	135.091	0.1823491	-6.059572	0.02	3	100	0	6546	-2.835996	3.148572	-23.70577	
11:29:33	-6.728693	38.94615	135.085	0.1823491	-6.059572	0.03	3	100	0	6546	-2.839524	3.155011	-23.69596	
11:29:34	-6.728693	38.94615	135.089	0.1823491	-6.059572	0.04	3	100	0	6546	-2.781886	3.176856	-23.64293	
11:29:34	-6.728693	38.94615	135.089	0.1823491	-6.059572	0.04	3	100	0	6546	-2.779939	3.145065	-23.69785	
11:29:34	-6.728693	38.94615	135.064	0.1715315	-3.945894	0.04	3	100	0	6546	-2.740899	3.176808	-23.62562	
11:29:34	-6.728693	38.94615	135.06	0.1715315	-3.945894	0.04	3	100	0	6546	-2.790611	3.149687	-23.69015	
11:29:34	-6.728693	38.94615	135.104	0.1715315	-3.945894	0.04	3	100	0	6546	-2.86756	3.148299	-23.66809	
11:29:35	-6.728693	38.94615	135.074	0.1715315	-3.945894	0.03	3	100	0	6546	-2.889961	3.182047	-23.65567	
11:29:35	-6.728693	38.94615	135.074	0.1715315	-3.945894	0.03	3	100	0	6546	-2.889673	3.200883	-23.67932	
11:29:35	-6.728693	38.94615	135.081	0.2005053	-0.9793146	0.03	3	100	0	6546	-2.861866	3.147051	-23.6734	
11:29:35	-6.728693	38.94615	135.136	0.2005053	-0.9793146	0.06	3	100	0	6546	-2.839081	3.143867	-23.72342	
11:29:35	-6.728693	38.94615	135.166	0.2005053	-0.9793146	0.07	3	100	0	6546	-2.818677	3.166674	-23.69806	
11:29:36	-6.728693	38.94615	135.187	0.2005053	-0.9793146	0.04	3	100	0	6546	-2.804607	3.119949	-23.68754	
11:29:36	-6.728693	38.94615	135.187	0.2005053	-0.9793146	0.04	3	100	0	6546	-2.932983	3.150892	-23.71649	
11:29:36	-6.728693	38.94615	135.279	0.2990349	3.827381	0.06	3	100	0	6546	-2.935946	3.238189	-23.64982	
11:29:36	-6.728693	38.94615	135.329	0.2990349	3.827381	0.14	3	100	0	6546	-2.862085	3.343082	-23.63688	
11:29:37	-6.728693	38.94615	135.207	0.2990349	3.827381	0.11	3	100	0	6546	-2.928939	3.364686	-23.63047	
11:29:37	-6.728693	38.94615	135.256	0.2990349	3.827381	0.07	3	100	0	6546	-2.898194	3.373166	-23.54884	
11:29:37	-6.728693	38.94615	135.305	0.2990349	3.827381	0.02	3	100	0	6546	-2.862225	3.268092	-23.52287	
11:29:37	-6.728694	38.94615	135.298	0.2323303	-0.07852353	0.07	3	100	0	6546	-2.786781	3.271965	-23.52671	
11:29:37	-6.728694	38.94615	135.232	0.2323303	-0.07852353	0.02	3	100	0	6546	-2.833649	3.35178	-23.54932	
11:29:38	-6.728694	38.94615	135.197	0.2323303	-0.07852353	0.01	3	100	0	6546	-2.823592	3.275255	-23.55152	
11:29:38	-6.728694	38.94615	135.194	0.2323303	-0.07852353	0.01	3	100	0	6546	-2.805094	3.280571	-23.58284	
11:29:38	-6.728694	38.94615	135.2	0.2323303	-0.07852353	0.01	3	100	0	6546	-2.80022	3.265725	-23.54768	
11:29:38	-6.728694	38.94615	135.201	0.1607791	-2.417094	0.06	3	100	0	6546	-2.795865	3.258561	-23.53436	
11:29:38	-6.728694	38.94615	135.214	0.1607791	-2.417094	0.06	3	100	0	6546	-2.746863	3.276783	-23.5474	
11:29:39	-6.728694	38.94615	135.218	0.1607791	-2.417094	0.01	3	100	0	6546	-2.754061	3.278645	-23.53468	
11:29:39	-6.728694	38.94615	135.241	0.1607791	-2.417094	0.01	3	100	0	6546	-2.805588	3.237508	-23.54646	
11:29:39	-6.728694	38.94615	135.241	0.1607791	-2.417094	0.03	3	100	0	6546	-2.816926	3.23683	-23.58087	
11:29:39	-6.728694	38.94615	135.234	0.2441995	2.562151	0.03	3	100	0	6546	-2.814126	3.246313	-23.60551	
11:29:39	-6.728694	38.94615	135.234	0.2441995	2.562151	0.03	3	100	0	6546	-2.799421	3.206024	-23.55607	
11:29:39	-6.728695	38.94615	135.294	0.2441995	2.562151	0.02	3	100	0	6546	-2.849146	3.187487	-23.55704	
11:29:40	-6.728695	38.94615	135.294	0.2441995	2.562151	0.06	3	100	0	6546	-2.851575	3.236905	-23.54571	
11:29:40	-6.728695	38.94615	135.294	0.2441995	2.562151	0.04	3	100	0	6546	-2.905775	3.297597	-23.56623	
11:29:40	-6.728695	38.94615	135.315	0.3713069	7.568123	0.01	3	100	0	6546	-2.842705	3.237002	-23.57598	
11:29:40	-6.728695	38.94615	135.32	0.3713069	7.568123	0.04	3	100	0	6546	-2.897779	3.192603	-23.64325	
11:29:40	-6.728695	38.94615	135.285	0.3713069	7.568123	0	3	100	0	6546	-2.852723	3.255334	-23.6168	
11:29:41	-6.728695	38.94615	135.281	0.3713069	7.568123	0.02	3	100	0	6546	-2.881901	3.229905	-23.59139	
