Date	Latitude(deg) 	Longitude(deg)	hamsl(m)	hafl(m)	climbrate(cm/s)	GroundSpeed(m/s)	Airspeed(m/s)	Mav_Link(%)	Rssi_Link(%)	Throttle	Roll(deg)	Pitch(deg)	Yaw(deg)
17:10:15	0	0	0	0	0	0	0	100	0	0	3.326213	-3.935223	-101.8952	
17:10:15	0	0	0	0	0	0	0	100	0	0	3.176065	-3.82127	-101.0732	
17:10:15	0	0	0	-0.2906501	0	0	3	100	0	50	3.034624	-3.708015	-100.2802	
17:10:15	0	0	0	-0.2906501	0	0	3	100	0	50	2.902949	-3.598511	-99.5265	
17:10:16	0	0	0	-0.2906501	0	0	3	100	0	50	2.783576	-3.491244	-98.81952	
17:10:16	0	0	0	-0.2906501	0	0	3	100	0	50	2.672858	-3.38859	-98.15399	
17:10:16	0	0	0	-0.2906501	0	0	3	100	0	50	2.565324	-3.286185	-97.51054	
17:10:16	0	0	0	-0.2906501	0	0	3	100	0	50	2.465107	-3.184218	-96.90005	
17:10:17	0	0	0	-0.2906501	0	0	3	100	0	50	2.371882	-3.083859	-96.32307	
17:10:17	0	0	0	-0.2906501	0	0	3	100	0	50	2.283398	-2.982521	-95.772	
17:10:17	0	0	0	-0.2906501	0	0	3	100	0	50	2.201076	-2.882748	-95.24834	
17:10:17	0	0	0	-0.2906501	0	0	3	100	0	50	2.12349	-2.78506	-94.74385	
17:10:17	0	0	0	-0.2906501	0	0	3	100	0	50	2.051589	-2.690833	-94.27024	
17:10:18	0	0	0	-0.2906501	0	0	3	100	0	50	1.983095	-2.598433	-93.82091	
17:10:18	0	0	0	-0.2906501	0	0	3	100	0	50	1.92304	-2.507961	-93.29951	
17:10:18	0	0	0	-0.2906501	0	0	3	100	0	50	1.871724	-2.422404	-92.72357	
17:10:18	0	0	0	-0.2906501	0	0	3	100	0	50	1.820794	-2.338944	-92.17564	
17:10:18	0	0	0	-0.2906501	0	0	3	100	0	50	1.771801	-2.256093	-91.64171	
17:10:19	0	0	0	-0.2906501	0	0	3	100	0	50	1.727476	-2.17417	-91.13937	
17:10:19	0	0	0	-0.2906501	0	0	3	100	0	50	1.686765	-2.093898	-90.65784	
17:10:19	0	0	0	-0.2906501	0	0	3	100	0	50	1.650366	-2.016834	-90.21062	
17:10:19	0	0	0	-0.2906501	0	0	3	100	0	50	1.616589	-1.939714	-89.78248	
17:10:19	0	0	0	-0.2906501	0	0	3	100	0	50	1.583452	-1.867846	-89.38149	
17:10:20	0	0	0	-0.2906501	0	0	3	100	0	50	1.549882	-1.796446	-88.99776	
17:10:20	0	0	0	-0.2906501	0	0	3	100	0	50	1.521205	-1.727685	-88.62508	
17:10:20	0	0	0	-0.2906501	0	0	3	100	0	50	1.497048	-1.661736	-88.27151	
17:10:20	0	0	0	-0.2906501	0	0	3	100	0	50	1.474388	-1.598823	-87.93452	
17:10:20	0	0	0	-0.2906501	0	0	3	100	0	50	1.452801	-1.535147	-87.62232	
17:10:21	0	0	0	-0.2906501	0	0	3	100	0	50	1.435345	-1.475487	-87.32688	
17:10:21	0	0	0	-0.2906501	0	0	3	100	0	50	1.420758	-1.419382	-87.0616	
17:10:21	0	0	0	-0.2906501	0	0	3	100	0	50	1.405325	-1.363843	-86.80009	
17:10:21	0	0	0	-0.2906501	0	0	3	100	0	50	1.393353	-1.309471	-86.56299	
17:10:21	0	0	0	-0.2906501	0	0	3	100	0	50	1.380788	-1.257416	-86.33947	
17:10:22	0	0	0	-0.2906501	0	0	3	100	0	50	1.36858	-1.20811	-86.13129	
17:10:22	0	0	0	-0.2906501	0	0	3	100	0	50	1.357724	-1.157241	-85.93999	
17:10:22	0	0	0	-0.2906501	0	0	3	100	0	50	1.3462	-1.106606	-85.76114	
17:10:22	0	0	0	-0.2906501	0	0	3	100	0	50	1.334683	-1.056482	-85.57368	
17:10:22	0	0	0	-0.2906501	0	0	3	100	0	50	1.324767	-1.005933	-85.40279	
17:10:23	0	0	0	-0.2906501	0	0	3	100	0	50	1.318255	-0.958925	-85.24911	
17:10:23	0	0	0	-0.2906501	0	0	3	100	0	50	1.307759	-0.9087183	-85.0901	
17:10:23	0	0	0	-0.2906501	0	0	3	100	0	50	1.29347	-0.852632	-84.88636	
17:10:23	0	0	0	-0.2906501	0	0	3	100	0	50	1.277154	-0.7966765	-84.69149	
17:10:23	0	0	0	-0.2906501	0	0	3	100	0	50	1.262122	-0.7405775	-84.50898	
17:10:24	0	0	0	-0.2906501	0	0	3	100	0	50	1.247589	-0.6892785	-84.32751	
17:10:24	0	0	0	-0.2906501	0	0	3	100	0	50	1.232986	-0.6386318	-84.17618	
17:10:24	0	0	0	-0.2906501	0	0	3	100	0	50	1.218509	-0.5871772	-84.02674	
17:10:24	0	0	0	-0.2906501	0	0	3	100	0	50	1.209134	-0.5389813	-83.88877	
17:10:24	0	0	0	-0.2906501	0	0	3	100	0	50	1.196656	-0.4918956	-83.76659	
17:10:25	0	0	0	-0.2906501	0	0	3	100	0	50	1.183774	-0.4453744	-83.64807	
17:10:25	0	0	0	-0.2906501	0	0	3	100	0	50	1.173968	-0.404913	-83.53703	
17:10:25	0	0	0	-0.2906501	0	0	3	100	0	50	1.164862	-0.3624287	-83.4472	
17:10:25	0	0	0	-0.2906501	0	0	3	100	0	50	1.154984	-0.3228897	-83.363	
17:10:25	0	0	0	-0.2906501	0	0	3	100	0	50	1.146781	-0.282531	-83.29667	
17:10:26	0	0	0	-0.2906501	0	0	3	100	0	50	1.130007	-0.2115959	-83.81498	
17:10:26	0	0	0	-0.2906501	0	0	3	100	0	50	1.106125	-0.1525657	-84.59704	
17:10:26	0	0	0	-0.2906501	0	0	3	100	0	50	1.406552	-0.6362514	-85.62614	
17:10:26	0	0	0	-0.2906501	0	0	3	100	0	50	1.488446	-1.255062	-86.45385	
17:10:26	0	0	0	-0.2906501	0	0	3	100	0	50	2.055039	-1.985366	-86.7308	
17:10:27	0	0	0	-0.2906501	0	0	3	100	0	50	2.454725	-2.392333	-86.85304	
17:10:27	0	0	0	-0.2906501	0	0	3	100	0	50	2.575588	-2.584834	-87.05214	
17:10:27	0	0	0	-0.2906501	0	0	3	100	0	50	2.666758	-2.649554	-87.4677	
17:10:27	0	0	0	-0.2906501	0	0	3	100	0	50	2.343428	-2.710969	-87.82509	
17:10:27	0	0	0	-0.2906501	0	0	3	100	0	50	2.011343	-2.86575	-88.12256	
17:10:28	0	0	0	-0.2906501	0	0	3	100	0	50	1.755297	-2.91272	-88.41064	
17:10:28	0	0	0	-0.2906501	0	0	3	100	0	50	1.635252	-2.899287	-88.81271	
17:10:28	0	0	0	-0.2906501	0	0	3	100	0	50	1.521089	-2.839123	-89.2481	
17:10:28	0	0	0	-0.2906501	0	0	3	100	0	50	1.48354	-2.90642	-89.85626	
17:10:28	0	0	0	-0.2906501	0	0	3	100	0	50	1.584175	-2.841204	-90.88436	
17:10:29	0	0	0	-0.2906501	0	0	3	100	0	50	1.553815	-2.858874	-91.71656	
17:10:29	0	0	0	-0.2906501	0	0	3	100	0	50	1.570052	-2.73668	-92.09393	
17:10:29	0	0	0	-0.2906501	0	0	3	100	0	50	1.571854	-2.603996	-92.43388	
17:10:29	0	0	0	-0.2906501	0	0	3	100	0	50	1.617959	-2.50634	-92.76969	
17:10:29	0	0	0	-0.2906501	0	0	3	100	0	50	1.641503	-2.415086	-93.06863	
17:10:30	0	0	0	-0.2906501	0	0	3	100	0	50	1.65742	-2.321985	-93.36443	
17:10:30	0	0	0	-0.2906501	0	0	3	100	0	50	1.669599	-2.224983	-93.65685	
17:10:30	0	0	0	-0.2906501	0	0	3	100	0	50	1.684557	-2.134242	-93.92664	
17:10:30	0	0	0	-0.2906501	0	0	3	100	0	50	1.695218	-2.048669	-94.20992	
17:10:31	0	0	0	-0.2906501	0	0	3	100	0	50	1.707803	-1.966213	-94.4929	
17:10:31	0	0	0	-0.2906501	0	0	3	100	0	50	1.719626	-1.880388	-94.77335	
17:10:31	0	0	0	-0.2906501	0	0	3	100	0	50	1.728522	-1.803732	-95.03971	
17:10:31	0	0	0	-0.2906501	0	0	3	100	0	50	1.735953	-1.732423	-95.30344	
17:10:31	0	0	0	-0.2906501	0	0	3	100	0	50	1.742014	-1.661595	-95.55299	
17:10:32	0	0	0	-0.2906501	0	0	3	100	0	50	1.748566	-1.592647	-95.78741	
17:10:32	0	0	0	-0.2906501	0	0	3	100	0	50	1.75504	-1.528422	-96.02081	
17:10:32	0	0	0	-0.2906501	0	0	3	100	0	50	1.763837	-1.46644	-96.25809	
17:10:32	0	0	0	-0.2906501	0	0	3	100	0	50	1.76733	-1.400398	-96.48659	
17:10:32	0	0	0	-0.2906501	0	0	3	100	0	50	1.770791	-1.339431	-96.71423	
17:10:33	0	0	0	-0.2906501	0	0	3	100	0	50	1.775263	-1.282545	-96.93727	
17:10:33	0	0	0	-0.2906501	0	0	3	100	0	50	1.782742	-1.226904	-97.14658	
17:10:33	0	0	0	-0.2906501	0	0	3	100	0	50	1.791694	-1.176116	-97.36034	
17:10:33	0	0	0	-0.2906501	0	0	3	100	0	50	1.797414	-1.110387	-97.65979	
17:10:33	0	0	0	-0.2906501	0	0	3	100	0	50	1.80058	-1.046203	-97.94641	
17:10:34	0	0	0	-0.2906501	0	0	3	100	0	50	1.805957	-0.9817157	-98.24867	
17:10:34	0	0	0	-0.2906501	0	0	3	100	0	50	1.80989	-0.9238613	-98.52496	
17:10:34	0	0	0	-0.2906501	0	0	3	100	0	50	1.809695	-0.8696597	-98.79462	
17:10:34	0	0	0	-0.2906501	0	0	3	100	0	50	1.807543	-0.8160422	-99.0577	
17:10:34	0	0	0	-0.2906501	0	0	3	100	0	50	1.805629	-0.7672361	-99.32058	
17:10:35	0	0	0	-0.2906501	0	0	3	100	0	50	1.80237	-0.7195874	-99.57221	
17:10:35	0	0	0	-0.2906501	0	0	3	100	0	50	1.80321	-0.6687955	-99.82212	
17:10:35	0	0	0	-0.2906501	0	0	3	100	0	50	1.804043	-0.620498	-100.0594	
17:10:35	0	0	0	-0.2906501	0	0	3	100	0	50	1.797279	-0.5758095	-100.2908	
17:10:35	0	0	0	-0.2906501	0	0	3	100	0	50	1.812337	-0.534575	-100.5164	
17:10:36	0	0	0	-0.2906501	0	0	3	100	0	50	1.83225	-0.4910865	-100.7327	
17:10:36	0	0	0	-0.2906501	0	0	3	100	0	50	1.841209	-0.4496524	-100.9614	
17:10:36	0	0	0	-0.2906501	0	0	3	100	0	50	1.848841	-0.4127807	-101.1726	
17:10:36	0	0	0	-0.2906501	0	0	3	100	0	50	1.856605	-0.3774947	-101.3696	
17:10:36	0	0	0	-0.2906501	0	0	3	100	0	50	1.85887	-0.3412767	-101.5681	
17:10:37	0	0	0	-0.2906501	0	0	3	100	0	50	1.859308	-0.308129	-101.7601	
17:10:37	0	0	0	-0.2906501	0	0	3	100	0	50	1.861048	-0.2773813	-101.9558	
17:10:37	0	0	0	-0.2906501	0	0	3	100	0	50	1.858544	-0.2528683	-102.1329	
17:10:37	0	0	0	-0.2906501	0	0	3	100	0	50	1.855695	-0.2233704	-102.2935	
17:10:37	0	0	0	-0.2906501	0	0	3	100	0	50	1.853034	-0.1906217	-102.4705	
17:10:38	0	0	0	-0.2906501	0	0	3	100	0	50	1.853837	-0.1639377	-102.6419	
17:10:38	0	0	0	-0.2906501	0	0	3	100	0	50	1.849486	-0.1383477	-102.8058	
17:10:38	0	0	0	-0.2906501	0	0	3	100	0	50	1.845776	-0.115359	-102.9726	
17:10:38	0	0	0	-0.2906501	0	0	3	100	0	50	1.843207	-0.08745232	-103.1677	
17:10:38	0	0	0	-0.2906501	0	0	3	100	0	50	1.838542	-0.06045529	-103.3645	
17:10:39	0	0	0	-0.2906501	0	0	3	100	0	50	1.834808	-0.0315968	-103.5487	
17:10:39	0	0	0	-0.2906501	0	0	3	100	0	50	1.831022	-0.008277016	-103.7293	
17:10:39	0	0	0	-0.2906501	0	0	3	100	0	50	1.824586	0.01709625	-103.9111	
17:10:39	0	0	0	-0.2906501	0	0	3	100	0	50	1.818206	0.04323664	-104.0804	
17:10:39	0	0	0	-0.2906501	0	0	3	100	0	50	1.812466	0.06662898	-104.2442	
17:10:40	0	0	0	-0.2906501	0	0	3	100	0	50	1.809231	0.08705102	-104.4055	
17:10:40	0	0	0	-0.2906501	0	0	3	100	0	50	1.808737	0.1090215	-104.5706	
17:10:40	0	0	0	-0.2906501	0	0	3	100	0	50	1.810458	0.1272077	-104.7195	
17:10:40	0	0	0	-0.2906501	0	0	3	100	0	50	1.813189	0.1452045	-104.8622	
17:10:40	0	0	0	-0.2906501	0	0	3	100	0	50	1.81172	0.1599134	-105.0115	
17:10:41	0	0	0	-0.2906501	0	0	3	100	0	50	1.81148	0.1744365	-105.1573	
17:10:41	0	0	0	-0.2906501	0	0	3	100	0	50	1.811119	0.1885571	-105.2859	
17:10:41	0	0	0	-0.2906501	0	0	3	100	0	50	1.807152	0.201685	-105.4079	
17:10:41	0	0	0	-0.2906501	0	0	3	100	0	50	1.809871	0.2144377	-105.5364	
17:10:41	0	0	0	-0.2906501	0	0	3	100	0	50	1.813401	0.2276663	-105.6637	
17:10:42	0	0	0	-0.2906501	0	0	3	100	0	50	1.814889	0.2407394	-105.7844	
17:10:42	0	0	0	-0.2906501	0	0	3	100	0	50	1.815609	0.253704	-105.8937	
17:10:42	0	0	0	-0.2906501	0	0	3	100	0	50	1.813728	0.2645067	-105.9963	
17:10:42	0	0	0	-0.2906501	0	0	3	100	0	50	1.810083	0.273699	-106.1004	
17:10:42	0	0	0	-0.2906501	0	0	3	100	0	50	1.809233	0.2851507	-106.1921	
17:10:43	0	0	0	-0.2906501	0	0	3	100	0	50	1.812017	0.293877	-106.2858	
17:10:43	0	0	0	-0.2906501	0	0	3	100	0	50	1.809702	0.3012341	-106.3759	
17:10:43	0	0	0	-0.2906501	0	0	3	100	0	50	1.805038	0.3088069	-106.4713	
17:10:43	0	0	0	-0.2906501	0	0	3	100	0	50	1.80083	0.3173875	-106.5759	
17:10:44	0	0	0	-0.2906501	0	0	3	100	0	50	1.794528	0.3262369	-106.6879	
17:10:44	0	0	0	-0.2906501	0	0	3	100	0	50	1.791421	0.3353345	-106.7867	
17:10:44	0	0	0	-0.2906501	0	0	3	100	0	50	1.792043	0.3410491	-106.8729	
17:10:44	0	0	0	-0.2906501	0	0	3	100	0	50	1.791639	0.346967	-106.9371	
17:10:44	0	0	0	-0.2906501	0	0	3	100	0	50	1.791793	0.347569	-106.9711	
17:10:45	0	0	0	-0.2906501	0	0	3	100	0	50	1.791389	0.3587672	-107.0004	
17:10:45	0	0	0	-0.2906501	0	0	3	100	0	50	1.790619	0.3749657	-107.0326	
17:10:45	0	0	0	-0.2906501	0	0	3	100	0	50	1.790773	0.3853295	-107.0592	
17:10:45	0	0	0	-0.2906501	0	0	3	100	0	50	1.794891	0.3916847	-107.0894	
17:10:45	0	0	0	-0.2906501	0	0	3	100	0	50	1.795745	0.3976206	-107.124	
17:10:46	0	0	0	-0.2906501	0	0	3	100	0	50	1.794538	0.4058844	-107.16	
17:10:46	0	0	0	-0.2906501	0	0	3	100	0	50	1.796384	0.4135412	-107.1957	
17:10:46	0	0	0	-0.2906501	0	0	3	100	0	50	1.794883	0.4206147	-107.2214	
17:10:46	0	0	0	-0.2906501	0	0	3	100	0	50	1.792891	0.4288472	-107.2434	
17:10:46	0	0	0	-0.2906501	0	0	3	100	0	50	1.790663	0.4363532	-107.2671	
17:10:47	0	0	0	-0.2906501	0	0	3	100	0	50	1.785241	0.4414898	-107.2822	
17:10:47	0	0	0	-0.2906501	0	0	3	100	0	50	1.781388	0.4462726	-107.3005	
17:10:47	0	0	0	-0.2906501	0	0	3	100	0	50	1.781011	0.4502848	-107.2863	
17:10:47	0	0	0	-0.2906501	0	0	3	100	0	50	1.780101	0.4462655	-107.1614	
17:10:47	0	0	0	-0.2906501	0	0	3	100	0	50	1.775971	0.4474132	-107.0357	
17:10:48	0	0	0	-0.2906501	0	0	3	100	0	50	1.777354	0.4622621	-106.9103	
17:10:48	0	0	0	-0.2906501	0	0	3	100	0	50	1.781869	0.4771015	-106.7881	
17:10:48	0	0	0	-0.2906501	0	0	3	100	0	50	1.781065	0.487342	-106.6799	
17:10:48	0	0	0	-0.2906501	0	0	3	100	0	50	1.778333	0.4971093	-106.5768	
17:10:48	0	0	0	-0.2906501	0	0	3	100	0	50	1.7775	0.5053272	-106.4582	
17:10:49	0	0	0	-0.2906501	0	0	3	100	0	50	1.775769	0.5107747	-106.326	
17:10:49	0	0	0	-0.2906501	0	0	3	100	0	50	1.773118	0.5152353	-106.2038	
17:10:49	0	0	0	-0.2906501	0	0	3	100	0	50	1.772328	0.519733	-106.0826	
17:10:49	0	0	0	-0.2906501	0	0	3	100	0	50	1.769751	0.5242159	-105.9704	
17:10:49	0	0	0	-0.2906501	0	0	3	100	0	50	1.76248	0.5309567	-105.8607	
17:10:50	0	0	0	-0.2906501	0	0	3	100	0	50	1.755047	0.5369064	-105.7569	
17:10:50	0	0	0	-0.2906501	0	0	3	100	0	50	1.748218	0.5387869	-105.6698	
17:10:50	0	0	0	-0.2906501	0	0	3	100	0	50	1.743489	0.543207	-105.5804	
17:10:50	0	0	0	-0.2906501	0	0	3	100	0	50	1.742513	0.5467449	-105.502	
17:10:50	0	0	0	-0.2906501	0	0	3	100	0	50	1.738623	0.5499939	-105.4253	
17:10:51	0	0	0	-0.2906501	0	0	3	100	0	50	1.735251	0.5525493	-105.3473	
17:10:51	0	0	0	-0.2906501	0	0	3	100	0	50	1.731476	0.5548176	-105.2737	
17:10:51	0	0	0	-0.2906501	0	0	3	100	0	50	1.730523	0.5585378	-105.2011	
17:10:51	0	0	0	-0.2906501	0	0	3	100	0	50	1.732419	0.5629954	-105.1251	
17:10:51	0	0	0	-0.2906501	0	0	3	100	0	50	1.731047	0.5674547	-105.0559	
17:10:52	0	0	0	-0.2906501	0	0	3	100	0	50	1.732563	0.5702542	-104.9905	
17:10:52	0	0	0	-0.2906501	0	0	3	100	0	50	1.732639	0.5735529	-104.9422	
17:10:52	0	0	0	-0.2906501	0	0	3	100	0	50	1.734097	0.5801907	-104.8932	
17:10:52	0	0	0	-0.2906501	0	0	3	100	0	50	1.735389	0.5872158	-104.8419	
17:10:52	0	0	0	-0.2906501	0	0	3	100	0	50	1.73266	0.5960273	-104.7955	
17:10:53	0	0	0	-0.2906501	0	0	3	100	0	50	1.730354	0.6070615	-104.7378	
17:10:53	0	0	0	-0.2906501	0	0	3	100	0	50	1.728053	0.6122996	-104.6856	
17:10:53	0	0	0	-0.2906501	0	0	3	100	0	50	1.723716	0.6137346	-104.6404	
17:10:53	0	0	0	-0.2906501	0	0	3	100	0	50	1.721788	0.6163975	-104.5951	
17:10:53	0	0	0	-0.2906501	0	0	3	100	0	50	1.724752	0.6198293	-104.5453	
17:10:54	0	0	0	-0.2906501	0	0	3	100	0	50	1.725325	0.6236016	-104.4566	
17:10:54	0	0	0	-0.2906501	0	0	3	100	0	50	1.722297	0.6290629	-104.3813	
17:10:54	0	0	0	-0.2906501	0	0	3	100	0	50	1.71886	0.6339153	-104.3054	
17:10:54	0	0	0	-0.2906501	0	0	3	100	0	50	1.712603	0.6367932	-104.2497	
17:10:54	0	0	0	-0.2906501	0	0	3	100	0	50	1.710228	0.6427436	-104.1859	
17:10:55	0	0	0	-0.2906501	0	0	3	100	0	50	1.71095	0.6505533	-104.1263	
17:10:55	0	0	0	-0.2906501	0	0	3	100	0	50	1.713735	0.6520923	-104.0734	
17:10:55	0	0	0	-0.2906501	0	0	3	100	0	50	1.710999	0.6548434	-104.0257	
17:10:55	0	0	0	-0.2906501	0	0	3	100	0	50	1.707271	0.6539234	-103.9783	
17:10:55	0	0	0	-0.2906501	0	0	3	100	0	50	1.708385	0.6514373	-103.9284	
17:10:56	0	0	0	-0.2906501	0	0	3	100	0	50	1.70751	0.6474217	-103.8678	
17:10:56	0	0	0	-0.2906501	0	0	3	100	0	50	1.698683	0.6488086	-103.82	
17:10:56	0	0	0	-0.2906501	0	0	3	100	0	50	1.693365	0.6480322	-103.7877	
17:10:56	0	0	0	-0.2906501	0	0	3	100	0	50	1.69331	0.6496394	-103.7366	
17:10:56	0	0	0	-0.2906501	0	0	3	100	0	50	1.68809	0.6540917	-103.6917	
17:10:57	0	0	0	-0.2906501	0	0	3	100	0	50	1.686076	0.6569877	-103.6496	
17:10:57	0	0	0	-0.2906501	0	0	3	100	0	50	1.68692	0.6578187	-103.6141	
17:10:57	0	0	0	-0.2906501	0	0	3	100	0	50	1.682536	0.6620355	-103.5779	
17:10:57	0	0	0	-0.2906501	0	0	3	100	0	50	1.681185	0.6666799	-103.5374	
17:10:58	0	0	0	-0.2906501	0	0	3	100	0	50	1.672434	0.6745321	-103.4983	
17:10:58	0	0	0	-0.2906501	0	0	3	100	0	50	1.670743	0.6832306	-103.5102	
17:10:58	0	0	0	-0.2906501	0	0	3	100	0	50	1.670679	0.6888041	-103.5584	
17:10:58	0	0	0	-0.2906501	0	0	3	100	0	50	1.621458	0.661934	-103.6135	
17:10:58	0	0	0	-0.2906501	0	0	3	100	0	50	1.617275	0.6313022	-103.674	
17:10:59	0	0	0	-0.2906501	0	0	3	100	0	50	1.615248	0.595	-103.7136	
17:10:59	0	0	0	-0.2906501	0	0	3	100	0	50	1.613332	0.5534332	-103.732	
17:10:59	0	0	0	-0.2906501	0	0	3	100	0	50	1.615262	0.5190004	-103.7463	
17:10:59	0	0	0	-0.2906501	0	0	3	100	0	50	1.615818	0.489162	-103.7415	
17:10:59	0	0	0	-0.2906501	0	0	3	100	0	50	1.617631	0.4635032	-103.7296	
17:11:00	0	0	0	-0.2906501	0	0	3	100	0	50	1.622535	0.4387263	-103.7096	
17:11:00	0	0	0	-0.2906501	0	0	3	100	0	50	1.627682	0.4152929	-103.6745	
17:11:00	0	0	0	-0.2906501	0	0	3	100	0	50	1.627773	0.3939807	-103.6465	
17:11:00	0	0	0	-0.2906501	0	0	3	100	0	50	1.625152	0.3746985	-103.614	
17:11:00	0	0	0	-0.2906501	0	0	3	100	0	50	1.627515	0.3592419	-103.5791	
17:11:01	0	0	0	-0.2906501	0	0	3	100	0	50	1.630098	0.3419236	-103.5433	
17:11:01	0	0	0	-0.2906501	0	0	3	100	0	50	1.636802	0.3143537	-103.5163	
17:11:01	0	0	0	-0.2906501	0	0	3	100	0	50	1.639644	0.2919814	-103.4958	
17:11:01	0	0	0	-0.2906501	0	0	3	100	0	50	1.640945	0.2668308	-103.4704	
17:11:01	0	0	0	-0.2906501	0	0	3	100	0	50	1.640977	0.232848	-103.4437	
17:11:39	0	0	0	0	0	0	3	100	0	50	0.9416788	0.1188731	-111.9751	
17:11:40	0	0	0	0	0	0	3	100	0	50	0.9557905	0.138896	-112.2632	
17:11:40	0	0	0	0	0	0	3	100	0	50	0.9373447	0.1236788	-112.4398	
17:11:40	0	0	0	-0.05404755	-76.49397	0	3	100	0	50	0.8144564	0.005716628	-112.5199	
17:11:40	0	0	0	-0.05404755	-76.49397	0	3	100	0	50	0.7078074	-0.07793315	-112.5725	
17:11:40	0	0	0	-0.05404755	-76.49397	0	3	100	0	50	0.6391144	-0.1554822	-112.5767	
17:11:41	0	0	0	-0.05404755	-76.49397	0	3	100	0	50	0.562689	-0.1965256	-112.5553	
17:11:41	0	0	0	-0.05404755	-76.49397	0	3	100	0	50	0.5122249	-0.2356082	-112.5282	
17:11:41	0	0	0	-1.387307	-169.0663	0	3	100	0	50	0.4988269	-0.2768486	-112.6298	
17:11:41	0	0	0	-1.387307	-169.0663	0	3	100	0	50	0.5041599	-0.2632977	-112.6178	
17:11:41	0	0	0	-1.387307	-169.0663	0	3	100	0	50	0.5032954	-0.2231609	-112.6009	
17:11:42	0	0	0	-1.387307	-169.0663	0	3	100	0	50	0.5252054	-0.226213	-112.6176	
17:11:42	0	0	0	-1.387307	-169.0663	0	3	100	0	50	0.5534653	-0.1994541	-112.645	
17:11:42	0	0	0	-1.224663	-163.2331	0	3	100	0	50	0.549036	-0.1852157	-112.6051	
17:11:42	0	0	0	-1.224663	-163.2331	0	3	100	0	50	0.5387135	-0.2031582	-112.6089	
17:11:42	0	0	0	-1.224663	-163.2331	0	3	100	0	50	0.5110105	-0.2144607	-112.655	
17:11:43	0	0	0	-1.224663	-163.2331	0	3	100	0	50	0.4897709	-0.1859875	-112.754	
17:11:43	0	0	0	-1.224663	-163.2331	0	3	100	0	50	0.5164256	-0.2112399	-112.8856	
17:11:43	0	0	0	-1.256297	-165.5604	0	3	100	0	50	0.5410196	-0.228579	-112.9967	
17:11:43	0	0	0	-1.256297	-165.5604	0	3	100	0	50	0.5531558	-0.2476217	-113.0974	
17:11:43	0	0	0	-1.256297	-165.5604	0	3	100	0	50	0.5765633	-0.2683277	-113.195	
17:11:44	0	0	0	-1.256297	-165.5604	0	3	100	0	50	0.6025349	-0.3051387	-113.2988	
17:11:44	0	0	0	-1.256297	-165.5604	0	3	100	0	50	0.6303202	-0.3233589	-113.39	
17:11:44	0	0	0	-1.595212	-177.3924	0	3	100	0	50	0.649159	-0.3456296	-113.4597	
17:11:44	0	0	0	-1.595212	-177.3924	0	3	100	0	50	0.6656597	-0.3531591	-113.5532	
17:11:44	0	0	0	-1.595212	-177.3924	0	3	100	0	50	0.6964533	-0.3696161	-113.6244	
17:11:45	0	0	0	-1.595212	-177.3924	0	3	100	0	50	0.7234827	-0.4022068	-113.6951	
17:11:45	0	0	0	-1.595212	-177.3924	0	3	100	0	50	0.7386011	-0.4296841	-113.7392	
17:11:45	0	0	0	-1.755486	-170.9855	0	3	100	0	50	0.7551861	-0.4516521	-113.7854	
17:11:45	0	0	0	-1.755486	-170.9855	0	3	100	0	50	0.7622927	-0.4645728	-113.8402	
17:11:45	0	0	0	-1.755486	-170.9855	0	3	100	0	50	0.7729409	-0.4696349	-113.8766	
17:11:46	0	0	0	-1.755486	-170.9855	0	3	100	0	50	0.7755901	-0.4843732	-113.9154	
17:11:46	0	0	0	-1.755486	-170.9855	0	3	100	0	50	0.7804405	-0.5056952	-113.9729	
17:11:46	0	0	0	-1.753725	-155.6269	0	3	100	0	50	0.7925614	-0.5085183	-114.0141	
17:11:46	0	0	0	-1.753725	-155.6269	0	3	100	0	50	0.8049526	-0.511545	-114.0418	
17:11:46	0	0	0	-1.753725	-155.6269	0	3	100	0	50	0.8200193	-0.5179145	-114.0595	
17:11:47	0	0	0	-1.753725	-155.6269	0	3	100	0	50	0.8363455	-0.5407491	-114.0762	
17:11:47	0	0	0	-1.753725	-155.6269	0	3	100	0	50	0.8623802	-0.5836454	-114.119	
17:11:47	0	0	0	-1.670659	-140.8916	0	3	100	0	50	0.8648843	-0.5967352	-114.152	
17:11:47	0	0	0	-1.670659	-140.8916	0	3	100	0	50	0.8784865	-0.6011726	-114.1855	
17:11:47	0	0	0	-1.670659	-140.8916	0	3	100	0	50	0.8916166	-0.6410763	-114.2039	
17:11:48	0	0	0	-1.670659	-140.8916	0	3	100	0	50	0.9109077	-0.6544155	-114.236	
17:11:48	0	0	0	-1.670659	-140.8916	0	3	100	0	50	0.9176241	-0.6719881	-114.2614	
17:11:48	0	0	0	-1.274386	-114.5695	0	3	100	0	50	0.9244843	-0.6810631	-114.2761	
17:11:48	0	0	0	-1.274386	-114.5695	0	3	100	0	50	0.9414596	-0.7118451	-114.3129	
17:11:48	0	0	0	-1.274386	-114.5695	0	3	100	0	50	0.9621848	-0.7443693	-114.324	
17:11:49	0	0	0	-1.274386	-114.5695	0	3	100	0	50	0.981976	-0.7801307	-114.3398	
17:11:49	0	0	0	-1.274386	-114.5695	0	3	100	0	50	1.013995	-0.8248243	-114.3529	
17:11:49	0	0	0	-1.013167	-103.7559	0	3	100	0	50	1.022768	-0.8568578	-114.3694	
17:11:49	0	0	0	-1.013167	-103.7559	0	3	100	0	50	1.045086	-0.8784348	-114.3673	
17:11:49	0	0	0	-1.013167	-103.7559	0	3	100	0	50	1.052791	-0.8895448	-114.365	
17:11:50	0	0	0	-1.013167	-103.7559	0	3	100	0	50	1.077571	-0.9149819	-114.3627	
17:11:50	0	0	0	-1.013167	-103.7559	0	3	100	0	50	1.095752	-0.9398795	-114.3298	
17:11:50	0	0	0	-1.087062	-109.1529	0	3	100	0	50	1.119466	-0.9814436	-114.3167	
17:11:50	0	0	0	-1.087062	-109.1529	0	3	100	0	50	1.142035	-1.020883	-114.3022	
17:11:50	0	0	0	-1.087062	-109.1529	0	3	100	0	50	1.155727	-1.057956	-114.2779	
17:11:51	0	0	0	-1.087062	-109.1529	0	3	100	0	50	1.172629	-1.064179	-114.243	
17:11:51	0	0	0	-1.087062	-109.1529	0	3	100	0	50	1.171604	-1.087207	-114.2233	
17:11:51	0	0	0	-1.297084	-115.0387	0	3	100	0	50	1.180616	-1.106218	-114.2112	
17:11:51	0	0	0	-1.297084	-115.0387	0	3	100	0	50	1.182975	-1.129066	-114.1709	
17:11:51	0	0	0	-1.297084	-115.0387	0	3	100	0	50	1.190744	-1.156441	-114.154	
17:11:52	0	0	0	-1.297084	-115.0387	0	3	100	0	50	1.205733	-1.181993	-114.118	
17:11:52	0	0	0	-1.297084	-115.0387	0	3	100	0	50	1.210387	-1.208644	-114.0803	
17:11:52	0	0	0	-1.121513	-98.94585	0	3	100	0	50	1.214617	-1.230346	-114.0499	
17:11:52	0	0	0	-1.121513	-98.94585	0	3	100	0	50	1.227208	-1.269693	-114.0068	
17:11:52	0	0	0	-1.121513	-98.94585	0	3	100	0	50	1.244721	-1.299172	-113.9856	
17:11:53	0	0	0	-1.121513	-98.94585	0	3	100	0	50	1.257581	-1.336855	-113.9433	
17:11:53	0	0	0	-1.121513	-98.94585	0	3	100	0	50	1.280361	-1.37786	-113.9025	
17:11:53	0	0	0	-0.9205667	-85.7398	0	3	100	0	50	1.308292	-1.431314	-113.8631	
17:11:53	0	0	0	-0.9205667	-85.7398	0	3	100	0	50	1.335552	-1.466572	-113.8314	
17:11:53	0	0	0	-0.9205667	-85.7398	0	3	100	0	50	1.353268	-1.494256	-113.8087	
17:11:54	0	0	0	-0.9205667	-85.7398	0	3	100	0	50	1.373044	-1.531065	-113.7744	
17:11:54	0	0	0	-0.9205667	-85.7398	0	3	100	0	50	1.392709	-1.568601	-113.7244	
17:11:54	0	0	0	-0.7670763	-78.86134	0	3	100	0	50	1.401392	-1.597068	-113.681	
17:11:54	0	0	0	-0.7670763	-78.86134	0	3	100	0	50	1.420352	-1.627147	-113.649	
17:11:55	0	0	0	-0.7670763	-78.86134	0	3	100	0	50	1.435786	-1.661539	-113.6175	
17:11:55	0	0	0	-0.7670763	-78.86134	0	3	100	0	50	1.429625	-1.691174	-113.5625	
17:11:55	0	0	0	-0.7670763	-78.86134	0	3	100	0	50	1.428848	-1.694005	-113.4934	
17:11:55	0	0	0	-0.6706002	-73.61396	0	3	100	0	50	1.40217	-1.674136	-113.3984	
17:11:55	0	0	0	-0.6706002	-73.61396	0	3	100	0	50	1.377017	-1.631167	-113.3209	
17:11:56	0	0	0	-0.6706002	-73.61396	0	3	100	0	50	1.346709	-1.576046	-113.2639	
17:11:56	0	0	0	-0.6706002	-73.61396	0	3	100	0	50	1.322418	-1.526777	-113.1782	
17:11:56	0	0	0	-0.6706002	-73.61396	0	3	100	0	50	1.290577	-1.491363	-113.1096	
17:11:56	0	0	0	-0.7283132	-77.30678	0	3	100	0	50	1.277228	-1.461983	-113.0352	
17:11:56	0	0	0	-0.7283132	-77.30678	0	3	100	0	50	1.239537	-1.430722	-112.9588	
17:11:57	0	0	0	-0.7283132	-77.30678	0	3	100	0	50	1.205121	-1.383611	-112.8922	
17:11:57	0	0	0	-0.7283132	-77.30678	0	3	100	0	50	1.194074	-1.343605	-112.8585	
17:11:57	0	0	0	-0.7283132	-77.30678	0	3	100	0	50	1.186687	-1.320256	-112.8196	
17:11:57	0	0	0	-0.6045291	-69.15642	0	3	100	0	50	1.193364	-1.341085	-112.7895	
17:11:57	0	0	0	-0.6045291	-69.15642	0	3	100	0	50	1.199318	-1.366701	-112.7559	
17:11:58	0	0	0	-0.6045291	-69.15642	0	3	100	0	50	1.218243	-1.39797	-112.7233	
17:11:58	0	0	0	-0.6045291	-69.15642	0	3	100	0	50	1.233894	-1.430431	-112.7087	
17:11:58	0	0	0	-0.6045291	-69.15642	0	3	100	0	50	1.259342	-1.475118	-112.6777	
17:11:58	0	0	0	-0.5423704	-65.02926	0	3	100	0	50	1.273319	-1.497333	-112.6499	
17:11:58	0	0	0	-0.5423704	-65.02926	0	3	100	0	50	1.283333	-1.52633	-112.6171	
17:11:59	0	0	0	-0.5423704	-65.02926	0	3	100	0	50	1.286323	-1.530305	-112.5908	
17:11:59	0	0	0	-0.5423704	-65.02926	0	3	100	0	50	1.285729	-1.53637	-112.5565	
17:11:59	0	0	0	-0.5423704	-65.02926	0	3	100	0	50	1.26937	-1.534697	-112.5102	
17:11:59	0	0	0	-0.3300397	-55.72555	0	3	100	0	50	1.275066	-1.527047	-112.4821	
17:11:59	0	0	0	-0.3300397	-55.72555	0	3	100	0	50	1.157539	-1.439606	-112.0848	
17:12:00	0	0	0	-0.3300397	-55.72555	0	3	100	0	50	1.144104	-1.354486	-112.0516	
17:12:00	0	0	0	-0.3300397	-55.72555	0	3	100	0	50	1.127576	-1.370549	-112.0145	
17:12:00	0	0	0	-0.3300397	-55.72555	0	3	100	0	50	1.102915	-1.444355	-111.9436	
17:12:00	0	0	0	-0.1621482	-49.47754	0	3	100	0	50	1.078528	-1.397079	-111.8975	
17:12:00	0	0	0	-0.1621482	-49.47754	0	3	100	0	50	1.062399	-1.366235	-111.8719	
17:12:01	0	0	0	-0.1621482	-49.47754	0	3	100	0	50	1.046005	-1.326061	-111.8229	
17:12:01	0	0	0	-0.1621482	-49.47754	0	3	100	0	50	1.020176	-1.29961	-111.7759	
17:12:01	0	0	0	-0.1621482	-49.47754	0	3	100	0	50	1.007068	-1.264	-111.7253	
17:12:01	0	0	0	-0.1906776	-53.02298	0	3	100	0	50	0.9841409	-1.220806	-111.6922	
17:12:01	0	0	0	-0.1906776	-53.02298	0	3	100	0	50	0.975805	-1.184166	-111.6689	
17:12:02	0	0	0	-0.1906776	-53.02298	0	3	100	0	50	0.9637449	-1.146296	-111.6357	
17:12:02	0	0	0	-0.1906776	-53.02298	0	3	100	0	50	0.9543561	-1.112934	-111.6131	
17:12:02	0	0	0	-0.1906776	-53.02298	0	3	100	0	50	0.9502677	-1.092451	-111.6106	
17:12:02	0	0	0	-0.2988004	-56.32036	0	3	100	0	50	0.9397647	-1.066879	-111.6134	
17:12:02	0	0	0	-0.2988004	-56.32036	0	3	100	0	50	0.9278852	-1.046558	-111.6008	
17:12:03	0	0	0	-0.2988004	-56.32036	0	3	100	0	50	0.9215204	-1.026054	-111.5844	
17:12:03	0	0	0	-0.2988004	-56.32036	0	3	100	0	50	0.9304645	-1.012467	-111.5791	
17:12:03	0	0	0	-0.2988004	-56.32036	0	3	100	0	50	0.9122976	-1.018548	-111.5663	
17:12:03	0	0	0	-0.3657544	-55.40337	0	3	100	0	50	0.9203784	-1.012675	-111.543	
17:12:03	0	0	0	-0.3657544	-55.40337	0	3	100	0	50	0.9097288	-0.9947099	-111.535	
17:12:04	0	0	0	-0.3657544	-55.40337	0	3	100	0	50	0.9022646	-0.991749	-111.5233	
17:12:04	0	0	0	-0.3657544	-55.40337	0	3	100	0	50	0.9079477	-0.9859623	-111.5182	
17:12:04	0	0	0	-0.3657544	-55.40337	0	3	100	0	50	0.923547	-0.9920025	-111.5295	
17:12:04	0	0	0	-0.2683117	-47.70794	0	3	100	0	50	0.9347261	-1.009978	-111.5319	
17:12:04	0	0	0	-0.2683117	-47.70794	0	3	100	0	50	0.9410987	-1.017695	-111.5469	
17:12:05	0	0	0	-0.2683117	-47.70794	0	3	100	0	50	0.9402391	-1.024886	-111.5463	
17:12:05	0	0	0	-0.2683117	-47.70794	0	3	100	0	50	0.9347821	-1.029491	-111.544	
17:12:05	0	0	0	-0.2683117	-47.70794	0	3	100	0	50	0.9191071	-1.027983	-111.5133	
17:12:05	0	0	0	-0.2974216	-46.21672	0	3	100	0	50	0.9299875	-1.041316	-111.5055	
17:12:05	0	0	0	-0.2974216	-46.21672	0	3	100	0	50	0.93658	-1.049683	-111.5099	
17:12:06	0	0	0	-0.2974216	-46.21672	0	3	100	0	50	0.9453936	-1.045027	-111.4912	
17:12:06	0	0	0	-0.2974216	-46.21672	0	3	100	0	50	0.926237	-1.025587	-111.449	
17:12:06	0	0	0	-0.2974216	-46.21672	0	3	100	0	50	0.9243686	-1.027415	-111.436	
17:12:06	0	0	0	-0.2160885	-39.00642	0	3	100	0	50	0.9159592	-0.9555886	-111.4191	
17:12:06	0	0	0	-0.2160885	-39.00642	0	3	100	0	50	-2.077964	-2.668377	-110.4264	
17:12:07	0	0	0	-0.2160885	-39.00642	0	3	100	0	50	8.097503	-9.451613	-99.17955	
17:12:07	0	0	0	-0.2160885	-39.00642	0	3	100	0	50	13.87178	-12.20754	-96.6896	
17:12:07	0	0	0	-0.2160885	-39.00642	0	3	100	0	50	-6.119072	-12.56634	-93.23676	
17:12:07	0	0	0	-0.1043561	-28.47744	0	3	100	0	50	19.41149	-14.35644	-86.20981	
17:12:07	0	0	0	-0.1043561	-28.47744	0	3	100	0	50	26.78544	-9.507796	-85.18612	
17:12:08	0	0	0	-0.1043561	-28.47744	0	3	100	0	50	26.66663	-11.60352	-81.67554	
17:12:08	0	0	0	-0.1043561	-28.47744	0	3	100	0	50	4.910857	-16.50877	-79.0098	
17:12:08	0	0	0	-0.1043561	-28.47744	0	3	100	0	50	1.880359	-6.528066	-79.18997	
17:12:08	0	0	0	-0.3405329	-59.21272	0	3	100	0	50	2.675268	-4.291081	-80.82851	
17:12:09	0	0	0	-0.3405329	-59.21272	0	3	100	0	50	2.740752	-4.034867	-80.7024	
17:12:09	0	0	0	-0.3405329	-59.21272	0	3	100	0	50	2.768551	-4.024253	-80.60354	
17:12:09	0	0	0	-0.3405329	-59.21272	0	3	100	0	50	2.774024	-3.982571	-80.51364	
17:12:09	0	0	0	-0.3405329	-59.21272	0	3	100	0	50	2.761832	-3.918713	-80.42801	
17:12:09	0	0	0	-0.3215919	-44.43352	0	3	100	0	50	2.733461	-3.841898	-80.3341	
17:12:10	0	0	0	-0.3215919	-44.43352	0	3	100	0	50	2.707225	-3.74978	-80.25423	
17:12:10	0	0	0	-0.3215919	-44.43352	0	3	100	0	50	2.685329	-3.664289	-80.17798	
17:12:10	0	0	0	-0.3215919	-44.43352	0	3	100	0	50	2.654817	-3.607858	-80.07867	
17:12:10	0	0	0	-0.3215919	-44.43352	0	3	100	0	50	2.6209	-3.568476	-80.00099	
17:12:10	0	0	0	-0.1604315	-30.93804	0	3	100	0	50	2.605824	-3.491876	-79.94353	
17:12:11	0	0	0	-0.1604315	-30.93804	0	3	100	0	50	2.585304	-3.413216	-79.88608	
17:12:11	0	0	0	-0.1604315	-30.93804	0	3	100	0	50	2.587512	-3.355841	-79.84709	
17:12:11	0	0	0	-0.1604315	-30.93804	0	3	100	0	50	2.56702	-3.317866	-79.80453	
17:12:11	0	0	0	-0.1604315	-30.93804	0	3	100	0	50	2.548148	-3.271853	-79.77817	
17:12:11	0	0	0	-0.006799707	-20.72743	0	3	100	0	50	2.545809	-3.241155	-79.73542	
17:12:12	0	0	0	-0.006799707	-20.72743	0	3	100	0	50	2.558876	-3.22104	-79.72511	
17:12:12	0	0	0	-0.006799707	-20.72743	0	3	100	0	50	2.54896	-3.182625	-79.7085	
17:12:12	0	0	0	-0.006799707	-20.72743	0	3	100	0	50	2.53904	-3.151189	-79.688	
17:12:12	0	0	0	-0.006799707	-20.72743	0	3	100	0	50	2.532329	-3.125365	-79.66879	
17:12:12	0	0	0	-0.3079499	-34.02565	0	3	100	0	50	2.524969	-3.061606	-79.63942	
17:12:13	0	0	0	-0.3079499	-34.02565	0	3	100	0	50	2.502132	-3.020665	-79.61552	
17:12:13	0	0	0	-0.3079499	-34.02565	0	3	100	0	50	2.480314	-2.953381	-79.60305	
17:12:13	0	0	0	-0.3079499	-34.02565	0	3	100	0	50	2.466486	-2.896484	-79.57748	
17:12:13	0	0	0	-0.3079499	-34.02565	0	3	100	0	50	2.465214	-2.884438	-79.56487	
17:12:13	0	0	0	-0.2867927	-27.44799	0	3	100	0	50	2.444889	-2.832162	-79.54275	
17:12:14	0	0	0	-0.2867927	-27.44799	0	3	100	0	50	2.426739	-2.763096	-79.52045	
17:12:14	0	0	0	-0.2867927	-27.44799	0	3	100	0	50	2.405695	-2.747191	-79.48538	
17:12:14	0	0	0	-0.2867927	-27.44799	0	3	100	0	50	2.391112	-2.714456	-79.45927	
17:12:14	0	0	0	-0.2867927	-27.44799	0	3	100	0	50	2.358123	-2.68316	-79.43925	
17:12:14	0	0	0	-0.1695618	-18.91805	0	3	100	0	50	2.338133	-2.617588	-79.41598	
17:12:15	0	0	0	-0.1695618	-18.91805	0	3	100	0	50	2.308939	-2.557488	-79.41046	
17:12:15	0	0	0	-0.1695618	-18.91805	0	3	100	0	50	2.290112	-2.51208	-79.40229	
17:12:15	0	0	0	-0.1695618	-18.91805	0	3	100	0	50	2.26994	-2.438167	-79.38713	
17:12:15	0	0	0	-0.1695618	-18.91805	0	3	100	0	50	2.255425	-2.393667	-79.39876	
17:12:15	0	0	0	0.1925872	-3.390428	0	3	100	0	50	2.252119	-2.360061	-79.40626	
17:12:16	0	0	0	0.1925872	-3.390428	0	3	100	0	50	2.249835	-2.330979	-79.42193	
17:12:16	0	0	0	0.1925872	-3.390428	0	3	100	0	50	2.222864	-2.296224	-79.44501	
17:12:16	0	0	0	0.1925872	-3.390428	0	3	100	0	50	2.212302	-2.231798	-79.44858	
17:12:16	0	0	0	0.1925872	-3.390428	0	3	100	0	50	2.200545	-2.205315	-79.44715	
17:12:16	0	0	0	0.2660471	-7.09037	0	3	100	0	50	2.20037	-2.175465	-79.48794	
17:12:17	0	0	0	0.2660471	-7.09037	0	3	100	0	50	2.189482	-2.142235	-79.52851	
17:12:17	0	0	0	0.2660471	-7.09037	0	3	100	0	50	1.457657	-2.652289	-79.91552	
17:12:17	0	0	0	0.2660471	-7.09037	0	3	100	0	50	1.767888	-2.511496	-79.68254	
17:12:17	0	0	0	0.2660471	-7.09037	0	3	100	0	50	1.765344	-2.518723	-79.72712	
17:12:17	0	0	0	0.05631516	-20.09426	0	3	100	0	50	1.851554	-2.521748	-79.76195	
17:12:18	0	0	0	0.05631516	-20.09426	0	3	100	0	50	1.821929	-2.351449	-79.99721	
17:12:18	0	0	0	0.05631516	-20.09426	0	3	100	0	50	1.778258	-2.445553	-79.97125	
17:12:18	0	0	0	0.05631516	-20.09426	0	3	100	0	50	2.016298	-2.673206	-77.85092	
17:12:18	0	0	0	0.05631516	-20.09426	0	3	100	0	50	2.031988	-2.737257	-77.68283	
17:12:18	0	0	0	0.04116461	-18.0732	0	3	100	0	50	2.07129	-2.856195	-77.75603	
17:12:19	0	0	0	0.04116461	-18.0732	0	3	100	0	50	2.103791	-2.839388	-77.75718	
17:12:19	0	0	0	0.04116461	-18.0732	0	3	100	0	50	2.160877	-2.940421	-77.60104	
17:12:19	0	0	0	0.04116461	-18.0732	0	3	100	0	50	2.090887	-2.877715	-77.56261	
17:12:19	0	0	0	0.04116461	-18.0732	0	3	100	0	50	2.154605	-2.8638	-77.68178	
17:12:19	0	0	0	0.2178434	-9.005119	0	3	100	0	50	2.227727	-2.865148	-77.84364	
17:12:20	0	0	0	0.2178434	-9.005119	0	3	100	0	50	2.204725	-3.22014	-77.82467	
17:12:20	0	0	0	0.2178434	-9.005119	0	3	100	0	50	2.185237	-3.164005	-77.82816	
17:12:20	0	0	0	0.2178434	-9.005119	0	3	100	0	50	2.192051	-3.133422	-77.85486	
17:12:20	0	0	0	0.2178434	-9.005119	0	3	100	0	50	2.303496	-2.816628	-78.13145	
17:12:20	0	0	0	0.1610507	-16.77362	0	3	100	0	50	2.366755	-2.783093	-78.1186	
17:12:21	0	0	0	0.1610507	-16.77362	0	3	100	0	50	2.363095	-2.754889	-78.09296	
17:12:21	0	0	0	0.1610507	-16.77362	0	3	100	0	50	2.345062	-2.685607	-78.06317	
17:12:21	0	0	0	0.1610507	-16.77362	0	3	100	0	50	2.33	-2.660891	-78.04554	
17:12:21	0	0	0	0.1610507	-16.77362	0	3	100	0	50	2.330315	-2.645232	-78.04595	
17:12:21	0	0	0	0.1051761	-18.16122	0	3	100	0	50	2.333274	-2.630938	-78.05184	
17:12:22	0	0	0	0.1051761	-18.16122	0	3	100	0	50	2.328813	-2.589891	-78.02795	
17:12:22	0	0	0	0.1051761	-18.16122	0	3	100	0	50	2.323129	-2.585942	-78.03817	
17:12:22	0	0	0	0.1051761	-18.16122	0	3	100	0	50	2.33238	-2.554764	-78.04192	
17:12:22	0	0	0	0.1051761	-18.16122	0	3	100	0	50	2.315023	-2.533407	-78.04637	
17:12:22	0	0	0	-0.07657555	-21.73908	0	3	100	0	50	2.313288	-2.4861	-78.05484	
17:12:23	0	0	0	-0.07657555	-21.73908	0	3	100	0	50	2.298203	-2.458537	-78.04396	
17:12:23	0	0	0	-0.07657555	-21.73908	0	3	100	0	50	2.294148	-2.45217	-78.04986	
17:12:23	0	0	0	-0.07657555	-21.73908	0	3	100	0	50	2.279689	-2.390122	-78.03859	
17:12:23	0	0	0	-0.07657555	-21.73908	0	3	100	0	50	2.25988	-2.334129	-78.03913	
17:12:24	0	0	0	-0.1199976	-19.22339	0	3	100	0	50	2.246049	-2.312824	-78.06432	
17:12:24	0	0	0	-0.1199976	-19.22339	0	3	100	0	50	2.240565	-2.272578	-78.09325	
17:12:24	0	0	0	-0.1199976	-19.22339	0	3	100	0	50	2.251787	-2.252861	-78.11892	
17:12:24	0	0	0	-0.1199976	-19.22339	0	3	100	0	50	2.251165	-2.247415	-78.15529	
17:12:24	0	0	0	-0.1199976	-19.22339	0	3	100	0	50	2.474933	-2.262416	-78.24523	
17:12:25	0	0	0	-0.2168894	-20.38559	0	3	100	0	50	2.324909	-2.295999	-78.23169	
17:12:25	0	0	0	-0.2168894	-20.38559	0	3	100	0	50	2.452048	-2.288385	-78.24543	
17:12:25	0	0	0	-0.2168894	-20.38559	0	3	100	0	50	2.395525	-2.305191	-78.25554	
17:12:25	0	0	0	-0.2168894	-20.38559	0	3	100	0	50	2.566558	-2.393482	-78.28969	
17:12:25	0	0	0	-0.2168894	-20.38559	0	3	100	0	50	2.503415	-2.39698	-78.31146	
17:12:26	0	0	0	-0.2090712	-14.79784	0	3	100	0	50	2.578226	-2.51461	-78.33481	
17:12:26	0	0	0	-0.2090712	-14.79784	0	3	100	0	50	2.521535	-2.520169	-78.32455	
17:12:26	0	0	0	-0.2090712	-14.79784	0	3	100	0	50	2.502211	-2.494579	-78.32584	
17:12:26	0	0	0	-0.2090712	-14.79784	0	3	100	0	50	2.494092	-2.482199	-78.32841	
17:12:26	0	0	0	-0.2090712	-14.79784	0	3	100	0	50	2.441323	-2.46465	-78.33475	
17:12:27	0	0	0	-0.2878763	-16.39643	0	3	100	0	50	2.408246	-2.411551	-78.331	
17:12:27	0	0	0	-0.2878763	-16.39643	0	3	100	0	50	2.374039	-2.406754	-78.31704	
17:12:27	0	0	0	-0.2878763	-16.39643	0	3	100	0	50	2.367198	-2.378798	-78.31976	
17:12:27	0	0	0	-0.2878763	-16.39643	0	3	100	0	50	2.350888	-2.342256	-78.31863	
17:12:27	0	0	0	-0.2878763	-16.39643	0	3	100	0	50	2.352476	-2.296539	-78.34365	
17:12:28	0	0	0	-0.1166895	-5.424551	0	3	100	0	50	2.321594	-2.252436	-78.34737	
17:12:28	0	0	0	-0.1166895	-5.424551	0	3	100	0	50	2.302216	-2.198246	-78.33837	
17:12:28	0	0	0	-0.1166895	-5.424551	0	3	100	0	50	2.292642	-2.173423	-78.35292	
17:12:28	0	0	0	-0.1166895	-5.424551	0	3	100	0	50	2.290879	-2.125446	-78.36572	
17:12:28	0	0	0	-0.1166895	-5.424551	0	3	100	0	50	2.290403	-2.077759	-78.38383	
17:12:29	0	0	0	0.07982409	2.631574	0	3	100	0	50	2.272114	-2.050747	-78.40513	
17:12:29	0	0	0	0.07982409	2.631574	0	3	100	0	50	2.260407	-2.032478	-78.44885	
17:12:29	0	0	0	0.07982409	2.631574	0	3	100	0	50	2.241039	-2.008996	-78.47227	
17:12:29	0	0	0	0.07982409	2.631574	0	3	100	0	50	2.230645	-1.959844	-78.48114	
17:12:29	0	0	0	0.07982409	2.631574	0	3	100	0	50	2.219333	-1.936647	-78.50235	
17:12:30	0	0	0	0.3535191	11.18942	0	3	100	0	50	2.216017	-1.912131	-78.53468	
17:12:30	0	0	0	0.3535191	11.18942	0	3	100	0	50	2.207307	-1.881018	-78.54984	
17:12:30	0	0	0	0.3535191	11.18942	0	3	100	0	50	2.191678	-1.857409	-78.59198	
17:12:30	0	0	0	0.3535191	11.18942	0	3	100	0	50	2.175946	-1.829169	-78.62232	
17:12:30	0	0	0	0.3535191	11.18942	0	3	100	0	50	2.160661	-1.817402	-78.6563	
17:12:31	0	0	0	0.2402943	-1.494939	0	3	100	0	50	2.159987	-1.792068	-78.68272	
17:12:31	0	0	0	0.2402943	-1.494939	0	3	100	0	50	2.154849	-1.769142	-78.71291	
17:12:31	0	0	0	0.2402943	-1.494939	0	3	100	0	50	2.141474	-1.75691	-78.75256	
17:12:31	0	0	0	0.2402943	-1.494939	0	3	100	0	50	2.12134	-1.729484	-78.77388	
17:12:31	0	0	0	0.2402943	-1.494939	0	3	100	0	50	2.106356	-1.698238	-78.81521	
17:12:32	0	0	0	0.3552053	2.91358	0	3	100	0	50	2.090333	-1.702238	-78.83392	
17:12:32	0	0	0	0.3552053	2.91358	0	3	100	0	50	2.075766	-1.657717	-78.85786	
17:12:32	0	0	0	0.3552053	2.91358	0	3	100	0	50	2.067704	-1.661777	-78.9002	
17:12:32	0	0	0	0.3552053	2.91358	0	3	100	0	50	2.073968	-1.642789	-78.93323	
17:12:32	0	0	0	0.3552053	2.91358	0	3	100	0	50	2.060172	-1.666419	-78.94405	
17:12:33	0	0	0	0.3963607	1.300972	0	3	100	0	50	2.051861	-1.654125	-78.96102	
17:12:33	0	0	0	0.3963607	1.300972	0	3	100	0	50	2.052516	-1.642716	-78.99917	
17:12:33	0	0	0	0.3963607	1.300972	0	3	100	0	50	2.0556	-1.629753	-79.03929	
17:12:33	0	0	0	0.3963607	1.300972	0	3	100	0	50	2.040872	-1.607236	-79.04674	
17:12:33	0	0	0	0.3963607	1.300972	0	3	100	0	50	2.02359	-1.562564	-79.07693	
17:12:34	0	0	0	0.2606657	-8.327305	0	3	100	0	50	2.040093	-1.582649	-79.11116	
17:12:34	0	0	0	0.2606657	-8.327305	0	3	100	0	50	2.041749	-1.59283	-79.13384	
17:12:34	0	0	0	0.2606657	-8.327305	0	3	100	0	50	2.028269	-1.607339	-79.16187	
17:12:34	0	0	0	0.2606657	-8.327305	0	3	100	0	50	2.018523	-1.582011	-79.18018	
17:12:34	0	0	0	0.2606657	-8.327305	0	3	100	0	50	1.987082	-1.570796	-79.1925	
17:12:35	0	0	0	-0.02739139	-19.53301	0	3	100	0	50	1.97721	-1.578828	-79.21565	
17:12:35	0	0	0	-0.02739139	-19.53301	0	3	100	0	50	1.965473	-1.57266	-79.24068	
17:12:35	0	0	0	-0.02739139	-19.53301	0	3	100	0	50	1.949456	-1.549978	-79.25338	
17:12:35	0	0	0	-0.02739139	-19.53301	0	3	100	0	50	1.932637	-1.530145	-79.27357	
17:12:35	0	0	0	-0.02739139	-19.53301	0	3	100	0	50	1.923414	-1.503998	-79.26228	
17:12:36	0	0	0	0.02780295	-10.28244	0	3	100	0	50	1.896435	-1.455955	-79.26901	
17:12:36	0	0	0	0.02780295	-10.28244	0	3	100	0	50	1.900025	-1.445709	-79.3093	
17:12:36	0	0	0	0.02780295	-10.28244	0	3	100	0	50	1.892798	-1.437097	-79.33199	
17:12:36	0	0	0	0.02780295	-10.28244	0	3	100	0	50	1.88502	-1.412025	-79.34087	
17:12:36	0	0	0	0.02780295	-10.28244	0	3	100	0	50	1.885984	-1.409555	-79.36058	
17:12:37	0	0	0	0.3186111	4.706011	0	3	100	0	50	1.882206	-1.388938	-79.38288	
17:12:37	0	0	0	0.3186111	4.706011	0	3	100	0	50	1.882503	-1.399569	-79.41708	
17:12:37	0	0	0	0.3186111	4.706011	0	3	100	0	50	1.902325	-1.432263	-79.43914	
17:12:37	0	0	0	0.3186111	4.706011	0	3	100	0	50	1.919746	-1.438378	-79.46589	
17:12:38	0	0	0	0.3186111	4.706011	0	3	100	0	50	1.922556	-1.427909	-79.46216	
17:12:38	0	0	0	0.350204	0.6293976	0	3	100	0	50	1.907553	-1.428655	-79.46453	
17:12:38	0	0	0	0.350204	0.6293976	0	3	100	0	50	1.888238	-1.420692	-79.48094	
17:12:38	0	0	0	0.350204	0.6293976	0	3	100	0	50	1.86846	-1.408072	-79.49714	
17:12:38	0	0	0	0.350204	0.6293976	0	3	100	0	50	1.848372	-1.422053	-79.5058	
17:12:39	0	0	0	0.350204	0.6293976	0	3	100	0	50	1.845349	-1.414251	-79.53831	
17:12:39	0	0	0	0.2105559	-5.912279	0	3	100	0	50	1.858572	-1.431649	-79.56726	
17:12:39	0	0	0	0.2105559	-5.912279	0	3	100	0	50	1.855354	-1.423916	-79.57774	
17:12:39	0	0	0	0.2105559	-5.912279	0	3	100	0	50	1.861938	-1.414153	-79.59811	
17:12:39	0	0	0	0.2105559	-5.912279	0	3	100	0	50	1.849695	-1.401366	-79.59258	
17:12:40	0	0	0	0.2105559	-5.912279	0	3	100	0	50	1.843142	-1.385896	-79.59819	
17:12:40	0	0	0	0.116414	-11.01094	0	3	100	0	50	1.847218	-1.391606	-79.61723	
17:12:40	0	0	0	0.116414	-11.01094	0	3	100	0	50	1.831442	-1.389227	-79.63812	
17:12:40	0	0	0	0.116414	-11.01094	0	3	100	0	50	1.816951	-1.37286	-79.64154	
17:12:40	0	0	0	0.116414	-11.01094	0	3	100	0	50	1.806767	-1.348282	-79.65792	
17:12:41	0	0	0	0.116414	-11.01094	0	3	100	0	50	1.800375	-1.339868	-79.67552	
17:12:41	0	0	0	-0.01890232	-12.46245	0	3	100	0	50	1.781959	-1.332587	-79.67728	
17:12:41	0	0	0	-0.01890232	-12.46245	0	3	100	0	50	1.761548	-1.301441	-79.69615	
17:12:41	0	0	0	-0.01890232	-12.46245	0	3	100	0	50	1.766869	-1.296943	-79.71679	
17:12:41	0	0	0	-0.01890232	-12.46245	0	3	100	0	50	1.767025	-1.298964	-79.7467	
17:12:42	0	0	0	-0.01890232	-12.46245	0	3	100	0	50	1.7795	-1.274119	-79.76964	
17:12:42	0	0	0	-0.08544259	-12.02966	0	3	100	0	50	1.780513	-1.263306	-79.80259	
17:12:42	0	0	0	-0.08544259	-12.02966	0	3	100	0	50	1.77359	-1.247829	-79.80569	
17:12:42	0	0	0	-0.08544259	-12.02966	0	3	100	0	50	1.767105	-1.249565	-79.80619	
17:12:42	0	0	0	-0.08544259	-12.02966	0	3	100	0	50	1.74757	-1.250995	-79.82921	
17:12:43	0	0	0	-0.08544259	-12.02966	0	3	100	0	50	1.739901	-1.234923	-79.84007	
17:12:43	0	0	0	0.1482747	2.096407	0	3	100	0	50	1.737799	-1.22631	-79.84796	
17:12:43	0	0	0	0.1482747	2.096407	0	3	100	0	50	1.720388	-1.224228	-79.87828	
17:12:43	0	0	0	0.1482747	2.096407	0	3	100	0	50	1.719442	-1.23881	-79.90385	
17:12:43	0	0	0	0.1482747	2.096407	0	3	100	0	50	1.739372	-1.258553	-79.92833	
17:12:44	0	0	0	0.1482747	2.096407	0	3	100	0	50	1.756628	-1.238928	-79.92841	
17:12:44	0	0	0	-0.02502769	-6.374658	0	3	100	0	50	1.773513	-1.202677	-79.93513	
17:12:44	0	0	0	-0.02502769	-6.374658	0	3	100	0	50	1.793892	-1.263356	-79.94176	
17:12:44	0	0	0	-0.02502769	-6.374658	0	3	100	0	50	1.791297	-1.297048	-79.95254	
17:12:44	0	0	0	-0.02502769	-6.374658	0	3	100	0	50	1.804219	-1.300354	-79.9622	
17:12:45	0	0	0	-0.02502769	-6.374658	0	3	100	0	50	1.803331	-1.320691	-79.96536	
17:12:45	0	0	0	0.05005847	-0.8139821	0	3	100	0	50	1.804343	-1.322915	-79.96355	
17:12:45	0	0	0	0.05005847	-0.8139821	0	3	100	0	50	1.830623	-1.298743	-79.97246	
17:12:45	0	0	0	0.05005847	-0.8139821	0	3	100	0	50	1.826619	-1.326474	-79.98709	
17:12:45	0	0	0	0.05005847	-0.8139821	0	3	100	0	50	1.814065	-1.344963	-79.98964	
17:12:46	0	0	0	0.05005847	-0.8139821	0	3	100	0	50	1.782483	-1.377126	-79.98989	
17:12:46	0	0	0	-0.1019434	-8.504362	0	3	100	0	50	1.783271	-1.387761	-79.98974	
17:12:46	0	0	0	-0.1019434	-8.504362	0	3	100	0	50	1.771609	-1.370321	-80.01495	
17:12:46	0	0	0	-0.1019434	-8.504362	0	3	100	0	50	1.759266	-1.375224	-80.01691	
17:12:46	0	0	0	-0.1019434	-8.504362	0	3	100	0	50	1.751625	-1.377144	-80.02332	
17:12:47	0	0	0	-0.1019434	-8.504362	0	3	100	0	50	1.749769	-1.362995	-80.04431	
17:12:47	0	0	0	-0.2596861	-12.56224	0	3	100	0	50	1.757838	-1.355751	-80.0575	
17:12:47	0	0	0	-0.2596861	-12.56224	0	3	100	0	50	1.757463	-1.358305	-80.06202	
17:12:47	0	0	0	-0.2596861	-12.56224	0	3	100	0	50	1.764741	-1.351672	-80.05258	
17:12:47	0	0	0	-0.2596861	-12.56224	0	3	100	0	50	1.770131	-1.330446	-80.04865	
17:12:48	0	0	0	-0.2596861	-12.56224	0	3	100	0	50	1.761962	-1.325736	-80.05024	
17:12:48	0	0	0	-0.2257319	-7.79409	0	3	100	0	50	1.774658	-1.332307	-80.03847	
17:12:48	0	0	0	-0.2257319	-7.79409	0	3	100	0	50	1.781778	-1.338702	-80.04889	
17:12:48	0	0	0	-0.2257319	-7.79409	0	3	100	0	50	1.774793	-1.340942	-80.04745	
17:12:48	0	0	0	-0.2257319	-7.79409	0	3	100	0	50	1.772302	-1.357454	-80.06895	
17:12:49	0	0	0	-0.2257319	-7.79409	0	3	100	0	50	1.765473	-1.340001	-80.07537	
17:12:49	0	0	0	0.1132622	8.928008	0	3	100	0	50	1.762617	-1.338543	-80.08936	
17:12:49	0	0	0	0.1132622	8.928008	0	3	100	0	50	1.76224	-1.338604	-80.08679	
17:12:49	0	0	0	0.1132622	8.928008	0	3	100	0	50	1.746561	-1.334872	-80.07608	
17:12:49	0	0	0	0.1132622	8.928008	0	3	100	0	50	1.747531	-1.331869	-80.07865	
17:12:50	0	0	0	0.1132622	8.928008	0	3	100	0	50	1.764851	-1.335569	-80.09015	
17:12:50	0	0	0	0.2983484	12.14551	0	3	100	0	50	1.775519	-1.34775	-80.09334	
17:12:50	0	0	0	0.2983484	12.14551	0	3	100	0	50	1.775114	-1.362903	-80.09422	
17:12:50	0	0	0	0.2983484	12.14551	0	3	100	0	50	1.765979	-1.35567	-80.08093	
17:12:50	0	0	0	0.2983484	12.14551	0	3	100	0	50	1.776684	-1.342965	-80.10684	
17:12:51	0	0	0	0.2983484	12.14551	0	3	100	0	50	1.781404	-1.347187	-80.12489	
17:12:51	0	0	0	-0.07030282	-8.740978	0	3	100	0	50	1.781313	-1.337542	-80.1262	
17:12:51	0	0	0	-0.07030282	-8.740978	0	3	100	0	50	1.758475	-1.334253	-80.11661	
17:12:51	0	0	0	-0.07030282	-8.740978	0	3	100	0	50	1.758254	-1.322653	-80.10039	
17:12:51	0	0	0	-0.07030282	-8.740978	0	3	100	0	50	1.747272	-1.345202	-80.10287	
17:12:52	0	0	0	-0.07030282	-8.740978	0	3	100	0	50	1.761588	-1.295161	-80.07993	
17:12:52	0	0	0	0.01257309	-2.30727	0	3	100	0	50	1.777907	-1.293449	-80.07826	
17:12:52	0	0	0	0.01257309	-2.30727	0	3	100	0	50	1.768102	-1.207243	-80.08891	
17:12:52	0	0	0	0.01257309	-2.30727	0	3	100	0	50	1.849409	-1.295564	-80.10248	
17:12:52	0	0	0	0.01257309	-2.30727	0	3	100	0	50	1.776945	-1.426752	-80.10645	
17:12:53	0	0	0	0.01257309	-2.30727	0	3	100	0	50	1.746016	-1.559248	-80.05999	
17:12:53	0	0	0	0.08208707	2.518076	0	3	100	0	50	1.722136	-1.626917	-80.03886	
17:12:53	0	0	0	0.08208707	2.518076	0	3	100	0	50	1.888762	-1.285882	-79.97343	
17:12:53	0	0	0	0.08208707	2.518076	0	3	100	0	50	1.916059	-1.511441	-80.02614	
17:12:54	0	0	0	0.08208707	2.518076	0	3	100	0	50	1.926851	-1.737	-80.06538	
17:12:54	0	0	0	0.08208707	2.518076	0	3	100	0	50	1.937845	-1.878919	-80.08096	
17:12:54	0	0	0	0.3651717	14.49494	0	3	100	0	50	1.996809	-1.938978	-80.08421	
17:12:54	0	0	0	0.3651717	14.49494	0	3	100	0	50	2.005419	-1.960708	-80.06126	
17:12:54	0	0	0	0.3651717	14.49494	0	3	100	0	50	2.064109	-1.961003	-80.02139	
17:12:55	0	0	0	0.3651717	14.49494	0	3	100	0	50	2.108409	-2.321468	-79.96888	
17:12:55	0	0	0	0.3651717	14.49494	0	3	100	0	50	2.374634	-1.386718	-79.94047	
17:12:55	0	0	0	0.09275568	-6.699883	0	3	100	0	50	2.311876	-2.456996	-79.90865	
17:12:55	0	0	0	0.09275568	-6.699883	0	3	100	0	50	2.23201	-2.427679	-79.8896	
17:12:55	0	0	0	0.09275568	-6.699883	0	3	100	0	50	2.385475	-2.26884	-79.89212	
17:12:56	0	0	0	0.09275568	-6.699883	0	3	100	0	50	2.514851	-1.895125	-79.87016	
17:12:56	0	0	0	0.09275568	-6.699883	0	3	100	0	50	2.341759	-2.903982	-79.88005	
17:12:56	0	0	0	-0.05960465	-10.86052	0	3	100	0	50	2.418016	-2.845903	-79.81277	
17:12:56	0	0	0	-0.05960465	-10.86052	0	3	100	0	50	2.387474	-2.908984	-79.75369	
17:12:56	0	0	0	-0.05960465	-10.86052	0	3	100	0	50	2.404842	-2.940446	-79.69047	
17:12:57	0	0	0	-0.05960465	-10.86052	0	3	100	0	50	2.368104	-3.046243	-79.65681	
17:12:57	0	0	0	-0.05960465	-10.86052	0	3	100	0	50	2.365104	-3.102911	-79.59456	
17:12:57	0	0	0	-0.2046207	-14.81435	0	3	100	0	50	2.386481	-3.156979	-79.54274	
17:12:57	0	0	0	-0.2046207	-14.81435	0	3	100	0	50	2.365851	-3.138766	-79.46889	
17:12:57	0	0	0	-0.2046207	-14.81435	0	3	100	0	50	2.553349	-2.813933	-79.41695	
17:12:58	0	0	0	-0.2046207	-14.81435	0	3	100	0	50	2.382421	-3.299951	-79.42806	
17:12:58	0	0	0	-0.2046207	-14.81435	0	3	100	0	50	2.426827	-3.343447	-79.38274	
17:12:58	0	0	0	-0.2471979	-10.376	0	3	100	0	50	2.420875	-3.356515	-79.33147	
17:12:58	0	0	0	-0.2471979	-10.376	0	3	100	0	50	2.427437	-3.359924	-79.26622	
17:12:58	0	0	0	-0.2471979	-10.376	0	3	100	0	50	2.432906	-3.382719	-79.20757	
17:12:59	0	0	0	-0.2471979	-10.376	0	3	100	0	50	2.417003	-3.390407	-79.15154	
17:12:59	0	0	0	-0.2471979	-10.376	0	3	100	0	50	2.422819	-3.398667	-79.08298	
17:12:59	0	0	0	0.06823429	7.290526	0	3	100	0	50	2.419899	-3.390441	-79.01587	
17:12:59	0	0	0	0.06823429	7.290526	0	3	100	0	50	2.406074	-3.398314	-78.96488	
17:12:59	0	0	0	0.06823429	7.290526	0	3	100	0	50	2.395347	-3.37666	-78.9063	
17:13:00	0	0	0	0.06823429	7.290526	0	3	100	0	50	2.380442	-3.37207	-78.84209	
17:13:00	0	0	0	0.06823429	7.290526	0	3	100	0	50	2.363961	-3.360481	-78.78538	
17:13:00	0	0	0	0.09511847	3.848109	0	3	100	0	50	2.364296	-3.384868	-78.72091	
17:13:00	0	0	0	0.09511847	3.848109	0	3	100	0	50	2.359841	-3.386819	-78.67334	
17:13:00	0	0	0	0.09511847	3.848109	0	3	100	0	50	2.346989	-3.378266	-78.63353	
17:13:01	0	0	0	0.09511847	3.848109	0	3	100	0	50	2.347286	-3.378924	-78.59113	
17:13:01	0	0	0	0.09511847	3.848109	0	3	100	0	50	2.34292	-3.367655	-78.53873	
17:13:01	0	0	0	0.06853221	1.509001	0	3	100	0	50	2.355427	-3.371423	-78.50224	
17:13:01	0	0	0	0.06853221	1.509001	0	3	100	0	50	2.357884	-3.385527	-78.46521	
17:13:01	0	0	0	0.06853221	1.509001	0	3	100	0	50	2.357795	-3.376745	-78.43815	
17:13:02	0	0	0	0.06853221	1.509001	0	3	100	0	50	2.351534	-3.370598	-78.41304	
17:13:02	0	0	0	0.06853221	1.509001	0	3	100	0	50	2.337409	-3.346781	-78.3794	
17:13:02	0	0	0	0.1518878	4.183983	0	3	100	0	50	2.333871	-3.342993	-78.34052	
17:13:02	0	0	0	0.1518878	4.183983	0	3	100	0	50	2.319377	-3.32796	-78.29602	
17:13:02	0	0	0	0.1518878	4.183983	0	3	100	0	50	2.309556	-3.32584	-78.26636	
17:13:03	0	0	0	0.1518878	4.183983	0	3	100	0	50	2.296719	-3.315515	-78.2252	
17:13:03	0	0	0	0.1518878	4.183983	0	3	100	0	50	2.288331	-3.313171	-78.20435	
17:13:03	0	0	0	0.2800951	7.725592	0	3	100	0	50	2.283129	-3.29515	-78.17191	
17:13:03	0	0	0	0.2800951	7.725592	0	3	100	0	50	2.279194	-3.25979	-78.12566	
17:13:03	0	0	0	0.2800951	7.725592	0	3	100	0	50	2.280351	-3.234358	-78.11019	
17:13:04	0	0	0	0.2800951	7.725592	0	3	100	0	50	2.280519	-3.217128	-78.09708	
17:13:04	0	0	0	0.2800951	7.725592	0	3	100	0	50	2.258307	-3.193563	-78.05997	
17:13:04	0	0	0	0.2096478	1.588186	0	3	100	0	50	2.247922	-3.175074	-78.03842	
17:13:04	0	0	0	0.2096478	1.588186	0	3	100	0	50	2.241632	-3.156107	-78.00738	
17:13:04	0	0	0	0.2096478	1.588186	0	3	100	0	50	2.227034	-3.136823	-77.98304	
17:13:05	0	0	0	0.2096478	1.588186	0	3	100	0	50	2.227049	-3.126997	-77.96265	
17:13:05	0	0	0	0.2096478	1.588186	0	3	100	0	50	2.23514	-3.135235	-77.94528	
17:13:05	0	0	0	0.1638387	-2.7487	0	3	100	0	50	2.236302	-3.13192	-77.93302	
17:13:05	0	0	0	0.1638387	-2.7487	0	3	100	0	50	2.244412	-3.132122	-77.92342	
17:13:06	0	0	0	0.1638387	-2.7487	0	3	100	0	50	2.240402	-3.136211	-77.89909	
17:13:06	0	0	0	0.1638387	-2.7487	0	3	100	0	50	2.237483	-3.120862	-77.8959	
17:13:06	0	0	0	0.1638387	-2.7487	0	3	100	0	50	2.227558	-3.103032	-77.89415	
17:13:06	0	0	0	-0.05863185	-13.12485	0	3	100	0	50	2.22226	-3.095698	-77.9133	
17:13:06	0	0	0	-0.05863185	-13.12485	0	3	100	0	50	2.217274	-3.102768	-77.90845	
17:13:07	0	0	0	-0.05863185	-13.12485	0	3	100	0	50	2.223466	-3.087171	-77.90868	
17:13:07	0	0	0	-0.05863185	-13.12485	0	3	100	0	50	2.205879	-3.069309	-77.89344	
17:13:07	0	0	0	-0.05863185	-13.12485	0	3	100	0	50	2.206362	-3.059525	-77.88227	
17:13:07	0	0	0	-0.1934371	-13.41635	0	3	100	0	50	2.200721	-3.048173	-77.87953	
17:13:07	0	0	0	-0.1934371	-13.41635	0	3	100	0	50	2.194115	-3.032367	-77.87905	
17:13:08	0	0	0	-0.1934371	-13.41635	0	3	100	0	50	2.193026	-3.026989	-77.87547	
17:13:08	0	0	0	-0.1934371	-13.41635	0	3	100	0	50	2.191886	-3.005903	-77.88188	
17:13:08	0	0	0	-0.1934371	-13.41635	0	3	100	0	50	2.179414	-2.98878	-77.85805	
17:13:08	0	0	0	-0.1771195	-7.425418	0	3	100	0	50	2.175724	-2.985616	-77.85071	
17:13:08	0	0	0	-0.1771195	-7.425418	0	3	100	0	50	2.15561	-2.962535	-77.83375	
17:13:09	0	0	0	-0.1771195	-7.425418	0	3	100	0	50	2.14303	-2.941006	-77.83449	
17:13:09	0	0	0	-0.1771195	-7.425418	0	3	100	0	50	2.134861	-2.939156	-77.84092	
17:13:09	0	0	0	-0.1771195	-7.425418	0	3	100	0	50	2.128377	-2.942454	-77.84608	
17:13:09	0	0	0	0.2171091	11.57536	0	3	100	0	50	2.120703	-2.934711	-77.84276	
17:13:09	0	0	0	0.2171091	11.57536	0	3	100	0	50	2.135444	-2.939317	-77.84908	
17:13:10	0	0	0	0.2171091	11.57536	0	3	100	0	50	2.138883	-2.921922	-77.85049	
17:13:10	0	0	0	0.2171091	11.57536	0	3	100	0	50	2.125566	-2.89304	-77.8411	
17:13:10	0	0	0	0.2171091	11.57536	0	3	100	0	50	2.124321	-2.867283	-77.85166	
17:13:10	0	0	0	0.4152243	14.74834	0	3	100	0	50	2.103861	-2.847633	-77.83633	
17:13:10	0	0	0	0.4152243	14.74834	0	3	100	0	50	2.08973	-2.819892	-77.83268	
17:13:11	0	0	0	0.4152243	14.74834	0	3	100	0	50	2.078665	-2.808633	-77.82307	
17:13:11	0	0	0	0.4152243	14.74834	0	3	100	0	50	2.06999	-2.798369	-77.82826	
17:13:11	0	0	0	0.4152243	14.74834	0	3	100	0	50	2.062606	-2.781148	-77.83321	
17:13:11	0	0	0	0.30554	3.750373	0	3	100	0	50	2.049499	-2.774335	-77.83275	
17:13:11	0	0	0	0.30554	3.750373	0	3	100	0	50	2.052536	-2.765065	-77.83312	
17:13:12	0	0	0	0.30554	3.750373	0	3	100	0	50	2.063688	-2.754773	-77.84415	
17:13:12	0	0	0	0.30554	3.750373	0	3	100	0	50	2.065741	-2.755062	-77.84808	
17:13:12	0	0	0	0.30554	3.750373	0	3	100	0	50	2.061174	-2.767276	-77.85038	
17:13:12	0	0	0	0.1927651	-1.89157	0	3	100	0	50	2.055173	-2.757895	-77.85925	
17:13:12	0	0	0	0.1927651	-1.89157	0	3	100	0	50	2.047719	-2.753825	-77.85499	
17:13:13	0	0	0	0.1927651	-1.89157	0	3	100	0	50	2.056024	-2.751308	-77.85919	
17:13:13	0	0	0	0.1927651	-1.89157	0	3	100	0	50	2.054306	-2.759394	-77.86135	
17:13:13	0	0	0	0.1927651	-1.89157	0	3	100	0	50	2.042457	-2.747581	-77.85434	
17:13:13	0	0	0	0.04887961	-8.280747	0	3	100	0	50	2.049697	-2.754877	-77.86291	
17:13:13	0	0	0	0.04887961	-8.280747	0	3	100	0	50	2.039192	-2.750956	-77.86753	
17:13:14	0	0	0	0.04887961	-8.280747	0	3	100	0	50	2.04655	-2.752836	-77.86758	
17:13:14	0	0	0	0.04887961	-8.280747	0	3	100	0	50	2.038374	-2.743155	-77.86765	
17:13:14	0	0	0	0.04887961	-8.280747	0	3	100	0	50	2.053988	-2.754064	-77.87469	
17:13:14	0	0	0	-0.01382421	-7.097178	0	3	100	0	50	2.052991	-2.755081	-77.87285	
17:13:14	0	0	0	-0.01382421	-7.097178	0	3	100	0	50	2.053706	-2.737227	-77.87159	
17:13:15	0	0	0	-0.01382421	-7.097178	0	3	100	0	50	2.055366	-2.73023	-77.88215	
17:13:15	0	0	0	-0.01382421	-7.097178	0	3	100	0	50	2.060408	-2.738838	-77.89186	
17:13:15	0	0	0	-0.01382421	-7.097178	0	3	100	0	50	2.062551	-2.7236	-77.89865	
17:13:15	0	0	0	-0.04415568	-5.830495	0	3	100	0	50	2.056594	-2.707808	-77.89748	
17:13:15	0	0	0	-0.04415568	-5.830495	0	3	100	0	50	2.045775	-2.68791	-77.89708	
17:13:16	0	0	0	-0.04415568	-5.830495	0	3	100	0	50	2.05371	-2.673535	-77.90208	
17:13:16	0	0	0	-0.04415568	-5.830495	0	3	100	0	50	2.063669	-2.648192	-77.90337	
17:13:16	0	0	0	-0.04415568	-5.830495	0	3	100	0	50	2.06568	-2.63021	-77.92104	
17:13:16	0	0	0	0.1341466	5.184823	0	3	100	0	50	2.069475	-2.62396	-77.92586	
17:13:16	0	0	0	0.1341466	5.184823	0	3	100	0	50	2.062886	-2.616196	-77.91021	
17:13:17	0	0	0	0.1341466	5.184823	0	3	100	0	50	2.062921	-2.61571	-77.92307	
17:13:17	0	0	0	0.1341466	5.184823	0	3	100	0	50	2.057091	-2.620766	-77.94819	
17:13:17	0	0	0	0.1341466	5.184823	0	3	100	0	50	2.041705	-2.621356	-77.94668	
17:13:17	0	0	0	0.4054653	14.56699	0	3	100	0	50	2.024765	-2.607002	-77.95055	
17:13:17	0	0	0	0.4054653	14.56699	0	3	100	0	50	2.024692	-2.616683	-77.96477	
17:13:18	0	0	0	0.4054653	14.56699	0	3	100	0	50	2.019654	-2.609998	-77.96772	
17:13:18	0	0	0	0.4054653	14.56699	0	3	100	0	50	2.021471	-2.59236	-77.98299	
17:13:18	0	0	0	0.4054653	14.56699	0	3	100	0	50	2.02061	-2.584081	-77.98775	
17:13:18	0	0	0	0.2000867	-0.2899039	0	3	100	0	50	2.008246	-2.587769	-77.99538	
17:13:18	0	0	0	0.2000867	-0.2899039	0	3	100	0	50	1.999187	-2.582406	-78.01093	
17:13:19	0	0	0	0.2000867	-0.2899039	0	3	100	0	50	1.999744	-2.582811	-78.0229	
17:13:19	0	0	0	0.2000867	-0.2899039	0	3	100	0	50	2.01676	-2.610244	-78.03796	
17:13:19	0	0	0	0.2000867	-0.2899039	0	3	100	0	50	2.024182	-2.629724	-78.03322	
17:13:19	0	0	0	-0.004795085	-8.343606	0	3	100	0	50	2.031641	-2.638407	-78.04534	
17:13:20	0	0	0	-0.004795085	-8.343606	0	3	100	0	50	2.047773	-2.647863	-78.08319	
17:13:20	0	0	0	-0.004795085	-8.343606	0	3	100	0	50	2.048007	-2.653637	-78.08222	
17:13:20	0	0	0	-0.004795085	-8.343606	0	3	100	0	50	2.048654	-2.650779	-78.09222	
17:13:20	0	0	0	-0.004795085	-8.343606	0	3	100	0	50	2.05378	-2.665532	-78.08879	
17:13:20	0	0	0	-0.1229169	-9.398552	0	3	100	0	50	2.059498	-2.67583	-78.09406	
17:13:21	0	0	0	-0.1229169	-9.398552	0	3	100	0	50	2.074181	-2.699518	-78.10313	
17:13:21	0	0	0	-0.1229169	-9.398552	0	3	100	0	50	2.082059	-2.699998	-78.10233	
17:13:21	0	0	0	-0.1229169	-9.398552	0	3	100	0	50	2.090277	-2.705765	-78.1066	
17:13:21	0	0	0	-0.1229169	-9.398552	0	3	100	0	50	2.088581	-2.709541	-78.09972	
17:13:21	0	0	0	-0.2004485	-9.585542	0	3	100	0	50	2.096444	-2.711034	-78.10389	
17:13:22	0	0	0	-0.2004485	-9.585542	0	3	100	0	50	2.085023	-2.694182	-78.10189	
17:13:22	0	0	0	-0.2004485	-9.585542	0	3	100	0	50	2.074811	-2.667356	-78.10696	
17:13:22	0	0	0	-0.2004485	-9.585542	0	3	100	0	50	2.058169	-2.640101	-78.11106	
17:13:22	0	0	0	-0.2004485	-9.585542	0	3	100	0	50	2.064981	-2.643185	-78.11364	
17:13:22	0	0	0	-0.2774958	-10.06435	0	3	100	0	50	2.060357	-2.655773	-78.11942	
17:13:23	0	0	0	-0.2774958	-10.06435	0	3	100	0	50	2.058083	-2.659766	-78.11092	
17:13:23	0	0	0	-0.2774958	-10.06435	0	3	100	0	50	2.052832	-2.665371	-78.10162	
17:13:23	0	0	0	-0.2774958	-10.06435	0	3	100	0	50	2.05005	-2.665735	-78.10095	
17:13:23	0	0	0	-0.2774958	-10.06435	0	3	100	0	50	2.06315	-2.681177	-78.11034	
17:13:23	0	0	0	-0.1638816	-0.6160222	0	3	100	0	50	2.061056	-2.705296	-78.09837	
17:13:24	0	0	0	-0.1638816	-0.6160222	0	3	100	0	50	2.077267	-2.72167	-78.1058	
17:13:24	0	0	0	-0.1638816	-0.6160222	0	3	100	0	50	2.094314	-2.738645	-78.1116	
17:13:24	0	0	0	-0.1638816	-0.6160222	0	3	100	0	50	2.100532	-2.756992	-78.1241	
17:13:24	0	0	0	-0.1638816	-0.6160222	0	3	100	0	50	2.11143	-2.764505	-78.13745	
17:13:24	0	0	0	-0.1587721	-1.476135	0	3	100	0	50	2.121199	-2.772692	-78.14142	
17:13:25	0	0	0	-0.1587721	-1.476135	0	3	100	0	50	2.133012	-2.790052	-78.13054	
17:13:25	0	0	0	-0.1587721	-1.476135	0	3	100	0	50	2.142561	-2.790461	-78.13263	
17:13:25	0	0	0	-0.1587721	-1.476135	0	3	100	0	50	2.163006	-2.805319	-78.15764	
17:13:25	0	0	0	-0.1587721	-1.476135	0	3	100	0	50	2.176209	-2.825842	-78.16312	
17:13:25	0	0	0	-0.2748973	-6.104207	0	3	100	0	50	2.172401	-2.829323	-78.16039	
17:13:26	0	0	0	-0.2748973	-6.104207	0	3	100	0	50	2.175808	-2.827759	-78.16579	
17:13:26	0	0	0	-0.2748973	-6.104207	0	3	100	0	50	2.186731	-2.821531	-78.18015	
17:13:26	0	0	0	-0.2748973	-6.104207	0	3	100	0	50	2.198761	-2.836361	-78.17235	
17:13:26	0	0	0	-0.2748973	-6.104207	0	3	100	0	50	2.193496	-2.845495	-78.16885	
17:13:26	0	0	0	-0.3120112	-4.26	0	3	100	0	50	2.201185	-2.880399	-78.16255	
17:13:27	0	0	0	-0.3120112	-4.26	0	3	100	0	50	2.206457	-2.896965	-78.14977	
17:13:27	0	0	0	-0.3120112	-4.26	0	3	100	0	50	2.196021	-2.914715	-78.14206	
17:13:27	0	0	0	-0.3120112	-4.26	0	3	100	0	50	2.200394	-2.940219	-78.11633	
17:13:27	0	0	0	-0.3120112	-4.26	0	3	100	0	50	2.205466	-2.947558	-78.11601	
17:13:27	0	0	0	-0.3023592	-2.00143	0	3	100	0	50	2.205735	-2.951478	-78.12251	
17:13:28	0	0	0	-0.3023592	-2.00143	0	3	100	0	50	2.198359	-2.95349	-78.113	
17:13:28	0	0	0	-0.3023592	-2.00143	0	3	100	0	50	2.171639	-2.933263	-78.0771	
17:13:28	0	0	0	-0.3023592	-2.00143	0	3	100	0	50	2.15779	-2.910611	-78.06831	
17:13:28	0	0	0	-0.3023592	-2.00143	0	3	100	0	50	2.162617	-2.917013	-78.05682	
17:13:28	0	0	0	-0.05848885	9.932384	0	3	100	0	50	2.160523	-2.910008	-78.04525	
17:13:29	0	0	0	-0.05848885	9.932384	0	3	100	0	50	2.172909	-2.906117	-78.04758	
17:13:29	0	0	0	-0.05848885	9.932384	0	3	100	0	50	2.176481	-2.901829	-78.03605	
17:13:29	0	0	0	-0.05848885	9.932384	0	3	100	0	50	2.168827	-2.894671	-78.04605	
17:13:29	0	0	0	-0.05848885	9.932384	0	3	100	0	50	2.169424	-2.89976	-78.04566	
17:13:29	0	0	0	0.009149499	7.94593	0	3	100	0	50	2.170317	-2.901615	-78.05165	
17:13:30	0	0	0	0.009149499	7.94593	0	3	100	0	50	2.165277	-2.911619	-78.04225	
17:13:30	0	0	0	0.009149499	7.94593	0	3	100	0	50	2.160063	-2.89953	-78.05192	
17:13:30	0	0	0	0.009149499	7.94593	0	3	100	0	50	2.162153	-2.907948	-78.0402	
17:13:30	0	0	0	0.009149499	7.94593	0	3	100	0	50	2.158759	-2.902542	-78.03368	
17:13:30	0	0	0	0.1095923	9.977051	0	3	100	0	50	2.158059	-2.907608	-78.02105	
17:13:31	0	0	0	0.1095923	9.977051	0	3	100	0	50	2.146325	-2.898242	-77.99739	
17:13:31	0	0	0	0.1095923	9.977051	0	3	100	0	50	2.133062	-2.895136	-78.00044	
17:13:31	0	0	0	0.1095923	9.977051	0	3	100	0	50	2.122376	-2.883223	-77.98814	
17:13:31	0	0	0	0.1095923	9.977051	0	3	100	0	50	2.119981	-2.882476	-77.99543	
17:13:31	0	0	0	0.2003957	9.528428	0	3	100	0	50	2.122173	-2.873355	-78.00763	
17:13:32	0	0	0	0.2003957	9.528428	0	3	100	0	50	2.127833	-2.85777	-78.00975	
17:13:32	0	0	0	0.2003957	9.528428	0	3	100	0	50	2.117962	-2.844038	-77.99922	
