Date	Latitude(deg) 	Longitude(deg)	hamsl(m)	hafl(m)	climbrate(cm/s)	GroundSpeed(m/s)	Airspeed(m/s)	Mav_Link(%)	Rssi_Link(%)	Throttle	Roll(deg)	Pitch(deg)	Yaw(deg)
15:13:37	0	0	0	0	0	0	0	100	0	0	-1.352442	-3.26247	51.55775	
15:13:37	0	0	0	0.2977358	-7.788678	0	3	100	0	50	-1.354843	-3.226094	51.5165	
15:13:37	0	0	0	0.2977358	-7.788678	0	3	100	0	50	-1.352439	-3.190574	51.48457	
15:13:37	0	0	0	0.2977358	-7.788678	0	3	100	0	50	-1.346465	-3.169187	51.49271	
15:13:38	0	0	0	0.2977358	-7.788678	0	3	100	0	50	-1.357658	-3.175583	51.51583	
15:13:38	0	0	0	0.2977358	-7.788678	0	3	100	0	50	-1.335474	-3.189213	51.55232	
15:13:38	0	0	0	-1.076951	-61.81827	0	3	100	0	50	-1.306162	-3.19947	51.5721	
15:13:38	0	0	0	-1.076951	-61.81827	0	3	100	0	50	-1.342415	-3.194248	51.62254	
15:13:38	0	0	0	-1.076951	-61.81827	0	3	100	0	50	-1.385715	-3.192372	51.64473	
15:13:39	0	0	0	-1.076951	-61.81827	0	3	100	0	50	-1.400881	-3.180524	51.61836	
15:13:39	0	0	0	-1.076951	-61.81827	0	3	100	0	50	-1.399002	-3.153121	51.64468	
15:13:39	0	0	0	-0.2378044	-2.178972	0	3	100	0	50	-1.394949	-3.15601	51.75917	
15:13:39	0	0	0	-0.2378044	-2.178972	0	3	100	0	50	-1.351157	-3.125458	51.84106	
15:13:39	0	0	0	-0.2378044	-2.178972	0	3	100	0	50	-1.311993	-3.115916	51.86275	
15:13:40	0	0	0	-0.2378044	-2.178972	0	3	100	0	50	-1.274577	-3.130603	51.82354	
15:13:40	0	0	0	-0.2378044	-2.178972	0	3	100	0	50	-1.284765	-3.177007	51.79865	
15:13:40	0	0	0	0.1199905	10.99861	0	3	100	0	50	-1.287894	-3.209867	51.74675	
15:13:40	0	0	0	0.1199905	10.99861	0	3	100	0	50	-1.296248	-3.218246	51.82768	
15:13:40	0	0	0	0.1199905	10.99861	0	3	100	0	50	-1.267871	-3.208476	51.74974	
15:13:41	0	0	0	0.1199905	10.99861	0	3	100	0	50	-1.24046	-3.195207	51.81519	
15:13:41	0	0	0	0.1199905	10.99861	0	3	100	0	50	-1.229141	-3.182985	51.86567	
15:13:41	0	0	0	0.2014247	9.517677	0	3	100	0	50	-1.241533	-3.188571	51.92242	
15:13:41	0	0	0	0.2014247	9.517677	0	3	100	0	50	-1.261185	-3.20693	51.98103	
15:13:41	0	0	0	0.2014247	9.517677	0	3	100	0	50	-1.273782	-3.202108	52.03206	
15:13:42	0	0	0	0.2014247	9.517677	0	3	100	0	50	-1.282604	-3.226969	52.07422	
15:13:42	0	0	0	0.2014247	9.517677	0	3	100	0	50	-1.29633	-3.223698	52.10779	
15:13:42	0	0	0	0.1800301	3.759316	0	3	100	0	50	-1.303681	-3.221475	52.15118	
15:13:42	0	0	0	0.1800301	3.759316	0	3	100	0	50	-1.32596	-3.252139	52.20855	
15:13:42	0	0	0	0.1800301	3.759316	0	3	100	0	50	-1.35875	-3.254248	52.2513	
15:13:43	0	0	0	0.1800301	3.759316	0	3	100	0	50	-1.365049	-3.256252	52.28182	
15:13:43	0	0	0	0.1800301	3.759316	0	3	100	0	50	-1.382131	-3.258218	52.3246	
15:13:43	0	0	0	0.2710683	5.186651	0	3	100	0	50	-1.398831	-3.265886	52.37986	
15:13:43	0	0	0	0.2710683	5.186651	0	3	100	0	50	-1.4158	-3.290529	52.42441	
15:13:43	0	0	0	0.2710683	5.186651	0	3	100	0	50	-1.429351	-3.301276	52.4655	
15:13:44	0	0	0	0.2710683	5.186651	0	3	100	0	50	-1.44521	-3.276648	52.4957	
15:13:44	0	0	0	0.2710683	5.186651	0	3	100	0	50	-1.443855	-3.28398	52.53342	
15:13:44	0	0	0	0.442813	10.4464	0	3	100	0	50	-1.438774	-3.260376	52.56855	
15:13:44	0	0	0	0.442813	10.4464	0	3	100	0	50	-1.431839	-3.272579	52.59809	
15:13:44	0	0	0	0.442813	10.4464	0	3	100	0	50	-1.447378	-3.281819	52.62927	
15:13:45	0	0	0	0.442813	10.4464	0	3	100	0	50	-1.452568	-3.285841	52.64669	
15:13:45	0	0	0	0.442813	10.4464	0	3	100	0	50	-1.463385	-3.295678	52.6633	
15:13:45	0	0	0	0.4991463	7.776501	0	3	100	0	50	-1.47429	-3.306665	52.67865	
15:13:45	0	0	0	0.4991463	7.776501	0	3	100	0	50	-1.483801	-3.305645	52.70274	
15:13:45	0	0	0	0.4991463	7.776501	0	3	100	0	50	-1.487591	-3.296997	52.72922	
15:13:46	0	0	0	0.4991463	7.776501	0	3	100	0	50	-1.494896	-3.274412	52.75509	
15:13:46	0	0	0	0.4991463	7.776501	0	3	100	0	50	-1.496704	-3.278303	52.76714	
15:13:46	0	0	0	0.4693835	2.228157	0	3	100	0	50	-1.503483	-3.282056	52.78324	
15:13:46	0	0	0	0.4693835	2.228157	0	3	100	0	50	-1.508072	-3.302278	52.78938	
15:13:46	0	0	0	0.4693835	2.228157	0	3	100	0	50	-1.511041	-3.315472	52.80323	
15:13:47	0	0	0	0.4693835	2.228157	0	3	100	0	50	-1.519124	-3.303767	52.82038	
15:13:47	0	0	0	0.4693835	2.228157	0	3	100	0	50	-1.514038	-3.310823	52.84258	
15:13:47	0	0	0	0.2334084	-11.06483	0	3	100	0	50	-1.501963	-3.315611	52.85451	
15:13:47	0	0	0	0.2334084	-11.06483	0	3	100	0	50	-1.503155	-3.318452	52.87195	
15:13:47	0	0	0	0.2334084	-11.06483	0	3	100	0	50	-1.505272	-3.330459	52.88908	
15:13:48	0	0	0	0.2334084	-11.06483	0	3	100	0	50	-1.508796	-3.33732	52.89049	
15:13:48	0	0	0	0.2334084	-11.06483	0	3	100	0	50	-1.508059	-3.343806	52.8829	
15:13:48	0	0	0	0.5227353	6.259852	0	3	100	0	50	-1.505063	-3.331621	52.87967	
15:13:48	0	0	0	0.5227353	6.259852	0	3	100	0	50	-1.5033	-3.330098	52.8931	
15:13:48	0	0	0	0.5227353	6.259852	0	3	100	0	50	-1.506514	-3.338058	52.89222	
15:13:49	0	0	0	0.5227353	6.259852	0	3	100	0	50	-1.508561	-3.325441	52.91249	
15:13:49	0	0	0	0.5227353	6.259852	0	3	100	0	50	-1.509267	-3.323427	52.91927	
15:13:49	0	0	0	0.3983779	-4.056895	0	3	100	0	50	-1.513551	-3.339194	52.93032	
15:13:49	0	0	0	0.3983779	-4.056895	0	3	100	0	50	-1.511558	-3.349328	52.9305	
15:13:49	0	0	0	0.3983779	-4.056895	0	3	100	0	50	-1.500605	-3.344736	52.94998	
15:13:50	0	0	0	0.3983779	-4.056895	0	3	100	0	50	-1.486651	-3.328513	52.94852	
15:13:50	0	0	0	0.3983779	-4.056895	0	3	100	0	50	-1.479987	-3.337901	52.94392	
15:13:50	0	0	0	0.05944748	-19.10019	0	3	100	0	50	-1.473547	-3.331261	52.94321	
15:13:50	0	0	0	0.05944748	-19.10019	0	3	100	0	50	-1.48155	-3.317857	52.96303	
15:13:50	0	0	0	0.05944748	-19.10019	0	3	100	0	50	-1.468938	-3.291857	52.96676	
15:13:51	0	0	0	0.05944748	-19.10019	0	3	100	0	50	-1.470248	-3.317302	52.96323	
15:13:51	0	0	0	0.05944748	-19.10019	0	3	100	0	50	-1.472684	-3.311276	52.96151	
15:13:51	0	0	0	-0.2938157	-28.08045	0	3	100	0	50	-1.484459	-3.298612	52.96877	
15:13:51	0	0	0	-0.2938157	-28.08045	0	3	100	0	50	-1.481337	-3.293599	52.9795	
15:13:51	0	0	0	-0.2938157	-28.08045	0	3	100	0	50	-1.475888	-3.279793	52.98137	
15:13:52	0	0	0	-0.2938157	-28.08045	0	3	100	0	50	-1.477888	-3.283608	52.98444	
15:13:52	0	0	0	-0.2938157	-28.08045	0	3	100	0	50	-1.47388	-3.277351	52.99604	
15:13:52	0	0	0	-0.07612035	-6.373254	0	3	100	0	50	-1.467847	-3.271463	53.00422	
15:13:52	0	0	0	-0.07612035	-6.373254	0	3	100	0	50	-1.450517	-3.250918	53.01176	
15:13:52	0	0	0	-0.07612035	-6.373254	0	3	100	0	50	-1.449193	-3.249331	53.01232	
15:13:53	0	0	0	-0.07612035	-6.373254	0	3	100	0	50	-1.432987	-3.253505	53.00391	
15:13:53	0	0	0	-0.07612035	-6.373254	0	3	100	0	50	-1.433133	-3.245296	52.99522	
15:13:53	0	0	0	-0.07192616	-4.615202	0	3	100	0	50	-1.426686	-3.236709	52.98005	
15:13:53	0	0	0	-0.07192616	-4.615202	0	3	100	0	50	-1.430242	-3.234776	52.97732	
15:13:53	0	0	0	-0.07192616	-4.615202	0	3	100	0	50	-1.433199	-3.250723	52.96514	
15:13:54	0	0	0	-0.07192616	-4.615202	0	3	100	0	50	-1.428056	-3.248095	52.96212	
15:13:54	0	0	0	-0.07192616	-4.615202	0	3	100	0	50	-1.419191	-3.258277	52.94769	
15:13:54	0	0	0	-0.2591254	-12.18294	0	3	100	0	50	-1.418878	-3.265762	52.94651	
15:13:54	0	0	0	-0.2591254	-12.18294	0	3	100	0	50	-1.431167	-3.259787	52.93965	
15:13:54	0	0	0	-0.2591254	-12.18294	0	3	100	0	50	-1.428893	-3.252924	52.93054	
15:13:55	0	0	0	-0.2591254	-12.18294	0	3	100	0	50	-1.437096	-3.250355	52.93656	
15:13:55	0	0	0	-0.2591254	-12.18294	0	3	100	0	50	-1.439696	-3.260141	52.92861	
15:13:55	0	0	0	-0.4423993	-16.09003	0	3	100	0	50	-1.454262	-3.269577	52.93055	
15:13:55	0	0	0	-0.4423993	-16.09003	0	3	100	0	50	-1.452509	-3.259893	52.92581	
15:13:55	0	0	0	-0.4423993	-16.09003	0	3	100	0	50	-1.451404	-3.269248	52.91945	
15:13:56	0	0	0	-0.4423993	-16.09003	0	3	100	0	50	-1.443067	-3.268943	52.90531	
15:13:56	0	0	0	-0.4423993	-16.09003	0	3	100	0	50	-1.432096	-3.268277	52.89351	
15:13:56	0	0	0	-0.441722	-9.279726	0	3	100	0	50	-1.428296	-3.27763	52.88707	
15:13:56	0	0	0	-0.441722	-9.279726	0	3	100	0	50	-1.425254	-3.277926	52.89107	
15:13:56	0	0	0	-0.441722	-9.279726	0	3	100	0	50	-1.430255	-3.27515	52.89607	
15:13:57	0	0	0	-0.441722	-9.279726	0	3	100	0	50	-1.43206	-3.286733	52.89185	
15:13:57	0	0	0	-0.441722	-9.279726	0	3	100	0	50	-1.42589	-3.284102	52.88586	
15:13:57	0	0	0	-0.5316442	-10.46043	0	3	100	0	50	-1.424773	-3.278682	52.89931	
15:13:57	0	0	0	-0.5316442	-10.46043	0	3	100	0	50	-1.423584	-3.268964	52.90498	
15:13:57	0	0	0	-0.5316442	-10.46043	0	3	100	0	50	-1.429313	-3.252751	52.89745	
15:13:58	0	0	0	-0.5316442	-10.46043	0	3	100	0	50	-1.435802	-3.253134	52.88948	
15:13:58	0	0	0	-0.5316442	-10.46043	0	3	100	0	50	-1.43177	-3.249969	52.86018	
15:13:58	0	0	0	-0.6938254	-14.91656	0	3	100	0	50	-1.413836	-3.241477	52.83455	
15:13:58	0	0	0	-0.6938254	-14.91656	0	3	100	0	50	-1.390207	-3.218853	52.80499	
15:13:58	0	0	0	-0.6938254	-14.91656	0	3	100	0	50	-1.379581	-3.226026	52.77855	
15:13:59	0	0	0	-0.6938254	-14.91656	0	3	100	0	50	-1.379806	-3.233959	52.7603	
15:13:59	0	0	0	-0.6938254	-14.91656	0	3	100	0	50	-1.378935	-3.236512	52.74442	
15:13:59	0	0	0	-0.5158614	-0.4185697	0	3	100	0	50	-1.368072	-3.256222	52.72347	
15:13:59	0	0	0	-0.5158614	-0.4185697	0	3	100	0	50	-1.364773	-3.248765	52.7081	
15:13:59	0	0	0	-0.5158614	-0.4185697	0	3	100	0	50	-1.355695	-3.246047	52.68283	
15:14:00	0	0	0	-0.5158614	-0.4185697	0	3	100	0	50	-1.351845	-3.228976	52.67148	
15:14:00	0	0	0	-0.5158614	-0.4185697	0	3	100	0	50	-1.35534	-3.229102	52.66916	
15:14:00	0	0	0	-0.3794011	5.327083	0	3	100	0	50	-1.356841	-3.227904	52.64504	
15:14:00	0	0	0	-0.3794011	5.327083	0	3	100	0	50	-1.361251	-3.230654	52.64645	
15:14:00	0	0	0	-0.3794011	5.327083	0	3	100	0	50	-1.364038	-3.235289	52.63473	
15:14:01	0	0	0	-0.3794011	5.327083	0	3	100	0	50	-1.357107	-3.239651	52.62225	
15:14:01	0	0	0	-0.3794011	5.327083	0	3	100	0	50	-1.357889	-3.223533	52.60156	
15:14:01	0	0	0	-0.5994537	-7.294275	0	3	100	0	50	-1.352987	-3.201158	52.58003	
15:14:01	0	0	0	-0.5994537	-7.294275	0	3	100	0	50	-1.346669	-3.222239	52.56086	
15:14:01	0	0	0	-0.5994537	-7.294275	0	3	100	0	50	-1.344156	-3.207593	52.54875	
15:14:02	0	0	0	-0.5994537	-7.294275	0	3	100	0	50	-1.332965	-3.201756	52.54666	
