Date	Latitude(deg) 	Longitude(deg)	hamsl(m)	hafl(m)	climbrate(cm/s)	GroundSpeed(m/s)	Airspeed(m/s)	Mav_Link(%)	Rssi_Link(%)	Throttle	Roll(deg)	Pitch(deg)	Yaw(deg)
14:16:21	-6.728604	38.94617	134.171	0	0	0.09	0	100	0	0	32.60035	11.00431	-106.9042	
14:16:21	-6.728604	38.94617	134.171	0.3749031	-0.5052013	0.09	3	100	0	6546	33.16606	11.35788	-106.781	
14:16:21	-6.728601	38.94616	133.602	0.3725863	-1.838777	0.04	3	100	0	6546	33.10126	11.34539	-106.7898	
14:16:21	-6.728602	38.94616	133.583	-0.06428799	-26.26534	0.04	3	100	0	6547	33.04224	11.3465	-106.8055	
14:16:21	-6.728602	38.94616	133.567	-0.4589239	-46.2807	0.06	3	100	0	6546	33.07061	11.34448	-106.787	
14:16:21	-6.728602	38.94616	133.555	-0.8235093	-62.66352	0.06	3	100	0	6546	33.04019	11.29261	-106.7825	
14:16:22	-6.728601	38.94616	133.579	-1.116848	-74.49545	0.16	3	100	0	6546	32.98065	11.33415	-106.7688	
14:16:22	-6.728602	38.94616	133.553	-1.273525	-76.78407	0.18	3	100	0	6547	32.81186	11.29137	-106.7936	
14:16:22	-6.728602	38.94616	133.58	-1.405279	-77.89975	0.04	3	100	0	6546	32.85718	11.20373	-106.7922	
14:16:22	-6.728602	38.94616	133.608	-1.229695	-62.22739	0.13	3	100	0	6546	32.92124	11.15132	-106.7734	
14:16:22	-6.728602	38.94616	133.612	-1.059394	-48.73172	0.04	3	100	0	6546	32.92958	11.18051	-106.7744	
14:16:22	-6.728602	38.94616	133.591	-0.8142331	-32.19035	0.14	3	100	0	6546	32.97295	11.18959	-106.7557	
14:16:23	-6.728602	38.94616	133.587	-0.6064834	-19.19203	0.08	3	100	0	6546	32.94816	11.08646	-106.7652	
14:16:23	-6.728602	38.94616	133.555	-0.4570565	-10.72292	0.14	3	100	0	6546	33.07842	10.9774	-106.7365	
14:16:23	-6.728602	38.94616	133.512	-0.3189794	-2.948354	0.13	3	100	0	6546	33.16903	10.99656	-106.7152	
14:16:23	-6.728602	38.94616	133.546	-0.1419598	5.46001	0.04	3	100	0	6546	33.07959	11.02586	-106.7107	
14:16:24	-6.728602	38.94616	133.545	2.932176E-05	10.94997	0.07	3	100	0	6546	32.95818	10.9587	-106.7141	
14:16:24	-6.728602	38.94616	133.552	0.125805	15.99185	0.14	3	100	0	6546	32.89613	10.99796	-106.7242	
14:16:24	-6.728602	38.94616	133.53	0.2150497	18.09288	0.17	3	100	0	6546	32.82141	11.05507	-106.7325	
14:16:24	-6.728603	38.94616	133.53	0.2791505	18.40951	0.02	3	100	0	6546	32.84986	10.96561	-106.7165	
14:16:24	-6.728603	38.94616	133.525	0.3143821	16.90516	0.12	3	100	0	6546	32.84297	10.85747	-106.7102	
14:16:25	-6.728603	38.94616	133.527	0.344716	15.66875	0.14	3	100	0	6546	32.82733	10.73296	-106.6912	
14:16:25	-6.728603	38.94616	133.554	0.3659492	14.4963	0.04	3	100	0	6546	32.87641	10.68421	-106.6571	
14:16:25	-6.728603	38.94616	133.534	0.3610841	11.8562	0.11	3	100	0	6546	32.82391	10.70523	-106.6436	
14:16:25	-6.728603	38.94616	133.521	0.3330384	8.053609	0.12	3	100	0	6546	32.84552	10.655	-106.6153	
14:16:25	-6.728604	38.94616	133.48	0.3116826	5.090776	0.22	3	100	0	6546	32.79519	10.66413	-106.6192	
14:16:26	-6.728604	38.94616	133.497	0.2962627	3.009334	0.12	3	100	0	6546	32.71035	10.60848	-106.6202	
14:16:26	-6.728604	38.94616	133.532	0.2788327	0.797727	0.08	3	100	0	6546	32.77252	10.56005	-106.5902	
14:16:26	-6.728603	38.94616	133.558	0.2608962	-1.721739	0.07	3	100	0	6546	32.82959	10.61789	-106.5633	
14:16:26	-6.728603	38.94616	133.573	0.2632034	-1.978283	0.19	3	100	0	6546	32.79641	10.53452	-106.5797	
14:16:26	-6.728604	38.94616	133.552	0.2942508	-1.367315	0.08	3	100	0	6546	32.7037	10.52792	-106.5782	
14:16:27	-6.728604	38.94616	133.549	0.2972731	-2.189556	0.12	3	100	0	6546	32.70773	10.55069	-106.5536	
14:16:27	-6.728604	38.94616	133.547	0.2719869	-4.097424	0.18	3	100	0	6546	32.81649	10.46951	-106.5043	
14:16:27	-6.728604	38.94616	133.501	0.225407	-7.253298	0.06	3	100	0	6546	32.81099	10.49145	-106.5083	
14:16:27	-6.728604	38.94616	133.505	0.1607836	-10.97429	0.19	3	100	0	6546	32.57849	10.547	-106.5316	
14:16:27	-6.728605	38.94616	133.518	0.1140928	-12.95147	0.36	3	100	0	6545	32.38754	10.6264	-106.5345	
14:16:27	-6.728605	38.94616	133.528	0.08664298	-14.31614	0.36	3	100	0	6545	32.32647	10.48476	-106.5418	
14:16:28	-6.728606	38.94616	133.507	0.06118746	-15.12638	0.33	3	100	0	6546	32.34116	10.392	-106.5204	
14:16:28	-6.728606	38.94616	133.542	0.0407615	-15.61898	0.34	3	100	0	6546	32.36932	10.29432	-106.5139	
14:16:28	-6.728606	38.94616	133.515	0.02750078	-16.12512	0.55	3	100	0	6546	32.28074	10.09464	-106.4966	
14:16:28	-6.728606	38.94616	133.486	0.01513033	-15.9748	0.58	3	100	0	6546	32.16124	10.00323	-106.5069	
14:16:28	-6.728606	38.94616	133.441	0.006414763	-15.83929	0.45	3	100	0	6546	32.20157	10.06682	-106.4776	
14:16:28	-6.728606	38.94616	133.373	-0.004563837	-15.47365	0.29	3	100	0	6546	32.30091	10.20814	-106.4379	
14:16:29	-6.728606	38.94616	133.297	-0.01309623	-15.21498	0.04	3	100	0	6546	32.52274	10.32401	-106.3875	
14:16:29	-6.728607	38.94616	133.204	-0.01712726	-14.61796	0.03	3	100	0	6546	32.67236	10.33133	-106.346	
14:16:29	-6.728607	38.94616	133.16	-0.0197498	-14.49931	0.17	3	100	0	6546	32.6935	10.43021	-106.301	
14:16:30	-6.728608	38.94616	133.114	0.003690382	-11.80228	0.25	3	100	0	6546	32.84541	10.45212	-106.2677	
14:16:30	-6.728608	38.94616	133.087	0.02676982	-10.2924	0.06	3	100	0	6546	32.7788	10.34681	-106.2673	
14:16:30	-6.728608	38.94617	133.068	-0.04354455	-13.59103	0.17	3	100	0	6546	32.63085	10.37377	-106.2767	
14:16:30	-6.728608	38.94617	133.048	-0.1059515	-16.12044	0.12	3	100	0	6546	32.55897	10.38442	-106.2934	
14:16:30	-6.728608	38.94617	133.047	-0.09262533	-14.7601	0.09	3	100	0	6546	32.50777	10.32824	-106.2718	
14:16:31	-6.728609	38.94617	133.05	-0.0807629	-13.68367	0.08	3	100	0	6546	32.50025	10.22705	-106.2557	
14:16:31	-6.728609	38.94617	133.048	-0.09945779	-14.261	0.12	3	100	0	6546	32.47897	10.14707	-106.2375	
14:16:31	-6.728609	38.94617	133.029	-0.1150022	-14.03265	0.09	3	100	0	6546	32.47766	10.22823	-106.2284	
14:16:31	-6.72861	38.94617	132.982	-0.1293499	-13.90595	0.03	3	100	0	6546	32.52825	10.24442	-106.1972	
14:16:31	-6.72861	38.94617	132.975	-0.139707	-13.86966	0.18	3	100	0	6546	32.53341	10.08079	-106.1714	
14:16:31	-6.72861	38.94617	132.963	-0.1790906	-15.50826	0.08	3	100	0	6546	32.52254	10.15999	-106.1685	
14:16:32	-6.72861	38.94617	132.985	-0.2143997	-16.90408	0.11	3	100	0	6547	32.56355	10.31509	-106.1287	
14:16:32	-6.72861	38.94617	132.969	-0.235493	-16.93935	0.03	3	100	0	6546	32.57442	10.24886	-106.1057	
14:16:32	-6.72861	38.94617	132.969	-0.2493387	-17.09815	0.11	3	100	0	6546	32.53152	10.266	-106.0838	
14:16:32	-6.72861	38.94617	132.999	-0.2137537	-14.9755	0.07	3	100	0	6546	32.48006	10.26123	-106.0854	
14:16:32	-6.72861	38.94617	132.999	-0.1838089	-12.80128	0.17	3	100	0	6546	32.61324	10.22918	-106.0393	
14:16:33	-6.72861	38.94617	132.997	-0.1587726	-11.39631	0.21	3	100	0	6546	32.7277	10.16957	-106.0073	
14:16:33	-6.72861	38.94617	133.012	-0.1354995	-9.530924	0.13	3	100	0	6546	32.62103	10.22958	-106.0016	
14:16:33	-6.728611	38.94617	132.971	-0.1365204	-9.077003	0.18	3	100	0	6546	32.59036	10.29745	-105.9917	
14:16:33	-6.728611	38.94617	132.953	-0.1368628	-9.021146	0.06	3	100	0	6546	32.51859	10.2555	-106.0005	
14:16:33	-6.728611	38.94617	132.962	-0.118181	-7.624501	0.19	3	100	0	6546	32.62455	10.11242	-105.9662	
14:16:34	-6.728611	38.94617	133.004	-0.07404986	-5.554229	0.26	3	100	0	6546	32.69175	10.23996	-105.9505	
14:16:34	-6.728611	38.94617	133.043	-0.04418034	-4.012277	0.25	3	100	0	6546	32.71196	10.30465	-105.9149	
14:16:34	-6.728611	38.94617	133.068	-0.03415431	-3.471742	0.34	3	100	0	6546	32.7875	10.29635	-105.8771	
14:16:34	-6.728611	38.94617	133.091	-0.03284954	-3.179166	0.14	3	100	0	6546	32.59711	10.3494	-105.8951	
14:16:35	-6.728611	38.94617	133.163	-0.03898023	-3.980015	0.18	3	100	0	6546	28.49127	11.23503	-105.7054	
14:16:35	-6.728611	38.94617	133.22	-0.038254	-4.766602	0.36	3	100	0	6546	21.56009	13.48279	-105.3387	
14:16:35	-6.728611	38.94617	133.268	-0.03606623	-6.614359	0.28	3	100	0	6546	16.09612	14.72369	-105.794	
14:16:35	-6.72861	38.94617	133.35	-0.01492051	-3.34124	0.39	3	100	0	6546	17.11226	14.91158	-106.1697	
14:16:35	-6.72861	38.94617	133.435	0.01404834	-1.835707	0.19	3	100	0	6546	16.1088	14.83171	-106.4258	
14:16:35	-6.72861	38.94617	133.499	0.05486129	-0.2158538	0.47	3	100	0	6547	16.65504	15.11598	-106.9832	
14:16:36	-6.728611	38.94617	133.527	0.09447389	2.232411	0.11	3	100	0	6546	14.40119	15.35279	-107.5616	
14:16:36	-6.728611	38.94617	133.527	0.1377961	3.893185	0.11	3	100	0	6546	12.71114	15.44888	-108.076	
14:16:36	-6.728611	38.94617	133.602	0.1734569	5.652765	0.08	3	100	0	6547	9.973167	15.59903	-108.7078	
14:16:36	-6.728611	38.94617	133.586	0.1914613	6.892968	0.26	3	100	0	6546	7.883209	15.57631	-108.7249	
14:16:36	-6.728611	38.94617	133.607	0.198095	7.034724	0.24	3	100	0	6546	11.05319	15.46658	-109.235	
14:16:36	-6.728611	38.94617	133.607	0.2219476	8.204864	0.24	3	100	0	6546	19.02077	15.30897	-109.5313	
14:16:37	-6.728611	38.94617	133.535	0.2546327	8.958919	0.16	3	100	0	6546	23.47054	13.30963	-110.3103	
14:16:37	-6.728611	38.94617	133.472	0.2924709	9.492658	0.26	3	100	0	6546	16.7513	14.32718	-109.3078	
14:16:37	-6.728611	38.94617	133.475	0.3269851	6.210802	0.56	3	100	0	6546	7.290162	15.58462	-109.2855	
14:16:37	-6.728611	38.94617	133.475	0.3533943	9.187284	0.56	3	100	0	6548	10.76389	15.52336	-109.9788	
14:16:38	-6.728613	38.94617	133.258	0.3533943	9.187284	0.29	3	94	0	6548	12.13506	15.87065	-111.4867	
14:16:38	-6.728613	38.94617	133.194	0.3527769	5.709562	0.32	3	94	0	6546	19.77957	15.23316	-111.4787	
14:16:39	-6.728613	38.94617	133.099	0.3774901	6.778324	0.36	3	94	0	6546	25.34024	13.49895	-111.8027	
14:16:39	-6.728614	38.94617	133.012	0.4350623	7.437471	0.19	3	94	0	6547	30.35471	12.02958	-112.1104	
14:16:39	-6.728614	38.94617	133.01	0.4839416	9.383316	0.13	3	94	0	6546	30.39403	12.0572	-111.8844	
14:16:39	-6.728614	38.94617	132.999	0.5379964	10.18794	0.25	3	94	0	6546	30.63171	11.94947	-111.7499	
14:16:40	-6.728615	38.94617	132.984	0.5847982	10.97498	0.24	3	94	0	6546	30.62215	11.87329	-111.6217	
14:16:40	-6.728615	38.94617	132.925	0.4680091	2.702894	0.32	3	94	0	6546	30.67867	11.84321	-111.4972	
14:16:40	-6.728616	38.94617	132.879	0.3674434	-3.307873	0.19	3	94	0	6545	30.68683	11.77457	-111.3745	
14:16:40	-6.728616	38.94616	132.885	0.2459444	-9.926473	0.17	3	94	0	6546	30.97788	11.56578	-111.1902	
14:16:40	-6.728616	38.94616	132.828	0.1461208	-14.52782	0.21	3	95	0	6546	31.15382	11.46172	-111.0357	
14:16:40	-6.728616	38.94616	132.912	0.06601913	-17.54875	0.18	3	95	0	6546	31.1087	11.56079	-110.9118	
14:16:41	-6.728616	38.94616	132.871	-0.004924402	-20.08803	0.14	3	95	0	6546	31.42048	11.54344	-110.7469	
14:16:41	-6.728617	38.94616	132.783	-0.04069523	-20.71565	0.41	3	95	0	6546	31.53598	11.47646	-110.6108	
14:16:41	-6.728618	38.94616	132.734	-0.07037633	-20.51247	0.25	3	95	0	6546	31.68168	11.65041	-110.4859	
14:16:41	-6.728618	38.94616	132.734	-0.0692872	-18.3733	0.33	3	95	0	6547	31.72692	11.47336	-110.3762	
14:16:42	-6.728619	38.94616	132.669	-0.06503155	-17.0732	0.29	3	95	0	6546	31.81108	11.39364	-110.2664	
14:16:42	-6.728619	38.94616	132.63	-0.05841697	-15.46906	0.19	3	95	0	6546	31.85144	11.27186	-110.1652	
14:16:42	-6.728619	38.94616	132.596	-0.04945989	-13.64993	0.28	3	95	0	6546	31.69857	11.22278	-110.1152	
14:16:42	-6.728619	38.94616	132.591	-0.0321404	-12.29032	0.14	3	95	0	6546	31.87301	10.98625	-110.0008	
14:16:42	-6.72862	38.94616	132.549	-0.01714421	-10.54486	0.07	3	95	0	6546	31.77768	10.91577	-109.9215	
14:16:43	-6.72862	38.94616	132.524	-0.03060889	-10.14373	0.09	3	95	0	6546	31.66685	10.92539	-109.8715	
14:16:43	-6.728621	38.94616	132.464	-0.04065059	-10.27431	0.18	3	95	0	6546	31.72054	10.90753	-109.7792	
14:16:43	-6.728621	38.94616	132.474	-0.03421516	-9.413404	0.11	3	95	0	6546	31.90681	10.77085	-109.6549	
14:16:43	-6.728621	38.94616	132.387	-0.02723946	-8.607651	0.07	3	95	0	6546	31.91875	10.66208	-109.5741	
14:16:44	-6.728621	38.94616	132.384	-0.001552241	-7.008136	0.11	3	95	0	6546	31.87088	10.55812	-109.4913	
14:16:44	-6.728621	38.94616	132.334	0.04998836	-3.97246	0.03	3	96	0	6546	31.95347	10.47723	-109.3898	
14:16:44	-6.728622	38.94616	132.33	0.08582166	-2.406743	0.08	3	96	0	6546	31.88324	10.5052	-109.3363	
14:16:44	-6.728622	38.94616	132.315	0.1027691	-1.345927	0.21	3	96	0	6546	31.84619	10.41507	-109.2387	
14:16:44	-6.728622	38.94616	132.313	0.113747	-1.257453	0.11	3	96	0	6546	32.09821	10.42876	-109.1111	
14:16:45	-6.728622	38.94616	132.289	0.118354	-0.7006327	0.04	3	96	0	6546	32.02225	10.32209	-109.0327	
14:16:45	-6.728622	38.94616	132.306	0.103041	-1.349842	0.26	3	96	0	6546	31.87613	10.35772	-108.9833	
14:16:45	-6.728623	38.94616	132.273	0.06998327	-3.498839	0.31	3	96	0	6546	31.63719	10.19139	-108.9443	
14:16:45	-6.728623	38.94616	132.302	0.05007936	-5.013008	0.42	3	96	0	6546	31.655	10.04777	-108.8536	
14:16:45	-6.728623	38.94616	132.348	0.04186502	-5.151902	0.36	3	96	0	6546	31.54687	10.06418	-108.7802	
14:16:45	-6.728623	38.94616	132.339	0.04205494	-5.485948	0.36	3	96	0	6546	31.62614	10.14538	-108.6697	
14:16:46	-6.728624	38.94616	132.322	0.05225063	-4.312976	0.35	3	96	0	6546	31.7352	10.03098	-108.5621	
14:16:46	-6.728624	38.94616	132.281	0.07215802	-3.545392	0.38	3	96	0	6546	31.821	9.968836	-108.4499	
14:16:46	-6.728625	38.94616	132.247	0.1038001	-2.037763	0.12	3	96	0	6546	31.74954	10.16161	-108.3908	
14:16:46	-6.728625	38.94616	132.189	0.1341109	-0.401686	0.04	3	96	0	6546	32.00454	10.1442	-108.2811	
14:16:46	-6.728626	38.94616	132.183	0.1639529	1.241966	0.13	3	96	0	6546	32.19159	10.2254	-108.1531	
14:16:46	-6.728625	38.94616	132.227	0.1823585	2.012093	0.11	3	96	0	6546	32.14754	10.02583	-108.1034	
14:16:47	-6.728625	38.94616	132.226	0.1903083	1.698503	0.09	3	96	0	6546	32.14404	10.04196	-108.0359	
14:16:47	-6.728626	38.94616	132.193	0.184188	1.31189	0.11	3	96	0	6546	32.17225	10.07967	-107.9363	
14:16:47	-6.728626	38.94616	132.13	0.167377	0.1925753	0.06	3	96	0	6546	32.18355	10.04342	-107.8611	
14:16:47	-6.728626	38.94616	132.112	0.159949	-1.204053	0.04	3	96	0	6546	32.22898	10.08551	-107.7754	
14:16:47	-6.728626	38.94616	132.105	0.163986	-0.8141783	0.16	3	96	0	6546	32.36831	10.0751	-107.6707	
14:16:48	-6.728626	38.94616	132.143	0.1557215	-1.036538	0.12	3	96	0	6548	32.49893	9.956918	-107.5523	
14:16:48	-6.728625	38.94616	132.167	0.1310831	-2.518	0.28	3	96	0	6546	32.52323	10.0071	-107.4581	
14:16:48	-6.728625	38.94616	132.225	0.1090439	-3.21146	0.36	3	97	0	6546	32.21487	9.791056	-107.4263	
14:16:48	-6.728625	38.94616	132.275	0.08625644	-4.352066	0.42	3	97	0	6546	32.0093	9.831511	-107.3861	
14:16:48	-6.728625	38.94616	132.268	0.06645972	-5.59395	0.41	3	97	0	6546	31.98361	9.722816	-107.3107	
14:16:49	-6.728625	38.94616	132.209	0.05998789	-5.88837	0.51	3	97	0	6546	31.98329	9.796234	-107.2307	
14:16:49	-6.728626	38.94616	132.134	0.05604989	-4.491976	0.39	3	97	0	6546	31.89321	9.836782	-107.1577	
14:16:49	-6.728626	38.94616	132.109	0.06322403	-3.741565	0.32	3	97	0	6546	31.99347	9.924855	-107.0654	
14:16:49	-6.728626	38.94616	132.074	0.07001609	-3.356158	0.24	3	97	0	6546	32.17782	9.815352	-106.9624	
14:16:49	-6.728626	38.94616	132.064	0.1068342	-1.459567	0.06	3	97	0	6546	32.24953	9.898787	-106.8829	
14:16:50	-6.728626	38.94616	132.02	0.1402915	0.04181943	0.17	3	97	0	6546	32.52647	10.0246	-106.7627	
14:16:50	-6.728626	38.94616	131.985	0.1400073	-0.3501601	0.04	3	97	0	6546	32.65586	10.09102	-106.6648	
14:16:50	-6.728626	38.94616	131.971	0.1389499	-0.7924749	0.07	3	97	0	6546	32.57478	10.0382	-106.6295	
14:16:50	-6.728626	38.94616	131.976	0.123384	-1.914198	0.19	3	97	0	6546	32.62247	10.01937	-106.5613	
14:16:51	-6.728627	38.94616	131.968	0.1112662	-2.555342	0.26	3	97	0	6546	32.70461	10.16143	-106.4854	
14:16:51	-6.728627	38.94616	131.97	0.08286179	-3.856497	0.42	3	97	0	6546	32.80505	10.12829	-106.4141	
14:16:51	-6.728627	38.94616	132.009	0.06015331	-4.800706	0.39	3	97	0	6546	32.95837	10.2168	-106.3384	
14:16:51	-6.728627	38.94616	132.03	0.04289553	-5.476504	0.18	3	97	0	6546	32.99053	10.18595	-106.2535	
14:16:51	-6.728626	38.94616	132.134	0.02457615	-6.170769	0.28	3	97	0	6546	32.64156	10.10805	-106.2522	
14:16:51	-6.728626	38.94616	132.141	-0.02417725	-8.928805	0.12	3	97	0	6546	32.7398	10.09194	-106.1773	
14:16:52	-6.728626	38.94616	132.145	-0.06866655	-11.04793	0.44	3	97	0	6546	32.13036	9.862588	-106.2392	
14:16:52	-6.728626	38.94616	132.166	-0.09433211	-12.28851	0.17	3	97	0	6546	31.70375	10.0281	-106.2711	
14:16:52	-6.728626	38.94616	132.178	-0.1161024	-12.13764	0.11	3	97	0	6546	32.02723	10.01609	-106.1555	
14:16:52	-6.728626	38.94616	132.208	-0.06947714	-8.874318	0.21	3	97	0	6546	32.29792	9.910445	-106.0241	
14:16:52	-6.728626	38.94616	132.199	-0.02664794	-6.144414	0.25	3	97	0	6546	32.03672	9.899159	-106.0141	
14:16:53	-6.728627	38.94616	132.14	0.04099146	-2.037616	0.14	3	97	0	6546	31.97134	9.978029	-105.98	
14:16:53	-6.728626	38.94616	132.144	0.1031821	1.384697	0.14	3	97	0	6546	32.17791	9.925002	-105.899	
14:16:53	-6.728626	38.94616	132.126	0.1286366	2.880302	0.19	3	97	0	6546	32.15388	9.98445	-105.83	
14:16:53	-6.728626	38.94616	132.116	0.1208751	1.751149	0.09	3	97	0	6546	32.09061	10.17762	-105.7981	
14:16:54	-6.728626	38.94616	132.155	0.0853769	-0.7272327	0.07	3	97	0	6546	32.36982	10.22219	-105.7035	
14:16:54	-6.728626	38.94616	132.15	0.02622559	-3.802095	0.14	3	97	0	6546	32.25357	10.20859	-105.6869	
14:16:54	-6.728626	38.94616	132.171	-0.01949042	-6.36241	0.02	3	97	0	6546	32.4954	10.1734	-105.6282	
14:16:54	-6.728626	38.94616	132.165	-0.05392558	-8.070942	0.04	3	97	0	6546	32.3304	10.20221	-105.6235	
14:16:54	-6.728626	38.94616	132.124	-0.03579795	-6.442797	0.09	3	97	0	6546	32.3261	10.25562	-105.6054	
14:16:55	-6.728626	38.94616	132.116	0.01200182	-3.473735	0.04	3	97	0	6546	32.46601	10.26192	-105.5415	
14:16:55	-6.728626	38.94616	132.098	0.05604217	-1.568794	0.22	3	97	0	6546	32.414	10.24251	-105.5182	
14:16:55	-6.728626	38.94616	132.066	0.09225699	-0.09032831	0.18	3	97	0	6546	32.62639	10.22474	-105.4571	
14:16:55	-6.728626	38.94616	132.047	0.1137339	1.109852	0.22	3	98	0	6546	32.57634	10.3202	-105.4182	
14:16:56	-6.728625	38.94616	132.065	0.1132567	0.9694902	0.19	3	98	0	6546	32.63603	10.3107	-105.3591	
14:16:56	-6.728625	38.94616	132.071	0.1224883	0.6130739	0.13	3	98	0	6546	32.60725	10.30958	-105.3317	
14:16:56	-6.728625	38.94616	132.098	0.1477456	1.780369	0.04	3	98	0	6546	32.44318	10.43507	-105.3365	
14:16:56	-6.728625	38.94616	132.103	0.1738309	2.573361	0.08	3	98	0	6546	32.36326	10.36887	-105.328	
14:16:56	-6.728624	38.94616	132.083	0.2014741	4.359465	0.17	3	98	0	6546	32.30825	10.4593	-105.3277	
14:16:57	-6.728624	38.94616	132.06	0.2324457	5.529522	0.04	3	98	0	6546	32.50607	10.4317	-105.2528	
14:16:57	-6.728624	38.94616	132.07	0.2627839	6.105542	0.07	3	98	0	6546	32.36124	10.42103	-105.2579	
14:16:57	-6.728624	38.94616	132.085	0.2832037	6.409612	0.19	3	98	0	6546	32.38114	10.37152	-105.2156	
14:16:57	-6.728624	38.94616	132.113	0.2998203	6.413566	0.09	3	98	0	6546	32.39068	10.66723	-105.1951	
14:16:57	-6.728624	38.94616	132.095	0.3138352	6.52019	0.07	3	98	0	6546	32.38654	10.59167	-105.1568	
14:16:57	-6.728624	38.94616	132.111	0.3234806	6.999748	0.09	3	98	0	6546	32.32883	10.44973	-105.1342	
14:16:58	-6.728624	38.94616	132.147	0.3156309	5.818686	0.28	3	98	0	6546	32.48594	10.58605	-105.0787	
14:16:58	-6.728624	38.94616	132.191	0.2826017	2.708868	0	3	98	0	6546	32.22023	10.75907	-105.118	
14:16:58	-6.728624	38.94616	132.186	0.2535273	0.8068731	0.08	3	98	0	6546	32.46903	10.61295	-105.0426	
14:16:58	-6.728624	38.94616	132.216	0.2205573	-1.09111	0.12	3	98	0	6546	32.53535	10.58527	-105.0095	
14:16:59	-6.728624	38.94616	132.243	0.1833718	-3.470986	0.26	3	98	0	6547	32.56427	10.76536	-105.0011	
14:16:59	-6.728623	38.94616	132.314	0.1606716	-4.25774	0.16	3	98	0	6546	32.73755	10.68303	-104.9703	
14:16:59	-6.728623	38.94616	132.335	0.1407174	-5.227778	0.19	3	98	0	6546	32.54691	10.85658	-104.9918	
14:16:59	-6.728622	38.94616	132.417	0.1033038	-7.008325	0.16	3	98	0	6546	32.68751	10.77001	-104.9569	
14:16:59	-6.728622	38.94616	132.456	0.06264272	-8.62324	0.16	3	98	0	6546	32.66339	10.74012	-104.9498	
14:17:00	-6.728622	38.94616	132.501	0.01586501	-10.58033	0.14	3	98	0	6546	32.64703	10.76022	-104.9336	
14:17:00	-6.728622	38.94616	132.499	-0.02175872	-11.87125	0.12	3	98	0	6546	32.61501	10.75179	-104.9415	
14:17:00	-6.728621	38.94616	132.57	-0.02270931	-11.31894	0.11	3	98	0	6546	32.55297	10.7897	-104.9442	
14:17:00	-6.728621	38.94616	132.572	-0.02245554	-11.10555	0.12	3	98	0	6546	32.53072	10.77287	-104.9485	
14:17:00	-6.728621	38.94616	132.619	0.001614504	-8.819564	0.04	3	98	0	6548	32.55876	10.83038	-104.9593	
14:17:01	-6.728621	38.94616	132.657	0.02490018	-6.809398	0.03	3	98	0	6546	32.47279	10.81094	-104.9758	
14:17:01	-6.72862	38.94616	132.663	0.04456663	-5.702287	0.19	3	98	0	6546	32.4175	10.82974	-104.9707	
14:17:01	-6.72862	38.94616	132.634	0.06120714	-4.495515	0.03	3	98	0	6546	32.18496	10.95528	-105.025	
14:17:01	-6.72862	38.94616	132.619	0.06262523	-4.586292	0.19	3	98	0	6546	32.40289	10.8973	-104.9656	
14:17:01	-6.72862	38.94616	132.612	0.06390936	-4.111938	0.28	3	98	0	6546	32.17033	10.84682	-105.011	
14:17:01	-6.72862	38.94616	132.568	0.08346268	-2.977764	0.28	3	98	0	6546	32.09945	10.9391	-105.0105	
14:17:02	-6.72862	38.94616	132.58	0.1008136	-2.213977	0.29	3	98	0	6546	32.20756	10.72757	-104.9823	
14:17:02	-6.72862	38.94616	132.571	0.1113594	-1.298439	0.26	3	98	0	6546	32.18283	10.76352	-104.9818	
14:17:02	-6.72862	38.94616	132.566	0.1228541	-0.1293425	0.29	3	98	0	6546	32.13644	10.9311	-104.9818	
14:17:02	-6.72862	38.94616	132.549	0.1303741	0.1311481	0.26	3	98	0	6546	32.12565	11.01386	-104.9833	
14:17:03	-6.72862	38.94616	132.567	0.1368335	0.1474156	0.14	3	98	0	6546	32.186	11.01921	-104.9743	
14:17:03	-6.72862	38.94616	132.545	0.1345228	-0.5230147	0.12	3	98	0	6546	32.30914	11.07423	-104.9527	
14:17:03	-6.72862	38.94616	132.536	0.1326144	-0.4544576	0.09	3	98	0	6546	32.32746	11.1041	-104.9603	
14:17:03	-6.72862	38.94616	132.523	0.1582922	0.503368	0.14	3	98	0	6546	32.32992	11.14495	-104.9607	
14:17:03	-6.72862	38.94616	132.507	0.2212504	3.064864	0.18	3	98	0	6546	32.26697	11.18047	-104.9897	
14:17:03	-6.72862	38.94616	132.503	0.2839041	6.484463	0.04	3	98	0	6546	32.23663	11.24745	-105.0125	
14:17:04	-6.728621	38.94616	132.516	0.3504953	9.660578	0.14	3	98	0	6546	32.3417	11.27097	-105.0026	
14:17:04	-6.728621	38.94616	132.546	0.4141087	12.60222	0.14	3	98	0	6546	32.34237	11.16919	-105.0152	
14:17:04	-6.72862	38.94616	132.603	0.464763	14.31388	0.02	3	98	0	6546	32.40028	11.18174	-105.0088	
14:17:04	-6.72862	38.94616	132.568	0.4698131	13.4771	0.11	3	98	0	6546	32.40179	11.31349	-105.0209	
14:17:04	-6.72862	38.94616	132.514	0.4473535	11.21012	0.12	3	98	0	6546	32.4665	11.25313	-105.0149	
14:17:04	-6.72862	38.94616	132.506	0.4396127	9.811037	0.18	3	98	0	6546	32.41988	11.27825	-105.0254	
14:17:05	-6.72862	38.94616	132.507	0.4450615	9.422192	0.01	3	98	0	6546	32.34758	11.29411	-105.0254	
14:17:05	-6.728621	38.94616	132.465	0.4492724	8.971727	0.07	3	98	0	6546	32.39357	11.49687	-105.0241	
14:17:05	-6.728621	38.94616	132.461	0.4529733	7.622583	0.09	3	98	0	6546	32.46317	11.49543	-105.0246	
14:17:05	-6.72862	38.94616	132.507	0.4686044	6.827857	0.08	3	98	0	6546	32.4417	11.45644	-105.0407	
14:17:05	-6.72862	38.94616	132.487	0.4939725	7.600672	0.06	3	98	0	6546	32.40966	11.49202	-105.0773	
14:17:06	-6.72862	38.94616	132.495	0.4939708	6.71891	0.14	3	98	0	6546	32.50034	11.58511	-105.0773	
14:17:06	-6.72862	38.94616	132.492	0.4734701	4.9902	0.03	3	98	0	6546	32.50906	11.50304	-105.0932	
14:17:06	-6.728621	38.94616	132.447	0.4278639	2.275294	0.14	3	98	0	6547	32.35657	11.54488	-105.131	
14:17:06	-6.728621	38.94616	132.472	0.3691387	-0.9389948	0.14	3	98	0	6546	32.23229	11.51273	-105.1667	
14:17:07	-6.728621	38.94616	132.463	0.3276677	-3.308455	0.17	3	98	0	6546	32.16515	11.66612	-105.188	
14:17:07	-6.728621	38.94616	132.423	0.2984085	-4.647501	0.32	3	98	0	6547	32.10963	11.54021	-105.2277	
14:17:07	-6.728621	38.94616	132.408	0.3015018	-4.825876	0.19	3	98	0	6546	31.97677	11.55964	-105.2657	
14:17:07	-6.728621	38.94616	132.406	0.3298351	-3.113756	0.14	3	98	0	6546	32.14183	11.6396	-105.2641	
14:17:08	-6.728621	38.94616	132.379	0.3864082	0.5237703	0.09	3	98	0	6546	32.21509	11.70766	-105.2592	
14:17:08	-6.728621	38.94616	132.419	0.4571794	3.783767	0.13	3	98	0	6546	32.21521	11.66824	-105.2785	
14:17:08	-6.728621	38.94616	132.457	0.5206785	6.548206	0.04	3	98	0	6546	32.1733	11.67418	-105.3177	
14:17:08	-6.728621	38.94616	132.473	0.543681	7.100678	0.24	3	98	0	6546	32.25574	11.60434	-105.3161	
14:17:08	-6.728621	38.94616	132.481	0.5628161	7.204432	0.35	3	99	0	6546	32.03445	11.54524	-105.3635	
14:17:09	-6.728621	38.94616	132.497	0.572337	6.331906	0.04	3	99	0	6546	31.92503	11.66435	-105.4261	
14:17:09	-6.728621	38.94616	132.446	0.5787596	6.213016	0.06	3	99	0	6546	32.13414	11.71366	-105.4049	
14:17:09	-6.728621	38.94616	132.425	0.5888985	6.293592	0.04	3	99	0	6546	32.11755	11.75688	-105.4418	
14:17:09	-6.728621	38.94616	132.433	0.5971697	6.248935	0.12	3	99	0	6546	32.20279	11.7645	-105.4403	
14:17:09	-6.728621	38.94616	132.438	0.6100144	6.507186	0.16	3	99	0	6546	32.27785	11.68455	-105.4549	
14:17:10	-6.728621	38.94616	132.4	0.6210138	7.045136	0.06	3	99	0	6547	32.24296	11.6635	-105.4883	
14:17:10	-6.728621	38.94616	132.426	0.6328432	7.154355	0.19	3	99	0	6546	32.22547	11.74114	-105.5196	
14:17:10	-6.728621	38.94616	132.403	0.6410244	6.947118	0.25	3	99	0	6546	32.34631	11.72252	-105.5055	
14:17:10	-6.728621	38.94616	132.4	0.6485916	6.244122	0.14	3	99	0	6546	32.35433	11.77152	-105.5238	
14:17:10	-6.728621	38.94616	132.45	0.6537024	5.972812	0.22	3	99	0	6546	32.27496	11.81502	-105.562	
14:17:11	-6.728621	38.94616	132.464	0.6667232	6.733122	0.19	3	99	0	6546	32.35059	11.79902	-105.5446	
14:17:11	-6.728621	38.94616	132.437	0.6768037	6.206299	0.13	3	99	0	6546	32.27593	11.81561	-105.5863	
14:17:11	-6.728622	38.94616	132.394	0.6766257	6.053746	0.19	3	99	0	6546	32.25917	11.74443	-105.6095	
14:17:11	-6.728622	38.94616	132.401	0.6758935	5.385798	0.14	3	99	0	6546	32.30893	11.76306	-105.6079	
14:17:11	-6.728622	38.94616	132.387	0.6615781	4.024819	0.28	3	99	0	6546	32.31145	11.74264	-105.6225	
14:17:11	-6.728622	38.94616	132.404	0.6477462	2.816207	0.19	3	99	0	6546	32.39898	11.75656	-105.5957	
14:17:12	-6.728622	38.94616	132.402	0.6173785	0.9741101	0.14	3	99	0	6546	32.30027	11.78479	-105.622	
14:17:12	-6.728621	38.94616	132.415	0.5921999	-0.3937874	0.14	3	99	0	6546	32.25368	11.83208	-105.6435	
14:17:12	-6.728621	38.94616	132.413	0.5627156	-1.951385	0.09	3	99	0	6546	32.20517	11.84313	-105.6853	
14:17:12	-6.728621	38.94616	132.378	0.5354522	-3.44668	0.11	3	99	0	6546	32.16222	11.90422	-105.7074	
14:17:12	-6.728622	38.94616	132.378	0.5544857	-1.916959	0.14	3	99	0	6546	32.1863	11.85125	-105.7079	
14:17:12	-6.728622	38.94616	132.371	0.5703599	-1.790939	0.01	3	99	0	6546	32.12802	11.83916	-105.7238	
14:17:13	-6.728622	38.94616	132.415	0.5642287	-1.508058	0.04	3	99	0	6546	32.01141	11.91887	-105.7568	
14:17:13	-6.728622	38.94616	132.44	0.5440074	-2.426431	0.04	3	99	0	6546	31.98677	11.93393	-105.7949	
14:17:13	-6.728622	38.94616	132.414	0.4968566	-4.366824	0.17	3	99	0	6546	32.04216	11.94023	-105.8184	
14:17:13	-6.728622	38.94616	132.427	0.4147352	-7.714029	0.13	3	99	0	6546	32.09852	11.99538	-105.8285	
14:17:14	-6.728622	38.94616	132.427	0.3735621	-8.663651	0.03	3	99	0	6546	31.99001	11.97668	-105.8893	
14:17:14	-6.728622	38.94616	132.41	0.3682981	-8.319367	0.21	3	99	0	6546	32.06581	11.87303	-105.8963	
14:17:14	-6.728623	38.94616	132.382	0.3576196	-7.793044	0.04	3	99	0	6546	32.10323	11.84981	-105.927	
14:17:14	-6.728623	38.94616	132.385	0.3443392	-8.024092	0.06	3	99	0	6546	31.94988	11.89852	-105.9539	
14:17:14	-6.728623	38.94616	132.431	0.3418036	-7.826319	0.09	3	99	0	6546	31.99295	11.88272	-105.9792	
14:17:15	-6.728623	38.94616	132.394	0.3485179	-6.744456	0.09	3	99	0	6546	31.96394	11.90147	-106.0196	
14:17:15	-6.728623	38.94616	132.366	0.3481995	-6.470668	0.09	3	99	0	6546	31.93765	11.75319	-106.0424	
14:17:15	-6.728623	38.94616	132.388	0.3359813	-6.725212	0.19	3	99	0	6546	31.7672	11.77467	-106.0903	
14:17:15	-6.728624	38.94617	132.392	0.3366161	-6.415482	0.17	3	99	0	6546	31.67125	11.81689	-106.1244	
14:17:15	-6.728624	38.94617	132.345	0.3500211	-5.171061	0.09	3	99	0	6546	31.74081	11.82589	-106.1299	
14:17:16	-6.728624	38.94617	132.328	0.3418625	-5.490108	0.17	3	99	0	6546	31.80486	11.73806	-106.1341	
14:17:16	-6.728624	38.94617	132.324	0.3156103	-6.622486	0.22	3	99	0	6546	31.74148	11.80467	-106.1784	
14:17:16	-6.728624	38.94617	132.296	0.2817912	-8.199759	0.19	3	99	0	6546	31.75513	11.92753	-106.1915	
14:17:16	-6.728624	38.94617	132.271	0.2452344	-9.559933	0.09	3	99	0	6546	31.84392	11.90181	-106.1833	
14:17:16	-6.728625	38.94617	132.258	0.2241839	-9.84026	0.08	3	99	0	6546	31.9602	11.7924	-106.18	
14:17:17	-6.728625	38.94617	132.278	0.2105256	-10.10907	0.02	3	99	0	6546	32.02793	11.74383	-106.2053	
14:17:17	-6.728624	38.94617	132.313	0.2006295	-10.45481	0.09	3	99	0	6546	31.99885	11.80172	-106.2207	
14:17:17	-6.728625	38.94617	132.252	0.1952572	-10.14745	0.09	3	99	0	6546	31.94884	11.82864	-106.2581	
14:17:17	-6.728625	38.94617	132.268	0.2137838	-7.540923	0.09	3	99	0	6546	31.91442	11.72477	-106.2656	
14:17:18	-6.728625	38.94617	132.3	0.2588294	-4.34206	0.24	3	99	0	6546	31.8809	11.64371	-106.2817	
14:17:18	-6.728625	38.94617	132.315	0.2969259	-2.173767	0.12	3	99	0	6546	31.74232	11.70168	-106.3291	
14:17:18	-6.728625	38.94617	132.337	0.3308465	-0.007679523	0.14	3	99	0	6546	31.93892	11.68338	-106.3029	
14:17:18	-6.728624	38.94617	132.393	0.3688322	1.79774	0.08	3	99	0	6546	32.09231	11.645	-106.2729	
14:17:18	-6.728624	38.94617	132.433	0.4217254	3.554117	0.04	3	99	0	6546	32.03013	11.66244	-106.293	
14:17:18	-6.728625	38.94617	132.37	0.4638465	5.7095	0.11	3	99	0	6545	31.94457	11.67508	-106.322	
14:17:19	-6.728625	38.94617	132.38	0.4820552	6.342511	0.06	3	99	0	6546	31.94113	11.70256	-106.3374	
14:17:19	-6.728626	38.94617	132.379	0.498327	7.387707	0.09	3	99	0	6546	31.98172	11.61354	-106.3503	
14:17:19	-6.728626	38.94617	132.382	0.4934369	6.246305	0.14	3	99	0	6546	32.10082	11.63217	-106.3291	
14:17:19	-6.728626	38.94617	132.398	0.4877079	5.335392	0.07	3	99	0	6546	32.11373	11.65291	-106.3318	
14:17:19	-6.728626	38.94617	132.431	0.4587596	3.683763	0.04	3	99	0	6546	32.04598	11.59867	-106.3448	
14:17:19	-6.728626	38.94617	132.405	0.434584	2.263677	0.09	3	99	0	6546	32.09627	11.69687	-106.3542	
14:17:20	-6.728626	38.94617	132.406	0.4425551	2.542873	0.11	3	99	0	6546	32.15227	11.72032	-106.3615	
14:17:20	-6.728626	38.94617	132.384	0.4494073	2.566759	0.13	3	99	0	6546	32.17012	11.63061	-106.3791	
14:17:20	-6.728626	38.94617	132.462	0.4552951	2.743543	0.09	3	99	0	6547	32.13285	11.56098	-106.4164	
14:17:20	-6.728626	38.94617	132.436	0.4595628	2.625408	0.11	3	99	0	6546	32.11552	11.65229	-106.4178	
14:17:20	-6.728626	38.94617	132.413	0.435853	1.105976	0.07	3	99	0	6546	32.14069	11.71286	-106.3981	
14:17:21	-6.728626	38.94617	132.413	0.4138313	0.06748053	0.04	3	99	0	6546	32.10804	11.68711	-106.4085	
14:17:21	-6.728626	38.94617	132.481	0.3654339	-2.021474	0.07	3	99	0	6546	32.11424	11.64702	-106.4131	
14:17:21	-6.728626	38.94617	132.494	0.3216522	-4.555616	0.08	3	99	0	6546	32.16529	11.5964	-106.4196	
14:17:21	-6.728626	38.94617	132.534	0.2621167	-7.222963	0.19	3	99	0	6546	32.21239	11.49254	-106.4129	
14:17:21	-6.728626	38.94617	132.56	0.214924	-9.02046	0.07	3	99	0	6546	32.11874	11.52476	-106.4467	
14:17:22	-6.728626	38.94617	132.545	0.1854061	-9.682256	0.03	3	99	0	6546	31.99614	11.59197	-106.4731	
14:17:22	-6.728626	38.94617	132.511	0.1600748	-10.15708	0.19	3	99	0	6546	32.14325	11.52166	-106.4555	
14:17:22	-6.728626	38.94616	132.503	0.1765443	-8.557837	0.09	3	99	0	6546	32.19328	11.49311	-106.4603	
14:17:22	-6.728626	38.94616	132.508	0.191518	-7.236861	0.06	3	99	0	6546	32.08554	11.57923	-106.4847	
14:17:22	-6.728625	38.94616	132.531	0.2016419	-6.765662	0.04	3	99	0	6546	32.0405	11.63399	-106.4888	
14:17:23	-6.728625	38.94616	132.614	0.203776	-6.621522	0.03	3	99	0	6546	32.01538	11.57314	-106.5143	
14:17:23	-6.728625	38.94616	132.62	0.2016521	-6.076696	0.09	3	99	0	6546	31.97852	11.58357	-106.527	
14:17:23	-6.728625	38.94616	132.663	0.1948674	-5.350408	0.11	3	99	0	6546	32.05891	11.59819	-106.5242	
14:17:23	-6.728625	38.94616	132.681	0.202586	-4.056083	0.07	3	99	0	6546	32.08272	11.60494	-106.5248	
14:17:23	-6.728625	38.94616	132.688	0.2232032	-2.2247	0.14	3	99	0	6546	32.08839	11.61943	-106.5453	
14:17:24	-6.728625	38.94617	132.706	0.2484841	-1.010431	0.08	3	99	0	6546	32.09136	11.57433	-106.5411	
14:17:24	-6.728625	38.94617	132.714	0.2749807	0.4652692	0.22	3	99	0	6546	32.17287	11.52343	-106.5318	
14:17:24	-6.728625	38.94616	132.712	0.3019128	1.970988	0.29	3	99	0	6546	32.28249	11.4449	-106.5121	
14:17:24	-6.728624	38.94616	132.773	0.3256491	3.046324	0.14	3	99	0	6546	32.1994	11.45922	-106.5448	
14:17:25	-6.728625	38.94616	132.755	0.3125186	1.964296	0.26	3	99	0	6546	32.21881	11.50903	-106.5422	
14:17:25	-6.728624	38.94616	132.777	0.2483991	-1.466922	0.18	3	99	0	6546	32.20651	11.51113	-106.559	
14:17:25	-6.728624	38.94616	132.785	0.185391	-4.421863	0.08	3	99	0	6546	32.07788	11.46046	-106.6055	
14:17:25	-6.728624	38.94616	132.79	0.1201106	-7.743687	0.14	3	99	0	6546	32.06222	11.43399	-106.6365	
14:17:25	-6.728624	38.94616	132.812	0.07114451	-10.47909	0.21	3	99	0	6546	32.1327	11.45444	-106.6297	
14:17:25	-6.728624	38.94616	132.809	0.04380462	-11.31175	0.31	3	99	0	6546	32.23116	11.41825	-106.6217	
14:17:26	-6.728623	38.94616	132.782	0.01354842	-11.89155	0.22	3	99	0	6546	32.21764	11.42513	-106.6091	
14:17:26	-6.728624	38.94616	132.734	-0.01663144	-12.48458	0.04	3	99	0	6546	32.02697	11.37038	-106.6501	
14:17:26	-6.728623	38.94616	132.771	-0.0545466	-13.21442	0.18	3	99	0	6546	32.0715	11.36561	-106.6218	
14:17:26	-6.728623	38.94616	132.79	-0.0915401	-14.05833	0.09	3	99	0	6546	32.05905	11.30705	-106.6118	
14:17:26	-6.728623	38.94616	132.833	-0.1165847	-13.12912	0.09	3	99	0	6546	32.04314	11.32645	-106.6098	
14:17:27	-6.728622	38.94616	132.896	-0.1234107	-12.19016	0.12	3	99	0	6546	32.07672	11.39539	-106.6182	
14:17:27	-6.728622	38.94616	132.88	-0.1261264	-11.43336	0.06	3	99	0	6546	32.04211	11.39243	-106.6269	
14:17:27	-6.728622	38.94616	132.902	-0.1244187	-9.958585	0.18	3	99	0	6546	32.08759	11.26502	-106.5967	
14:17:27	-6.728622	38.94616	132.886	-0.120796	-9.112009	0.08	3	99	0	6546	32.04681	11.33305	-106.5934	
14:17:28	-6.728622	38.94616	132.953	-0.06791605	-5.432151	0.06	3	99	0	6546	31.96763	11.3744	-106.6074	
14:17:28	-6.728622	38.94616	132.932	-0.0186768	-2.57679	0.06	3	99	0	6546	31.97263	11.35752	-106.6139	
14:17:28	-6.728621	38.94616	132.973	0.07868718	2.70857	0.11	3	99	0	6546	32.05394	11.30265	-106.6115	
14:17:28	-6.728621	38.94616	132.967	0.1585996	6.31003	0.09	3	99	0	6546	32.02723	11.35479	-106.613	
14:17:29	-6.728621	38.94616	132.95	0.2380824	9.899924	0.14	3	99	0	6546	31.91122	11.41289	-106.6247	
14:17:29	-6.728621	38.94616	132.923	0.3083449	12.42614	0.13	3	99	0	6546	31.97014	11.29212	-106.6154	
14:17:29	-6.728621	38.94616	132.925	0.2749378	9.520294	0.09	3	99	0	6546	31.94371	11.235	-106.6065	
14:17:29	-6.728621	38.94616	132.938	0.2481396	6.64971	0.19	3	99	0	6546	31.79307	11.21293	-106.5969	
14:17:29	-6.728621	38.94616	132.972	0.2317639	5.810025	0.07	3	99	0	6546	31.83681	11.41331	-106.5792	
14:17:29	-6.728621	38.94616	132.973	0.2179341	4.455877	0.12	3	99	0	6546	31.76733	11.49912	-106.6009	
14:17:30	-6.728621	38.94616	132.997	0.1883468	2.653441	0.01	3	99	0	6546	31.79522	11.416	-106.588	
14:17:30	-6.728621	38.94616	133.005	0.1611027	0.8979592	0.09	3	99	0	6546	31.80808	11.31289	-106.5942	
14:17:30	-6.728621	38.94616	133.023	0.1429345	0.08740512	0.24	3	99	0	6546	31.60702	11.42688	-106.6456	
14:17:30	-6.728621	38.94616	133.041	0.1276601	-1.116374	0.24	3	99	0	6546	31.54999	11.36184	-106.6526	
14:17:30	-6.728621	38.94616	133.01	0.06242049	-4.900751	0.38	3	99	0	6546	31.44471	11.34236	-106.6817	
14:17:30	-6.728621	38.94616	132.98	0.002720658	-7.857361	0.31	3	99	0	6546	31.48778	11.30764	-106.6611	
14:17:31	-6.728621	38.94616	132.975	-0.0318917	-9.225042	0.07	3	99	0	6546	31.71761	11.3747	-106.6111	
14:17:31	-6.728621	38.94616	132.974	-0.06280538	-10.18672	0.14	3	99	0	6546	31.75728	11.38575	-106.6132	
14:17:31	-6.728621	38.94616	132.941	-0.05709796	-8.994843	0.18	3	99	0	6546	31.72428	11.34528	-106.6153	
14:17:31	-6.728621	38.94616	132.932	-0.05035664	-7.953149	0.03	3	99	0	6546	31.85974	11.43292	-106.5803	
14:17:32	-6.728621	38.94616	132.965	-0.04162063	-7.180467	0.16	3	99	0	6546	32.01178	11.39545	-106.5582	
14:17:32	-6.72862	38.94616	132.988	-0.03209718	-5.299884	0.04	3	99	0	6546	31.97769	11.39463	-106.5678	
14:17:32	-6.72862	38.94616	133.045	-0.0441559	-5.550432	0.08	3	99	0	6546	31.98117	11.38437	-106.5891	
14:17:32	-6.72862	38.94616	133.06	-0.0532665	-5.47189	0.14	3	99	0	6546	31.81943	11.42882	-106.6091	
14:17:32	-6.72862	38.94616	133.152	-0.06020017	-5.216938	0.17	3	99	0	6546	31.69485	11.42511	-106.6438	
14:17:33	-6.72862	38.94616	133.152	-0.06474742	-5.089672	0.17	3	99	0	6546	31.72993	11.32134	-106.6343	
14:17:33	-6.72862	38.94616	133.167	-0.08366415	-5.665897	0.02	3	99	0	6546	31.80049	11.33739	-106.6283	
14:17:33	-6.728619	38.94616	133.181	-0.1279229	-7.967699	0.01	3	99	0	6546	31.88844	11.29936	-106.615	
14:17:33	-6.728619	38.94616	133.196	-0.1530966	-8.334459	0.04	3	99	0	6546	31.93873	11.28203	-106.6042	
14:17:33	-6.728619	38.94616	133.193	-0.1679214	-7.941339	0.12	3	99	0	6546	31.91857	11.29108	-106.6323	
14:17:34	-6.728619	38.94616	133.203	-0.158136	-6.074626	0.14	3	99	0	6546	32.06205	11.23821	-106.588	
14:17:34	-6.728619	38.94616	133.203	-0.134306	-3.884622	0.14	3	99	0	6546	32.13741	11.25428	-106.5634	
14:17:34	-6.728619	38.94616	133.107	-0.09374914	-1.326146	0.22	3	99	0	6546	32.0893	11.26974	-106.5761	
14:17:34	-6.728619	38.94616	133.076	-0.04318744	1.969592	0.16	3	99	0	6546	32.18768	11.3888	-106.5538	
14:17:34	-6.728619	38.94616	133.093	-0.008417705	3.589515	0.12	3	99	0	6547	32.14775	11.36721	-106.5709	
14:17:35	-6.728619	38.94616	133.062	0.01265793	4.189669	0.14	3	99	0	6546	32.04593	11.36659	-106.601	
14:17:35	-6.728619	38.94616	133.062	0.02408097	4.655393	0.14	3	99	0	6546	32.06828	11.36016	-106.5937	
14:17:35	-6.728618	38.94616	133.167	0.02678165	4.254943	0.04	3	99	0	6546	32.14685	11.27479	-106.5759	
14:17:35	-6.728618	38.94616	133.204	0.03487262	4.572614	0.11	3	99	0	6546	32.05323	11.20852	-106.5771	
14:17:35	-6.728617	38.94616	133.209	0.04532578	4.451783	0.09	3	99	0	6546	32.09014	11.28748	-106.5533	
14:17:36	-6.728617	38.94616	133.274	0.05652329	4.570394	0.19	3	99	0	6546	32.10282	11.24739	-106.5572	
14:17:36	-6.728617	38.94616	133.274	0.06749179	5.011551	0.19	3	99	0	6546	32.16539	11.13519	-106.5478	
14:17:36	-6.728617	38.94616	133.247	0.09590059	5.736035	0.24	3	99	0	6546	32.18446	11.18852	-106.5452	
14:17:36	-6.728616	38.94616	133.22	0.1454457	7.845484	0.36	3	99	0	6546	32.26321	11.2335	-106.5192	
14:17:37	-6.728616	38.94616	133.209	0.1731521	8.384779	0.17	3	99	0	6546	32.40038	11.17579	-106.4874	
14:17:37	-6.728616	38.94616	133.193	0.1867989	8.740907	0.17	3	99	0	6546	32.23584	11.24988	-106.5154	
14:17:37	-6.728616	38.94616	133.228	0.213004	9.721755	0.14	3	99	0	6546	32.19765	11.18859	-106.546	
14:17:37	-6.728616	38.94616	133.252	0.2496153	10.63187	0.29	3	99	0	6546	32.16528	11.10651	-106.5395	
14:17:38	-6.728615	38.94616	133.236	0.2808033	11.15501	0.13	3	99	0	6546	32.31449	11.13822	-106.5219	
14:17:38	-6.728615	38.94616	133.24	0.3066118	11.34672	0.19	3	99	0	6546	32.11447	11.28352	-106.5682	
14:17:38	-6.728615	38.94616	133.244	0.3276398	11.57189	0.09	3	99	0	6546	32.09941	11.37295	-106.5753	
14:17:38	-6.728615	38.94616	133.247	0.3099169	9.490138	0.19	3	99	0	6546	32.01457	11.15363	-106.5767	
14:17:39	-6.728615	38.94616	133.246	0.2925518	8.416815	0.18	3	99	0	6545	32.16531	11.11107	-106.5609	
14:17:39	-6.728615	38.94616	133.2	0.3270324	9.64663	0.06	3	99	0	6546	32.19722	11.09126	-106.5233	
14:17:39	-6.728615	38.94616	133.207	0.3570131	10.50075	0.13	3	99	0	6546	32.10734	11.13398	-106.5281	
14:17:39	-6.728615	38.94616	133.229	0.4124483	12.52607	0.04	3	99	0	6546	32.08812	11.0596	-106.5288	
14:17:39	-6.728615	38.94616	133.21	0.4603283	13.66957	0.04	3	99	0	6546	32.01571	11.16547	-106.5013	
14:17:39	-6.728615	38.94616	133.205	0.5471549	16.96298	0.09	3	99	0	6546	31.99322	11.21095	-106.4958	
14:17:40	-6.728615	38.94616	133.216	0.623466	19.30588	0.04	3	99	0	6547	31.9976	11.12744	-106.4939	
14:17:40	-6.728615	38.94616	133.256	0.6357793	17.92739	0.07	3	99	0	6546	32.09994	11.15988	-106.4788	
14:17:40	-6.728615	38.94616	133.254	0.6434902	16.8053	0.03	3	99	0	6546	32.0163	11.14702	-106.4965	
14:17:40	-6.728615	38.94616	133.225	0.6552019	15.52949	0.14	3	99	0	6546	32.08316	11.13444	-106.4781	
14:17:40	-6.728615	38.94616	133.205	0.6617787	13.91589	0.04	3	99	0	6546	31.95374	11.12332	-106.4881	
14:17:41	-6.728614	38.94616	133.245	0.6699624	13.43224	0.07	3	99	0	6546	32.00217	11.11518	-106.4778	
14:17:41	-6.728614	38.94616	133.18	0.6752147	12.20407	0.09	3	99	0	6546	32.075	11.08076	-106.4463	
14:17:41	-6.728614	38.94616	133.17	0.6376784	8.889174	0.19	3	99	0	6546	32.01799	11.17954	-106.437	
14:17:41	-6.728614	38.94616	133.17	0.6013545	5.876363	0.19	3	99	0	6546	31.91086	11.22503	-106.4511	
14:17:41	-6.728614	38.94616	133.139	0.5865535	4.035799	0.11	3	99	0	6546	31.97246	11.16319	-106.4304	
14:17:42	-6.728614	38.94616	133.128	0.5714754	3.048482	0.29	3	99	0	6546	31.96575	11.11183	-106.4387	
14:17:42	-6.728614	38.94616	133.225	0.5946433	4.52551	0.35	3	99	0	6546	31.7838	11.0259	-106.4513	
14:17:42	-6.728614	38.94616	133.253	0.6159534	5.7983	0.29	3	99	0	6546	31.66567	11.10785	-106.4593	
14:17:42	-6.728614	38.94616	133.198	0.6506447	7.31075	0.28	3	99	0	6546	31.7356	11.03902	-106.4406	
14:17:42	-6.728614	38.94616	133.153	0.6805689	8.198722	0.42	3	99	0	6546	31.77068	11.09358	-106.4279	
14:17:43	-6.728614	38.94616	133.137	0.6821827	7.699274	0.19	3	99	0	6546	31.66046	11.17236	-106.4535	
14:17:43	-6.728614	38.94616	133.09	0.6589795	5.22607	0.14	3	99	0	6546	31.86792	11.03615	-106.4173	
14:17:43	-6.728614	38.94616	133.077	0.6326957	2.924605	0.08	3	99	0	6546	31.98255	10.9998	-106.392	
14:17:43	-6.728614	38.94616	133.111	0.6054639	1.482917	0.09	3	99	0	6546	32.02096	11.08624	-106.3808	
14:17:43	-6.728614	38.94616	133.06	0.5758559	-0.05563209	0.08	3	99	0	6546	32.04624	11.14594	-106.3766	
14:17:44	-6.728614	38.94616	133.098	0.5448949	-1.899758	0.03	3	99	0	6546	32.03139	11.108	-106.3937	
14:17:44	-6.728614	38.94616	133.112	0.5157751	-2.881988	0.16	3	99	0	6546	32.11872	11.07367	-106.3769	
14:17:44	-6.728614	38.94616	133.106	0.4927464	-3.530762	0.09	3	99	0	6546	32.25832	10.92466	-106.3497	
14:17:44	-6.728614	38.94616	133.072	0.4722448	-4.70038	0.19	3	99	0	6546	32.24074	11.03201	-106.3521	
14:17:45	-6.728614	38.94616	133.022	0.4555607	-5.609053	0.19	3	99	0	6546	32.34283	11.01456	-106.3333	
14:17:45	-6.728613	38.94616	133.032	0.4421084	-5.577915	0.11	3	99	0	6546	32.34226	10.95439	-106.3258	
14:17:45	-6.728613	38.94616	133.045	0.4322542	-5.839377	0.09	3	99	0	6546	32.2518	10.97272	-106.3271	
14:17:45	-6.728613	38.94616	133.026	0.4267668	-5.585247	0.04	3	99	0	6546	32.21461	11.00134	-106.3189	
14:17:45	-6.728613	38.94616	132.986	0.4265177	-4.622312	0.09	3	99	0	6546	32.08923	10.94269	-106.3456	
14:17:46	-6.728613	38.94616	132.952	0.4324163	-3.617442	0.09	3	99	0	6546	32.03164	11.08915	-106.3457	
14:17:46	-6.728613	38.94616	132.909	0.4436981	-2.49248	0.09	3	99	0	6546	32.14597	11.00174	-106.3188	
14:17:46	-6.728613	38.94616	132.924	0.4361058	-2.697454	0.08	3	99	0	6546	32.17743	11.01868	-106.3054	
14:17:46	-6.728613	38.94616	132.942	0.4113292	-4.167496	0.19	3	99	0	6546	32.17898	10.97599	-106.3079	
14:17:46	-6.728613	38.94616	132.92	0.3771954	-6.070627	0.13	3	99	0	6546	32.29919	11.00165	-106.2944	
14:17:47	-6.728613	38.94616	132.877	0.3353432	-7.694458	0.13	3	99	0	6546	32.23438	11.04125	-106.2885	
14:17:47	-6.728613	38.94616	132.885	0.300593	-8.679446	0.22	3	99	0	6546	32.13573	11.11027	-106.3016	
14:17:47	-6.728613	38.94616	132.849	0.2733869	-9.329107	0.25	3	99	0	6546	32.28861	10.943	-106.2579	
14:17:47	-6.728613	38.94616	132.827	0.2562864	-9.18218	0.33	3	99	0	6547	32.338	10.98816	-106.2424	
14:17:48	-6.728612	38.94616	132.818	0.2502693	-8.961857	0.19	3	99	0	6546	32.41713	10.88895	-106.2192	
14:17:48	-6.728612	38.94616	132.771	0.2465786	-7.836343	0.34	3	99	0	6546	32.26653	10.96698	-106.2459	
14:17:48	-6.728612	38.94616	132.741	0.2643921	-6.166966	0.26	3	99	0	6546	32.40051	11.00803	-106.2117	
14:17:48	-6.728612	38.94616	132.743	0.2814955	-4.993932	0.22	3	99	0	6546	32.31927	10.949	-106.2268	
14:17:49	-6.728611	38.94616	132.691	0.3529007	-0.4818576	0.19	3	99	0	6546	32.26006	11.0198	-106.2369	
14:17:49	-6.728611	38.94616	132.633	0.4190171	3.354043	0.18	3	99	0	6546	32.20566	11.01624	-106.2435	
14:17:49	-6.728611	38.94616	132.675	0.4506611	5.142061	0.17	3	99	0	6546	32.1783	11.08411	-106.2557	
14:17:49	-6.728611	38.94616	132.67	0.481351	5.974701	0.19	3	99	0	6546	32.15106	11.08145	-106.2693	
14:17:49	-6.728611	38.94616	132.632	0.4397507	2.647221	0.04	3	99	0	6546	32.18653	11.04965	-106.2456	
14:17:49	-6.728611	38.94616	132.654	0.3935846	0.04799426	0.02	3	99	0	6546	31.91109	11.10709	-106.3088	
14:17:50	-6.728611	38.94616	132.625	0.3706723	-0.8111904	0.08	3	99	0	6546	31.89918	11.05678	-106.3214	
14:17:50	-6.728611	38.94616	132.634	0.3499547	-1.906994	0.18	3	99	0	6546	31.96915	11.09366	-106.3188	
14:17:50	-6.728611	38.94616	132.626	0.2761277	-5.855139	0.14	3	99	0	6546	31.83257	11.26001	-106.3578	
14:17:50	-6.728611	38.94616	132.611	0.2087714	-8.848836	0.14	3	99	0	6546	31.89348	11.2087	-106.3324	
14:17:50	-6.72861	38.94616	132.625	0.1552251	-11.50887	0.02	3	99	0	6546	32.0627	11.07686	-106.3072	
14:17:50	-6.728611	38.94616	132.61	0.107539	-12.66435	0.13	3	99	0	6546	31.91737	11.04566	-106.3291	
14:17:51	-6.728611	38.94616	132.612	0.09276986	-11.93618	0.09	3	99	0	6546	31.75117	10.98362	-106.3534	
14:17:51	-6.72861	38.94616	132.654	0.07907196	-11.88955	0.08	3	99	0	6546	32.03419	11.07782	-106.2825	
14:17:51	-6.72861	38.94616	132.639	0.1004079	-9.916286	0.06	3	99	0	6546	31.96614	11.11539	-106.3008	
14:17:51	-6.72861	38.94616	132.639	0.1256535	-7.879303	0.14	3	99	0	6546	32.00356	11.0308	-106.2948	
14:17:52	-6.72861	38.94616	132.674	0.1576566	-5.57654	0.04	3	99	0	6546	32.09229	10.96275	-106.2862	
14:17:52	-6.72861	38.94616	132.618	0.1876312	-3.309816	0.06	3	99	0	6546	31.89686	10.98633	-106.3111	
14:17:52	-6.728609	38.94616	132.634	0.1924825	-2.518688	0.12	3	99	0	6546	31.97867	11.04959	-106.2992	
14:17:52	-6.728609	38.94616	132.607	0.1976408	-2.248391	0.09	3	99	0	6546	32.07005	11.02127	-106.2858	
14:17:52	-6.728609	38.94616	132.586	0.2002785	-2.580069	0.13	3	99	0	6546	31.94572	10.94196	-106.311	
14:17:53	-6.728609	38.94616	132.604	0.2019273	-2.756379	0.06	3	99	0	6546	31.80943	11.19524	-106.3431	
14:17:53	-6.728609	38.94616	132.621	0.1715654	-4.50658	0.16	3	99	0	6546	31.96165	11.05646	-106.3143	
14:17:53	-6.728609	38.94616	132.619	0.1187176	-6.727021	0.12	3	99	0	6546	31.79897	11.25875	-106.3257	
14:17:53	-6.728609	38.94616	132.638	0.0938869	-7.243591	0.04	3	99	0	6546	31.80811	11.14271	-106.307	
14:17:53	-6.728609	38.94616	132.652	0.1062798	-6.664544	0.09	3	99	0	6546	31.89852	11.09228	-106.2946	
14:17:53	-6.728609	38.94616	132.662	0.1239109	-4.712896	0.11	3	99	0	6546	31.90007	11.04295	-106.2986	
14:17:54	-6.728609	38.94616	132.64	0.1420112	-3.503333	0.12	3	99	0	6545	31.90763	11.23739	-106.3035	
14:17:54	-6.728609	38.94616	132.676	0.1740522	-1.012661	0.11	3	99	0	6546	31.90808	11.07058	-106.3	
14:17:54	-6.728609	38.94616	132.674	0.213747	1.28372	0.09	3	99	0	6546	32.14856	11.04782	-106.2506	
14:17:54	-6.728608	38.94616	132.665	0.247413	2.838472	0.09	3	99	0	6546	32.17103	11.08275	-106.2294	
14:17:55	-6.728608	38.94616	132.698	0.2739407	4.128919	0.09	3	99	0	6546	32.20045	11.09094	-106.2096	
14:17:55	-6.728608	38.94616	132.645	0.305176	4.904744	0.07	3	99	0	6546	32.08424	11.21085	-106.2041	
14:17:55	-6.728608	38.94616	132.66	0.3292786	5.74949	0.07	3	99	0	6546	32.17274	11.07904	-106.2031	
14:17:55	-6.728608	38.94616	132.67	0.3323443	5.150174	0.13	3	99	0	6546	32.18582	11.11722	-106.2048	
14:17:55	-6.728608	38.94616	132.648	0.3043904	3.696107	0.06	3	99	0	6546	32.00415	11.20427	-106.246	
14:17:56	-6.728608	38.94616	132.652	0.2981717	3.680877	0.09	3	99	0	6546	32.10621	11.10707	-106.2243	
14:17:56	-6.728608	38.94616	132.653	0.3087177	4.289643	0.17	3	99	0	6546	32.05473	11.2611	-106.2403	
14:17:56	-6.728608	38.94616	132.66	0.35584	6.315151	0.08	3	99	0	6546	31.96267	11.24909	-106.274	
14:17:56	-6.728607	38.94616	132.693	0.4227703	9.532238	0.14	3	99	0	6546	32.0659	11.23476	-106.2495	
14:17:56	-6.728608	38.94616	132.653	0.4775954	12.05475	0.07	3	99	0	6546	32.16954	11.05551	-106.2233	
14:17:57	-6.728608	38.94616	132.687	0.5183191	13.16731	0.02	3	99	0	6546	32.05193	11.18032	-106.2455	
14:17:57	-6.728608	38.94616	132.657	0.5547512	13.70682	0.08	3	99	0	6546	32.12528	11.18137	-106.2061	
14:17:57	-6.728608	38.94616	132.62	0.5803286	13.87924	0.03	3	99	0	6546	32.21402	11.19708	-106.1641	
14:17:57	-6.728608	38.94616	132.628	0.6006154	13.52858	0.17	3	99	0	6546	32.13202	11.2253	-106.1929	
14:17:57	-6.728608	38.94616	132.639	0.6173353	13.29405	0.11	3	99	0	6547	31.932	11.22964	-106.2326	
14:17:58	-6.728608	38.94616	132.661	0.6286784	12.73324	0.11	3	99	0	6546	31.99985	11.26056	-106.2429	
14:17:58	-6.728608	38.94616	132.637	0.5877433	9.754575	0.01	3	99	0	6546	31.99321	11.19969	-106.2466	
14:17:58	-6.728609	38.94616	132.596	0.5411372	6.225712	0.09	3	99	0	6546	32.10899	11.19912	-106.228	
14:17:58	-6.728609	38.94616	132.563	0.4709443	1.236286	0.22	3	99	0	6546	32.01342	11.23432	-106.2519	
14:17:58	-6.728609	38.94616	132.541	0.4128523	-1.425681	0.03	3	99	0	6546	31.92443	11.32612	-106.2648	
14:17:59	-6.728609	38.94616	132.531	0.3641372	-3.74048	0.08	3	99	0	6546	32.10063	11.20931	-106.2443	
14:17:59	-6.72861	38.94616	132.503	0.3202026	-6.160696	0.09	3	99	0	6546	32.06249	11.18563	-106.2541	
14:17:59	-6.72861	38.94616	132.465	0.2733005	-8.143817	0.29	3	99	0	6546	32.02154	11.19433	-106.2723	
14:17:59	-6.72861	38.94616	132.445	0.2325428	-9.011806	0.19	3	99	0	6546	31.85033	11.13017	-106.3008	
14:17:59	-6.72861	38.94616	132.426	0.215474	-9.087516	0.18	3	99	0	6546	31.9522	11.24213	-106.2619	
14:17:59	-6.72861	38.94616	132.441	0.2000068	-9.049538	0.28	3	99	0	6546	31.97188	11.16757	-106.2655	
14:18:00	-6.728611	38.94616	132.379	0.2271739	-6.587193	0.07	3	99	0	6546	31.9075	11.20131	-106.2808	
14:18:00	-6.728611	38.94616	132.394	0.2535212	-4.31296	0.22	3	99	0	6546	32.10004	11.22023	-106.226	
14:18:00	-6.728611	38.94616	132.416	0.2780261	-2.687175	0.21	3	99	0	6546	31.92159	11.23546	-106.2526	
14:18:00	-6.728611	38.94616	132.388	0.2978201	-2.041881	0.19	3	99	0	6546	31.96258	11.19555	-106.2428	
14:18:00	-6.728611	38.94616	132.354	0.316635	-1.327725	0.19	3	99	0	6546	31.94023	11.34791	-106.236	
14:18:00	-6.728611	38.94616	132.27	0.3332693	-0.6022325	0.25	3	99	0	6546	31.94897	11.2947	-106.2278	
14:18:01	-6.728611	38.94616	132.285	0.2723672	-3.544994	0.22	3	99	0	6546	31.92145	11.37651	-106.2317	
14:18:01	-6.728611	38.94616	132.294	0.2272688	-5.854538	0.19	3	99	0	6546	31.99674	11.2016	-106.2117	
14:18:01	-6.728612	38.94616	132.261	0.2232946	-5.381267	0.21	3	99	0	6546	31.9938	11.24883	-106.2244	
14:18:01	-6.728612	38.94616	132.307	0.2212986	-4.996131	0.17	3	99	0	6546	32.10218	11.18895	-106.2086	
14:18:02	-6.728612	38.94616	132.258	0.183804	-6.627957	0.08	3	99	0	6546	32.05913	11.40713	-106.2109	
14:18:02	-6.728612	38.94616	132.209	0.1506583	-7.883134	0.06	3	99	0	6548	32.20992	11.26327	-106.1714	
14:18:02	-6.728613	38.94616	132.196	0.14469	-7.582684	0.31	3	99	0	6546	32.1296	11.33887	-106.199	
14:18:02	-6.728613	38.94616	132.155	0.1405296	-6.937765	0.13	3	99	0	6546	31.94538	11.43711	-106.2373	
14:18:02	-6.728613	38.94616	132.139	0.1331169	-6.402657	0.07	3	99	0	6546	32.22203	11.23399	-106.1886	
14:18:02	-6.728613	38.94616	132.11	0.1194948	-6.135838	0.04	3	99	0	6546	32.24144	11.30804	-106.1814	
14:18:03	-6.728613	38.94616	132.115	0.09889582	-6.789314	0.04	3	99	0	6547	32.23279	11.37368	-106.1737	
14:18:03	-6.728613	38.94616	132.093	0.06728254	-8.106346	0.12	3	99	0	6546	32.15722	11.41361	-106.1958	
14:18:03	-6.728613	38.94616	132.031	0.04972252	-7.644888	0.07	3	99	0	6546	32.17253	11.49611	-106.1979	
14:18:03	-6.728613	38.94616	131.975	0.04971823	-6.83277	0.07	3	99	0	6546	32.25541	11.42383	-106.1763	
14:18:03	-6.728613	38.94616	131.967	0.06872786	-4.857756	0.09	3	99	0	6546	32.24403	11.29624	-106.1874	
14:18:04	-6.728613	38.94616	131.976	0.09961319	-1.426411	0.14	3	99	0	6546	32.17994	11.27523	-106.1844	
14:18:04	-6.728613	38.94616	132.04	0.1404857	0.4734333	0.06	3	99	0	6545	32.30204	11.24304	-106.1481	
14:18:04	-6.728613	38.94616	132.079	0.183976	2.954879	0.09	3	99	0	6546	32.15651	11.31415	-106.194	
14:18:04	-6.728613	38.94616	132.057	0.2314189	5.178433	0.19	3	99	0	6546	32.11974	11.2284	-106.1886	
14:18:04	-6.728614	38.94616	132.017	0.2936205	7.616059	0.08	3	99	0	6546	32.08252	11.17143	-106.1842	
14:18:04	-6.728614	38.94616	131.974	0.3501281	9.797433	0.09	3	99	0	6546	32.16532	11.23739	-106.1809	
14:18:05	-6.728614	38.94616	131.949	0.4025735	11.81267	0.03	3	99	0	6546	32.1706	11.2842	-106.1865	
14:18:05	-6.728614	38.94616	131.927	0.448509	13.07941	0.09	3	99	0	6546	32.2389	11.31692	-106.1772	
14:18:05	-6.728614	38.94616	131.92	0.4815426	14.21318	0.11	3	99	0	6546	32.25684	11.39266	-106.1716	
14:18:05	-6.728614	38.94616	131.952	0.5072575	14.08409	0.12	3	99	0	6546	32.34175	11.33673	-106.1698	
14:18:05	-6.728615	38.94616	131.896	0.5263383	13.71372	0.07	3	99	0	6546	32.31431	11.30644	-106.1905	
14:18:06	-6.728615	38.94616	131.836	0.519599	11.87284	0.07	3	99	0	6546	32.26144	11.36016	-106.1969	
14:18:06	-6.728616	38.94616	131.779	0.4945489	9.401912	0.14	3	99	0	6546	32.31205	11.33325	-106.1937	
14:18:06	-6.728616	38.94616	131.765	0.4647642	7.524791	0.09	3	99	0	6546	32.34434	11.35103	-106.1936	
14:18:06	-6.728616	38.94616	131.753	0.4346949	5.83098	0.09	3	99	0	6546	32.29612	11.33166	-106.2129	
14:18:06	-6.728616	38.94616	131.734	0.41737	4.314083	0.19	3	99	0	6546	32.31371	11.31864	-106.2117	
14:18:07	-6.728617	38.94616	131.67	0.4178001	4.420184	0.02	3	99	0	6546	32.32896	11.32477	-106.1961	
14:18:07	-6.728617	38.94616	131.641	0.4173937	3.762421	0.13	3	99	0	6546	32.23621	11.27327	-106.2128	
14:18:07	-6.728618	38.94616	131.571	0.3897841	2.230735	0.04	3	99	0	6544	32.27228	11.25478	-106.1891	
14:18:07	-6.728618	38.94616	131.587	0.3639345	0.04560906	0.07	3	99	0	6546	32.18332	11.30532	-106.2	
14:18:07	-6.728618	38.94616	131.553	0.3841431	1.06987	0.19	3	99	0	6546	32.28822	11.33082	-106.1928	
14:18:07	-6.728618	38.94616	131.535	0.4004691	1.692706	0.24	3	99	0	6546	32.4101	11.26986	-106.17	
14:18:08	-6.728618	38.94616	131.533	0.4341512	4.139869	0.26	3	99	0	6546	32.43399	11.20568	-106.1508	
14:18:08	-6.728618	38.94616	131.522	0.4652492	5.703234	0.04	3	99	0	6546	32.35426	11.27165	-106.1832	
14:18:08	-6.728619	38.94616	131.509	0.5080811	7.691393	0.03	3	99	0	6546	32.10514	11.36375	-106.2464	
14:18:08	-6.728619	38.94616	131.441	0.5460038	9.06668	0.02	3	99	0	6546	32.10762	11.3619	-106.2516	
14:18:08	-6.728619	38.94616	131.395	0.5600548	8.29541	0.22	3	99	0	6546	32.03091	11.35924	-106.2516	
14:18:09	-6.72862	38.94616	131.349	0.5683825	7.232216	0.19	3	99	0	6546	31.8642	11.39882	-106.2788	
14:18:09	-6.72862	38.94616	131.317	0.6073309	8.755073	0.22	3	99	0	6546	31.95449	11.28978	-106.2695	
14:18:09	-6.728621	38.94616	131.288	0.6405824	9.194512	0.09	3	99	0	6546	32.08668	11.15188	-106.2495	
14:18:09	-6.728621	38.94616	131.282	0.6748959	10.62462	0.21	3	99	0	6546	32.03234	11.28596	-106.2532	
14:18:09	-6.728621	38.94616	131.309	0.7024974	11.63534	0.19	3	99	0	6546	31.97305	11.35851	-106.2637	
14:18:10	-6.728621	38.94616	131.264	0.6676298	8.765596	0.13	3	99	0	6546	32.01326	11.36803	-106.2616	
14:18:10	-6.728621	38.94616	131.232	0.6336862	6.167915	0.22	3	99	0	6546	32.04853	11.31109	-106.243	
14:18:10	-6.728621	38.94616	131.218	0.6072922	4.465657	0.22	3	99	0	6546	32.0137	11.38104	-106.2466	
14:18:10	-6.728622	38.94616	131.191	0.582213	2.32549	0.11	3	99	0	6546	32.03855	11.40816	-106.2521	
14:18:11	-6.728622	38.94616	131.148	0.5621407	0.9011459	0.14	3	99	0	6546	32.07872	11.30076	-106.2636	
14:18:11	-6.728622	38.94616	131.179	0.545053	-0.4410643	0.17	3	99	0	6546	32.05736	11.3575	-106.2753	
14:18:11	-6.728622	38.94616	131.209	0.5467808	-0.6560982	0.12	3	99	0	6546	32.04533	11.46315	-106.2848	
14:18:11	-6.728622	38.94616	131.224	0.5485243	-0.06711036	0.11	3	99	0	6546	32.09906	11.35624	-106.2778	
14:18:11	-6.728623	38.94616	131.21	0.5238141	-1.032848	0.13	3	99	0	6546	32.10162	11.32642	-106.2884	
14:18:11	-6.728623	38.94616	131.195	0.5040852	-1.417312	0.14	3	99	0	6546	32.0871	11.35032	-106.2899	
14:18:12	-6.728623	38.94616	131.187	0.505062	-1.411734	0.06	3	99	0	6546	32.16709	11.30806	-106.2839	
14:18:12	-6.728623	38.94616	131.179	0.5360854	0.9321119	0.08	3	99	0	6546	32.17493	11.4137	-106.281	
14:18:12	-6.728624	38.94616	131.168	0.5730975	2.513215	0.09	3	99	0	6546	32.14073	11.43762	-106.2969	
14:18:12	-6.728624	38.94616	131.211	0.6180284	4.303648	0.07	3	99	0	6546	32.14058	11.41007	-106.2947	
14:18:12	-6.728624	38.94616	131.187	0.6360594	4.44363	0.11	3	99	0	6546	32.11754	11.47326	-106.2956	
14:18:13	-6.728624	38.94616	131.197	0.6299898	3.240991	0.11	3	99	0	6546	32.08598	11.47385	-106.2973	
14:18:13	-6.728624	38.94616	131.154	0.6412851	4.045477	0.08	3	99	0	6546	32.14929	11.4374	-106.2727	
14:18:13	-6.728624	38.94616	131.19	0.6620914	4.526449	0.04	3	99	0	6546	32.2177	11.41186	-106.2601	
14:18:13	-6.728624	38.94616	131.168	0.6813334	5.133751	0.07	3	99	0	6546	32.1916	11.47723	-106.27	
14:18:14	-6.728624	38.94616	131.147	0.6970352	5.619282	0.04	3	99	0	6546	32.21063	11.53607	-106.2816	
14:18:14	-6.728624	38.94616	131.15	0.6834772	4.225072	0.06	3	99	0	6545	32.27389	11.51619	-106.2656	
14:18:14	-6.728625	38.94616	131.123	0.6416794	1.282136	0.18	3	99	0	6547	32.18168	11.50229	-106.292	
14:18:14	-6.728625	38.94616	131.143	0.5822091	-2.222992	0.09	3	99	0	6546	32.16048	11.53786	-106.3131	
14:18:14	-6.728625	38.94616	131.126	0.4999327	-7.044426	0.09	3	99	0	6546	32.32026	11.56616	-106.2959	
14:18:15	-6.728625	38.94616	131.092	0.4439703	-9.40042	0.09	3	99	0	6546	32.32688	11.45822	-106.2956	
14:18:15	-6.728626	38.94616	131.057	0.404379	-11.08202	0.13	3	99	0	6546	32.34216	11.39201	-106.2604	
14:18:15	-6.728625	38.94616	131.074	0.39542	-11.20242	0.04	3	99	0	6546	32.34328	11.42539	-106.269	
14:18:15	-6.728625	38.94616	131.117	0.4131395	-9.473453	0.04	3	99	0	6546	32.2949	11.43032	-106.2788	
14:18:15	-6.728625	38.94616	131.121	0.4455597	-6.949967	0.14	3	99	0	6546	32.3534	11.44986	-106.2761	
14:18:16	-6.728625	38.94616	131.1	0.485593	-4.708272	0.19	3	99	0	6546	32.44977	11.4109	-106.2607	
14:18:16	-6.728625	38.94616	131.137	0.5074795	-3.083123	0.09	3	99	0	6546	32.40523	11.43517	-106.2495	
14:18:16	-6.728625	38.94616	131.145	0.5084186	-2.594032	0.11	3	99	0	6546	32.34182	11.45864	-106.2634	
14:18:16	-6.728625	38.94616	131.181	0.5166378	-1.651905	0.14	3	99	0	6546	32.36625	11.44555	-106.25	
14:18:16	-6.728625	38.94616	131.231	0.5350605	-1.026211	0.06	3	99	0	6546	32.32049	11.47825	-106.2686	
14:18:17	-6.728625	38.94616	131.235	0.5497884	-0.2596469	0.14	3	99	0	6546	32.3354	11.45596	-106.2607	
14:18:17	-6.728625	38.94616	131.24	0.5949809	1.871175	0.03	3	99	0	6546	32.32442	11.41443	-106.2558	
14:18:17	-6.728625	38.94616	131.268	0.6355807	3.487437	0.08	3	99	0	6546	32.22071	11.3956	-106.2775	
14:18:17	-6.728625	38.94616	131.321	0.6673245	4.899403	0.13	3	99	0	6546	32.14405	11.38248	-106.2896	
14:18:17	-6.728625	38.94616	131.353	0.6926458	5.270044	0.08	3	99	0	6546	32.0757	11.4243	-106.2956	
14:18:17	-6.728625	38.94616	131.378	0.7257777	6.480569	0.11	3	99	0	6546	32.07985	11.46863	-106.2931	
14:18:18	-6.728625	38.94616	131.379	0.7541412	6.618018	0.09	3	99	0	6546	32.14218	11.38862	-106.2569	
14:18:18	-6.728625	38.94616	131.376	0.8020046	8.455077	0.07	3	99	0	6546	32.1834	11.36778	-106.2538	
14:18:18	-6.728625	38.94616	131.372	0.8441379	9.987062	0.03	3	99	0	6546	32.18961	11.42651	-106.2353	
14:18:18	-6.728625	38.94616	131.414	0.8862445	11.39278	0.09	3	99	0	6546	32.18496	11.42872	-106.237	
14:18:19	-6.728625	38.94616	131.463	0.9187863	11.86551	0.04	3	99	0	6546	32.18205	11.40202	-106.2376	
14:18:19	-6.728625	38.94616	131.472	0.8879414	8.689551	0.19	3	99	0	6546	32.31075	11.34961	-106.2165	
14:18:19	-6.728625	38.94616	131.513	0.8575876	5.886168	0.18	3	99	0	6546	32.30999	11.23921	-106.2223	
