Date	Latitude(deg) 	Longitude(deg)	hamsl(m)	hafl(m)	climbrate(cm/s)	GroundSpeed(m/s)	Airspeed(m/s)	Mav_Link(%)	Rssi_Link(%)	Throttle	Roll(deg)	Pitch(deg)	Yaw(deg)
19:03:44	0	0	0	0	0	0	0	100	0	0	0.8264599	-0.356176	80.53268	
19:03:44	0	0	0	-0.2115586	-0.2920477	0	3	100	0	4	0.8293602	-0.3403972	80.59723	
19:03:44	0	0	0	-0.2566334	-3.736245	0	3	100	0	4	0.8340403	-0.3376462	80.65474	
19:03:44	0	0	0	-0.3417492	-9.137573	0	3	100	0	5	0.8430234	-0.3076172	80.72179	
19:03:44	0	0	0	-0.4468103	-14.79642	0	3	100	0	4	0.849253	-0.309517	80.79514	
19:03:45	0	0	0	-0.5836164	-21.51803	0	3	100	0	4	0.8529524	-0.3037601	80.85853	
19:03:45	0	0	0	-0.6058649	-21.62752	0	3	100	0	4	0.8378425	-0.2886637	80.91314	
19:03:45	0	0	0	-0.5068037	-15.61755	0	3	100	0	4	0.8457896	-0.2864985	80.95819	
19:03:45	0	0	0	-0.3734645	-8.219664	0	3	100	0	4	0.8481123	-0.294275	81.01151	
19:03:45	0	0	0	-0.1535601	3.076284	0	3	100	0	4	0.8540506	-0.3037315	81.0569	
19:03:46	0	0	0	-0.03216243	8.305041	0	3	100	0	4	0.8555598	-0.3025375	81.098	
19:03:46	0	0	0	0.05378241	11.41923	0	3	100	0	5	0.8598265	-0.2973804	81.14873	
19:03:46	0	0	0	0.1012306	11.75693	0	3	100	0	4	0.8545911	-0.3034745	81.1869	
19:03:46	0	0	0	0.1142195	10.54804	0	3	100	0	4	0.8575203	-0.3053565	81.23389	
19:03:46	0	0	0	0.1309054	9.252962	0	3	100	0	4	0.8604439	-0.2866024	81.27254	
19:03:47	0	0	0	0.1501813	8.674337	0	3	100	0	4	0.8486032	-0.271324	81.31059	
19:03:47	0	0	0	0.1397872	6.10206	0	3	100	0	4	0.8444236	-0.2539526	81.35227	
19:03:47	0	0	0	0.1011117	2.295217	0	3	100	0	4	0.843545	-0.2492571	81.40674	
19:03:47	0	0	0	0.0775195	0.2468893	0	3	100	0	4	0.8597414	-0.225554	81.44488	
19:03:47	0	0	0	0.06788609	-0.9694492	0	3	100	0	5	0.8554007	-0.2018306	81.46969	
19:03:48	0	0	0	0.05759645	-2.288682	0	3	100	0	4	0.8432922	-0.1990464	81.50417	
19:03:48	0	0	0	0.005873429	-5.836179	0	3	100	0	4	0.8473724	-0.2074625	81.53145	
19:03:48	0	0	0	-0.0418646	-8.933288	0	3	100	0	4	0.8500054	-0.2000209	81.55411	
19:03:48	0	0	0	-0.1187556	-13.88906	0	3	100	0	4	0.8557845	-0.1854616	81.59637	
19:03:48	0	0	0	-0.1825882	-16.81179	0	3	100	0	4	0.8675585	-0.1637168	81.63853	
19:03:49	0	0	0	-0.2317775	-18.95318	0	3	100	0	4	0.8679265	-0.1591114	81.66917	
19:03:49	0	0	0	-0.2794793	-20.64777	0	3	100	0	4	0.8712803	-0.1564112	81.7103	
19:03:49	0	0	0	-0.2998273	-20.3285	0	3	100	0	4	0.8694047	-0.1659426	81.73194	
19:03:49	0	0	0	-0.3180342	-20.26931	0	3	100	0	4	0.8669459	-0.192601	81.76325	
19:03:49	0	0	0	-0.3103844	-18.76054	0	3	100	0	4	0.8567941	-0.2040872	81.78683	
19:03:50	0	0	0	-0.3023859	-17.71293	0	3	100	0	4	0.8528716	-0.1883101	81.81567	
19:03:50	0	0	0	-0.3106856	-16.78158	0	3	100	0	4	0.8392434	-0.1586516	81.82608	
19:03:50	0	0	0	-0.315876	-16.17651	0	3	100	0	4	0.8520442	-0.139654	81.85091	
19:03:50	0	0	0	-0.3375685	-16.45116	0	3	100	0	4	0.8502168	-0.1494188	81.8838	
19:03:50	0	0	0	-0.353898	-16.63399	0	3	100	0	4	0.8556257	-0.1414767	81.91056	
19:03:51	0	0	0	-0.3833656	-17.16061	0	3	100	0	5	0.8596957	-0.119639	81.94728	
19:03:51	0	0	0	-0.4094085	-16.80856	0	3	100	0	4	0.8712155	-0.09675443	81.97369	
19:03:51	0	0	0	-0.4224432	-16.16612	0	3	100	0	4	0.8766601	-0.07045214	82.00877	
19:03:51	0	0	0	-0.4340503	-16.30911	0	3	100	0	4	0.8754755	-0.07583938	82.03271	
19:03:52	0	0	0	-0.4029231	-13.52108	0	3	100	0	4	0.8757464	-0.06573294	82.04226	
19:03:52	0	0	0	-0.3762766	-11.68627	0	3	100	0	4	0.8819262	-0.05254545	82.08209	
19:03:52	0	0	0	-0.4095546	-12.80663	0	3	100	0	5	0.8849365	-0.05417827	82.11132	
19:03:52	0	0	0	-0.4382294	-13.68807	0	3	100	0	4	0.8809396	-0.07216807	82.14497	
19:03:52	0	0	0	-0.457512	-13.68608	0	3	100	0	4	0.8698598	-0.05971797	82.16283	
19:03:53	0	0	0	-0.4736532	-13.74605	0	3	100	0	4	0.86753	-0.08528731	82.1569	
19:03:53	0	0	0	-0.4840651	-13.48702	0	3	100	0	4	0.8640878	-0.08232828	82.16341	
19:03:53	0	0	0	-0.4916434	-13.39473	0	3	100	0	4	0.8547956	-0.06859326	82.17243	
19:03:53	0	0	0	-0.5054694	-13.19177	0	3	100	0	4	0.8485007	-0.07307302	82.16969	
19:03:53	0	0	0	-0.5302266	-14.02628	0	3	100	0	4	0.8467934	-0.06961619	82.16193	
19:03:54	0	0	0	-0.5448726	-14.15928	0	3	100	0	4	0.8446001	-0.06960327	82.16514	
19:03:54	0	0	0	-0.5532219	-13.74081	0	3	100	0	4	0.8451163	-0.0640939	82.16537	
19:03:54	0	0	0	-0.5801482	-14.64987	0	3	100	0	4	0.8480452	-0.05866683	82.17958	
19:03:54	0	0	0	-0.6166935	-16.43988	0	3	100	0	4	0.8445334	-0.06539968	82.19724	
19:03:54	0	0	0	-0.6309422	-16.32563	0	3	100	0	4	0.8459081	-0.07002049	82.20959	
19:03:55	0	0	0	-0.6308133	-15.65064	0	3	100	0	4	0.8362021	-0.06451888	82.21702	
19:03:55	0	0	0	-0.6253525	-14.22321	0	3	100	0	4	0.8319929	-0.06190421	82.23759	
19:03:55	0	0	0	-0.6132134	-13.07858	0	3	100	0	4	0.8432862	-0.07345509	82.24124	
19:03:55	0	0	0	-0.5658237	-10.1206	0	3	100	0	4	0.8418049	-0.07297653	82.24855	
19:03:55	0	0	0	-0.461211	-4.05266	0	3	100	0	4	0.8417354	-0.06983525	82.25686	
19:03:56	0	0	0	-0.4144894	-1.969106	0	3	100	0	4	0.8419963	-0.04899657	82.26208	
19:03:56	0	0	0	-0.4093587	-2.121732	0	3	100	0	4	0.8398356	-0.0703936	82.25974	
19:03:56	0	0	0	-0.3936927	-1.887405	0	3	100	0	4	0.8402719	-0.08526476	82.26983	
19:03:56	0	0	0	-0.3674294	-1.134722	0	3	100	0	4	0.8425841	-0.08666083	82.27289	
19:03:56	0	0	0	-0.3168138	1.280224	0	3	100	0	4	0.8560246	-0.07691365	82.27568	
19:03:57	0	0	0	-0.2387101	4.575496	0	3	100	0	4	0.8626605	-0.07262506	82.26789	
19:03:57	0	0	0	-0.1726274	7.121595	0	3	100	0	6	0.865998	-0.06506447	82.26327	
19:03:57	0	0	0	-0.1205899	8.280856	0	3	100	0	4	0.8754917	-0.06958985	82.27083	
19:03:57	0	0	0	-0.08880811	8.304263	0	3	100	0	4	0.8765498	-0.09657564	82.25925	
19:03:57	0	0	0	-0.07931723	7.498209	0	3	100	0	4	0.8817059	-0.08330765	82.26659	
19:03:58	0	0	0	-0.07451264	6.173475	0	3	100	0	4	0.88758	-0.0861757	82.24829	
19:03:58	0	0	0	-0.09865005	3.754679	0	3	100	0	4	0.8933232	-0.1041584	82.23877	
19:03:58	0	0	0	-0.1226237	1.221948	0	3	100	0	5	0.8897512	-0.1017638	82.23299	
19:03:58	0	0	0	-0.1421612	-0.6880239	0	3	100	0	4	0.9066837	-0.0963447	82.23779	
19:03:58	0	0	0	-0.1600794	-2.064567	0	3	100	0	5	0.9103857	-0.09597216	82.22501	
19:03:59	0	0	0	-0.1214593	-0.3355742	0	3	100	0	4	0.9025491	-0.1189778	82.19557	
19:03:59	0	0	0	-0.08714782	1.085881	0	3	100	0	4	0.8966174	-0.1153933	82.18007	
19:03:59	0	0	0	0.004188087	5.291022	0	3	100	0	4	0.9150202	-0.115435	82.16215	
19:03:59	0	0	0	0.08575296	8.613751	0	3	100	0	4	0.9155348	-0.1060273	82.14867	
19:03:59	0	0	0	0.1674395	11.38869	0	3	100	0	4	0.910061	-0.1001597	82.1372	
19:04:00	0	0	0	0.2316158	13.17925	0	3	100	0	4	0.9157389	-0.1032649	82.11495	
19:04:00	0	0	0	0.2507269	12.13095	0	3	100	0	4	0.9188669	-0.09828992	82.10211	
19:04:00	0	0	0	0.2648396	11.30132	0	3	100	0	4	0.9198998	-0.09030739	82.08685	
19:04:00	0	0	0	0.2884023	11.13633	0	3	100	0	4	0.9205093	-0.08621779	82.06629	
19:04:00	0	0	0	0.306211	10.26371	0	3	100	0	4	0.9115723	-0.09315041	82.04903	
19:04:01	0	0	0	0.2808503	8.245363	0	3	100	0	4	0.9141358	-0.1070046	82.04771	
19:04:01	0	0	0	0.2537103	5.70766	0	3	100	0	5	0.9101167	-0.115522	82.03846	
19:04:01	0	0	0	0.1161975	-2.868837	0	3	100	0	4	0.9172896	-0.133252	82.02553	
19:04:01	0	0	0	-0.009468652	-9.36616	0	3	100	0	4	0.9078624	-0.1592173	81.99722	
19:04:01	0	0	0	-0.1133109	-13.8397	0	3	100	0	4	0.9082541	-0.1736792	81.98184	
19:04:02	0	0	0	-0.1961809	-17.11836	0	3	100	0	4	0.9093708	-0.1669311	81.97234	
19:04:02	0	0	0	-0.2703035	-19.81631	0	3	100	0	4	0.9131928	-0.1843223	81.95298	
19:04:02	0	0	0	-0.3346074	-21.53273	0	3	100	0	4	0.9052435	-0.1965479	81.93398	
19:04:02	0	0	0	-0.3789248	-22.37768	0	3	100	0	4	0.9048716	-0.1979813	81.91212	
19:04:02	0	0	0	-0.4211631	-23.20697	0	3	100	0	4	0.9134406	-0.1993758	81.89722	
19:04:03	0	0	0	-0.4584551	-23.15786	0	3	100	0	4	0.9157201	-0.203474	81.87805	
19:04:03	0	0	0	-0.4908816	-23.59424	0	3	100	0	4	0.9171098	-0.2225146	81.83636	
19:04:03	0	0	0	-0.5052389	-22.75637	0	3	100	0	5	0.9209728	-0.2354835	81.79689	
19:04:03	0	0	0	-0.4960867	-19.93153	0	3	100	0	4	0.9106297	-0.2488589	81.75819	
19:04:03	0	0	0	-0.4875913	-17.74933	0	3	100	0	4	0.901166	-0.2523013	81.71249	
19:04:04	0	0	0	-0.4815911	-16.22625	0	3	100	0	4	0.8921079	-0.2350111	81.67652	
19:04:04	0	0	0	-0.4827398	-15.22625	0	3	100	0	4	0.8857267	-0.2329054	81.64175	
19:04:04	0	0	0	-0.4875463	-14.77563	0	3	100	0	4	0.8916828	-0.2151859	81.62116	
19:04:04	0	0	0	-0.4595152	-12.40109	0	3	100	0	4	0.8954937	-0.2383599	81.593	
19:04:05	0	0	0	-0.4033165	-8.430745	0	3	100	0	4	0.8933244	-0.2181515	81.57182	
19:04:05	0	0	0	-0.3468357	-4.594256	0	3	100	0	4	0.9005791	-0.2096137	81.53783	
19:04:05	0	0	0	-0.2994705	-2.262428	0	3	100	0	4	0.8937906	-0.194803	81.52046	
19:04:05	0	0	0	-0.2549361	-0.8706964	0	3	100	0	4	0.9078942	-0.1744621	81.51131	
19:04:05	0	0	0	-0.21363	0.8885583	0	3	100	0	4	0.9091998	-0.1693324	81.48994	
19:04:05	0	0	0	-0.1760604	3.011308	0	3	100	0	4	0.9159421	-0.1538103	81.475	
19:04:06	0	0	0	-0.1425268	4.156724	0	3	100	0	4	0.917984	-0.1474377	81.4616	
19:04:06	0	0	0	-0.1371567	4.09369	0	3	100	0	4	0.9203112	-0.1547184	81.43546	
19:04:06	0	0	0	-0.1486117	2.612993	0	3	100	0	5	0.9105462	-0.1610271	81.40291	
19:04:06	0	0	0	-0.1335848	3.175344	0	3	100	0	4	0.9118293	-0.195702	81.39173	
19:04:06	0	0	0	-0.09654205	5.335155	0	3	100	0	4	0.9184556	-0.2214149	81.37292	
19:04:07	0	0	0	-0.06691328	6.508978	0	3	100	0	4	0.905069	-0.2293323	81.35175	
19:04:07	0	0	0	-0.04616721	6.495754	0	3	100	0	4	0.9052383	-0.2264507	81.32767	
19:04:07	0	0	0	-0.02124006	6.988545	0	3	100	0	4	0.9064245	-0.2063242	81.31929	
19:04:07	0	0	0	0.01471742	7.645138	0	3	100	0	4	0.8917148	-0.1927611	81.32008	
19:04:07	0	0	0	0.04075247	7.418068	0	3	100	0	4	0.8902168	-0.1990342	81.29947	
19:04:08	0	0	0	0.04753922	7.524235	0	3	100	0	4	0.8847843	-0.2071968	81.27244	
19:04:08	0	0	0	0.05270731	6.965382	0	3	100	0	5	0.8721985	-0.1896979	81.26632	
19:04:08	0	0	0	0.07880082	7.533476	0	3	100	0	4	0.8825294	-0.1863078	81.23303	
19:04:08	0	0	0	0.09857016	7.426595	0	3	100	0	4	0.8962123	-0.1822881	81.21317	
19:04:08	0	0	0	0.09736615	6.53938	0	3	100	0	4	0.8991295	-0.1815117	81.19202	
19:04:09	0	0	0	0.09524913	6.212996	0	3	100	0	4	0.9034742	-0.1962463	81.16325	
19:04:09	0	0	0	0.06092358	3.109834	0	3	100	0	5	0.9037917	-0.2137909	81.15294	
19:04:09	0	0	0	0.02792492	0.8811081	0	3	100	0	5	0.8955754	-0.2009584	81.13453	
19:04:09	0	0	0	0.02880868	0.4648047	0	3	100	0	4	0.8935407	-0.2087185	81.08865	
19:04:09	0	0	0	0.02950001	1.056453	0	3	100	0	4	0.8919382	-0.1960324	81.06247	
19:04:10	0	0	0	0.03397772	0.648514	0	3	100	0	4	0.8874911	-0.2067253	81.04379	
19:04:10	0	0	0	0.03645993	0.2006285	0	3	100	0	4	0.8857517	-0.2126421	81.02956	
19:04:10	0	0	0	0.04657223	0.6019886	0	3	100	0	4	0.8862398	-0.2435482	81.00048	
19:04:10	0	0	0	0.05495939	1.19285	0	3	100	0	4	0.8822987	-0.2376371	80.99091	
19:04:10	0	0	0	0.08012567	2.557272	0	3	100	0	4	0.8717329	-0.2564171	80.98025	
19:04:11	0	0	0	0.1022882	2.922125	0	3	100	0	4	0.8669646	-0.2603235	80.97601	
19:04:11	0	0	0	0.1114535	2.746067	0	3	100	0	4	0.8741133	-0.277163	80.96086	
19:04:11	0	0	0	0.118902	2.840229	0	3	100	0	4	0.8658964	-0.2731684	80.94034	
19:04:11	0	0	0	0.2266124	8.060367	0	3	100	0	4	0.8626958	-0.2770598	80.93088	
19:04:11	0	0	0	0.3146663	11.90027	0	3	100	0	4	0.8623974	-0.2755254	80.90896	
19:04:12	0	0	0	0.3392119	11.49564	0	3	100	0	4	0.8602635	-0.2745971	80.88583	
19:04:12	0	0	0	0.358902	11.23545	0	3	100	0	4	0.8605049	-0.3026854	80.88224	
19:04:12	0	0	0	0.383158	11.02503	0	3	100	0	4	0.8742827	-0.3002215	80.85522	
19:04:12	0	0	0	0.4051162	11.0691	0	3	100	0	5	0.8787872	-0.3243231	80.8399	
19:04:12	0	0	0	0.4077713	9.710069	0	3	100	0	4	0.8815857	-0.3296537	80.82724	
19:04:13	0	0	0	0.3874619	7.714726	0	3	100	0	4	0.881236	-0.3407238	80.80733	
19:04:13	0	0	0	0.3835655	6.741353	0	3	100	0	4	0.8885684	-0.339662	80.76694	
19:04:13	0	0	0	0.4027995	6.551363	0	3	100	0	4	0.881206	-0.3393157	80.72263	
19:04:13	0	0	0	0.3866819	4.903481	0	3	100	0	4	0.8793657	-0.3349769	80.69202	
19:04:13	0	0	0	0.3517164	2.241739	0	3	100	0	4	0.8743374	-0.3473461	80.65208	
19:04:14	0	0	0	0.3093063	-0.4618256	0	3	100	0	4	0.8759823	-0.3391463	80.6413	
19:04:14	0	0	0	0.2629988	-2.782362	0	3	100	0	4	0.8693902	-0.3242078	80.63027	
19:04:14	0	0	0	0.2213768	-5.064871	0	3	100	0	4	0.8715945	-0.3193368	80.61819	
19:04:14	0	0	0	0.1762341	-7.093699	0	3	100	0	4	0.8636128	-0.3498879	80.59574	
19:04:14	0	0	0	0.141535	-8.199065	0	3	100	0	4	0.8656989	-0.3585066	80.56776	
19:04:15	0	0	0	0.1176481	-8.794223	0	3	100	0	4	0.8682973	-0.3637437	80.54254	
19:04:15	0	0	0	0.1114662	-8.536	0	3	100	0	4	0.8740965	-0.3556505	80.52159	
19:04:15	0	0	0	0.1287527	-6.918924	0	3	100	0	4	0.8772179	-0.3405097	80.50879	
19:04:15	0	0	0	0.1519544	-5.029002	0	3	100	0	4	0.8772429	-0.3228866	80.49151	
19:04:15	0	0	0	0.178739	-3.48407	0	3	100	0	4	0.8860763	-0.3049408	80.47632	
19:04:16	0	0	0	0.1943876	-2.417431	0	3	100	0	4	0.8884633	-0.2896087	80.46993	
19:04:16	0	0	0	0.203028	-2.3068	0	3	100	0	4	0.8829778	-0.2935843	80.46632	
19:04:16	0	0	0	0.2020352	-2.510548	0	3	100	0	5	0.8722629	-0.2955051	80.45295	
19:04:16	0	0	0	0.1913083	-3.150493	0	3	100	0	4	0.8668544	-0.2959197	80.43604	
19:04:16	0	0	0	0.1342563	-6.44954	0	3	100	0	4	0.8647776	-0.3091232	80.43313	
19:04:17	0	0	0	0.01540799	-12.26397	0	3	100	0	4	0.8708575	-0.3160671	80.42207	
19:04:17	0	0	0	-0.06898739	-15.74428	0	3	100	0	4	0.8706626	-0.3116606	80.41891	
19:04:17	0	0	0	-0.11684	-16.74525	0	3	100	0	4	0.8629699	-0.3044017	80.4021	
19:04:17	0	0	0	-0.1529643	-16.92508	0	3	100	0	4	0.8681045	-0.3240364	80.38614	
19:04:17	0	0	0	-0.1867301	-17.10351	0	3	100	0	4	0.8555981	-0.3205414	80.37991	
19:04:18	0	0	0	-0.2138431	-16.89943	0	3	100	0	4	0.8641098	-0.3339168	80.37917	
19:04:18	0	0	0	-0.1730547	-13.22364	0	3	100	0	4	0.856875	-0.352347	80.36272	
19:04:18	0	0	0	-0.1374623	-10.14999	0	3	100	0	4	0.8503096	-0.3562687	80.35271	
19:04:18	0	0	0	-0.09526168	-7.025178	0	3	100	0	4	0.8530172	-0.3519175	80.33303	
19:04:18	0	0	0	-0.05142434	-4.192129	0	3	100	0	4	0.8501514	-0.3461747	80.31987	
19:04:19	0	0	0	-0.02978164	-2.784307	0	3	100	0	4	0.85108	-0.331493	80.29218	
19:04:19	0	0	0	-0.01161155	-1.639555	0	3	100	0	4	0.8508276	-0.3173055	80.28095	
19:04:19	0	0	0	0.04820056	1.712098	0	3	100	0	4	0.8573877	-0.318659	80.27854	
19:04:19	0	0	0	0.09683111	4.198912	0	3	100	0	4	0.8657489	-0.3206247	80.27433	
19:04:19	0	0	0	0.1097017	4.398394	0	3	100	0	4	0.8585411	-0.3424997	80.26369	
19:04:20	0	0	0	0.1196114	4.027568	0	3	100	0	5	0.8565817	-0.3538955	80.23959	
19:04:20	0	0	0	0.122931	3.750441	0	3	100	0	4	0.8629307	-0.3666545	80.22581	
19:04:20	0	0	0	0.1251846	3.426854	0	3	100	0	4	0.8541551	-0.3798775	80.19577	
19:04:20	0	0	0	0.09139363	0.8958941	0	3	100	0	4	0.8404567	-0.4071086	80.18133	
19:04:20	0	0	0	0.05955329	-1.0005	0	3	100	0	4	0.8336344	-0.432339	80.16383	
19:04:21	0	0	0	0.07172248	-0.5998366	0	3	100	0	4	0.8356383	-0.4423879	80.13171	
19:04:21	0	0	0	0.08306829	0.03595264	0	3	100	0	4	0.8415104	-0.4227068	80.12526	
19:04:21	0	0	0	0.1364147	2.547816	0	3	100	0	4	0.8469209	-0.4247867	80.10322	
19:04:21	0	0	0	0.1840226	4.845797	0	3	100	0	4	0.8583176	-0.4332061	80.09923	
19:04:22	0	0	0	0.1979333	4.762787	0	3	100	0	4	0.8633614	-0.4377808	80.07206	
19:04:22	0	0	0	0.2094615	4.966083	0	3	100	0	4	0.8666282	-0.460117	80.05498	
19:04:22	0	0	0	0.2424148	6.33511	0	3	100	0	4	0.8756638	-0.4646348	80.03908	
19:04:22	0	0	0	0.2710468	7.171138	0	3	100	0	4	0.8772042	-0.4770282	80.02524	
19:04:22	0	0	0	0.2630895	5.862675	0	3	100	0	4	0.8870894	-0.482333	80.01807	
19:04:22	0	0	0	0.2235322	3.298173	0	3	100	0	4	0.8836522	-0.4895018	79.99827	
19:04:23	0	0	0	0.1841277	0.6740636	0	3	100	0	4	0.892022	-0.4730106	79.98792	
19:04:23	0	0	0	0.1330925	-1.998511	0	3	100	0	4	0.8860801	-0.4583493	79.97251	
19:04:23	0	0	0	0.09402201	-4.072218	0	3	100	0	4	0.8845448	-0.4477848	79.95005	
19:04:23	0	0	0	0.06069801	-5.751402	0	3	100	0	4	0.8851898	-0.4562995	79.929	
19:04:23	0	0	0	0.06308378	-5.757236	0	3	100	0	4	0.8844804	-0.4606552	79.9174	
19:04:24	0	0	0	0.08642037	-4.559877	0	3	100	0	4	0.8774018	-0.4700071	79.90435	
19:04:24	0	0	0	0.1108426	-2.978338	0	3	100	0	4	0.8802436	-0.4721735	79.88976	
19:04:24	0	0	0	0.1399869	-1.420416	0	3	100	0	4	0.8836394	-0.4580624	79.8773	
19:04:24	0	0	0	0.1453211	-1.347587	0	3	100	0	5	0.8891866	-0.4517206	79.86713	
19:04:24	0	0	0	0.120108	-2.495201	0	3	100	0	4	0.8877245	-0.4633578	79.85371	
19:04:25	0	0	0	0.1009587	-3.6323	0	3	100	0	4	0.8876047	-0.456573	79.83511	
19:04:25	0	0	0	0.08845884	-4.02018	0	3	100	0	4	0.8841472	-0.4674619	79.81595	
19:04:25	0	0	0	0.06427379	-5.376287	0	3	100	0	4	0.8809276	-0.469925	79.80196	
19:04:25	0	0	0	0.03333106	-6.723678	0	3	100	0	4	0.883218	-0.4536634	79.79556	
19:04:25	0	0	0	0.02767439	-6.69478	0	3	100	0	4	0.8907996	-0.4375301	79.8004	
19:04:26	0	0	0	0.03716294	-5.552814	0	3	100	0	4	0.894417	-0.420314	79.79466	
19:04:26	0	0	0	0.04795475	-4.511056	0	3	100	0	4	0.9144741	-0.4229061	79.77128	
19:04:26	0	0	0	0.06107589	-4.078187	0	3	100	0	5	0.9216731	-0.4131406	79.76988	
19:04:26	0	0	0	0.04745649	-4.321762	0	3	100	0	4	0.9282174	-0.4003444	79.75459	
19:04:26	0	0	0	-0.005380547	-6.935356	0	3	100	0	4	0.9377584	-0.3841377	79.74861	
19:04:27	0	0	0	-0.04402731	-8.572155	0	3	100	0	4	0.9430556	-0.3755557	79.7337	
19:04:27	0	0	0	-0.08516442	-10.31014	0	3	100	0	4	0.9373536	-0.3563676	79.73318	
19:04:27	0	0	0	-0.1178141	-11.42791	0	3	100	0	4	0.9335279	-0.3501605	79.73193	
19:04:27	0	0	0	-0.1159119	-10.63773	0	3	100	0	4	0.9428199	-0.3442361	79.72334	
19:04:27	0	0	0	-0.112858	-9.753471	0	3	100	0	4	0.938694	-0.3421445	79.71741	
19:04:28	0	0	0	-0.06469671	-6.005277	0	3	100	0	4	0.9270917	-0.3535076	79.71483	
19:04:28	0	0	0	-0.02321267	-3.090138	0	3	100	0	4	0.9334074	-0.3531352	79.70682	
19:04:28	0	0	0	-0.01761674	-2.454624	0	3	100	0	4	0.9473296	-0.3698578	79.69308	
19:04:28	0	0	0	-0.0117064	-1.632595	0	3	100	0	4	0.9446694	-0.3861479	79.67008	
19:04:28	0	0	0	-0.0006667415	-0.9812301	0	3	100	0	4	0.951452	-0.3774421	79.65524	
19:04:29	0	0	0	0.009231468	-0.63718	0	3	100	0	4	0.9551408	-0.3563621	79.66311	
19:04:29	0	0	0	0.05786402	1.873406	0	3	100	0	4	0.9454643	-0.358751	79.66533	
19:04:29	0	0	0	0.09805211	4.041625	0	3	100	0	4	0.9401835	-0.3648794	79.64777	
19:04:29	0	0	0	0.1537371	6.361414	0	3	100	0	5	0.9278139	-0.3505839	79.62723	
19:04:29	0	0	0	0.2032761	8.272852	0	3	100	0	4	0.931969	-0.3357061	79.62858	
19:04:30	0	0	0	0.25054	9.796041	0	3	100	0	4	0.9344482	-0.3251171	79.63298	
19:04:30	0	0	0	0.2876129	10.89231	0	3	100	0	4	0.9407919	-0.321007	79.63144	
19:04:30	0	0	0	0.300209	10.14915	0	3	100	0	4	0.9398411	-0.3032849	79.62843	
19:04:30	0	0	0	0.3092143	9.558468	0	3	100	0	4	0.931661	-0.3130324	79.63838	
19:04:30	0	0	0	0.342534	10.06306	0	3	100	0	4	0.9368424	-0.3315389	79.6355	
19:04:31	0	0	0	0.3711295	10.52499	0	3	100	0	4	0.9347494	-0.3402214	79.63235	
19:04:31	0	0	0	0.3749407	9.616234	0	3	100	0	4	0.9335802	-0.3493282	79.62337	
19:04:31	0	0	0	0.3755522	8.431981	0	3	100	0	4	0.9279403	-0.3590944	79.63024	
19:04:31	0	0	0	0.2663646	1.81532	0	3	100	0	4	0.9284097	-0.3849176	79.63139	
19:04:31	0	0	0	0.1662745	-3.652081	0	3	100	0	4	0.9236189	-0.392631	79.61535	
19:04:32	0	0	0	0.1170647	-5.603573	0	3	100	0	4	0.9179416	-0.3918422	79.6171	
19:04:32	0	0	0	0.07787219	-7.105528	0	3	100	0	4	0.9142432	-0.3881387	79.61478	
19:04:32	0	0	0	0.05903615	-7.721161	0	3	100	0	4	0.922784	-0.376333	79.6176	
19:04:32	0	0	0	0.07105098	-7.093121	0	3	100	0	4	0.9184025	-0.3826146	79.60525	
19:04:32	0	0	0	0.08090939	-5.624595	0	3	100	0	6	0.9178787	-0.3837994	79.59087	
19:04:33	0	0	0	0.0898736	-4.496537	0	3	100	0	4	0.9205564	-0.3735924	79.57645	
19:04:33	0	0	0	0.10106	-4.337627	0	3	100	0	4	0.9232624	-0.3790218	79.57306	
19:04:33	0	0	0	0.1151596	-3.783184	0	3	100	0	4	0.9207076	-0.3859054	79.57294	
19:04:33	0	0	0	0.09428138	-4.932853	0	3	100	0	4	0.9156463	-0.3993441	79.5723	
19:04:33	0	0	0	0.05503974	-5.749333	0	3	100	0	4	0.9145473	-0.4021521	79.58092	
19:04:34	0	0	0	0.03798511	-5.953712	0	3	100	0	5	0.9165249	-0.4125457	79.58732	
19:04:34	0	0	0	0.03338745	-5.201317	0	3	100	0	4	0.9251559	-0.3925946	79.59014	
19:04:34	0	0	0	0.02410803	-5.722016	0	3	100	0	5	0.9270712	-0.3998356	79.58134	
19:04:34	0	0	0	0.008062409	-5.840374	0	3	100	0	4	0.9281056	-0.4130794	79.57728	
19:04:34	0	0	0	-0.0032621	-5.744535	0	3	100	0	4	0.9248788	-0.399403	79.57941	
19:04:35	0	0	0	-0.01034536	-5.236599	0	3	100	0	4	0.9270597	-0.4052962	79.58081	
19:04:35	0	0	0	0.006012328	-3.833782	0	3	100	0	4	0.9229052	-0.4236741	79.56388	
19:04:35	0	0	0	0.03500907	-2.247418	0	3	100	0	5	0.9130353	-0.4320718	79.55571	
19:04:35	0	0	0	0.02351497	-2.429193	0	3	100	0	4	0.9113134	-0.4591099	79.55742	
19:04:35	0	0	0	-0.01188245	-4.165494	0	3	100	0	4	0.90454	-0.4545951	79.54939	
19:04:36	0	0	0	-0.01195053	-4.221463	0	3	100	0	4	0.9078238	-0.43196	79.55015	
19:04:36	0	0	0	0.00718231	-2.663971	0	3	100	0	4	0.9067672	-0.4397353	79.5453	
19:04:36	0	0	0	-0.005947473	-2.846482	0	3	100	0	3	0.9007475	-0.4426305	79.52722	
19:04:36	0	0	0	-0.0638722	-5.782078	0	3	100	0	4	0.8931976	-0.428464	79.51497	
19:04:36	0	0	0	-0.08933616	-6.301647	0	3	100	0	4	0.878235	-0.4321927	79.52505	
19:04:37	0	0	0	-0.07326025	-4.88833	0	3	100	0	4	0.880335	-0.4376249	79.52172	
19:04:37	0	0	0	-0.05890258	-3.211524	0	3	100	0	4	0.8813207	-0.4523221	79.50532	
19:04:37	0	0	0	-0.04169153	-2.142447	0	3	100	0	4	0.8873744	-0.4397925	79.50156	
19:04:37	0	0	0	-0.02480192	-0.3555847	0	3	100	0	4	0.8813241	-0.4574593	79.49315	
19:04:37	0	0	0	-0.02652417	-1.144627	0	3	100	0	4	0.8836883	-0.4396666	79.49451	
19:04:38	0	0	0	-0.02851748	-1.100138	0	3	100	0	4	0.8867001	-0.4114351	79.49821	
19:04:38	0	0	0	-0.04600557	-1.998325	0	3	100	0	3	0.8762428	-0.4288225	79.49723	
19:04:38	0	0	0	-0.06091929	-2.371143	0	3	100	0	4	0.8781016	-0.4353161	79.49403	
19:04:38	0	0	0	-0.0242671	-0.1351241	0	3	100	0	4	0.8788055	-0.4476584	79.48027	
19:04:38	0	0	0	0.008636205	1.229958	0	3	100	0	4	0.8694276	-0.4490158	79.46739	
19:04:39	0	0	0	0.06566182	3.949204	0	3	100	0	4	0.8732613	-0.4250473	79.4645	
19:04:39	0	0	0	0.1120666	5.888345	0	3	100	0	4	0.8736599	-0.4196295	79.47343	
19:04:39	0	0	0	0.1047966	4.596541	0	3	100	0	4	0.8746556	-0.4403857	79.46075	
19:04:39	0	0	0	0.09720661	3.932475	0	3	100	0	5	0.9079302	-0.4292858	79.44488	
19:04:39	0	0	0	0.08935738	2.846442	0	3	100	0	4	0.9153945	-0.4281003	79.44156	
19:04:40	0	0	0	0.08215514	2.014053	0	3	100	0	4	0.9163178	-0.4416051	79.42863	
19:04:40	0	0	0	0.06028147	0.8623527	0	3	100	0	4	0.9151022	-0.4327368	79.43002	
19:04:40	0	0	0	0.04091235	-0.2518457	0	3	100	0	4	0.9176291	-0.4168659	79.43473	
19:04:40	0	0	0	0.0004632706	-2.18388	0	3	100	0	4	0.9119319	-0.403058	79.43388	
19:04:40	0	0	0	-0.03622271	-4.279077	0	3	100	0	4	0.9194596	-0.4161956	79.42953	
19:04:41	0	0	0	-0.04653233	-4.795053	0	3	100	0	4	0.9181846	-0.4257239	79.44138	
19:04:41	0	0	0	-0.05476684	-4.771565	0	3	100	0	5	0.9120668	-0.4311576	79.4377	
19:04:41	0	0	0	-0.06975872	-5.331935	0	3	100	0	4	0.8949277	-0.44802	79.44765	
19:04:41	0	0	0	-0.0831018	-5.922874	0	3	100	0	4	0.9006779	-0.4462494	79.43901	
19:04:41	0	0	0	-0.03774271	-2.693148	0	3	100	0	4	0.9170741	-0.4625737	79.43605	
19:04:42	0	0	0	0.0008214619	-0.2589454	0	3	100	0	4	0.9290881	-0.45299	79.42798	
19:04:42	0	0	0	0.01239806	0.4402829	0	3	100	0	5	0.9374483	-0.453048	79.44816	
19:04:42	0	0	0	-0.01864028	-1.655655	0	3	100	0	4	0.9365515	-0.4284707	79.46004	
19:04:42	0	0	0	-0.04194468	-2.77	0	3	100	0	4	0.9345582	-0.440583	79.45171	
19:04:42	0	0	0	-0.05504673	-2.796216	0	3	100	0	4	0.9393765	-0.4217498	79.44331	
19:04:43	0	0	0	-0.05323387	-2.512085	0	3	100	0	4	0.9442376	-0.3818474	79.44632	
19:04:43	0	0	0	-0.04096107	-1.200453	0	3	100	0	4	0.9414076	-0.3713201	79.46882	
19:04:43	0	0	0	-0.0621588	-2.142251	0	3	100	0	4	0.9410931	-0.403858	79.46629	
19:04:43	0	0	0	-0.09844953	-3.979323	0	3	100	0	4	0.9296069	-0.4250318	79.4763	
19:04:43	0	0	0	-0.11834	-4.485856	0	3	100	0	4	0.9118487	-0.4276611	79.46435	
19:04:44	0	0	0	-0.1207728	-4.527476	0	3	100	0	4	0.9021918	-0.4394984	79.45298	
19:04:44	0	0	0	-0.1437234	-5.665045	0	3	100	0	4	0.8922409	-0.445091	79.44646	
19:04:44	0	0	0	-0.1815239	-7.555266	0	3	100	0	4	0.8968524	-0.4271214	79.45375	
19:04:44	0	0	0	-0.2125331	-8.271742	0	3	100	0	4	0.906205	-0.4325236	79.44785	
19:04:44	0	0	0	-0.2265478	-8.191354	0	3	100	0	4	0.9178857	-0.4063057	79.44444	
19:04:45	0	0	0	-0.2525439	-9.152655	0	3	100	0	4	0.9211853	-0.3977721	79.46755	
19:04:45	0	0	0	-0.2847265	-10.33668	0	3	100	0	4	0.9330798	-0.4014836	79.45766	
19:04:45	0	0	0	-0.3124759	-11.16154	0	3	100	0	4	0.9343962	-0.3889592	79.47266	
19:04:45	0	0	0	-0.3360083	-11.24503	0	3	100	0	4	0.945208	-0.4045695	79.48302	
19:04:45	0	0	0	-0.3405232	-10.54934	0	3	100	0	4	0.9549149	-0.4017914	79.4809	
19:04:46	0	0	0	-0.3317791	-9.140396	0	3	100	0	4	0.9534274	-0.3799811	79.47911	
19:04:46	0	0	0	-0.3104811	-7.367687	0	3	100	0	4	0.958302	-0.3710589	79.49209	
19:04:46	0	0	0	-0.2732963	-4.862554	0	3	100	0	4	0.9597914	-0.3924758	79.49426	
19:04:46	0	0	0	-0.2402897	-2.949512	0	3	100	0	4	0.9598185	-0.4031785	79.5173	
19:04:46	0	0	0	-0.2105515	-1.824089	0	3	100	0	4	0.9561884	-0.3990056	79.51961	
19:04:47	0	0	0	-0.1860096	-0.459214	0	3	100	0	4	0.9491079	-0.3922659	79.53259	
19:04:47	0	0	0	-0.1383102	2.303339	0	3	100	0	5	0.9459889	-0.4023658	79.50539	
19:04:47	0	0	0	-0.0943858	5.04969	0	3	100	0	4	0.9502141	-0.4074651	79.51325	
19:04:47	0	0	0	-0.02492074	8.055592	0	3	100	0	4	0.9460865	-0.4107156	79.52237	
19:04:47	0	0	0	0.03020595	9.696377	0	3	100	0	4	0.9385557	-0.406676	79.5211	
19:04:48	0	0	0	0.07986163	11.42311	0	3	100	0	4	0.9461993	-0.4069455	79.52422	
19:04:48	0	0	0	0.123145	12.56702	0	3	100	0	4	0.9476407	-0.4005306	79.50937	
19:04:48	0	0	0	0.1015723	10.14286	0	3	100	0	4	0.9441612	-0.4065599	79.51772	
19:04:48	0	0	0	0.07993759	8.109305	0	3	100	0	4	0.9415422	-0.4111518	79.5204	
19:04:48	0	0	0	0.07835343	7.426462	0	3	100	0	4	0.9544613	-0.4075052	79.51376	
19:04:49	0	0	0	0.07615784	6.874493	0	3	100	0	4	0.9508443	-0.402639	79.50321	
19:04:49	0	0	0	0.06730025	6.349163	0	3	100	0	5	0.9547	-0.4171215	79.50076	
19:04:49	0	0	0	0.05903396	5.561699	0	3	100	0	5	0.957438	-0.4079552	79.50491	
19:04:49	0	0	0	0.07556593	5.771021	0	3	100	0	4	0.9610021	-0.4117033	79.50877	
19:04:49	0	0	0	0.08765304	5.963102	0	3	100	0	4	0.9644229	-0.41216	79.4914	
19:04:50	0	0	0	0.09074888	5.574288	0	3	100	0	4	0.9620743	-0.4197326	79.48703	
19:04:50	0	0	0	0.09199359	5.106169	0	3	100	0	4	0.9536583	-0.4203344	79.48537	
19:04:50	0	0	0	0.1089154	4.840515	0	3	100	0	4	0.9439082	-0.4227338	79.49182	
19:04:50	0	0	0	0.1228249	5.04022	0	3	100	0	4	0.9306588	-0.4051652	79.48885	
19:04:50	0	0	0	0.1632131	6.483172	0	3	100	0	4	0.9339483	-0.3878831	79.49578	
19:04:51	0	0	0	0.1948535	7.656451	0	3	100	0	5	0.9299843	-0.3726281	79.4985	
19:04:51	0	0	0	0.1741252	6.844242	0	3	100	0	4	0.9210092	-0.3892325	79.49962	
19:04:51	0	0	0	0.1568913	5.518357	0	3	100	0	4	0.9279	-0.412917	79.48854	
19:04:51	0	0	0	0.1684928	5.572801	0	3	100	0	4	0.9260799	-0.4292854	79.49929	
19:04:51	0	0	0	0.1764424	5.165055	0	3	100	0	4	0.9175051	-0.4503554	79.48142	
19:04:52	0	0	0	0.1704686	4.707211	0	3	100	0	5	0.9118699	-0.4361993	79.48468	
19:04:52	0	0	0	0.1531702	3.242765	0	3	100	0	4	0.9229597	-0.4432204	79.48171	
19:04:52	0	0	0	0.1259715	1.388515	0	3	100	0	4	0.9222226	-0.4465356	79.46428	
19:04:52	0	0	0	0.09150854	-0.8482024	0	3	100	0	4	0.9246471	-0.4429493	79.46989	
19:04:52	0	0	0	0.07814814	-1.894934	0	3	100	0	4	0.9255716	-0.4352181	79.46866	
19:04:53	0	0	0	0.07759956	-1.412247	0	3	100	0	4	0.9362513	-0.441191	79.46283	
19:04:53	0	0	0	0.05648715	-2.617635	0	3	100	0	4	0.9415474	-0.4640628	79.44351	
19:04:53	0	0	0	0.02457745	-3.884422	0	3	100	0	4	0.9441567	-0.4628288	79.45355	
19:04:53	0	0	0	0.009943125	-4.487696	0	3	100	0	4	0.9521616	-0.4370251	79.43926	
19:04:53	0	0	0	0.01074676	-3.775135	0	3	100	0	4	0.9649698	-0.4251302	79.43825	
19:04:54	0	0	0	0.01863345	-3.256917	0	3	100	0	4	0.9717596	-0.4147361	79.4332	
19:04:54	0	0	0	0.03213812	-1.614963	0	3	100	0	4	0.967407	-0.4226811	79.4264	
19:04:54	0	0	0	0.04521231	-0.682242	0	3	100	0	5	0.9472511	-0.4429183	79.44302	
19:04:54	0	0	0	0.05236929	-0.1695587	0	3	100	0	4	0.950301	-0.4407962	79.44982	
19:04:54	0	0	0	0.05344654	-0.3391846	0	3	100	0	4	0.9498994	-0.4511284	79.45995	
19:04:55	0	0	0	0.05057549	-0.6247847	0	3	100	0	5	0.9446299	-0.4447917	79.44568	
19:04:55	0	0	0	0.05002817	-0.9279774	0	3	100	0	4	0.9626606	-0.4265791	79.44164	
19:04:55	0	0	0	0.05089559	-0.8612301	0	3	100	0	4	0.955247	-0.4470333	79.44861	
19:04:55	0	0	0	0.0659742	0.3738437	0	3	100	0	4	0.9469568	-0.463487	79.45568	
19:04:56	0	0	0	0.1038516	2.006103	0	3	100	0	4	0.9459684	-0.4742305	79.47139	
19:04:56	0	0	0	0.09128284	0.635838	0	3	100	0	4	0.9421988	-0.4776242	79.461	
19:04:56	0	0	0	0.02550861	-2.703755	0	3	100	0	4	0.9365066	-0.4783947	79.4453	
19:04:56	0	0	0	-0.0215002	-4.813851	0	3	100	0	4	0.9445114	-0.4813886	79.45069	
19:04:56	0	0	0	-0.04847541	-6.257444	0	3	100	0	4	0.9240602	-0.4783859	79.44987	
19:04:56	0	0	0	-0.07061035	-7.171105	0	3	100	0	4	0.9121922	-0.4831557	79.44528	
19:04:57	0	0	0	-0.136271	-10.13308	0	3	100	0	4	0.9013239	-0.49627	79.4287	
19:04:57	0	0	0	-0.1948239	-12.54663	0	3	100	0	4	0.8959216	-0.499918	79.42627	
19:04:57	0	0	0	-0.2029487	-11.83894	0	3	100	0	4	0.8903347	-0.5092781	79.42582	
19:04:57	0	0	0	-0.2075124	-10.94175	0	3	100	0	4	0.8852681	-0.5063727	79.43799	
19:04:58	0	0	0	-0.2018971	-9.527193	0	3	100	0	4	0.8798738	-0.5237244	79.43587	
19:04:58	0	0	0	-0.1950703	-8.626249	0	3	100	0	4	0.8741618	-0.5203838	79.43816	
19:04:58	0	0	0	-0.2030316	-8.335868	0	3	100	0	4	0.8720925	-0.5174371	79.43143	
19:04:58	0	0	0	-0.2091006	-8.562822	0	3	100	0	4	0.8744887	-0.5307462	79.41998	
19:04:58	0	0	0	-0.2002163	-7.684083	0	3	100	0	4	0.8741041	-0.5333081	79.4172	
19:04:59	0	0	0	-0.1922658	-6.95236	0	3	100	0	4	0.8798151	-0.5227649	79.41135	
19:04:59	0	0	0	-0.1645738	-4.707274	0	3	100	0	4	0.873512	-0.5291138	79.40806	
19:04:59	0	0	0	-0.1379597	-2.822585	0	3	100	0	4	0.8798392	-0.5141062	79.3996	
19:04:59	0	0	0	-0.1001471	-0.6916586	0	3	100	0	4	0.8834471	-0.5007789	79.40046	
19:04:59	0	0	0	-0.06244529	0.7379703	0	3	100	0	4	0.8800117	-0.4914609	79.39754	
19:05:00	0	0	0	-0.07994961	-0.2774386	0	3	100	0	4	0.8650771	-0.4842499	79.3955	
19:05:00	0	0	0	-0.09610032	-1.190944	0	3	100	0	4	0.8608729	-0.4733296	79.40403	
19:05:00	0	0	0	-0.1373533	-3.325183	0	3	100	0	4	0.8619187	-0.4773836	79.396	
19:05:00	0	0	0	-0.1750969	-5.489415	0	3	100	0	4	0.857599	-0.4918286	79.39474	
19:05:00	0	0	0	-0.2082298	-7.587528	0	3	100	0	4	0.8540789	-0.5188197	79.38573	
19:05:01	0	0	0	-0.2351876	-8.25186	0	3	100	0	4	0.8498589	-0.5335744	79.37961	
19:05:01	0	0	0	-0.2698384	-9.683794	0	3	100	0	4	0.8259453	-0.5682747	79.37241	
19:05:01	0	0	0	-0.3003322	-10.44083	0	3	100	0	4	0.8254595	-0.5866305	79.36434	
19:05:01	0	0	0	-0.2968566	-9.580371	0	3	100	0	4	0.8272718	-0.5995069	79.34867	
19:05:01	0	0	0	-0.291732	-8.487188	0	3	100	0	4	0.8210611	-0.6109097	79.352	
19:05:02	0	0	0	-0.3034657	-8.29793	0	3	100	0	4	0.824985	-0.6018069	79.34469	
19:05:02	0	0	0	-0.3376676	-9.006363	0	3	100	0	4	0.8684369	-0.5642802	79.33987	
19:05:02	0	0	0	-0.3472447	-9.433181	0	3	100	0	4	0.8726797	-0.575123	79.3232	
19:05:02	0	0	0	-0.3242235	-7.514118	0	3	100	0	4	0.8629982	-0.5760051	79.33169	
19:05:02	0	0	0	-0.2886677	-4.834394	0	3	100	0	4	0.8684089	-0.5645214	79.31625	
19:05:03	0	0	0	-0.2498633	-2.468171	0	3	100	0	4	0.8614161	-0.5526172	79.33006	
19:05:03	0	0	0	-0.2171353	-0.7484563	0	3	100	0	4	0.8618248	-0.5578029	79.34607	
19:05:03	0	0	0	-0.1984611	-0.1775768	0	3	100	0	4	0.8569267	-0.5641918	79.37155	
19:05:03	0	0	0	-0.1867718	0.2812595	0	3	100	0	4	0.8371088	-0.5710372	79.38007	
19:05:03	0	0	0	-0.1774372	1.139027	0	3	100	0	4	0.8350217	-0.5768872	79.38564	
19:05:04	0	0	0	-0.1960663	0.2577467	0	3	100	0	4	0.8278459	-0.5633268	79.40273	
19:05:04	0	0	0	-0.2534026	-2.871185	0	3	100	0	4	0.8336679	-0.5404117	79.41904	
19:05:04	0	0	0	-0.2955983	-5.02148	0	3	100	0	4	0.835327	-0.5408901	79.44904	
19:05:04	0	0	0	-0.3226919	-5.743658	0	3	100	0	4	0.8317904	-0.5421254	79.46841	
19:05:04	0	0	0	-0.3345194	-5.640293	0	3	100	0	4	0.8479612	-0.5368343	79.48348	
19:05:05	0	0	0	-0.3383718	-5.12465	0	3	100	0	4	0.8447928	-0.5262078	79.50674	
19:05:05	0	0	0	-0.3514319	-5.479537	0	3	100	0	4	0.8450828	-0.5166803	79.52841	
19:05:05	0	0	0	-0.369595	-6.329191	0	3	100	0	4	0.8406025	-0.5125698	79.54476	
19:05:05	0	0	0	-0.3778667	-6.209814	0	3	100	0	4	0.8290751	-0.5206978	79.5531	
19:05:05	0	0	0	-0.3772664	-5.326424	0	3	100	0	4	0.8261654	-0.511973	79.55962	
19:05:06	0	0	0	-0.3528954	-3.134335	0	3	100	0	4	0.8299268	-0.4920283	79.56171	
19:05:06	0	0	0	-0.2977478	0.32082	0	3	100	0	4	0.8205468	-0.482626	79.5695	
19:05:06	0	0	0	-0.2468609	2.647092	0	3	100	0	4	0.8226468	-0.4579654	79.59476	
19:05:06	0	0	0	-0.1953833	5.152313	0	3	100	0	4	0.8221545	-0.453381	79.60844	
19:05:06	0	0	0	-0.1538592	6.96355	0	3	100	0	4	0.8233024	-0.4448368	79.62421	
19:05:07	0	0	0	-0.1529041	6.425148	0	3	100	0	4	0.8154367	-0.4502965	79.64933	
19:05:07	0	0	0	-0.153456	5.816978	0	3	100	0	4	0.8104135	-0.4610222	79.66116	
19:05:07	0	0	0	-0.1478033	5.378092	0	3	100	0	4	0.7969194	-0.4540824	79.67244	
19:05:07	0	0	0	-0.1447033	4.749969	0	3	100	0	4	0.794434	-0.4715719	79.69035	
19:05:07	0	0	0	-0.1522837	3.514212	0	3	100	0	4	0.7934685	-0.4851348	79.71053	
19:05:08	0	0	0	-0.1607603	2.440522	0	3	100	0	4	0.7940881	-0.495563	79.73041	
19:05:08	0	0	0	-0.221182	-1.267496	0	3	100	0	4	0.7904817	-0.5055999	79.74857	
19:05:08	0	0	0	-0.2765076	-4.394534	0	3	100	0	5	0.7877824	-0.5061914	79.74257	
19:05:08	0	0	0	-0.2995466	-5.005833	0	3	100	0	4	0.7909347	-0.5219981	79.73708	
19:05:08	0	0	0	-0.3172136	-5.48066	0	3	100	0	4	0.7911316	-0.526302	79.74532	
19:05:09	0	0	0	-0.3419702	-6.737688	0	3	100	0	5	0.804426	-0.5397487	79.74896	
19:05:09	0	0	0	-0.363998	-6.963926	0	3	100	0	4	0.8117884	-0.5339135	79.74896	
19:05:09	0	0	0	-0.3484594	-4.862597	0	3	100	0	4	0.8116938	-0.5638876	79.7573	
19:05:09	0	0	0	-0.3344482	-3.746921	0	3	100	0	5	0.8102099	-0.5658222	79.76313	
19:05:09	0	0	0	-0.269667	0.4881346	0	3	100	0	4	0.8126819	-0.5720596	79.77296	
19:05:10	0	0	0	-0.209282	3.833098	0	3	100	0	4	0.8203979	-0.5653082	79.77303	
19:05:10	0	0	0	-0.1439603	6.93048	0	3	100	0	5	0.8284845	-0.5433434	79.77601	
19:05:10	0	0	0	-0.08574069	9.371279	0	3	100	0	4	0.8352919	-0.5507996	79.77119	
19:05:10	0	0	0	-0.01749022	11.46186	0	3	100	0	4	0.8415734	-0.5622609	79.76242	
19:05:10	0	0	0	0.03581405	13.25111	0	3	100	0	4	0.8433171	-0.5904368	79.75879	
19:05:11	0	0	0	0.03920563	12.25811	0	3	100	0	4	0.8339252	-0.6008453	79.7634	
19:05:11	0	0	0	0.03981824	11.10926	0	3	100	0	4	0.8380461	-0.6057503	79.76498	
19:05:11	0	0	0	0.05685882	10.73914	0	3	100	0	4	0.8338308	-0.5714797	79.76817	
19:05:11	0	0	0	0.06951937	10.60552	0	3	100	0	4	0.8304014	-0.5650405	79.76868	
19:05:11	0	0	0	0.089368	10.34869	0	3	100	0	5	0.8395618	-0.5549142	79.77167	
19:05:12	0	0	0	0.1193686	11.01724	0	3	100	0	4	0.8444579	-0.5414355	79.77724	
19:05:12	0	0	0	0.1496556	11.222	0	3	100	0	4	0.8487194	-0.5447693	79.78551	
19:05:12	0	0	0	0.1848008	11.86662	0	3	100	0	4	0.8525507	-0.5419209	79.7847	
19:05:12	0	0	0	0.2053726	11.37841	0	3	100	0	4	0.86177	-0.5309163	79.77874	
19:05:12	0	0	0	0.2164264	10.67601	0	3	100	0	4	0.8574663	-0.5348524	79.77024	
19:05:13	0	0	0	0.2201437	9.984612	0	3	100	0	4	0.8702145	-0.543807	79.77604	
19:05:13	0	0	0	0.2159516	8.469114	0	3	100	0	4	0.8851611	-0.545574	79.77663	
19:05:13	0	0	0	0.2174014	7.781622	0	3	100	0	4	0.8887246	-0.556137	79.7714	
19:05:13	0	0	0	0.2238209	7.283983	0	3	100	0	4	0.8828462	-0.5374895	79.79962	
19:05:13	0	0	0	0.2001983	5.356329	0	3	100	0	4	0.8802747	-0.5426424	79.79502	
19:05:14	0	0	0	0.152793	2.57055	0	3	100	0	4	0.8873459	-0.5367252	79.79959	
19:05:14	0	0	0	0.1131081	0.2887035	0	3	100	0	4	0.8927089	-0.5544083	79.80649	
19:05:14	0	0	0	0.06828143	-1.959394	0	3	100	0	4	0.8916524	-0.5444558	79.80933	
19:05:14	0	0	0	0.02705516	-3.855376	0	3	100	0	4	0.8916279	-0.5469959	79.8009	
19:05:14	0	0	0	-0.01144329	-5.336803	0	3	100	0	4	0.8867442	-0.5180747	79.80065	
19:05:15	0	0	0	-0.04100229	-6.540802	0	3	100	0	4	0.894401	-0.5155352	79.81306	
19:05:15	0	0	0	-0.06348982	-6.947045	0	3	100	0	4	0.8797765	-0.5128937	79.81253	
19:05:15	0	0	0	-0.07545846	-7.607645	0	3	100	0	4	0.8837933	-0.5053632	79.8167	
19:05:15	0	0	0	-0.08250569	-7.526402	0	3	100	0	4	0.881902	-0.5036086	79.82855	
19:05:15	0	0	0	-0.114646	-8.05641	0	3	100	0	5	0.8948786	-0.5021692	79.8499	
19:05:16	0	0	0	-0.1810899	-10.85568	0	3	100	0	4	0.8801684	-0.5009396	79.85473	
19:05:16	0	0	0	-0.228354	-12.31308	0	3	100	0	4	0.8776801	-0.5108498	79.84859	
19:05:16	0	0	0	-0.2533287	-12.67131	0	3	100	0	4	0.8701789	-0.5227271	79.85239	
19:05:16	0	0	0	-0.2711155	-12.04465	0	3	100	0	4	0.8697869	-0.5318022	79.85932	
19:05:16	0	0	0	-0.3013456	-12.21836	0	3	100	0	4	0.8726332	-0.5212922	79.85709	
19:05:17	0	0	0	-0.3253038	-11.87598	0	3	100	0	4	0.8753812	-0.5054634	79.85332	
19:05:17	0	0	0	-0.2921097	-9.087044	0	3	100	0	4	0.8755437	-0.487615	79.8734	
19:05:17	0	0	0	-0.2635988	-7.091864	0	3	100	0	4	0.8734556	-0.4935513	79.89094	
19:05:17	0	0	0	-0.2165291	-4.14398	0	3	100	0	5	0.8900033	-0.4836804	79.89365	
19:05:17	0	0	0	-0.1723628	-1.146758	0	3	100	0	4	0.9036864	-0.4790024	79.89694	
19:05:18	0	0	0	-0.1458676	0.4102579	0	3	100	0	4	0.9066417	-0.4824935	79.90852	
19:05:18	0	0	0	-0.1221021	1.105437	0	3	100	0	4	0.9115581	-0.4805491	79.90968	
19:05:18	0	0	0	-0.05004274	4.318075	0	3	100	0	4	0.9066367	-0.4776371	79.90857	
19:05:18	0	0	0	0.008635916	7.491974	0	3	100	0	4	0.9066658	-0.4718403	79.91278	
19:05:18	0	0	0	0.03290242	8.165585	0	3	100	0	4	0.9013181	-0.4651762	79.91689	
19:05:19	0	0	0	0.05322376	8.267077	0	3	100	0	5	0.8992995	-0.4599293	79.91718	
19:05:19	0	0	0	0.09987387	9.919277	0	3	100	0	4	0.8988776	-0.4789766	79.92351	
19:05:19	0	0	0	0.1355894	10.35471	0	3	100	0	4	0.9044668	-0.4496214	79.92951	
19:05:19	0	0	0	0.1615767	10.77125	0	3	100	0	4	0.9172161	-0.4382441	79.93526	
19:05:19	0	0	0	0.1827083	10.39481	0	3	100	0	4	0.9132041	-0.4303516	79.94185	
19:05:20	0	0	0	0.1980503	10.4501	0	3	100	0	4	0.9121066	-0.4181227	79.94572	
19:05:20	0	0	0	0.2109548	10.52681	0	3	100	0	4	0.9029021	-0.4151765	79.9444	
19:05:20	0	0	0	0.2118766	9.284079	0	3	100	0	5	0.8935922	-0.4294827	79.94746	
19:05:20	0	0	0	0.2106274	8.488844	0	3	100	0	4	0.8987414	-0.4367256	79.97076	
19:05:20	0	0	0	0.2135657	7.973223	0	3	100	0	4	0.9081149	-0.4316435	79.98392	
19:05:21	0	0	0	0.2155369	7.694946	0	3	100	0	4	0.8992835	-0.4569123	79.99642	
19:05:21	0	0	0	0.2169075	7.507634	0	3	100	0	5	0.8899573	-0.4414962	80.00385	
19:05:21	0	0	0	0.2178095	7.193025	0	3	100	0	4	0.8730518	-0.4435714	80.0052	
19:05:21	0	0	0	0.1947862	5.461691	0	3	100	0	5	0.880277	-0.4359561	80.00484	
19:05:21	0	0	0	0.1347731	1.656964	0	3	100	0	4	0.8768395	-0.4427271	80.00234	
19:05:22	0	0	0	0.08173861	-1.656919	0	3	100	0	4	0.8700045	-0.4491402	80.02849	
19:05:22	0	0	0	0.03072858	-4.292356	0	3	100	0	4	0.8791904	-0.4710381	80.04889	
19:05:22	0	0	0	-0.01850729	-6.690007	0	3	100	0	4	0.8884777	-0.4854957	80.0724	
19:05:22	0	0	0	-0.0641706	-8.23749	0	3	100	0	4	0.8949174	-0.4626457	80.0724	
19:05:22	0	0	0	-0.1034996	-9.39217	0	3	100	0	4	0.9029055	-0.4218091	80.07253	
19:05:23	0	0	0	-0.1362945	-9.802959	0	3	100	0	4	0.8990607	-0.4291226	80.07597	
19:05:23	0	0	0	-0.1470377	-9.846386	0	3	100	0	4	0.9112151	-0.425537	80.07487	
19:05:23	0	0	0	-0.143738	-8.801667	0	3	100	0	4	0.9043784	-0.4066006	80.08807	
19:05:23	0	0	0	-0.1621104	-9.335506	0	3	100	0	4	0.8939875	-0.4207453	80.09605	
19:05:23	0	0	0	-0.209915	-10.76417	0	3	100	0	4	0.8873122	-0.4300211	80.10434	
19:05:24	0	0	0	-0.2536319	-11.83457	0	3	100	0	5	0.8754221	-0.4394269	80.10677	
19:05:24	0	0	0	-0.3003952	-13.43033	0	3	100	0	4	0.8752767	-0.4401276	80.11394	
19:05:24	0	0	0	-0.3415812	-14.42311	0	3	100	0	4	0.8597907	-0.4510204	80.12699	
19:05:24	0	0	0	-0.3755308	-14.60876	0	3	100	0	4	0.8563415	-0.4514037	80.13214	
19:05:24	0	0	0	-0.3938241	-14.59338	0	3	100	0	5	0.8616219	-0.445181	80.12151	
19:05:25	0	0	0	-0.3957454	-13.45257	0	3	100	0	4	0.8657801	-0.4393193	80.12732	
19:05:25	0	0	0	-0.3885027	-11.35535	0	3	100	0	4	0.8672985	-0.443856	80.12526	
19:05:25	0	0	0	-0.373058	-9.530149	0	3	100	0	4	0.8718374	-0.4715343	80.12531	
19:05:25	0	0	0	-0.3697607	-8.483955	0	3	100	0	4	0.8722952	-0.4849887	80.11532	
19:05:25	0	0	0	-0.3761676	-7.623736	0	3	100	0	4	0.8758566	-0.4790906	80.10599	
19:05:26	0	0	0	-0.3847869	-7.289549	0	3	100	0	4	0.8711104	-0.4958054	80.09723	
19:05:26	0	0	0	-0.3965929	-7.477204	0	3	100	0	4	0.8787661	-0.5105141	80.10146	
19:05:26	0	0	0	-0.40604	-6.916349	0	3	100	0	4	0.8650489	-0.531492	80.08685	
19:05:26	0	0	0	-0.4055654	-6.251617	0	3	100	0	4	0.8622743	-0.5269086	80.07945	
19:05:26	0	0	0	-0.4040858	-5.759575	0	3	100	0	4	0.8577685	-0.5161527	80.08025	
19:05:27	0	0	0	-0.3786839	-3.388877	0	3	100	0	4	0.8466842	-0.5123589	80.07491	
19:05:27	0	0	0	-0.3564876	-1.647602	0	3	100	0	4	0.8440558	-0.4999985	80.06865	
19:05:27	0	0	0	-0.3602442	-1.904879	0	3	100	0	4	0.8313253	-0.5082831	80.0652	
19:05:27	0	0	0	-0.3632766	-1.524828	0	3	100	0	4	0.8275723	-0.5198089	80.06932	
19:05:27	0	0	0	-0.3885154	-2.32551	0	3	100	0	4	0.8324009	-0.5276732	80.07196	
19:05:28	0	0	0	-0.4104351	-2.895856	0	3	100	0	3	0.8299903	-0.5267971	80.0778	
19:05:28	0	0	0	-0.4118788	-2.775283	0	3	100	0	4	0.8299149	-0.5073889	80.08941	
19:05:28	0	0	0	-0.4125465	-2.466367	0	3	100	0	4	0.8279786	-0.5199163	80.0864	
19:05:28	0	0	0	-0.4129772	-2.161038	0	3	100	0	4	0.8235847	-0.526285	80.09069	
19:05:28	0	0	0	-0.4125211	-1.450105	0	3	100	0	4	0.8317811	-0.5038037	80.08688	
19:05:29	0	0	0	-0.4291524	-1.978811	0	3	100	0	4	0.8317813	-0.5016596	80.07405	
19:05:29	0	0	0	-0.4429378	-2.952782	0	3	100	0	4	0.8327078	-0.5164236	80.07773	
19:05:29	0	0	0	-0.4355574	-2.301074	0	3	100	0	4	0.8395422	-0.5036553	80.06528	
19:05:29	0	0	0	-0.4280762	-1.729461	0	3	100	0	5	0.8329552	-0.5075555	80.0694	
19:05:29	0	0	0	-0.3984366	0.02067143	0	3	100	0	4	0.8358907	-0.4882415	80.07695	
19:05:30	0	0	0	-0.3679831	2.528552	0	3	100	0	4	0.8464703	-0.4684578	80.07942	
19:05:30	0	0	0	-0.3443123	3.310413	0	3	100	0	4	0.8560315	-0.4594296	80.0799	
19:05:30	0	0	0	-0.321877	6.297638	0	3	100	0	4	0.8744352	-0.4554537	80.08548	
19:05:30	0	0	0	-0.3339191	5.470889	0	3	100	0	4	0.8772413	-0.4344169	80.09378	
19:05:30	0	0	0	-0.3468066	1.9367	0	3	100	0	4	0.8878222	-0.4529328	80.09857	
19:05:31	0	0	0	-0.3771757	1.262497	0	3	100	0	4	0.8986276	-0.4493817	80.07961	
19:05:31	0	0	0	-0.4018061	-0.2044547	0	3	100	0	4	0.872529	-0.4608095	80.07075	
19:05:31	0	0	0	-0.4282388	-1.900899	0	3	100	0	4	0.8626307	-0.4803545	80.06343	
19:05:31	0	0	0	-0.4545011	-3.081667	0	3	100	0	4	0.8651762	-0.4772773	80.04485	
19:05:31	0	0	0	-0.4774742	-3.637301	0	3	100	0	4	0.8553819	-0.4941669	80.03998	
19:05:32	0	0	0	-0.5003284	-4.577465	0	3	100	0	4	0.8640072	-0.4931231	80.04556	
19:05:32	0	0	0	-0.5217721	-5.251754	0	3	100	0	4	0.8577074	-0.4801165	80.03907	
19:05:32	0	0	0	-0.5441909	-6.63774	0	3	100	0	5	0.8657731	-0.4656936	80.03056	
19:05:32	0	0	0	-0.5715023	-7.575898	0	3	100	0	4	0.8668967	-0.4749971	80.01762	
19:05:32	0	0	0	-0.5972304	-8.22156	0	3	100	0	4	0.8508613	-0.489108	79.99816	
19:05:33	0	0	0	-0.6093556	-8.074388	0	3	100	0	4	0.8693215	-0.4951731	79.99352	
19:05:33	0	0	0	-0.6074062	-7.1427	0	3	100	0	4	0.8641217	-0.4879908	79.9949	
19:05:33	0	0	0	-0.6135765	-6.657072	0	3	100	0	4	0.8701476	-0.4768574	79.98561	
19:05:33	0	0	0	-0.6273409	-6.257442	0	3	100	0	4	0.8680968	-0.4770157	79.98554	
19:05:33	0	0	0	-0.644838	-6.402801	0	3	100	0	4	0.8641638	-0.4740092	79.9988	
19:05:34	0	0	0	-0.6662349	-6.964051	0	3	100	0	4	0.8539303	-0.4850564	79.97975	
19:05:34	0	0	0	-0.7196445	-8.998966	0	3	100	0	4	0.8611965	-0.5031608	79.96553	
19:05:34	0	0	0	-0.7904977	-12.34763	0	3	100	0	4	0.8667172	-0.5238821	79.95152	
19:05:34	0	0	0	-0.8649369	-15.08669	0	3	100	0	4	0.8694304	-0.5243995	79.92236	
19:05:34	0	0	0	-0.9372546	-17.60464	0	3	100	0	4	0.8740344	-0.5146136	79.90067	
19:05:35	0	0	0	-0.9853275	-18.6155	0	3	100	0	5	0.8810064	-0.5129033	79.87258	
19:05:35	0	0	0	-1.021972	-18.20452	0	3	100	0	4	0.8788543	-0.5079902	79.86292	
19:05:35	0	0	0	-1.012182	-15.46066	0	3	100	0	4	0.8824932	-0.4996979	79.84185	
19:05:35	0	0	0	-0.9453931	-10.45839	0	3	100	0	4	0.8770027	-0.5102415	79.81039	
19:05:35	0	0	0	-0.8747997	-5.644722	0	3	100	0	4	0.8642608	-0.5081879	79.80253	
19:05:36	0	0	0	-0.7918153	-0.6592916	0	3	100	0	4	0.8647318	-0.5042188	79.79038	
19:05:36	0	0	0	-0.7233925	2.735316	0	3	100	0	4	0.862322	-0.5019087	79.8039	
19:05:36	0	0	0	-0.7118077	2.287322	0	3	100	0	5	0.8571635	-0.5219773	79.80274	
19:05:36	0	0	0	-0.7032682	2.346184	0	3	100	0	4	0.8579823	-0.5190437	79.78066	
19:05:36	0	0	0	-0.6602156	4.970216	0	3	100	0	4	0.8877117	-0.4858464	79.76558	
19:05:37	0	0	0	-0.6250535	6.059518	0	3	100	0	4	0.889635	-0.4902897	79.75568	
19:05:37	0	0	0	-0.5702434	8.248502	0	3	100	0	4	0.8987597	-0.4673616	79.75797	
19:05:37	0	0	0	-0.5218689	10.17588	0	3	100	0	5	0.9119103	-0.4667804	79.76668	
19:05:37	0	0	0	-0.4868437	10.8055	0	3	100	0	4	0.9005843	-0.4607716	79.76791	
19:05:37	0	0	0	-0.4573485	11.33454	0	3	100	0	4	0.9002374	-0.4375623	79.74374	
19:05:38	0	0	0	-0.3598385	15.05111	0	3	100	0	4	0.8959036	-0.4584782	79.72581	
19:05:38	0	0	0	-0.2822164	17.76902	0	3	100	0	4	0.8880899	-0.4755513	79.73037	
19:05:38	0	0	0	-0.2710127	17.11614	0	3	100	0	4	0.8815846	-0.4602666	79.72967	
19:05:38	0	0	0	-0.2629399	16.69677	0	3	100	0	4	0.8781399	-0.4634632	79.72678	
19:05:38	0	0	0	-0.2387196	16.2534	0	3	100	0	4	0.8888137	-0.4535116	79.73483	
19:05:39	0	0	0	-0.2211937	16.00836	0	3	100	0	4	0.875443	-0.4533857	79.73672	
19:05:39	0	0	0	-0.191934	15.60454	0	3	100	0	4	0.8641601	-0.4766378	79.73383	
19:05:39	0	0	0	-0.1692672	15.11382	0	3	100	0	4	0.8549219	-0.4709881	79.75356	
19:05:39	0	0	0	-0.08779319	18.29761	0	3	100	0	4	0.8397796	-0.4898078	79.75094	
19:05:39	0	0	0	-0.009358776	20.68989	0	3	100	0	4	0.8378997	-0.5093913	79.74429	
19:05:40	0	0	0	0.03185401	20.89313	0	3	100	0	4	0.8430646	-0.5275298	79.73134	
19:05:40	0	0	0	0.06555895	20.8813	0	3	100	0	4	0.8401006	-0.5527962	79.71173	
19:05:40	0	0	0	-0.01672314	14.31077	0	3	100	0	4	0.8363094	-0.5606973	79.70487	
19:05:40	0	0	0	-0.09465092	9.224789	0	3	100	0	4	0.838894	-0.5597462	79.68974	
19:05:40	0	0	0	-0.1758173	4.087987	0	3	100	0	4	0.843735	-0.5546189	79.6777	
19:05:41	0	0	0	-0.2596387	-0.9044386	0	3	100	0	5	0.8492811	-0.5362746	79.66134	
19:05:41	0	0	0	-0.3084779	-3.409664	0	3	100	0	4	0.8376547	-0.5373344	79.65959	
19:05:41	0	0	0	-0.3104205	-3.171918	0	3	100	0	4	0.8291098	-0.5481004	79.63715	
19:05:41	0	0	0	-0.3024196	-2.778592	0	3	100	0	4	0.8216566	-0.5780099	79.62042	
19:05:41	0	0	0	-0.2796898	-1.165332	0	3	100	0	4	0.8229243	-0.5936896	79.60587	
19:05:42	0	0	0	-0.2525778	0.3211812	0	3	100	0	5	0.8297209	-0.6067427	79.58336	
19:05:42	0	0	0	-0.2239595	1.118166	0	3	100	0	4	0.8340529	-0.6006365	79.57528	
19:05:42	0	0	0	-0.2169862	1.657552	0	3	100	0	4	0.8443339	-0.5696054	79.56447	
19:05:42	0	0	0	-0.2234067	0.8068646	0	3	100	0	4	0.8364869	-0.5693277	79.55983	
19:05:42	0	0	0	-0.2214543	0.9257192	0	3	100	0	4	0.8359283	-0.5818535	79.5438	
19:05:43	0	0	0	-0.2117396	1.293862	0	3	100	0	4	0.8682609	-0.5367239	79.54071	
19:05:43	0	0	0	-0.2297854	-0.3616941	0	3	100	0	5	0.8798178	-0.5180587	79.54297	
19:05:43	0	0	0	-0.2671437	-2.179191	0	3	100	0	4	0.8711452	-0.5145897	79.55801	
19:05:43	0	0	0	-0.295283	-3.036784	0	3	100	0	4	0.86856	-0.49492	79.56844	
19:05:43	0	0	0	-0.305258	-3.315457	0	3	100	0	4	0.8771946	-0.4832951	79.5731	
19:05:44	0	0	0	-0.3235267	-3.69929	0	3	100	0	4	0.8770404	-0.4796181	79.5725	
19:05:44	0	0	0	-0.3456992	-4.349349	0	3	100	0	4	0.8733029	-0.4592661	79.57703	
19:05:44	0	0	0	-0.349217	-3.758336	0	3	100	0	4	0.8695927	-0.4555548	79.57935	
19:05:44	0	0	0	-0.3423826	-3.388069	0	3	100	0	4	0.8762025	-0.4448338	79.59372	
19:05:44	0	0	0	-0.3352508	-3.237629	0	3	100	0	4	0.8735811	-0.4656718	79.58733	
19:05:45	0	0	0	-0.3278509	-2.922273	0	3	100	0	5	0.8697166	-0.4590935	79.59387	
19:05:45	0	0	0	-0.3332059	-2.934831	0	3	100	0	4	0.8763463	-0.4612436	79.59094	
19:05:45	0	0	0	-0.3555048	-4.273832	0	3	100	0	4	0.8678337	-0.4669923	79.58099	
19:05:45	0	0	0	-0.3588205	-3.760453	0	3	100	0	4	0.8625915	-0.4673482	79.59041	
19:05:45	0	0	0	-0.3362576	-2.42611	0	3	100	0	4	0.8560106	-0.4888446	79.58192	
19:05:46	0	0	0	-0.3195146	-1.688185	0	3	100	0	4	0.8513778	-0.4887556	79.5891	
19:05:46	0	0	0	-0.3385847	-2.756117	0	3	100	0	4	0.846485	-0.500517	79.59045	
19:05:46	0	0	0	-0.3530147	-2.683923	0	3	100	0	4	0.849194	-0.502975	79.5732	
19:05:46	0	0	0	-0.3388699	-1.767829	0	3	100	0	4	0.8536757	-0.5119737	79.5717	
19:05:46	0	0	0	-0.3266039	-0.6922958	0	3	100	0	5	0.8591936	-0.5073379	79.58319	
19:05:47	0	0	0	-0.3080814	0.8161938	0	3	100	0	6	0.8561479	-0.4965519	79.58636	
19:05:47	0	0	0	-0.290855	1.598641	0	3	100	0	4	0.8496837	-0.5019776	79.58494	
19:05:47	0	0	0	-0.2415354	4.224528	0	3	100	0	4	0.8516586	-0.5019023	79.58337	
19:05:47	0	0	0	-0.1966273	6.318751	0	3	100	0	4	0.8445336	-0.5058319	79.57814	
19:05:47	0	0	0	-0.1343896	8.625701	0	3	100	0	4	0.8474466	-0.5300534	79.58353	
19:05:48	0	0	0	-0.08468186	10.30286	0	3	100	0	4	0.8620108	-0.4997036	79.5815	
19:05:48	0	0	0	-0.03510717	11.23052	0	3	100	0	4	0.8765089	-0.468522	79.59481	
19:05:48	0	0	0	0.00713969	12.28983	0	3	100	0	4	0.8926003	-0.4752694	79.58981	
19:05:48	0	0	0	0.05516529	13.43392	0	3	100	0	4	0.8985145	-0.4672446	79.59351	
19:05:48	0	0	0	0.09187256	13.67344	0	3	100	0	5	0.8964707	-0.4833342	79.60053	
19:05:49	0	0	0	0.1356286	14.50264	0	3	100	0	4	0.8973802	-0.4819014	79.61309	
19:05:49	0	0	0	0.1721785	14.62862	0	3	100	0	4	0.8924991	-0.4743006	79.62598	
19:05:49	0	0	0	0.162811	12.87304	0	3	100	0	4	0.8986475	-0.4621599	79.62474	
19:05:49	0	0	0	0.152068	11.44906	0	3	100	0	4	0.8999922	-0.4606175	79.62921	
19:05:49	0	0	0	0.1637416	10.32398	0	3	100	0	4	0.8966819	-0.4760506	79.63719	
19:05:50	0	0	0	0.1705022	9.796679	0	3	100	0	4	0.8987598	-0.4700899	79.64545	
19:05:50	0	0	0	0.1547064	8.146991	0	3	100	0	4	0.9109636	-0.4524803	79.65058	
19:05:50	0	0	0	0.1387617	6.896122	0	3	100	0	4	0.9089336	-0.4373716	79.65798	
19:05:50	0	0	0	0.1052356	4.292159	0	3	100	0	4	0.898954	-0.4179113	79.66217	
19:05:50	0	0	0	0.07585872	1.91529	0	3	100	0	4	0.8912988	-0.4308725	79.66698	
19:05:51	0	0	0	0.04877401	-0.01369615	0	3	100	0	4	0.866124	-0.4437013	79.67111	
19:05:51	0	0	0	0.0302397	-0.8318068	0	3	100	0	4	0.8634972	-0.4415481	79.67688	
19:05:51	0	0	0	0.0213625	-1.480933	0	3	100	0	4	0.8603985	-0.4417511	79.68669	
19:05:51	0	0	0	0.02470972	-1.127783	0	3	100	0	4	0.8578379	-0.4503388	79.68772	
19:05:51	0	0	0	0.04958795	-0.1081474	0	3	100	0	4	0.8413945	-0.4717197	79.68623	
19:05:52	0	0	0	0.08637761	1.761633	0	3	100	0	4	0.8528685	-0.4685161	79.68658	
19:05:52	0	0	0	0.05926651	-0.1915289	0	3	100	0	4	0.8528957	-0.470928	79.68349	
19:05:52	0	0	0	-0.004280809	-3.573548	0	3	100	0	4	0.860627	-0.4682409	79.69083	
19:05:52	0	0	0	-0.01822525	-4.025465	0	3	100	0	5	0.8777248	-0.4675526	79.71153	
19:05:52	0	0	0	-0.00451822	-3.55676	0	3	100	0	4	0.882322	-0.4730125	79.7105	
19:05:53	0	0	0	0.03704489	-1.023396	0	3	100	0	4	0.8778334	-0.4729987	79.71031	
19:05:53	0	0	0	0.09179929	0.9713895	0	3	100	0	4	0.8825155	-0.4466671	79.71503	
19:05:53	0	0	0	0.1588254	4.414314	0	3	100	0	5	0.8514479	-0.4513446	79.7296	
19:05:53	0	0	0	0.2212293	7.344482	0	3	100	0	4	0.8361911	-0.4812506	79.72287	
19:05:53	0	0	0	0.2556191	8.208714	0	3	100	0	4	0.8243184	-0.4873177	79.72137	
19:05:54	0	0	0	0.2704585	8.251243	0	3	100	0	4	0.8496365	-0.4456998	79.72373	
19:05:54	0	0	0	0.2704338	7.408236	0	3	100	0	4	0.8944401	-0.4030504	79.72948	
19:05:54	0	0	0	0.2558367	5.440311	0	3	100	0	4	0.8221627	-0.4418754	79.72884	
19:05:54	0	0	0	0.2422281	3.75497	0	3	100	0	4	0.7880384	-0.4423931	79.73605	
19:05:54	0	0	0	0.2305346	2.863924	0	3	100	0	4	0.7812393	-0.4466743	79.7412	
19:05:55	0	0	0	0.1781622	-0.6519789	0	3	100	0	4	0.7871276	-0.4416171	79.74384	
19:05:55	0	0	0	0.06728392	-6.355455	0	3	100	0	4	0.7736744	-0.4447059	79.74733	
19:05:55	0	0	0	-0.02386215	-10.96549	0	3	100	0	4	0.7904691	-0.4468735	79.7481	
19:05:55	0	0	0	-0.09680449	-13.45699	0	3	100	0	4	0.7998223	-0.4509058	79.74031	
19:05:55	0	0	0	-0.1544769	-15.21821	0	3	100	0	4	0.7961554	-0.4554353	79.74513	
19:05:56	0	0	0	-0.1964424	-15.66314	0	3	100	0	4	0.7969624	-0.4492281	79.75016	
19:05:56	0	0	0	-0.2319296	-16.39456	0	3	100	0	4	0.8158823	-0.4499707	79.75343	
19:05:56	0	0	0	-0.2112647	-14.37384	0	3	100	0	4	0.8148368	-0.4330744	79.73833	
19:05:56	0	0	0	-0.1923325	-12.15991	0	3	100	0	4	0.8132043	-0.4181618	79.73637	
19:05:56	0	0	0	-0.1858998	-10.9819	0	3	100	0	4	0.8145952	-0.4024458	79.76667	
19:05:57	0	0	0	-0.1777133	-9.728706	0	3	100	0	3	0.8222537	-0.4132061	79.77984	
19:05:57	0	0	0	-0.1855032	-9.678777	0	3	100	0	4	0.8145308	-0.4265063	79.8005	
19:05:57	0	0	0	-0.1926131	-9.150237	0	3	100	0	4	0.8279737	-0.420125	79.81683	
19:05:57	0	0	0	-0.1803594	-7.704733	0	3	100	0	4	0.8222026	-0.4235029	79.8083	
19:05:57	0	0	0	-0.1675046	-6.046298	0	3	100	0	4	0.8146495	-0.4386134	79.80795	
19:05:58	0	0	0	-0.1579082	-4.452279	0	3	100	0	4	0.8118353	-0.4503228	79.813	
19:05:58	0	0	0	-0.1461278	-2.711633	0	3	100	0	4	0.8097098	-0.4193595	79.82159	
19:05:58	0	0	0	-0.1325345	-1.414577	0	3	100	0	4	0.8121966	-0.3865671	79.83171	
19:05:58	0	0	0	-0.1200358	-0.9225047	0	3	100	0	4	0.8145661	-0.354277	79.8351	
19:05:58	0	0	0	-0.1074633	-0.1117477	0	3	100	0	4	0.8193707	-0.3524953	79.83496	
19:05:59	0	0	0	-0.0970075	0.4595088	0	3	100	0	4	0.8211849	-0.3820729	79.84743	
19:05:59	0	0	0	-0.08744862	0.8105439	0	3	100	0	4	0.8249879	-0.3784686	79.84891	
19:05:59	0	0	0	-0.07702719	1.367546	0	3	100	0	5	0.8221624	-0.3758549	79.84727	
19:05:59	0	0	0	-0.07883491	1.421332	0	3	100	0	4	0.821631	-0.3724397	79.85724	
19:05:59	0	0	0	-0.08048369	1.348586	0	3	100	0	4	0.8226728	-0.3782415	79.8558	
19:06:00	0	0	0	-0.1256613	-0.7460558	0	3	100	0	4	0.8110662	-0.384602	79.86851	
19:06:00	0	0	0	-0.1665316	-2.927419	0	3	100	0	4	0.8027396	-0.3748539	79.87711	
19:06:00	0	0	0	-0.1840749	-4.220665	0	3	100	0	4	0.7886066	-0.3839804	79.8871	
19:06:00	0	0	0	-0.1996129	-5.165724	0	3	100	0	4	0.7817199	-0.3863776	79.88172	
19:06:00	0	0	0	-0.1881455	-4.31664	0	3	100	0	4	0.7758349	-0.3871254	79.90724	
19:06:01	0	0	0	-0.1527125	-2.109605	0	3	100	0	5	0.7819557	-0.3851749	79.907	
19:06:01	0	0	0	-0.1099685	0.6050623	0	3	100	0	4	0.7799781	-0.3824833	79.92138	
19:06:01	0	0	0	-0.07130048	2.687943	0	3	100	0	4	0.7983309	-0.3876236	79.92241	
19:06:01	0	0	0	-0.03217304	4.464172	0	3	100	0	5	0.7887802	-0.4083554	79.93892	
19:06:01	0	0	0	0.005115777	6.203078	0	3	100	0	4	0.7914339	-0.3986167	79.93455	
19:06:02	0	0	0	0.01073366	5.605671	0	3	100	0	4	0.7919687	-0.4037675	79.93043	
19:06:02	0	0	0	-0.004370195	3.889779	0	3	100	0	4	0.8085027	-0.4022732	79.92249	
19:06:02	0	0	0	-0.00330241	4.302669	0	3	100	0	4	0.8088384	-0.4144591	79.90554	
19:06:02	0	0	0	0.009757495	4.817933	0	3	100	0	4	0.7940559	-0.4287634	79.90916	
19:06:02	0	0	0	0.02032106	5.287851	0	3	100	0	4	0.800996	-0.4206923	79.90262	
19:06:03	0	0	0	0.02745727	5.285686	0	3	100	0	4	0.7975717	-0.4233004	79.90831	
19:06:03	0	0	0	0.04601408	5.957889	0	3	100	0	4	0.783655	-0.4199487	79.9191	
19:06:03	0	0	0	0.083652	7.427114	0	3	100	0	5	0.7792816	-0.4195981	79.92697	
19:06:03	0	0	0	0.1034534	8.019094	0	3	100	0	4	0.7893078	-0.4410013	79.92369	
19:06:03	0	0	0	0.1134496	7.736919	0	3	100	0	4	0.7830395	-0.449493	79.93432	
19:06:04	0	0	0	0.1453456	8.857351	0	3	100	0	4	0.7945981	-0.4667293	79.92262	
19:06:04	0	0	0	0.1942865	9.470736	0	3	100	0	4	0.7971181	-0.4871938	79.91156	
19:06:04	0	0	0	0.243083	10.66211	0	3	100	0	4	0.8068604	-0.4953797	79.90007	
19:06:04	0	0	0	0.2876005	11.59667	0	3	100	0	4	0.8054543	-0.4864027	79.8925	
19:06:04	0	0	0	0.2686074	9.358311	0	3	100	0	4	0.8033413	-0.4855893	79.8885	
19:06:05	0	0	0	0.1828746	3.810568	0	3	100	0	4	0.7958462	-0.4736853	79.89153	
19:06:05	0	0	0	0.1251221	0.5598525	0	3	100	0	5	0.788303	-0.4659547	79.90857	
19:06:05	0	0	0	0.07178472	-1.634333	0	3	100	0	4	0.7849831	-0.467779	79.90203	
19:06:05	0	0	0	0.02870295	-3.792794	0	3	100	0	4	0.8042629	-0.4460726	79.90004	
19:06:06	0	0	0	0.005123109	-4.31123	0	3	100	0	4	0.8159353	-0.4324123	79.89816	
19:06:06	0	0	0	-0.01576474	-5.351118	0	3	100	0	4	0.8129812	-0.4317003	79.8969	
19:06:06	0	0	0	-0.05113334	-6.281099	0	3	100	0	4	0.8195332	-0.4178962	79.88699	
19:06:06	0	0	0	-0.07885127	-7.232258	0	3	100	0	4	0.8223671	-0.4160128	79.90629	
19:06:06	0	0	0	-0.1105939	-7.836196	0	3	100	0	4	0.8281462	-0.4225327	79.924	
19:06:07	0	0	0	-0.1373938	-8.168533	0	3	100	0	4	0.8329466	-0.4393224	79.91309	
19:06:07	0	0	0	-0.1734076	-9.54185	0	3	100	0	4	0.8283945	-0.4569271	79.93034	
19:06:07	0	0	0	-0.204657	-10.00227	0	3	100	0	5	0.8217586	-0.4660106	79.93744	
19:06:07	0	0	0	-0.2291554	-10.19607	0	3	100	0	4	0.8176358	-0.482035	79.92598	
19:06:07	0	0	0	-0.2485226	-10.61936	0	3	100	0	5	0.8268272	-0.4962534	79.91034	
19:06:08	0	0	0	-0.2480236	-9.060841	0	3	100	0	4	0.8231278	-0.4902165	79.89347	
19:06:08	0	0	0	-0.2457456	-8.741227	0	3	100	0	4	0.8318165	-0.4856865	79.87315	
19:06:08	0	0	0	-0.246757	-7.623127	0	3	100	0	5	0.8392509	-0.4995425	79.87518	
19:06:08	0	0	0	-0.2456358	-6.595759	0	3	100	0	4	0.8443157	-0.4988669	79.87282	
19:06:08	0	0	0	-0.2805827	-7.848206	0	3	100	0	4	0.8568608	-0.4892229	79.86085	
19:06:09	0	0	0	-0.3106243	-8.892172	0	3	100	0	4	0.8559515	-0.4867499	79.85647	
19:06:09	0	0	0	-0.3502077	-10.23843	0	3	100	0	4	0.8592353	-0.4658495	79.8624	
19:06:09	0	0	0	-0.3841783	-10.67353	0	3	100	0	6	0.8557842	-0.4546697	79.84899	
19:06:09	0	0	0	-0.3801202	-9.337368	0	3	100	0	4	0.8628999	-0.4546421	79.8374	
19:06:09	0	0	0	-0.375023	-8.327472	0	3	100	0	4	0.8683639	-0.4274325	79.82816	
19:06:10	0	0	0	-0.3741848	-7.717249	0	3	100	0	4	0.8599599	-0.4423796	79.82819	
19:06:10	0	0	0	-0.3726351	-7.365883	0	3	100	0	4	0.8612241	-0.4239371	79.83054	
19:06:10	0	0	0	-0.330432	-4.700529	0	3	100	0	4	0.8504527	-0.4320337	79.82852	
19:06:10	0	0	0	-0.2948422	-2.361288	0	3	100	0	4	0.8575174	-0.4229697	79.84805	
19:06:10	0	0	0	-0.2633129	-0.6714624	0	3	100	0	4	0.8537092	-0.4295911	79.86086	
19:06:11	0	0	0	-0.2466066	-0.09645511	0	3	100	0	4	0.8692358	-0.4277753	79.84576	
19:06:11	0	0	0	-0.2055389	1.86908	0	3	100	0	4	0.8649378	-0.4610274	79.84132	
19:06:11	0	0	0	-0.1433477	5.488779	0	3	100	0	4	0.8637605	-0.4596429	79.8465	
19:06:11	0	0	0	-0.08686727	7.170065	0	3	100	0	4	0.8710796	-0.4484826	79.83949	
19:06:11	0	0	0	-0.03595818	9.073295	0	3	100	0	4	0.8630146	-0.4428145	79.84672	
19:06:12	0	0	0	0.01098177	11.21594	0	3	100	0	4	0.8638438	-0.4492574	79.83601	
19:06:12	0	0	0	0.04977571	12.2762	0	3	100	0	4	0.8554041	-0.4640007	79.84061	
19:06:12	0	0	0	0.09323739	13.63855	0	3	100	0	4	0.8585449	-0.477606	79.83279	
19:06:12	0	0	0	0.1360477	14.46744	0	3	100	0	4	0.843839	-0.4860792	79.83169	
19:06:12	0	0	0	0.1556324	14.23822	0	3	100	0	4	0.8347442	-0.4915229	79.82567	
19:06:13	0	0	0	0.14722	13.04229	0	3	100	0	4	0.8183441	-0.5358325	79.82481	
19:06:13	0	0	0	0.1270454	10.24685	0	3	100	0	4	0.8224152	-0.5557364	79.82218	
19:06:13	0	0	0	0.08752109	6.89581	0	3	100	0	5	0.8231512	-0.56209	79.79607	
19:06:13	0	0	0	0.06825896	6.639707	0	3	100	0	4	0.8253021	-0.5537987	79.78448	
19:06:13	0	0	0	0.05746646	5.115759	0	3	100	0	4	0.8203268	-0.5494397	79.7714	
19:06:14	0	0	0	0.03950308	3.731977	0	3	100	0	4	0.8166522	-0.5503102	79.77031	
19:06:14	0	0	0	0.01786259	2.116728	0	3	100	0	4	0.8203917	-0.5345299	79.75238	
19:06:14	0	0	0	0.005392557	1.54233	0	3	100	0	4	0.8087278	-0.5344991	79.74865	
19:06:14	0	0	0	0.0004085488	1.472998	0	3	100	0	4	0.8179152	-0.5328327	79.72954	
19:06:14	0	0	0	-0.005751869	0.3008505	0	3	100	0	4	0.8173008	-0.5535676	79.71718	
19:06:15	0	0	0	-0.01300171	0.2802967	0	3	100	0	4	0.8202789	-0.564196	79.71296	
19:06:15	0	0	0	-0.03026724	-0.72086	0	3	100	0	4	0.8048468	-0.5773858	79.69461	
19:06:15	0	0	0	-0.06458371	-2.249951	0	3	100	0	4	0.8000808	-0.5727494	79.6703	
19:06:15	0	0	0	-0.09201144	-3.555526	0	3	100	0	3	0.798627	-0.5990748	79.65757	
19:06:15	0	0	0	-0.0818906	-2.769562	0	3	100	0	5	0.7897314	-0.6176177	79.64836	
19:06:16	0	0	0	-0.0719284	-1.789811	0	3	100	0	4	0.7959723	-0.604416	79.63096	
19:06:16	0	0	0	-0.02227963	1.147828	0	3	100	0	4	0.7931397	-0.613289	79.61643	
19:06:16	0	0	0	0.01858883	3.102753	0	3	100	0	4	0.7842259	-0.616726	79.59637	
19:06:16	0	0	0	-0.003866004	1.792175	0	3	100	0	4	0.7768565	-0.6333877	79.5853	
19:06:16	0	0	0	-0.02491272	0.2161961	0	3	100	0	5	0.7740793	-0.6404392	79.56257	
19:06:17	0	0	0	-0.07628606	-2.008265	0	3	100	0	4	0.7669066	-0.6329729	79.5567	
19:06:17	0	0	0	-0.1219501	-4.225341	0	3	100	0	4	0.768025	-0.6251833	79.53932	
19:06:17	0	0	0	-0.1275383	-4.553642	0	3	100	0	4	0.7716697	-0.6197851	79.51643	
