Date	Latitude(deg) 	Longitude(deg)	hamsl(m)	hafl(m)	climbrate(cm/s)	GroundSpeed(m/s)	Airspeed(m/s)	Mav_Link(%)	Rssi_Link(%)	Throttle	Roll(deg)	Pitch(deg)	Yaw(deg)
11:31:05	0	0	0	0	0	0	0	100	0	0	1.411621	-0.4057705	43.29313	
11:31:06	0	0	0	0	0	0	0	100	0	0	1.415145	-0.4009872	43.26469	
11:31:06	0	0	0	0	0	0	0	100	0	0	1.424238	-0.4053063	43.2859	
11:31:06	0	0	0	0.01245883	-23.54863	0	3	100	0	50	1.417544	-0.4060114	43.29303	
11:31:06	0	0	0	0.01245883	-23.54863	0	3	100	0	50	1.400765	-0.4065521	43.34805	
11:31:06	0	0	0	0.01245883	-23.54863	0	3	100	0	50	1.406662	-0.4156896	43.35098	
11:31:07	0	0	0	0.01245883	-23.54863	0	3	100	0	50	1.405197	-0.4174612	43.33192	
11:31:07	0	0	0	0.01245883	-23.54863	0	3	100	0	50	1.345365	-0.417066	43.38586	
11:31:07	0	0	0	-0.03617068	1.451035	0	3	100	0	50	1.237826	-0.4035803	43.57523	
11:31:07	0	0	0	-0.03617068	1.451035	0	3	100	0	50	1.218031	-0.4239279	43.85533	
11:31:07	0	0	0	-0.03617068	1.451035	0	3	100	0	50	1.212659	-0.4247745	44.00766	
11:31:08	0	0	0	-0.03617068	1.451035	0	3	100	0	50	1.207754	-0.4279611	44.10046	
11:31:08	0	0	0	-0.03617068	1.451035	0	3	100	0	50	1.202747	-0.4314414	44.1055	
11:31:08	0	0	0	0.4465539	27.82626	0	3	100	0	50	1.198312	-0.4338792	44.05012	
11:31:08	0	0	0	0.4465539	27.82626	0	3	100	0	50	1.194944	-0.4344765	44.06475	
11:31:08	0	0	0	0.4465539	27.82626	0	3	100	0	50	1.200594	-0.4350731	44.04112	
11:31:09	0	0	0	0.4465539	27.82626	0	3	100	0	50	1.204254	-0.4378581	44.09454	
11:31:09	0	0	0	0.4465539	27.82626	0	3	100	0	50	1.224837	-0.4384889	44.25461	
11:31:09	0	0	0	0.6481357	35.94062	0	3	100	0	50	1.263213	-0.4418173	44.52633	
11:31:09	0	0	0	0.6481357	35.94062	0	3	100	0	50	1.314568	-0.4356672	45.09934	
11:31:09	0	0	0	0.6481357	35.94062	0	3	100	0	50	1.364216	-0.4379579	45.53377	
11:31:10	0	0	0	0.6481357	35.94062	0	3	100	0	50	1.369439	-0.4365772	45.45494	
11:31:10	0	0	0	0.6481357	35.94062	0	3	100	0	50	1.374546	-0.4319502	45.31913	
11:31:10	0	0	0	0.6361946	30.7537	0	3	100	0	50	1.371927	-0.4272854	45.24123	
11:31:10	0	0	0	0.6361946	30.7537	0	3	100	0	50	1.372426	-0.4319468	45.19666	
11:31:11	0	0	0	0.6361946	30.7537	0	3	100	0	50	1.372607	-0.4305055	45.09956	
11:31:11	0	0	0	0.6361946	30.7537	0	3	100	0	50	1.369414	-0.4290881	45.08232	
11:31:11	0	0	0	0.6361946	30.7537	0	3	100	0	50	1.367211	-0.4234646	44.98798	
11:31:11	0	0	0	0.5563723	24.29661	0	3	100	0	50	1.364479	-0.418435	44.90817	
11:31:11	0	0	0	0.5563723	24.29661	0	3	100	0	50	1.363487	-0.4153645	44.8766	
11:31:12	0	0	0	0.5563723	24.29661	0	3	100	0	50	1.363096	-0.4124144	44.87734	
11:31:12	0	0	0	0.5563723	24.29661	0	3	100	0	50	1.356667	-0.4100311	44.83889	
11:31:12	0	0	0	0.5563723	24.29661	0	3	100	0	50	1.358157	-0.408175	44.80699	
11:31:12	0	0	0	0.3721852	13.82472	0	3	100	0	50	1.350876	-0.4089038	44.77244	
11:31:12	0	0	0	0.3721852	13.82472	0	3	100	0	50	1.352893	-0.4100046	44.70375	
11:31:13	0	0	0	0.3721852	13.82472	0	3	100	0	50	1.347723	-0.4099321	44.64199	
11:31:13	0	0	0	0.3721852	13.82472	0	3	100	0	50	1.35586	-0.4073232	44.56998	
11:31:13	0	0	0	0.3721852	13.82472	0	3	100	0	50	1.362571	-0.4104204	44.54517	
11:31:13	0	0	0	0.3715655	14.89181	0	3	100	0	50	1.359885	-0.4105906	44.50677	
11:31:13	0	0	0	0.3715655	14.89181	0	3	100	0	50	1.36374	-0.4111922	44.47989	
11:31:14	0	0	0	0.3715655	14.89181	0	3	100	0	50	1.362189	-0.4129585	44.45051	
11:31:14	0	0	0	0.3715655	14.89181	0	3	100	0	50	1.364027	-0.4163228	44.50301	
11:31:14	0	0	0	0.3715655	14.89181	0	3	100	0	50	1.353553	-0.4158922	44.51427	
11:31:14	0	0	0	0.5189173	22.45463	0	3	100	0	50	1.350357	-0.4133085	44.49017	
11:31:14	0	0	0	0.5189173	22.45463	0	3	100	0	50	1.351893	-0.4144429	44.45346	
11:31:15	0	0	0	0.5189173	22.45463	0	3	100	0	50	1.342912	-0.4099377	44.46235	
11:31:15	0	0	0	0.5189173	22.45463	0	3	100	0	50	1.341766	-0.4098243	44.49426	
11:31:15	0	0	0	0.5189173	22.45463	0	3	100	0	50	1.339157	-0.4114992	44.50262	
11:31:15	0	0	0	0.5663858	23.52991	0	3	100	0	50	1.34334	-0.4079119	44.47471	
11:31:15	0	0	0	0.5663858	23.52991	0	3	100	0	50	1.341688	-0.4048819	44.45317	
11:31:16	0	0	0	0.5663858	23.52991	0	3	100	0	50	1.341153	-0.4104041	44.39314	
11:31:16	0	0	0	0.5663858	23.52991	0	3	100	0	50	1.343433	-0.4146841	44.35477	
11:31:16	0	0	0	0.5663858	23.52991	0	3	100	0	50	1.338181	-0.4147032	44.34771	
11:31:16	0	0	0	0.8286332	34.45308	0	3	100	0	50	1.339203	-0.4083251	44.33826	
11:31:16	0	0	0	0.8286332	34.45308	0	3	100	0	50	1.340874	-0.4146582	44.41887	
11:31:17	0	0	0	0.8286332	34.45308	0	3	100	0	50	1.336886	-0.4129039	44.46322	
11:31:17	0	0	0	0.8286332	34.45308	0	3	100	0	50	1.336473	-0.4152414	44.45475	
11:31:17	0	0	0	0.8286332	34.45308	0	3	100	0	50	1.336946	-0.419427	44.37906	
11:31:17	0	0	0	0.6546763	18.03185	0	3	100	0	50	1.338977	-0.4143034	44.31787	
11:31:17	0	0	0	0.6546763	18.03185	0	3	100	0	50	1.33714	-0.4153033	44.30053	
11:31:18	0	0	0	0.6546763	18.03185	0	3	100	0	50	1.345258	-0.4160966	44.23474	
11:31:18	0	0	0	0.6546763	18.03185	0	3	100	0	50	1.342582	-0.4194672	44.24817	
11:31:18	0	0	0	0.6546763	18.03185	0	3	100	0	50	1.339919	-0.4183621	44.1938	
11:31:18	0	0	0	0.8095124	23.30513	0	3	100	0	50	1.334245	-0.417823	44.19199	
11:31:18	0	0	0	0.8095124	23.30513	0	3	100	0	50	1.335977	-0.4161265	44.1926	
11:31:19	0	0	0	0.8095124	23.30513	0	3	100	0	50	1.33556	-0.4234673	44.21043	
11:31:19	0	0	0	0.8095124	23.30513	0	3	100	0	50	1.338116	-0.4236216	44.20551	
11:31:19	0	0	0	0.8095124	23.30513	0	3	100	0	50	1.338599	-0.4224801	44.21516	
11:31:19	0	0	0	0.7501373	16.60751	0	3	100	0	50	1.338737	-0.4236627	44.17598	
11:31:19	0	0	0	0.7501373	16.60751	0	3	100	0	50	1.342154	-0.4234213	44.18093	
11:31:20	0	0	0	0.7501373	16.60751	0	3	100	0	50	1.33731	-0.4238133	44.20675	
11:31:20	0	0	0	0.7501373	16.60751	0	3	100	0	50	1.335304	-0.4242091	44.21173	
11:31:20	0	0	0	0.7501373	16.60751	0	3	100	0	50	1.343173	-0.4183417	44.19643	
11:31:20	0	0	0	0.6517944	9.23136	0	3	100	0	50	1.346455	-0.4193359	44.15998	
11:31:20	0	0	0	0.6517944	9.23136	0	3	100	0	50	1.347443	-0.4206401	44.14148	
11:31:21	0	0	0	0.6517944	9.23136	0	3	100	0	50	1.350842	-0.4219147	44.1545	
11:31:21	0	0	0	0.6517944	9.23136	0	3	100	0	50	1.351562	-0.418771	44.13326	
11:31:21	0	0	0	0.6517944	9.23136	0	3	100	0	50	1.35641	-0.4233468	44.15685	
11:31:21	0	0	0	0.8214208	17.66527	0	3	100	0	50	1.355332	-0.4237438	44.1522	
11:31:21	0	0	0	0.8214208	17.66527	0	3	100	0	50	1.35972	-0.421483	44.10981	
11:31:22	0	0	0	0.8214208	17.66527	0	3	100	0	50	1.352699	-0.4247265	44.1227	
11:31:22	0	0	0	0.8214208	17.66527	0	3	100	0	50	1.349517	-0.4269066	44.09429	
11:31:22	0	0	0	0.8214208	17.66527	0	3	100	0	50	1.353921	-0.428403	44.07289	
11:31:22	0	0	0	0.8192986	16.09229	0	3	100	0	50	1.35385	-0.4243512	44.04452	
11:31:22	0	0	0	0.8192986	16.09229	0	3	100	0	50	1.355057	-0.4244002	44.07351	
11:31:23	0	0	0	0.8192986	16.09229	0	3	100	0	50	1.368839	-0.4285547	44.13541	
11:31:23	0	0	0	0.8192986	16.09229	0	3	100	0	50	1.382657	-0.4294788	44.04847	
11:31:23	0	0	0	0.8192986	16.09229	0	3	100	0	50	1.389647	-0.4316845	44.03523	
11:31:23	0	0	0	0.7841294	10.67853	0	3	100	0	50	1.366289	-0.4411686	44.08992	
11:31:23	0	0	0	0.7841294	10.67853	0	3	100	0	50	1.348503	-0.4451335	44.15075	
11:31:24	0	0	0	0.7841294	10.67853	0	3	100	0	50	1.32138	-0.4434665	44.20601	
11:31:24	0	0	0	0.7841294	10.67853	0	3	100	0	50	1.290612	-0.4435166	44.21904	
11:31:24	0	0	0	0.7841294	10.67853	0	3	100	0	50	1.279212	-0.4414873	44.33372	
11:31:24	0	0	0	0.7479882	7.757063	0	3	100	0	50	1.270659	-0.4455028	44.42997	
11:31:24	0	0	0	0.7479882	7.757063	0	3	100	0	50	1.270979	-0.4411581	44.49215	
11:31:25	0	0	0	0.7479882	7.757063	0	3	100	0	50	1.256871	-0.4456495	44.51785	
11:31:25	0	0	0	0.7479882	7.757063	0	3	100	0	50	1.204536	-0.4687297	44.65698	
11:31:25	0	0	0	0.7479882	7.757063	0	3	100	0	50	1.249924	-0.4644864	45.00443	
11:31:25	0	0	0	0.7837613	8.844952	0	3	100	0	50	1.266062	-0.4613882	44.98175	
11:31:25	0	0	0	0.7837613	8.844952	0	3	100	0	50	1.277087	-0.456794	44.97159	
11:31:26	0	0	0	0.7837613	8.844952	0	3	100	0	50	1.26886	-0.4543673	45.0191	
11:31:26	0	0	0	0.7837613	8.844952	0	3	100	0	50	1.259372	-0.4511147	45.14009	
11:31:26	0	0	0	0.7837613	8.844952	0	3	100	0	50	1.252077	-0.4501393	45.1286	
11:31:26	0	0	0	0.7546026	9.935306	0	3	100	0	50	1.250601	-0.4499881	45.07822	
11:31:26	0	0	0	0.7546026	9.935306	0	3	100	0	50	1.262785	-0.4488254	45.10724	
11:31:27	0	0	0	0.7546026	9.935306	0	3	100	0	50	1.272509	-0.4543571	45.15245	
11:31:27	0	0	0	0.7546026	9.935306	0	3	100	0	50	1.269463	-0.4533328	45.18954	
11:31:27	0	0	0	0.7546026	9.935306	0	3	100	0	50	1.204742	-0.4416357	45.21051	
11:31:27	0	0	0	0.8804999	12.28593	0	3	100	0	50	1.170733	-0.4433094	45.31678	
11:31:28	0	0	0	0.8804999	12.28593	0	3	100	0	50	1.177698	-0.4120173	45.63643	
11:31:28	0	0	0	0.8804999	12.28593	0	3	100	0	50	1.171888	-0.4185812	45.76579	
11:31:28	0	0	0	0.8804999	12.28593	0	3	100	0	50	1.16299	-0.4223833	45.74012	
11:31:28	0	0	0	0.8804999	12.28593	0	3	100	0	50	1.154164	-0.4243792	45.96191	
11:31:28	0	0	0	0.6731503	-2.303521	0	3	100	0	50	1.168367	-0.4375926	46.12101	
11:31:29	0	0	0	0.6731503	-2.303521	0	3	100	0	50	1.179881	-0.4588479	46.32784	
11:31:29	0	0	0	0.6731503	-2.303521	0	3	100	0	50	1.154362	-0.4457802	46.50222	
11:31:29	0	0	0	0.6731503	-2.303521	0	3	100	0	50	1.158263	-0.4440222	46.39745	
11:31:29	0	0	0	0.6731503	-2.303521	0	3	100	0	50	1.170878	-0.4410206	46.30899	
11:31:29	0	0	0	0.4632575	-5.766879	0	3	100	0	50	1.160088	-0.4494223	46.32481	
11:31:30	0	0	0	0.4632575	-5.766879	0	3	100	0	50	1.162856	-0.4486663	46.2308	
11:31:30	0	0	0	0.4632575	-5.766879	0	3	100	0	50	1.163124	-0.4419637	46.15417	
11:31:30	0	0	0	0.4632575	-5.766879	0	3	100	0	50	1.166635	-0.4399913	46.07569	
11:31:30	0	0	0	0.4632575	-5.766879	0	3	100	0	50	1.206943	-0.4211119	46.04309	
11:31:30	0	0	0	0.5970395	6.077846	0	3	100	0	50	1.310308	-0.4378573	46.34641	
11:31:31	0	0	0	0.5970395	6.077846	0	3	100	0	50	1.926299	-0.4716136	47.42627	
11:31:31	0	0	0	0.5970395	6.077846	0	3	100	0	50	0.7814912	-0.433464	52.59187	
11:31:31	0	0	0	0.5970395	6.077846	0	3	100	0	50	0.8769851	-0.1656169	53.69122	
11:31:31	0	0	0	0.5970395	6.077846	0	3	100	0	50	0.7340003	0.05407673	56.61514	
11:31:31	0	0	0	0.5351076	-3.120361	0	3	100	0	50	0.4114103	0.7441691	62.3662	
11:31:32	0	0	0	0.5351076	-3.120361	0	3	100	0	50	0.568711	0.8728281	64.57435	
11:31:32	0	0	0	0.5351076	-3.120361	0	3	100	0	50	0.5040784	0.6277993	66.6994	
11:31:32	0	0	0	0.5351076	-3.120361	0	3	100	0	50	0.2891405	0.815426	68.07959	
11:31:32	0	0	0	0.5351076	-3.120361	0	3	100	0	50	0.3388081	0.8427134	69.54567	
11:31:32	0	0	0	0.5531153	-9.514848	0	3	100	0	50	0.2272945	0.8160497	68.96003	
11:31:33	0	0	0	0.5531153	-9.514848	0	3	100	0	50	0.1078884	0.8078713	68.32356	
11:31:33	0	0	0	0.5531153	-9.514848	0	3	100	0	50	-0.03584446	0.817839	67.79027	
11:31:33	0	0	0	0.5531153	-9.514848	0	3	100	0	50	-0.1992931	0.8470145	66.29606	
11:31:33	0	0	0	0.5531153	-9.514848	0	3	100	0	50	-0.09586562	0.5324669	60.67264	
11:31:33	0	0	0	0.457963	-12.73171	0	3	100	0	50	-0.7696877	0.08489535	55.68047	
11:31:34	0	0	0	0.457963	-12.73171	0	3	100	0	50	-1.500422	-0.3181165	52.97382	
11:31:34	0	0	0	0.457963	-12.73171	0	3	100	0	50	-1.787871	-0.4230213	51.7078	
11:31:34	0	0	0	0.457963	-12.73171	0	3	100	0	50	-1.918531	-0.4639796	50.60485	
11:31:34	0	0	0	0.457963	-12.73171	0	3	100	0	50	-2.080132	-0.5665215	48.21646	
11:31:34	0	0	0	0.4548361	-10.94548	0	3	100	0	50	-1.943325	-0.5692725	45.38251	
11:31:35	0	0	0	0.4548361	-10.94548	0	3	100	0	50	-2.002836	-0.6156209	44.14199	
11:31:35	0	0	0	0.4548361	-10.94548	0	3	100	0	50	-2.24233	-0.6495754	42.80638	
11:31:35	0	0	0	0.4548361	-10.94548	0	3	100	0	50	-2.273661	-0.6764392	42.99886	
11:31:35	0	0	0	0.4548361	-10.94548	0	3	100	0	50	-2.130208	-0.6232057	43.11484	
11:31:35	0	0	0	0.6424609	1.797226	0	3	100	0	50	-2.130247	-0.5964184	43.21905	
11:31:36	0	0	0	0.6424609	1.797226	0	3	100	0	50	-2.132004	-0.5847522	43.21376	
11:31:36	0	0	0	0.6424609	1.797226	0	3	100	0	50	-2.136042	-0.5876836	43.03327	
11:31:36	0	0	0	0.6424609	1.797226	0	3	100	0	50	-2.142542	-0.5815358	42.92883	
11:31:36	0	0	0	0.6424609	1.797226	0	3	100	0	50	-2.164576	-0.4773827	43.12291	
11:31:36	0	0	0	0.5902148	2.269464	0	3	100	0	50	-2.309631	-0.4629594	43.18002	
11:31:37	0	0	0	0.5902148	2.269464	0	3	100	0	50	-2.011295	-0.09982295	40.11099	
11:31:37	0	0	0	0.5902148	2.269464	0	3	100	0	50	-1.165978	0.3485025	35.95236	
11:31:37	0	0	0	0.5902148	2.269464	0	3	100	0	50	-0.7134262	0.4989198	35.22699	
11:31:37	0	0	0	0.5902148	2.269464	0	3	100	0	50	-0.2537273	0.6131152	32.4509	
11:31:37	0	0	0	0.4708766	-7.768737	0	3	100	0	50	-0.2769669	0.5272034	30.09452	
11:31:38	0	0	0	0.4708766	-7.768737	0	3	100	0	50	-0.3618281	0.503868	29.8333	
11:31:38	0	0	0	0.4708766	-7.768737	0	3	100	0	50	-0.4808374	0.4107066	28.15745	
11:31:38	0	0	0	0.4708766	-7.768737	0	3	100	0	50	-0.6338755	0.385693	28.71621	
11:31:38	0	0	0	0.4708766	-7.768737	0	3	100	0	50	-0.7643673	0.3470637	29.41179	
11:31:38	0	0	0	0.4036837	-16.25136	0	3	100	0	50	-1.027854	0.3083643	30.03451	
11:31:39	0	0	0	0.4036837	-16.25136	0	3	100	0	50	-1.145411	0.284133	30.52624	
11:31:39	0	0	0	0.4036837	-16.25136	0	3	100	0	50	-1.363565	0.2988377	30.9483	
11:31:39	0	0	0	0.4036837	-16.25136	0	3	100	0	50	-1.435575	0.3137799	31.26405	
11:31:39	0	0	0	0.4036837	-16.25136	0	3	100	0	50	-1.17473	0.3284466	31.73748	
11:31:39	0	0	0	0.6084191	-5.13711	0	3	100	0	50	-1.276215	0.4371019	28.862	
11:31:40	0	0	0	0.6084191	-5.13711	0	3	100	0	50	-1.412343	0.1478299	26.75281	
11:31:40	0	0	0	0.6084191	-5.13711	0	3	100	0	50	-1.787149	0.2039627	27.08336	
11:31:40	0	0	0	0.6084191	-5.13711	0	3	100	0	50	-1.829677	0.1942334	27.27777	
11:31:40	0	0	0	0.6084191	-5.13711	0	3	100	0	50	-2.068211	0.49569	26.84067	
11:31:40	0	0	0	0.692767	-6.177266	0	3	100	0	50	-2.271478	0.7909072	27.3679	
11:31:41	0	0	0	0.692767	-6.177266	0	3	100	0	50	-2.471203	0.8700718	27.5423	
11:31:41	0	0	0	0.692767	-6.177266	0	3	100	0	50	-2.905395	0.7704329	26.44495	
11:31:41	0	0	0	0.692767	-6.177266	0	3	100	0	50	-1.378092	0.8349519	23.8986	
11:31:41	0	0	0	0.692767	-6.177266	0	3	100	0	50	-1.090881	0.9071256	23.53636	
11:31:42	0	0	0	0.7125405	-7.026163	0	3	100	0	50	3.533108	2.583124	26.53849	
11:31:42	0	0	0	0.7125405	-7.026163	0	3	100	0	50	4.101041	2.67703	27.04916	
11:31:42	0	0	0	0.7125405	-7.026163	0	3	100	0	50	4.261521	2.719695	26.77439	
11:31:42	0	0	0	0.7125405	-7.026163	0	3	100	0	50	4.263045	2.619866	26.53891	
11:31:42	0	0	0	0.7125405	-7.026163	0	3	100	0	50	4.083889	2.845214	26.33428	
11:31:43	0	0	0	0.6428366	-13.04871	0	3	100	0	50	3.961344	2.793031	26.44836	
11:31:43	0	0	0	0.6428366	-13.04871	0	3	100	0	50	3.99195	2.687372	26.93794	
11:31:43	0	0	0	0.6428366	-13.04871	0	3	100	0	50	4.544616	1.787705	25.99679	
11:31:43	0	0	0	0.6428366	-13.04871	0	3	100	0	50	4.659398	1.412983	24.95209	
11:31:43	0	0	0	0.6428366	-13.04871	0	3	100	0	50	4.343138	1.444516	25.48815	
11:31:44	0	0	0	0.7286471	-4.989614	0	3	100	0	50	4.297643	1.438653	25.1813	
11:31:44	0	0	0	0.7286471	-4.989614	0	3	100	0	50	4.25623	1.159577	24.66134	
11:31:44	0	0	0	0.7286471	-4.989614	0	3	100	0	50	4.241472	1.059712	24.05592	
11:31:44	0	0	0	0.7286471	-4.989614	0	3	100	0	50	4.350461	0.8144356	24.00925	
11:31:44	0	0	0	0.7286471	-4.989614	0	3	100	0	50	4.393263	0.9567417	24.78459	
11:31:45	0	0	0	0.8404477	-1.36388	0	3	100	0	50	4.235402	1.179852	25.75577	
11:31:45	0	0	0	0.8404477	-1.36388	0	3	100	0	50	3.75979	2.239777	26.70211	
11:31:45	0	0	0	0.8404477	-1.36388	0	3	100	0	50	4.406024	1.070219	26.16817	
11:31:45	0	0	0	0.8404477	-1.36388	0	3	100	0	50	3.608397	1.170344	23.00535	
11:31:45	0	0	0	0.8404477	-1.36388	0	3	100	0	50	2.929904	1.575739	23.2928	
11:31:46	0	0	0	0.9576432	5.818714	0	3	100	0	50	1.570731	2.633093	24.31268	
11:31:46	0	0	0	0.9576432	5.818714	0	3	100	0	50	2.279645	2.183072	25.75332	
11:31:46	0	0	0	0.9576432	5.818714	0	3	100	0	50	2.345479	2.138252	26.53851	
11:31:46	0	0	0	0.9576432	5.818714	0	3	100	0	50	2.328528	2.150898	27.28103	
11:31:46	0	0	0	0.9576432	5.818714	0	3	100	0	50	2.322366	2.158421	28.15632	
11:31:47	0	0	0	0.8429399	3.729908	0	3	100	0	50	2.297664	2.185349	28.72145	
11:31:47	0	0	0	0.8429399	3.729908	0	3	100	0	50	2.277513	2.203855	29.19414	
11:31:47	0	0	0	0.8429399	3.729908	0	3	100	0	50	2.248634	2.233124	29.65994	
11:31:47	0	0	0	0.8429399	3.729908	0	3	100	0	50	2.21033	2.246602	30.77976	
11:31:47	0	0	0	0.8429399	3.729908	0	3	100	0	50	2.091139	2.394701	31.565	
11:31:48	0	0	0	0.9215244	6.67836	0	3	100	0	50	2.063775	2.424841	32.15849	
11:31:48	0	0	0	0.9215244	6.67836	0	3	100	0	50	2.078843	2.439814	32.71925	
11:31:48	0	0	0	0.9215244	6.67836	0	3	100	0	50	2.015196	2.497146	33.24558	
11:31:48	0	0	0	0.9215244	6.67836	0	3	100	0	50	1.987596	2.525457	33.5808	
11:31:48	0	0	0	0.9215244	6.67836	0	3	100	0	50	1.961215	2.551603	33.96457	
11:31:49	0	0	0	1.058257	18.12511	0	3	100	0	50	1.965318	2.549436	34.46526	
11:31:49	0	0	0	1.058257	18.12511	0	3	100	0	50	1.948092	2.565715	34.77725	
11:31:49	0	0	0	1.058257	18.12511	0	3	100	0	50	1.923029	2.593749	34.94789	
11:31:49	0	0	0	1.058257	18.12511	0	3	100	0	50	1.904328	2.611098	35.20436	
11:31:49	0	0	0	1.058257	18.12511	0	3	100	0	50	1.889089	2.628146	35.41396	
11:31:50	0	0	0	1.002854	12.66468	0	3	100	0	50	1.87148	2.646853	35.60602	
11:31:50	0	0	0	1.002854	12.66468	0	3	100	0	50	1.848687	2.669196	35.6976	
11:31:50	0	0	0	1.002854	12.66468	0	3	100	0	50	1.826771	2.688042	35.90725	
11:31:50	0	0	0	1.002854	12.66468	0	3	100	0	50	1.799928	2.714872	36.11991	
11:31:50	0	0	0	1.002854	12.66468	0	3	100	0	50	1.775426	2.739054	36.3655	
11:31:51	0	0	0	0.93655	7.351543	0	3	100	0	50	1.750986	2.766994	36.48851	
11:31:51	0	0	0	0.93655	7.351543	0	3	100	0	50	1.735458	2.791381	36.6728	
11:31:51	0	0	0	0.93655	7.351543	0	3	100	0	50	1.718834	2.818616	36.8038	
11:31:51	0	0	0	0.93655	7.351543	0	3	100	0	50	1.711551	2.834354	37.06627	
11:31:51	0	0	0	0.93655	7.351543	0	3	100	0	50	1.699133	2.84921	37.23306	
11:31:52	0	0	0	0.8848986	5.66732	0	3	100	0	50	1.712248	2.838152	37.67464	
11:31:52	0	0	0	0.8848986	5.66732	0	3	100	0	50	1.45111	3.215351	40.56186	
11:31:52	0	0	0	0.8848986	5.66732	0	3	100	0	50	2.942197	1.687308	49.17172	
11:31:52	0	0	0	0.8848986	5.66732	0	3	100	0	50	2.812634	1.887556	52.81492	
11:31:52	0	0	0	0.8848986	5.66732	0	3	100	0	50	2.812758	1.565098	54.03153	
11:31:53	0	0	0	0.7729138	-7.825776	0	3	100	0	50	3.136076	1.259443	55.90844	
11:31:53	0	0	0	0.7729138	-7.825776	0	3	100	0	50	3.345867	1.019344	57.09578	
11:31:53	0	0	0	0.7729138	-7.825776	0	3	100	0	50	3.381736	0.9969641	57.00568	
11:31:53	0	0	0	0.7729138	-7.825776	0	3	100	0	50	3.452612	0.8847323	57.00853	
11:31:53	0	0	0	0.7729138	-7.825776	0	3	100	0	50	3.496492	0.832383	56.98858	
11:31:54	0	0	0	0.4095916	-20.02851	0	3	100	0	50	3.574695	0.725464	56.94672	
11:31:54	0	0	0	0.4095916	-20.02851	0	3	100	0	50	3.63087	1.494174	53.60098	
11:31:54	0	0	0	0.4095916	-20.02851	0	3	100	0	50	3.566546	1.679706	53.06098	
11:31:54	0	0	0	0.4095916	-20.02851	0	3	100	0	50	3.536697	1.722471	52.6861	
11:31:54	0	0	0	0.4095916	-20.02851	0	3	100	0	50	3.496259	1.786838	52.26069	
11:31:55	0	0	0	0.2675772	-25.02789	0	3	100	0	50	3.471357	1.839132	51.75225	
11:31:55	0	0	0	0.2675772	-25.02789	0	3	100	0	50	3.442177	1.888096	51.32999	
11:31:55	0	0	0	0.2675772	-25.02789	0	3	100	0	50	3.414179	1.926441	50.988	
11:31:55	0	0	0	0.2675772	-25.02789	0	3	100	0	50	3.388653	1.965404	50.63555	
11:31:55	0	0	0	0.2675772	-25.02789	0	3	100	0	50	3.415819	1.987208	50.47055	
11:31:56	0	0	0	0.4078261	-17.81754	0	3	100	0	50	3.160941	2.418073	49.66608	
11:31:56	0	0	0	0.4078261	-17.81754	0	3	100	0	50	1.817816	2.999456	45.87324	
11:31:56	0	0	0	0.4078261	-17.81754	0	3	100	0	50	1.338718	2.606424	38.60848	
11:31:56	0	0	0	0.4078261	-17.81754	0	3	100	0	50	1.515971	0.7533543	32.28279	
11:31:57	0	0	0	0.4078261	-17.81754	0	3	100	0	50	3.653533	-0.8945386	28.0744	
11:31:57	0	0	0	0.2278331	-26.19217	0	3	100	0	50	2.738189	-2.320158	27.37528	
11:31:57	0	0	0	0.2278331	-26.19217	0	3	100	0	50	6.188196	-0.5675526	23.44268	
11:31:57	0	0	0	0.2278331	-26.19217	0	3	100	0	50	2.010323	0.07674386	22.85835	
11:31:57	0	0	0	0.2278331	-26.19217	0	3	100	0	50	-0.1500815	0.4520482	22.80268	
11:31:58	0	0	0	0.2278331	-26.19217	0	3	100	0	50	-1.412083	1.162938	23.12453	
11:31:58	0	0	0	0.4325073	-12.1574	0	3	100	0	50	-1.479446	1.578872	24.23871	
11:31:58	0	0	0	0.4325073	-12.1574	0	3	100	0	50	-1.405099	1.622918	25.54523	
11:31:58	0	0	0	0.4325073	-12.1574	0	3	100	0	50	-1.277517	1.402987	26.54493	
11:31:58	0	0	0	0.4325073	-12.1574	0	3	100	0	50	-1.217973	1.258871	27.11501	
11:31:59	0	0	0	0.4325073	-12.1574	0	3	100	0	50	-0.8738921	1.036302	27.6068	
11:31:59	0	0	0	0.6518617	5.579313	0	3	100	0	50	2.062465	-0.5004481	27.10028	
11:31:59	0	0	0	0.6518617	5.579313	0	3	100	0	50	5.801724	-2.819471	25.49194	
11:31:59	0	0	0	0.6518617	5.579313	0	3	100	0	50	7.290987	-4.16941	22.63725	
11:31:59	0	0	0	0.6518617	5.579313	0	3	100	0	50	8.92275	-4.770335	22.13595	
11:32:00	0	0	0	0.6518617	5.579313	0	3	100	0	50	11.57864	-4.853579	19.85526	
11:32:00	0	0	0	0.6373634	-1.576193	0	3	100	0	50	13.45831	-5.419799	19.22042	
11:32:00	0	0	0	0.6373634	-1.576193	0	3	100	0	50	17.03526	-4.426338	18.73275	
11:32:00	0	0	0	0.6373634	-1.576193	0	3	100	0	50	20.9804	-4.058575	18.2137	
11:32:00	0	0	0	0.6373634	-1.576193	0	3	100	0	50	22.01425	-3.824255	18.49699	
11:32:01	0	0	0	0.6373634	-1.576193	0	3	100	0	50	18.84984	-4.888224	18.80546	
11:32:01	0	0	0	0.7726542	-0.1962408	0	3	100	0	50	13.93055	-5.635254	17.01609	
11:32:01	0	0	0	0.7726542	-0.1962408	0	3	100	0	50	10.7932	-1.600584	14.90967	
11:32:01	0	0	0	0.7726542	-0.1962408	0	3	100	0	50	10.17272	1.19843	14.30148	
11:32:01	0	0	0	0.7726542	-0.1962408	0	3	100	0	50	9.494718	1.343203	13.79555	
11:32:02	0	0	0	0.7726542	-0.1962408	0	3	100	0	50	6.139546	1.118905	12.3336	
11:32:02	0	0	0	0.7839265	-9.16999	0	3	100	0	50	5.267246	-0.6764585	14.28622	
11:32:02	0	0	0	0.7839265	-9.16999	0	3	100	0	50	5.414629	0.02035424	14.03811	
11:32:02	0	0	0	0.7839265	-9.16999	0	3	100	0	50	4.050238	0.9014184	14.32536	
11:32:02	0	0	0	0.7839265	-9.16999	0	3	100	0	50	3.441638	0.5964145	17.98368	
11:32:03	0	0	0	0.7839265	-9.16999	0	3	100	0	50	2.571946	0.4300876	21.08477	
11:32:03	0	0	0	0.3931077	-27.94279	0	3	100	0	50	2.739726	-0.2172999	23.75204	
11:32:03	0	0	0	0.3931077	-27.94279	0	3	100	0	50	2.167009	-0.06998976	26.5293	
11:32:03	0	0	0	0.3931077	-27.94279	0	3	100	0	50	3.155593	1.506558	29.06745	
11:32:03	0	0	0	0.3931077	-27.94279	0	3	100	0	50	5.951963	2.732065	32.17088	
11:32:04	0	0	0	0.3931077	-27.94279	0	3	100	0	50	5.888991	3.139893	33.30299	
11:32:04	0	0	0	0.2967479	-26.87731	0	3	100	0	50	5.699357	3.639765	35.25434	
11:32:04	0	0	0	0.2967479	-26.87731	0	3	100	0	50	6.031991	3.416871	39.11095	
11:32:04	0	0	0	0.2967479	-26.87731	0	3	100	0	50	5.505216	2.909827	43.81344	
11:32:04	0	0	0	0.2967479	-26.87731	0	3	100	0	50	5.147415	2.513278	47.62754	
11:32:05	0	0	0	0.2967479	-26.87731	0	3	100	0	50	5.076351	3.696664	48.68326	
11:32:05	0	0	0	0.4963391	-12.18468	0	3	100	0	50	6.792605	5.07786	49.26582	
11:32:05	0	0	0	0.4963391	-12.18468	0	3	100	0	50	7.547485	4.687813	51.4968	
11:32:05	0	0	0	0.4963391	-12.18468	0	3	100	0	50	7.075257	4.520656	52.94847	
11:32:05	0	0	0	0.4963391	-12.18468	0	3	100	0	50	8.727667	0.7189309	52.82711	
11:32:06	0	0	0	0.4963391	-12.18468	0	3	100	0	50	8.553141	3.888279	51.62922	
11:32:06	0	0	0	0.5265417	-10.43108	0	3	100	0	50	9.66612	5.708956	52.08301	
11:32:06	0	0	0	0.5265417	-10.43108	0	3	100	0	50	10.05035	5.869246	53.08833	
11:32:06	0	0	0	0.5265417	-10.43108	0	3	100	0	50	8.5339	5.069528	51.29818	
11:32:06	0	0	0	0.5265417	-10.43108	0	3	100	0	50	7.100658	3.31076	48.94489	
11:32:07	0	0	0	0.5265417	-10.43108	0	3	100	0	50	11.1188	2.777214	44.2522	
11:32:07	0	0	0	0.5869185	-10.26087	0	3	100	0	50	13.71486	4.755394	37.68164	
11:32:07	0	0	0	0.5869185	-10.26087	0	3	100	0	50	11.08638	6.971547	32.14349	
11:32:07	0	0	0	0.5869185	-10.26087	0	3	100	0	50	13.41799	9.232045	28.25538	
11:32:07	0	0	0	0.5869185	-10.26087	0	3	100	0	50	11.81761	8.64149	25.81312	
11:32:08	0	0	0	0.5869185	-10.26087	0	3	100	0	50	10.05555	8.470495	25.9793	
11:32:08	0	0	0	0.6220391	-13.30669	0	3	100	0	50	8.264115	8.387895	26.04068	
11:32:08	0	0	0	0.6220391	-13.30669	0	3	100	0	50	6.777729	7.748978	24.23458	
11:32:08	0	0	0	0.6220391	-13.30669	0	3	100	0	50	7.241681	9.071989	20.96233	
11:32:08	0	0	0	0.6220391	-13.30669	0	3	100	0	50	7.688965	9.995511	19.58379	
11:32:09	0	0	0	0.6220391	-13.30669	0	3	100	0	50	4.363976	8.827937	17.23497	
11:32:09	0	0	0	0.6554498	-11.54332	0	3	100	0	50	4.661981	9.505764	17.72375	
11:32:09	0	0	0	0.6554498	-11.54332	0	3	100	0	50	4.174818	10.3141	15.23479	
11:32:09	0	0	0	0.6554498	-11.54332	0	3	100	0	50	3.278007	11.22415	15.86894	
11:32:09	0	0	0	0.6554498	-11.54332	0	3	100	0	50	3.470788	10.79963	17.8788	
11:32:10	0	0	0	0.6554498	-11.54332	0	3	100	0	50	3.346105	10.58043	20.26624	
11:32:10	0	0	0	0.7595029	-9.566684	0	3	100	0	50	2.610746	10.5898	22.79502	
11:32:10	0	0	0	0.7595029	-9.566684	0	3	100	0	50	2.189524	9.762902	24.73874	
11:32:10	0	0	0	0.7595029	-9.566684	0	3	100	0	50	2.034438	9.419013	27.39109	
11:32:10	0	0	0	0.7595029	-9.566684	0	3	100	0	50	1.013083	8.773251	29.21402	
11:32:11	0	0	0	0.7595029	-9.566684	0	3	100	0	50	1.03027	8.840651	32.08272	
11:32:11	0	0	0	0.8042575	-10.59883	0	3	100	0	50	0.6226025	8.670843	34.86828	
11:32:11	0	0	0	0.8042575	-10.59883	0	3	100	0	50	-0.8577662	6.699125	37.74099	
11:32:11	0	0	0	0.8042575	-10.59883	0	3	100	0	50	-1.268793	6.329783	40.30476	
11:32:12	0	0	0	0.8042575	-10.59883	0	3	100	0	50	-1.234257	6.303793	43.15495	
11:32:12	0	0	0	0.8042575	-10.59883	0	3	100	0	50	-1.438827	5.988545	45.52316	
11:32:12	0	0	0	1.007592	-6.742069	0	3	100	0	50	-1.366212	5.895714	48.01799	
11:32:12	0	0	0	1.007592	-6.742069	0	3	100	0	50	0.9650159	6.471019	50.65111	
11:32:12	0	0	0	1.007592	-6.742069	0	3	100	0	50	0.1492993	7.116912	52.32599	
11:32:13	0	0	0	1.007592	-6.742069	0	3	100	0	50	-2.212532	7.970585	52.76628	
11:32:13	0	0	0	1.007592	-6.742069	0	3	100	0	50	-3.360517	6.318376	50.8201	
11:32:13	0	0	0	0.7739289	-23.14713	0	3	100	0	50	-8.467226	8.938139	49.68694	
11:32:13	0	0	0	0.7739289	-23.14713	0	3	100	0	50	-12.15351	8.68089	49.22779	
11:32:13	0	0	0	0.7739289	-23.14713	0	3	100	0	50	-13.13842	9.612906	46.79671	
11:32:14	0	0	0	0.7739289	-23.14713	0	3	100	0	50	-13.51234	10.02927	44.69715	
11:32:14	0	0	0	0.7739289	-23.14713	0	3	100	0	50	-12.17239	9.952358	43.80178	
11:32:14	0	0	0	0.6889488	-20.40979	0	3	100	0	50	-12.11733	10.44707	44.39086	
11:32:14	0	0	0	0.6889488	-20.40979	0	3	100	0	50	-10.90617	10.92303	44.58865	
11:32:14	0	0	0	0.6889488	-20.40979	0	3	100	0	50	-10.97474	11.12376	44.40538	
11:32:15	0	0	0	0.6889488	-20.40979	0	3	100	0	50	-11.68464	10.57112	44.49265	
11:32:15	0	0	0	0.6889488	-20.40979	0	3	100	0	50	-11.21017	10.12298	44.56519	
11:32:15	0	0	0	0.2283669	-41.20703	0	3	100	0	50	-10.00472	10.47206	45.10121	
11:32:15	0	0	0	0.2283669	-41.20703	0	3	100	0	50	-9.69729	10.43273	47.07269	
11:32:15	0	0	0	0.2283669	-41.20703	0	3	100	0	50	-10.23696	8.754148	49.16219	
11:32:16	0	0	0	0.2283669	-41.20703	0	3	100	0	50	-9.914438	8.516663	51.37137	
11:32:16	0	0	0	0.2283669	-41.20703	0	3	100	0	50	-9.851849	8.683629	54.07773	
11:32:16	0	0	0	0.3292617	-27.2859	0	3	100	0	50	-9.743483	8.152628	56.36825	
11:32:16	0	0	0	0.3292617	-27.2859	0	3	100	0	50	-9.505348	7.758	58.87916	
11:32:16	0	0	0	0.3292617	-27.2859	0	3	100	0	50	-9.542636	7.379683	61.33495	
11:32:17	0	0	0	0.3292617	-27.2859	0	3	100	0	50	-9.216878	7.548599	64.05949	
11:32:17	0	0	0	0.3292617	-27.2859	0	3	100	0	50	-8.776696	7.710619	66.12048	
11:32:17	0	0	0	0.4536141	-21.9356	0	3	100	0	50	-8.203463	8.124241	68.48799	
11:32:17	0	0	0	0.4536141	-21.9356	0	3	100	0	50	-7.17704	8.281682	70.78722	
11:32:17	0	0	0	0.4536141	-21.9356	0	3	100	0	50	-5.703461	7.952515	73.6715	
11:32:18	0	0	0	0.4536141	-21.9356	0	3	100	0	50	-5.131064	7.728918	76.4912	
11:32:18	0	0	0	0.4536141	-21.9356	0	3	100	0	50	-3.352628	7.372382	83.63799	
11:32:18	0	0	0	0.623995	-14.23458	0	3	100	0	50	-2.571111	7.858665	90.44547	
11:32:18	0	0	0	0.623995	-14.23458	0	3	100	0	50	-1.929817	8.555964	97.9678	
11:32:18	0	0	0	0.623995	-14.23458	0	3	100	0	50	-1.923318	8.411425	100.7237	
11:32:19	0	0	0	0.623995	-14.23458	0	3	100	0	50	-2.414375	7.49179	102.4679	
11:32:19	0	0	0	0.623995	-14.23458	0	3	100	0	50	-2.578121	7.101732	103.5474	
11:32:19	0	0	0	0.7209481	-6.269244	0	3	100	0	50	-3.11935	6.142394	104.8725	
11:32:19	0	0	0	0.7209481	-6.269244	0	3	100	0	50	-3.308869	5.603657	106.1929	
11:32:19	0	0	0	0.7209481	-6.269244	0	3	100	0	50	-3.896817	5.394513	106.7862	
11:32:20	0	0	0	0.7209481	-6.269244	0	3	100	0	50	-4.460318	5.202993	107.3168	
11:32:20	0	0	0	0.7209481	-6.269244	0	3	100	0	50	-4.737831	5.025309	108.0002	
11:32:20	0	0	0	0.7518887	-2.861439	0	3	100	0	50	-4.900962	4.7551	108.7379	
11:32:20	0	0	0	0.7518887	-2.861439	0	3	100	0	50	-3.732131	2.443003	113.2175	
11:32:20	0	0	0	0.7518887	-2.861439	0	3	100	0	50	1.269584	1.938	123.4065	
11:32:21	0	0	0	0.7518887	-2.861439	0	3	100	0	50	7.15644	-1.053088	134.5269	
11:32:21	0	0	0	0.7518887	-2.861439	0	3	100	0	50	6.078058	-2.987511	148.6925	
11:32:21	0	0	0	0.9553311	9.495401	0	3	100	0	50	4.39033	-5.888446	163.6751	
11:32:21	0	0	0	0.9553311	9.495401	0	3	100	0	50	4.892169	-9.929765	-176.8869	
11:32:21	0	0	0	0.9553311	9.495401	0	3	100	0	50	1.953693	-14.63588	-160.7544	
11:32:22	0	0	0	0.9553311	9.495401	0	3	100	0	50	3.222974	-9.501131	-148.8779	
11:32:22	0	0	0	0.9553311	9.495401	0	3	100	0	50	0.3563155	-9.454366	-141.6699	
11:32:22	0	0	0	1.007049	1.597271	0	3	100	0	50	-0.2567536	-9.923305	-138.0798	
11:32:22	0	0	0	1.007049	1.597271	0	3	100	0	50	0.2679954	-9.537422	-133.6904	
11:32:22	0	0	0	1.007049	1.597271	0	3	100	0	50	0.9396889	-8.446666	-131.4631	
11:32:23	0	0	0	1.007049	1.597271	0	3	100	0	50	0.9746878	-8.015845	-130.3443	
11:32:23	0	0	0	1.007049	1.597271	0	3	100	0	50	-0.2575497	-8.702605	-128.3429	
11:32:23	0	0	0	1.107721	9.085262	0	3	100	0	50	-2.756613	-8.868756	-124.9303	
11:32:23	0	0	0	1.107721	9.085262	0	3	100	0	50	-3.807459	-8.586943	-118.7171	
11:32:23	0	0	0	1.107721	9.085262	0	3	100	0	50	-2.336742	-7.996228	-114.4092	
11:32:24	0	0	0	1.107721	9.085262	0	3	100	0	50	-1.29989	-7.800513	-112.2842	
11:32:24	0	0	0	1.107721	9.085262	0	3	100	0	50	0.2098626	-8.763435	-109.9265	
11:32:24	0	0	0	1.190386	14.4182	0	3	100	0	50	-0.7678683	-8.388422	-107.7314	
11:32:24	0	0	0	1.190386	14.4182	0	3	100	0	50	-1.940531	-6.751788	-106.1902	
11:32:24	0	0	0	1.190386	14.4182	0	3	100	0	50	-2.558431	-5.754413	-104.1218	
11:32:25	0	0	0	1.190386	14.4182	0	3	100	0	50	-1.293477	-6.032063	-102.3065	
11:32:25	0	0	0	1.190386	14.4182	0	3	100	0	50	-1.29765	-6.278943	-100.4934	
11:32:25	0	0	0	1.279334	14.13869	0	3	100	0	50	1.052547	-7.299337	-98.02134	
11:32:25	0	0	0	1.279334	14.13869	0	3	100	0	50	1.609578	-8.406592	-96.17135	
11:32:25	0	0	0	1.279334	14.13869	0	3	100	0	50	0.7956954	-9.16218	-93.7807	
11:32:26	0	0	0	1.279334	14.13869	0	3	100	0	50	-0.444008	-7.883057	-91.17687	
11:32:26	0	0	0	1.279334	14.13869	0	3	100	0	50	-3.307379	-7.084904	-84.88635	
11:32:26	0	0	0	1.122054	4.12824	0	3	100	0	50	-5.594356	-7.353819	-74.77709	
11:32:26	0	0	0	1.122054	4.12824	0	3	100	0	50	-7.853916	-6.063797	-68.42908	
11:32:26	0	0	0	1.122054	4.12824	0	3	100	0	50	-11.06364	-7.216986	-63.61444	
11:32:27	0	0	0	1.122054	4.12824	0	3	100	0	50	-11.58982	-5.989101	-59.43619	
11:32:27	0	0	0	1.122054	4.12824	0	3	100	0	50	-13.45981	-3.979439	-54.27125	
11:32:27	0	0	0	1.139621	4.661541	0	3	100	0	50	-14.51784	-1.915008	-50.86262	
11:32:27	0	0	0	1.139621	4.661541	0	3	100	0	50	-14.30519	-0.7583892	-47.4544	
11:32:27	0	0	0	1.139621	4.661541	0	3	100	0	50	-19.18033	3.396961	-45.07045	
11:32:28	0	0	0	1.139621	4.661541	0	3	100	0	50	-18.06559	5.001525	-41.81761	
11:32:28	0	0	0	1.139621	4.661541	0	3	100	0	50	-15.02085	6.982314	-40.74149	
11:32:28	0	0	0	1.108104	-3.35976	0	3	100	0	50	-12.01443	7.60153	-37.98524	
11:32:28	0	0	0	1.108104	-3.35976	0	3	100	0	50	-7.865213	6.329051	-32.64199	
11:32:29	0	0	0	1.108104	-3.35976	0	3	100	0	50	-5.943051	7.927063	-26.9764	
11:32:29	0	0	0	1.108104	-3.35976	0	3	100	0	50	-2.306406	7.118414	-21.22629	
11:32:29	0	0	0	1.108104	-3.35976	0	3	100	0	50	-0.08000307	7.346049	-16.23159	
11:32:29	0	0	0	1.037625	-3.297115	0	3	100	0	50	3.843157	9.416428	-8.805838	
11:32:29	0	0	0	1.037625	-3.297115	0	3	100	0	50	10.24242	9.894763	-2.441027	
11:32:30	0	0	0	1.037625	-3.297115	0	3	100	0	50	14.03001	9.377836	1.628952	
11:32:30	0	0	0	1.037625	-3.297115	0	3	100	0	50	19.29284	8.847486	6.171711	
11:32:30	0	0	0	1.037625	-3.297115	0	3	100	0	50	26.2604	9.675878	7.586428	
11:32:30	0	0	0	0.8403497	-14.91063	0	3	100	0	50	26.18247	3.624151	12.51414	
11:32:30	0	0	0	0.8403497	-14.91063	0	3	100	0	50	22.18068	-1.122362	20.41002	
11:32:31	0	0	0	0.8403497	-14.91063	0	3	100	0	50	17.60815	-1.11613	25.59787	
11:32:31	0	0	0	0.8403497	-14.91063	0	3	100	0	50	14.88224	-4.149194	33.18108	
11:32:31	0	0	0	0.8403497	-14.91063	0	3	100	0	50	9.43473	-15.34276	47.86229	
11:32:31	0	0	0	0.7165388	-11.0619	0	3	100	0	50	4.810572	-19.46528	62.04418	
11:32:31	0	0	0	0.7165388	-11.0619	0	3	100	0	50	-0.0230874	-16.97601	68.13261	
11:32:32	0	0	0	0.7165388	-11.0619	0	3	100	0	50	-4.214903	-12.38085	71.68285	
11:32:32	0	0	0	0.7165388	-11.0619	0	3	100	0	50	-7.149064	-13.05197	75.84593	
11:32:32	0	0	0	0.7165388	-11.0619	0	3	100	0	50	-12.3379	-10.23711	80.11987	
11:32:32	0	0	0	0.6771435	-4.340635	0	3	100	0	50	-12.36068	-2.949407	84.88066	
11:32:32	0	0	0	0.6771435	-4.340635	0	3	100	0	50	-10.54799	0.01788842	85.26048	
11:32:33	0	0	0	0.6771435	-4.340635	0	3	100	0	50	-18.63766	-3.120466	80.82874	
11:32:33	0	0	0	0.6771435	-4.340635	0	3	100	0	50	-12.183	-6.824764	69.75179	
11:32:33	0	0	0	0.6771435	-4.340635	0	3	100	0	50	18.60396	-18.66087	52.46066	
11:32:33	0	0	0	0.8068512	3.1393	0	3	100	0	50	30.66702	-20.00931	41.75909	
11:32:33	0	0	0	0.8068512	3.1393	0	3	100	0	50	5.332074	-11.87336	39.52028	
11:32:34	0	0	0	0.8068512	3.1393	0	3	100	0	50	-28.08695	-2.234638	37.80378	
11:32:34	0	0	0	0.8068512	3.1393	0	3	100	0	50	-16.08148	-5.201151	36.65877	
11:32:34	0	0	0	0.8068512	3.1393	0	3	100	0	50	15.53939	-7.907943	29.36914	
11:32:34	0	0	0	0.9949015	1.28487	0	3	100	0	50	-17.12698	-0.1457875	31.5608	
11:32:34	0	0	0	0.9949015	1.28487	0	3	100	0	50	-14.3667	0.1898151	28.71569	
11:32:35	0	0	0	0.9949015	1.28487	0	3	100	0	50	15.75363	1.654054	22.02687	
11:32:35	0	0	0	0.9949015	1.28487	0	3	100	0	50	-4.291604	-0.8223363	24.88186	
11:32:35	0	0	0	0.9949015	1.28487	0	3	100	0	50	-1.553196	0.06338723	24.39827	
11:32:35	0	0	0	1.089364	2.671471	0	3	100	0	50	25.88288	0.6988958	18.43815	
11:32:35	0	0	0	1.089364	2.671471	0	3	100	0	50	8.089707	-6.978344	27.16261	
11:32:36	0	0	0	1.089364	2.671471	0	3	100	0	50	9.032809	-6.097034	28.66524	
11:32:36	0	0	0	1.089364	2.671471	0	3	100	0	50	13.02484	-6.587544	30.0535	
11:32:36	0	0	0	1.089364	2.671471	0	3	100	0	50	13.77916	-7.34255	31.75594	
11:32:36	0	0	0	0.9337384	-4.08375	0	3	100	0	50	16.27247	-16.33063	43.14974	
11:32:36	0	0	0	0.9337384	-4.08375	0	3	100	0	50	11.79779	-20.07721	54.60784	
11:32:37	0	0	0	0.9337384	-4.08375	0	3	100	0	50	8.917123	-16.50413	60.24436	
11:32:37	0	0	0	0.9337384	-4.08375	0	3	100	0	50	10.54638	-19.53222	63.74056	
11:32:37	0	0	0	0.9337384	-4.08375	0	3	100	0	50	11.39662	-14.36893	67.21163	
11:32:37	0	0	0	0.9240165	-0.2359899	0	3	100	0	50	0.792159	-10.69719	72.09058	
11:32:37	0	0	0	0.9240165	-0.2359899	0	3	100	0	50	-3.079206	-3.823413	73.14416	
11:32:38	0	0	0	0.9240165	-0.2359899	0	3	100	0	50	-2.067122	-1.052621	73.1902	
11:32:38	0	0	0	0.9240165	-0.2359899	0	3	100	0	50	-1.679659	-0.8734688	72.90574	
11:32:38	0	0	0	0.9240165	-0.2359899	0	3	100	0	50	-1.56221	-0.837076	72.92978	
11:32:38	0	0	0	0.9147824	2.104723	0	3	100	0	50	-1.392361	-0.7441074	72.90273	
11:32:38	0	0	0	0.9147824	2.104723	0	3	100	0	50	-1.262212	-0.6917775	72.81908	
11:32:39	0	0	0	0.9147824	2.104723	0	3	100	0	50	-1.130566	-0.650714	72.78953	
11:32:39	0	0	0	0.9147824	2.104723	0	3	100	0	50	-1.001795	-0.593555	72.74458	
11:32:39	0	0	0	0.9147824	2.104723	0	3	100	0	50	-0.8403693	-0.5736811	72.86051	
11:32:39	0	0	0	0.9188405	-6.67382	0	3	100	0	50	-0.6560795	-0.492438	73.07532	
11:32:39	0	0	0	0.9188405	-6.67382	0	3	100	0	50	-0.5403822	-0.4450591	73.19447	
11:32:40	0	0	0	0.9188405	-6.67382	0	3	100	0	50	-0.4484466	-0.4051745	73.27002	
11:32:40	0	0	0	0.9188405	-6.67382	0	3	100	0	50	-0.3025132	-0.3360662	73.42924	
11:32:40	0	0	0	0.9188405	-6.67382	0	3	100	0	50	-0.1447161	-0.2852017	73.53827	
11:32:40	0	0	0	0.682098	-21.12432	0	3	100	0	50	-0.01234689	-0.2479161	73.48873	
11:32:40	0	0	0	0.682098	-21.12432	0	3	100	0	50	0.1198309	-0.2166359	73.39326	
11:32:41	0	0	0	0.682098	-21.12432	0	3	100	0	50	0.2415581	-0.1831982	73.32481	
11:32:41	0	0	0	0.682098	-21.12432	0	3	100	0	50	0.3592378	-0.1496592	73.23627	
11:32:41	0	0	0	0.682098	-21.12432	0	3	100	0	50	0.4660945	-0.1245936	73.14175	
11:32:41	0	0	0	0.414836	-32.71852	0	3	100	0	50	0.5764572	-0.09190628	73.07505	
11:32:41	0	0	0	0.414836	-32.71852	0	3	100	0	50	0.6834236	-0.06495477	73.03616	
11:32:42	0	0	0	0.414836	-32.71852	0	3	100	0	50	0.784074	-0.041024	73.02792	
11:32:42	0	0	0	0.414836	-32.71852	0	3	100	0	50	0.8756365	-0.01522044	72.99262	
11:32:42	0	0	0	0.414836	-32.71852	0	3	100	0	50	0.9606053	0.006932002	73.00607	
11:32:42	0	0	0	0.2772349	-34.6679	0	3	100	0	50	1.058696	0.04964192	73.10382	
11:32:43	0	0	0	0.2772349	-34.6679	0	3	100	0	50	1.1522	0.09036046	73.12276	
11:32:43	0	0	0	0.2772349	-34.6679	0	3	100	0	50	1.232261	0.1088393	73.05078	
11:32:43	0	0	0	0.2772349	-34.6679	0	3	100	0	50	1.315566	0.1331662	73.02905	
11:32:43	0	0	0	0.2772349	-34.6679	0	3	100	0	50	1.391812	0.1538641	72.95133	
11:32:43	0	0	0	0.4047954	-22.83033	0	3	100	0	50	1.451841	0.1617096	72.89526	
11:32:44	0	0	0	0.4047954	-22.83033	0	3	100	0	50	1.517222	0.1705898	72.87244	
11:32:44	0	0	0	0.4047954	-22.83033	0	3	100	0	50	1.587629	0.178606	72.92967	
11:32:44	0	0	0	0.4047954	-22.83033	0	3	100	0	50	1.657539	0.1978832	72.95279	
11:32:44	0	0	0	0.4047954	-22.83033	0	3	100	0	50	1.713153	0.2088745	72.92275	
11:32:44	0	0	0	0.4656519	-21.76207	0	3	100	0	50	1.764555	0.2223118	72.81126	
11:32:45	0	0	0	0.4656519	-21.76207	0	3	100	0	50	1.82077	0.2339134	72.73989	
11:32:45	0	0	0	0.4656519	-21.76207	0	3	100	0	50	1.872475	0.2426121	72.68602	
11:32:45	0	0	0	0.4656519	-21.76207	0	3	100	0	50	1.944936	0.2580921	72.43438	
11:32:45	0	0	0	0.4656519	-21.76207	0	3	100	0	50	2.031898	0.2794871	72.08701	
11:32:45	0	0	0	0.5057253	-16.33056	0	3	100	0	50	2.121578	0.3001454	71.76736	
11:32:46	0	0	0	0.5057253	-16.33056	0	3	100	0	50	2.19768	0.3255216	71.43111	
11:32:46	0	0	0	0.5057253	-16.33056	0	3	100	0	50	2.268032	0.3434251	71.14291	
11:32:46	0	0	0	0.5057253	-16.33056	0	3	100	0	50	2.33936	0.3660455	70.83497	
11:32:46	0	0	0	0.5057253	-16.33056	0	3	100	0	50	2.413781	0.3902714	70.53909	
11:32:46	0	0	0	0.5679489	-13.30443	0	3	100	0	50	2.481614	0.4101376	70.23087	
