Date	Latitude(deg) 	Longitude(deg)	hamsl(m)	hafl(m)	climbrate(cm/s)	GroundSpeed(m/s)	Airspeed(m/s)	Mav_Link(%)	Rssi_Link(%)	Throttle	Roll(deg)	Pitch(deg)	Yaw(deg)
12:24:16	52.95273	-1.183377	53.582	0	0	0.98	0	15	0	0	-1.108392	0.1063023	28.93961	
12:24:16	52.95273	-1.183377	53.263	0	0	1.37	0	16	0	0	-0.7605366	0.799793	28.94763	
12:24:16	52.95267	-1.183381	49.061	0	0	1.33	0	17	0	0	-0.6558518	0.9288716	28.97224	
12:24:16	52.95267	-1.183381	49.21	0	0	1.09	0	18	0	0	-0.6986769	0.7318449	28.99529	
12:24:16	52.95267	-1.183381	49.121	12.41994	-33.74286	0.25	3	19	0	50	-1.362729	0.1231851	28.99304	
12:24:17	52.95267	-1.183381	49.307	12.41994	-33.74286	0.72	3	20	0	50	-1.23415	0.2124351	28.97571	
12:24:17	52.95267	-1.183381	49.334	12.41994	-33.74286	0.22	3	21	0	50	-1.394122	0.04103767	28.98366	
12:24:17	52.95267	-1.183381	49.212	12.41994	-33.74286	0.89	3	22	0	50	-1.061243	0.2765332	28.98632	
12:24:17	52.95267	-1.183381	49.327	12.41994	-33.74286	0.68	3	23	0	50	-1.480345	-0.3904362	29.00817	
12:24:17	52.95267	-1.183384	48.749	13.27951	28.60296	0.66	3	24	0	50	-1.742666	-0.1062782	29.01724	
12:24:17	52.95267	-1.183384	48.749	13.27951	28.60296	0.66	3	25	0	50	-1.254072	0.4187644	28.97854	
12:24:17	52.95266	-1.183384	48.634	13.27951	28.60296	0.55	3	26	0	50	-1.08086	0.2941866	28.98446	
12:24:17	52.95266	-1.183384	48.619	13.27951	28.60296	0.81	3	27	0	50	-0.8139607	0.3982491	29.0227	
12:24:17	52.95266	-1.183384	48.617	13.27951	28.60296	0.24	3	28	0	50	-0.6513728	0.6663506	29.06042	
12:24:17	52.95266	-1.183384	48.571	13.33135	34.36268	0.7	3	29	0	50	-1.166126	-0.07143909	29.07092	
12:24:17	52.95266	-1.183384	48.646	13.33135	34.36268	0.35	3	29	0	50	-0.8467376	0.2819525	29.09827	
12:24:17	52.95266	-1.183383	48.78	13.33135	34.36268	0.39	3	30	0	50	-0.9211625	0.1553516	29.10891	
12:24:17	52.95266	-1.183383	48.862	13.33135	34.36268	0.66	3	31	0	50	-0.7763705	-0.04282509	29.11843	
12:24:17	52.95266	-1.183383	48.757	13.33135	34.36268	0.85	3	32	0	50	-1.298108	-0.5330215	29.16846	
12:24:17	52.95266	-1.183382	48.8	13.42262	39.09169	0.08	3.270165	33	0	50	-1.287313	-0.9177933	29.19665	
12:24:17	52.95266	-1.183382	48.73	13.42262	39.09169	0.65	3.270165	33	0	50	-0.9620799	-0.2228313	29.2224	
12:24:17	52.95266	-1.183382	48.906	13.42262	39.09169	1.5	3.270165	34	0	50	-0.5051571	0.4000089	29.23558	
12:24:17	52.95266	-1.183381	49.001	13.42262	39.09169	0.61	3.270165	35	0	50	-0.2693377	1.187151	29.2579	
12:24:17	52.95266	-1.183381	49.157	13.42262	39.09169	0.66	3.270165	35	0	50	-0.2693863	0.516165	29.27327	
12:24:17	52.95266	-1.183381	49.422	13.60949	44.15731	0.29	3	36	0	50	-1.079076	-0.3739522	29.32617	
12:24:18	52.95266	-1.183381	49.366	13.60949	44.15731	0.34	3	37	0	50	-1.125758	-0.2952804	29.36428	
12:24:18	52.95266	-1.18338	49.502	13.60949	44.15731	0.78	3	38	0	50	-0.9859433	-0.3114548	29.38502	
12:24:18	52.95266	-1.18338	49.582	13.60949	44.15731	0.51	3	38	0	50	-0.5573006	0.5192928	29.43027	
12:24:18	52.95266	-1.18338	49.486	13.60949	44.15731	0.19	3	39	0	50	-0.956414	-0.07088083	29.45301	
12:24:18	52.95266	-1.18338	49.165	13.65016	39.12236	0.77	3	39	0	50	-0.4811187	0.3745609	29.49462	
12:24:19	52.95266	-1.18338	49.32	13.65016	39.12236	0.79	3	40	0	50	-0.1425858	1.02245	29.56133	
12:24:19	52.95266	-1.183379	49.428	13.65016	39.12236	0.14	3	41	0	50	0.01951828	1.05552	29.60396	
12:24:19	52.95266	-1.183378	49.514	13.65016	39.12236	0.14	3	41	0	50	-0.3584782	0.463243	29.63083	
12:24:19	52.95266	-1.183378	49.435	13.65016	39.12236	0.74	3	42	0	50	-0.4483943	0.4394512	29.66225	
12:24:19	52.95266	-1.183378	49.502	13.61744	34.43233	0.68	3.08165	42	0	50	-0.9346597	-0.2400502	29.67596	
12:24:20	52.95266	-1.183378	49.412	13.61744	34.43233	0.72	3.08165	43	0	50	-1.142294	-0.1375523	31.83058	
12:24:20	52.95266	-1.183378	49.436	13.61744	34.43233	0.32	3.08165	43	0	50	-0.4505191	0.7424389	31.8414	
12:24:20	52.95266	-1.183379	49.392	13.61744	34.43233	0.28	3.08165	44	0	50	-0.7353086	0.5870633	31.87544	
12:24:20	52.95266	-1.183379	49.501	13.61744	34.43233	0.29	3.08165	44	0	50	-1.023315	0.02606583	31.87191	
12:24:20	52.95266	-1.183379	49.448	13.44848	25.22024	1.1	3	45	0	50	-0.9930609	0.3525022	31.86452	
12:24:21	52.95266	-1.183379	49.157	13.44848	25.22024	0.29	3	45	0	50	-0.1697701	0.876564	31.86173	
12:24:21	52.95266	-1.183379	49.159	13.44848	25.22024	0.75	3	46	0	50	-0.7558045	0.4271575	31.86628	
12:24:21	52.95266	-1.183379	49.159	13.44848	25.22024	0.58	3	46	0	50	-0.6361674	0.8922173	31.87766	
12:24:21	52.95265	-1.183379	48.972	13.44848	25.22024	0.91	3	47	0	50	-0.4708002	0.5892947	31.88781	
12:24:21	52.95265	-1.183378	48.918	13.11004	10.4409	1.48	3	47	0	50	-0.3247147	0.9858232	31.93781	
12:24:22	52.95265	-1.183378	48.59	13.11004	10.4409	0.48	3	48	0	50	0.2006543	1.36635	32.00021	
12:24:22	52.95264	-1.183377	48.435	13.11004	10.4409	0.66	3	48	0	50	-0.4436797	0.6321523	32.02785	
12:24:22	52.95264	-1.183377	48.604	13.11004	10.4409	0.63	3	49	0	50	-0.5920255	0.9236286	32.0319	
12:24:22	52.95264	-1.183376	48.384	13.11004	10.4409	0.22	3	49	0	50	-0.3000981	0.7112253	32.04725	
12:24:22	52.95264	-1.183376	48.187	13.02867	12.45149	0.12	3	50	0	50	-0.7554044	0.4433023	32.06346	
12:24:23	52.95264	-1.183375	48.225	13.02867	12.45149	0.42	3	50	0	50	-0.9152232	0.1324948	32.06892	
12:24:23	52.95264	-1.183375	48.111	13.02867	12.45149	0.29	3	51	0	50	-0.7944219	-0.3211371	32.07045	
12:24:23	52.95264	-1.183374	48.284	13.02867	12.45149	0.32	3	51	0	50	-0.8460065	0.4057241	32.08271	
12:24:23	52.95264	-1.183375	48.195	13.02867	12.45149	0.47	3	52	0	50	-0.9920576	-0.1206677	32.09563	
12:24:23	52.95264	-1.183375	48.068	13.01691	15.73396	0.29	3	52	0	50	-1.022164	0.5214843	32.10143	
12:24:24	52.95264	-1.183374	47.833	13.01691	15.73396	0.13	3	53	0	50	-0.3062553	0.2469545	32.11605	
12:24:24	52.95264	-1.183373	47.89	13.01691	15.73396	0.13	3	53	0	50	-0.4326144	0.08100227	32.1798	
12:24:24	52.95264	-1.183372	47.862	13.01691	15.73396	0.25	3	54	0	50	-0.4513433	0.1120583	32.22551	
12:24:24	52.95264	-1.183372	47.836	13.01691	15.73396	0.39	3	54	0	50	-0.7853096	-0.05936994	32.25739	
12:24:24	52.95264	-1.183372	47.95	13.27407	28.11514	0.09	3	55	0	50	-1.015637	0.2333909	32.27551	
12:24:25	52.95264	-1.18337	47.76	13.27407	28.11514	0.42	3	55	0	50	-0.5786688	0.2860965	32.28212	
12:24:25	52.95264	-1.18337	47.325	13.27407	28.11514	0.55	3	55	0	50	-0.3872061	-0.2177466	32.30409	
12:24:25	52.95264	-1.18337	46.882	13.27407	28.11514	0.58	3	56	0	50	-0.8232548	-0.3182119	32.34842	
12:24:25	52.95264	-1.18337	46.923	13.27407	28.11514	0.29	3	56	0	50	-1.12715	0.006493744	32.35051	
12:24:25	52.95264	-1.18337	46.714	13.27743	24.03324	0.25	3	57	0	50	-0.8663214	0.4498474	32.34834	
12:24:26	52.95264	-1.18337	46.576	13.27743	24.03324	0.22	3	57	0	50	-0.7930943	0.06339974	32.34395	
12:24:26	52.95264	-1.183369	46.669	13.27743	24.03324	0.08	3	57	0	50	-0.7045903	0.1208905	32.34151	
12:24:26	52.95264	-1.183368	46.499	13.27743	24.03324	0.36	3	58	0	50	-0.5405151	0.3617564	32.35913	
12:24:26	52.95264	-1.183368	46.472	13.27743	24.03324	0.28	3	58	0	50	-0.6638879	0.04307554	32.3798	
12:24:26	52.95264	-1.183367	46.404	13.28662	20.83022	0.21	3	58	0	50	-0.7264329	0.2227403	32.38511	
12:24:27	52.95264	-1.183366	46.518	13.28662	20.83022	0.55	3	59	0	50	-0.4178112	0.3704331	32.39569	
12:24:27	52.95264	-1.183366	46.473	13.28662	20.83022	0.06	3	59	0	50	-0.2585069	0.8451191	32.43195	
12:24:27	52.95264	-1.183365	46.506	13.28662	20.83022	0.14	3	60	0	50	-0.5962059	0.4399984	32.43361	
12:24:27	52.95264	-1.183365	46.414	13.28662	20.83022	0.02	3	60	0	50	-0.620749	0.3433264	32.45399	
12:24:27	52.95264	-1.183365	46.55	13.42374	23.73587	0.11	3	61	0	50	-0.527142	0.5137166	32.48378	
12:24:28	52.95264	-1.183365	46.358	13.42374	23.73587	0.25	3	61	0	50	-0.52728	0.4968556	32.50899	
12:24:28	52.95264	-1.183365	46.35	13.42374	23.73587	0.32	3	61	0	50	-0.6796768	0.1535033	32.53514	
12:24:28	52.95264	-1.183364	46.43	13.42374	23.73587	0.06	3	62	0	50	-0.7196727	0.2891471	32.55976	
12:24:28	52.95264	-1.183364	46.327	13.42374	23.73587	0.17	3	62	0	50	-0.4419848	0.5000243	32.52636	
12:24:28	52.95264	-1.183363	46.266	13.34385	15.90724	0.45	3	62	0	50	-0.1723062	0.5717043	32.52206	
12:24:29	52.95264	-1.183362	46.29	13.34385	15.90724	0.09	3	63	0	50	-0.05861618	0.5458403	32.5309	
12:24:29	52.95264	-1.183362	46.339	13.34385	15.90724	0.02	3	63	0	50	-0.3953712	0.5433594	32.54737	
12:24:29	52.95264	-1.183362	46.268	13.34385	15.90724	0.09	3	64	0	50	-0.3212466	0.5011009	32.57909	
12:24:29	52.95264	-1.183361	46.398	13.34385	15.90724	0.16	3	64	0	50	-0.4075816	0.4795271	32.60324	
12:24:29	52.95265	-1.183361	46.357	13.34341	14.95389	0.13	3	64	0	50	-0.4937498	0.5416691	32.60695	
12:24:30	52.95265	-1.183359	46.686	13.34341	14.95389	0.76	3	64	0	50	-0.1809831	0.5846304	32.60915	
12:24:30	52.95264	-1.183358	46.808	13.34341	14.95389	0.24	3	65	0	50	0.1796701	0.9263452	32.67208	
12:24:30	52.95264	-1.183358	46.877	13.34341	14.95389	0.14	3	65	0	50	-0.2818906	0.7648702	32.69347	
12:24:30	52.95264	-1.183357	46.989	13.34341	14.95389	0.33	3	65	0	50	-0.08781461	0.6727083	32.70592	
12:24:30	52.95264	-1.183356	46.942	13.20266	8.007003	0.13	3	66	0	50	-0.07983053	0.6444409	32.75766	
12:24:31	52.95265	-1.183355	46.985	13.20266	8.007003	0.25	3	66	0	50	-0.3202507	0.4294864	32.77407	
12:24:31	52.95265	-1.183354	47.12	13.20266	8.007003	0.26	3	66	0	50	-0.305978	0.3409038	32.80396	
12:24:31	52.95265	-1.183353	47.126	13.20266	8.007003	0.41	3	67	0	50	-0.5237359	0.1899084	32.80787	
12:24:31	52.95265	-1.183353	47.106	13.20266	8.007003	0.22	3	67	0	50	-0.6177936	0.3457699	32.81811	
12:24:31	52.95265	-1.183354	46.984	13.37304	17.70788	0.38	3	67	0	50	-0.7529246	0.5941475	32.79114	
12:24:32	52.95265	-1.183353	47.001	13.37304	17.70788	0.21	3	68	0	50	-0.6280144	0.4330872	32.77635	
12:24:32	52.95265	-1.183353	47.064	13.37304	17.70788	0.28	3	68	0	50	-0.4945501	0.6380644	32.76925	
12:24:32	52.95265	-1.183352	47.188	13.37304	17.70788	0.14	3	68	0	50	-0.4935859	0.8194984	32.77942	
12:24:32	52.95265	-1.183351	47.216	13.37304	17.70788	0.59	3	68	0	50	-0.02849689	0.5913326	32.78175	
12:24:32	52.95265	-1.183349	47.238	13.3592	15.09943	0.62	3	69	0	50	0.3296677	0.6062835	32.82068	
12:24:33	52.95265	-1.183348	47.257	13.3592	15.09943	0.22	3	69	0	50	0.1146189	0.6646514	32.86006	
12:24:33	52.95265	-1.183347	47.41	13.3592	15.09943	0.24	3	69	0	50	-0.07557857	0.5338552	32.9037	
12:24:33	52.95265	-1.183347	47.55	13.3592	15.09943	0.09	3	70	0	50	-0.06940313	0.6636398	32.92908	
12:24:33	52.95265	-1.183347	47.608	13.3592	15.09943	0.14	3	70	0	50	-0.2791436	0.7144439	32.95539	
12:24:33	52.95265	-1.183347	47.463	13.56546	21.64671	0.62	3	70	0	50	-0.5860152	0.4903725	32.94237	
12:24:34	52.95265	-1.183347	47.315	13.56546	21.64671	0.21	3	71	0	50	-0.6047074	0.458102	32.93962	
12:24:34	52.95265	-1.183347	47.188	13.56546	21.64671	0.48	3	71	0	50	-0.6466684	0.7145766	32.94607	
12:24:34	52.95265	-1.183347	47.186	13.56546	21.64671	0.04	3	71	0	50	-0.5390663	0.7808883	32.9143	
12:24:34	52.95265	-1.183346	47.125	13.56546	21.64671	0.22	3	71	0	50	-0.2707841	0.6703648	32.92999	
12:24:34	52.95265	-1.183346	47.072	13.47032	12.8309	0.28	3	72	0	50	-0.3805656	0.5485488	32.94831	
12:24:35	52.95265	-1.183345	47.113	13.47032	12.8309	0.33	3	72	0	50	-0.3385669	0.5005569	32.94857	
12:24:35	52.95265	-1.183344	47.138	13.47032	12.8309	0.11	3	72	0	50	-0.2608738	0.5925643	32.94732	
12:24:35	52.95265	-1.183343	47.09	13.47032	12.8309	0.55	3	72	0	50	-0.1367014	0.5564288	32.92693	
12:24:35	52.95265	-1.183342	46.974	13.47032	12.8309	0.52	3	73	0	50	0.1225306	0.4911551	32.93536	
12:24:35	52.95265	-1.18334	46.922	13.4007	8.60107	0.78	3.287003	73	0	50	0.1371494	0.3839461	32.99329	
12:24:36	52.95266	-1.183339	47.102	13.4007	8.60107	0.24	3.287003	73	0	50	-0.1285896	0.691907	33.02944	
12:24:36	52.95266	-1.183339	47.148	13.4007	8.60107	0.26	3.287003	73	0	50	-0.4344228	1.17807	33.01137	
12:24:36	52.95266	-1.183339	47.198	13.4007	8.60107	0.35	3.287003	73	0	50	-0.2580374	1.02691	32.96504	
12:24:36	52.95266	-1.183339	47.196	13.4007	8.60107	0.31	3.287003	74	0	50	-0.44331	0.8515952	32.94595	
12:24:36	52.95266	-1.183339	47.511	13.32471	4.482072	0.48	3	74	0	50	-0.8817829	1.12063	32.9228	
12:24:37	52.95266	-1.183339	47.664	13.32471	4.482072	0.52	3	74	0	50	-0.5856041	1.022655	32.88561	
12:24:37	52.95266	-1.183339	47.936	13.32471	4.482072	0.42	3	75	0	50	-0.7107785	1.405494	32.84008	
12:24:37	52.95266	-1.183339	47.937	13.32471	4.482072	0.48	3	75	0	50	-1.089194	1.626336	32.77376	
12:24:37	52.95266	-1.183339	48.148	13.32471	4.482072	0.58	3	75	0	50	-0.6769222	1.358833	32.70921	
12:24:37	52.95266	-1.183339	48.226	13.22205	1.696146	0.39	3	75	0	50	-0.8567627	1.476109	32.70356	
12:24:38	52.95266	-1.18334	48.452	13.22205	1.696146	0.71	3	75	0	50	-1.402897	1.508034	32.65428	
12:24:38	52.95266	-1.183341	48.495	13.22205	1.696146	0.21	3	76	0	50	-1.12413	1.519778	32.57347	
12:24:38	52.95266	-1.183341	48.507	13.22205	1.696146	0.17	3	76	0	50	-0.5444026	1.680982	32.53003	
12:24:38	52.95266	-1.183341	48.845	13.22205	1.696146	0.51	3	76	0	50	-0.3124437	2.011299	32.50577	
12:24:38	52.95266	-1.183342	49.049	13.27508	6.179499	0.29	3	76	0	50	-0.6688691	2.074593	32.37889	
12:24:39	52.95266	-1.183342	49.057	13.27508	6.179499	0.52	3	77	0	50	-10.17788	0.8960102	29.6993	
12:24:39	52.95266	-1.183341	49.139	13.27508	6.179499	0.47	3	77	0	50	5.985669	-0.7209714	29.03365	
12:24:39	52.95266	-1.183341	49.238	13.27508	6.179499	0.18	3	77	0	50	0.6735626	-0.09108638	29.97278	
12:24:39	52.95266	-1.183341	49.354	13.27508	6.179499	0.25	3	77	0	50	-10.88985	-0.07438146	27.66556	
12:24:39	52.95266	-1.183342	49.46	13.10423	-9.674812	0.45	3	77	0	50	4.859056	0.447987	28.09489	
12:24:40	52.95267	-1.183342	49.513	13.10423	-9.674812	0.53	3	78	0	50	-9.915203	0.1484174	28.22151	
12:24:40	52.95267	-1.183342	49.654	13.10423	-9.674812	0.24	3	78	0	50	1.525331	0.7399167	29.10974	
12:24:40	52.95267	-1.183342	49.932	13.10423	-9.674812	0.03	3	78	0	50	5.716889	-0.1217869	30.01892	
12:24:40	52.95267	-1.183342	50.11	13.10423	-9.674812	0.17	3	78	0	50	0.9727351	0.4281221	30.15998	
12:24:40	52.95267	-1.183342	50.317	12.90923	-0.417914	0.25	3	78	0	50	2.317839	0.1497352	31.3028	
12:24:41	52.95267	-1.183342	50.478	12.90923	-0.417914	0.19	3	79	0	50	-0.6364177	3.881275	30.13968	
12:24:41	52.95267	-1.183342	50.533	12.90923	-0.417914	0.33	3	79	0	50	0.8314077	0.9273964	32.21202	
12:24:41	52.95267	-1.183343	50.651	12.90923	-0.417914	0.14	3	79	0	50	-1.835822	-0.3562063	30.48524	
12:24:41	52.95267	-1.183343	50.937	12.90923	-0.417914	0.22	3	79	0	50	-1.300406	0.6443931	31.90751	
12:24:41	52.95267	-1.183342	51.317	12.81575	-35.22451	0.39	3	79	0	50	-0.2054838	1.653068	31.75889	
12:24:42	52.95267	-1.183343	51.396	12.81575	-35.22451	0.13	3	79	0	50	-0.4202987	1.554559	31.74443	
12:24:42	52.95267	-1.183343	51.556	12.81575	-35.22451	0.22	3	80	0	50	-0.3953318	1.687275	31.75512	
12:24:42	52.95267	-1.183344	51.822	12.81575	-35.22451	0.58	3	80	0	50	-0.1566941	1.956645	31.76358	
12:24:42	52.95267	-1.183345	52	12.81575	-35.22451	0.35	3	80	0	50	-0.408171	1.883854	31.74165	
12:24:42	52.95267	-1.183345	52.442	12.64204	-26.44997	0.94	3	80	0	50	-0.1229082	2.144239	31.73582	
12:24:43	52.95267	-1.183345	52.636	12.64204	-26.44997	0.42	3	80	0	50	-0.282152	1.683572	31.73527	
12:24:43	52.95267	-1.183345	52.687	12.64204	-26.44997	0.21	3	81	0	50	0.06725138	1.286653	31.76278	
12:24:43	52.95267	-1.183345	52.999	12.64204	-26.44997	0.26	3	81	0	50	0.004170953	1.421524	31.78838	
12:24:43	52.95267	-1.183345	53.161	12.64204	-26.44997	0.58	3	81	0	50	-0.2540402	1.680828	31.79548	
12:24:43	52.95267	-1.183345	53.186	12.71112	-10.44993	0.19	3	81	0	50	0.1783107	1.600593	31.79326	
12:24:44	52.95267	-1.183345	53.302	12.71112	-10.44993	0.39	3	81	0	50	-0.08971635	1.595874	31.80412	
12:24:44	52.95267	-1.183345	53.479	12.71112	-10.44993	0.19	3	82	0	50	-0.3716453	1.084492	31.793	
12:24:44	52.95267	-1.183345	53.757	12.71112	-10.44993	0.19	3	82	0	50	-0.2177157	1.346332	31.78127	
12:24:44	52.95267	-1.183346	53.804	12.71112	-10.44993	0.52	3	82	0	50	-0.4760939	1.323343	31.76029	
12:24:45	52.95267	-1.183347	53.838	12.68052	-3.946193	0.37	3	82	0	50	-0.8970978	1.079606	31.72388	
12:24:45	52.95267	-1.183347	54.058	12.68052	-3.946193	0.35	3	82	0	50	-0.5945552	0.9005392	31.71535	
12:24:45	52.95267	-1.183346	54.323	12.68052	-3.946193	0.35	3	82	0	50	-0.1549955	1.166492	31.71321	
12:24:45	52.95267	-1.183347	54.531	12.68052	-3.946193	0.28	3	82	0	50	-0.1954555	1.528583	31.74095	
12:24:45	52.95267	-1.183347	54.826	12.68052	-3.946193	0.72	3	83	0	50	-0.4758504	1.570866	31.70939	
12:24:46	52.95267	-1.183348	54.881	12.91002	11.52805	0.26	3	83	0	50	-0.05870639	1.90492	31.72231	
12:24:46	52.95267	-1.183348	55.001	12.91002	11.52805	0.71	3	83	0	50	-0.4179863	1.630684	31.69036	
12:24:46	52.95267	-1.183348	55.009	12.91002	11.52805	0.14	3	83	0	50	0.1051021	1.539359	31.6855	
12:24:46	52.95267	-1.183348	55.156	12.91002	11.52805	0.19	3	83	0	50	-0.3315672	1.401531	31.68046	
12:24:46	52.95267	-1.183349	55.238	12.91002	11.52805	0.34	3	83	0	50	-0.5343152	1.107499	31.66835	
12:24:47	52.95267	-1.183349	55.391	13.07941	17.59294	0.29	3	83	0	50	-0.8957073	1.13082	31.64713	
12:24:47	52.95267	-1.183349	55.454	13.07941	17.59294	0.19	3	84	0	50	-0.3689343	1.46871	31.62611	
12:24:47	52.95267	-1.183349	55.644	13.07941	17.59294	0.22	3	84	0	50	-0.5482541	1.526218	31.64301	
12:24:47	52.95267	-1.183349	55.758	13.07941	17.59294	0.08	3	84	0	50	-0.3087003	1.363171	31.65387	
12:24:47	52.95267	-1.183349	55.917	13.07941	17.59294	0.11	3	84	0	50	-0.4529503	1.294217	31.616	
12:24:48	52.95267	-1.183349	56.065	13.14087	15.32926	0.18	3	84	0	50	-0.452782	1.253225	31.59192	
12:24:48	52.95267	-1.183349	56.152	13.14087	15.32926	0.09	3	84	0	50	-0.6211091	1.075039	31.55756	
12:24:48	52.95267	-1.183349	56.285	13.14087	15.32926	0.11	3	85	0	50	-0.5579652	1.137611	31.57591	
12:24:48	52.95267	-1.183349	56.406	13.14087	15.32926	0.35	3	85	0	50	-0.4694589	1.242892	31.56974	
12:24:48	52.95267	-1.183349	56.466	13.14087	15.32926	0.39	3	85	0	50	-0.293656	0.9762394	31.5835	
12:24:49	52.95267	-1.18335	56.521	12.79462	-3.060948	0.13	3	85	0	50	-0.8320185	0.8633778	31.59772	
12:24:49	52.95267	-1.18335	56.679	12.79462	-3.060948	0.28	3	85	0	50	-0.6607929	1.038921	31.59255	
12:24:49	52.95267	-1.18335	56.637	12.79462	-3.060948	0.21	3	85	0	50	-0.3542099	1.317611	31.58596	
12:24:49	52.95267	-1.18335	56.718	12.79462	-3.060948	0.11	3	85	0	50	-0.3561535	1.222924	31.55145	
12:24:49	52.95267	-1.18335	56.785	12.79462	-3.060948	0.14	3	85	0	50	-0.5675166	1.039747	31.5312	
12:24:50	52.95267	-1.18335	56.911	12.47698	-12.5793	0.28	3	86	0	50	-0.4634056	1.141771	31.53187	
12:24:50	52.95267	-1.183351	56.966	12.47698	-12.5793	0.19	3	86	0	50	-0.3301145	1.22689	31.54348	
12:24:50	52.95268	-1.183351	57.09	12.47698	-12.5793	0.28	3	86	0	50	-0.7261661	1.063011	31.55662	
12:24:50	52.95268	-1.183351	57.09	12.47698	-12.5793	0.24	3	86	0	50	-0.5294127	0.794223	31.54232	
12:24:50	52.95268	-1.183352	57.132	12.47698	-12.5793	0.22	3	86	0	50	-0.6430357	0.8112248	31.55061	
12:24:51	52.95268	-1.183352	57.197	12.36286	-11.00206	0.41	3	86	0	50	-0.8343981	1.147871	31.55075	
12:24:51	52.95268	-1.183353	57.252	12.36286	-11.00206	0.14	3	86	0	50	-0.538633	1.59051	31.55012	
12:24:51	52.95268	-1.183354	57.371	12.36286	-11.00206	0.16	3	86	0	50	-0.6400337	1.294327	31.5406	
12:24:51	52.95268	-1.183354	57.371	12.36286	-11.00206	0.11	3	87	0	50	-0.7508252	1.21086	31.50125	
12:24:51	52.95268	-1.183354	57.558	12.36286	-11.00206	0.25	3	87	0	50	-0.7309241	1.035728	31.46424	
12:24:52	52.95268	-1.183355	57.697	12.43004	-1.472479	0.33	3	87	0	50	-0.8090451	0.9005081	31.44672	
12:24:52	52.95268	-1.183357	57.789	12.43004	-1.472479	0.22	3	87	0	50	-0.8659663	0.786315	31.4127	
12:24:52	52.95268	-1.183357	57.786	12.43004	-1.472479	0.19	3	87	0	50	-0.8302136	0.9649	31.40682	
12:24:52	52.95268	-1.183358	57.878	12.43004	-1.472479	0.39	3	87	0	50	-0.357181	0.9117816	31.402	
12:24:52	52.95268	-1.183359	57.9	12.43004	-1.472479	0.28	3	87	0	50	-0.9618675	0.872187	31.42416	
12:24:53	52.95268	-1.183359	57.876	12.3343	-4.318796	0.21	3	87	0	50	-0.7286482	0.8065503	31.43077	
12:24:53	52.95268	-1.18336	57.868	12.3343	-4.318796	0.16	3	87	0	50	-0.2998472	0.8443636	31.43655	
12:24:53	52.95268	-1.18336	57.955	12.3343	-4.318796	0.36	3	88	0	50	-0.5154719	0.8587514	31.4745	
12:24:53	52.95268	-1.18336	57.966	12.3343	-4.318796	0.52	3	88	0	50	-0.6902012	0.7220375	31.48485	
12:24:53	52.95269	-1.183359	58.073	12.3343	-4.318796	0.5	3	88	0	50	-0.7502425	0.5531734	31.49907	
12:24:54	52.95269	-1.183359	58.172	12.05534	-13.17178	0.19	3.017831	88	0	50	-0.4146415	0.4998973	31.51103	
12:24:54	52.95269	-1.183359	58.167	12.05534	-13.17178	0.04	3.017831	88	0	50	-0.4646066	1.400394	31.53824	
12:24:54	52.95269	-1.183359	58.138	12.05534	-13.17178	0.22	3.017831	88	0	50	-0.4176104	1.196285	31.53786	
12:24:54	52.95269	-1.183359	58.236	12.05534	-13.17178	0.21	3.017831	88	0	50	-0.2415842	1.103637	31.54012	
12:24:54	52.95269	-1.183358	58.258	12.05534	-13.17178	0.64	3.017831	88	0	50	-0.5826013	0.9001657	31.53635	
12:24:55	52.95269	-1.183358	58.307	11.97134	-8.270482	0.19	3.146791	88	0	50	-0.5007852	0.5257305	31.55115	
12:24:55	52.95269	-1.183358	58.333	11.97134	-8.270482	0.14	3.146791	89	0	50	-0.6684023	1.078377	31.55673	
12:24:55	52.95269	-1.183358	58.3	11.97134	-8.270482	0.09	3.146791	89	0	50	-0.704274	1.269541	31.56193	
12:24:55	52.95269	-1.183359	58.357	11.97134	-8.270482	0.21	3.146791	89	0	50	-0.6320498	1.253214	31.56012	
12:24:55	52.95269	-1.183358	58.499	11.97134	-8.270482	0.34	3.146791	89	0	50	-0.7226619	1.34586	31.52294	
12:24:56	52.95269	-1.183358	58.531	11.91495	-5.745899	0.07	3	89	0	50	-0.6614634	1.05419	31.51844	
12:24:56	52.95269	-1.183358	58.618	11.91495	-5.745899	0.13	3	89	0	50	-0.4617278	1.684829	31.53638	
12:24:56	52.95269	-1.183358	58.67	11.91495	-5.745899	0.09	3	89	0	50	-0.466449	1.494321	31.51465	
12:24:56	52.95269	-1.183358	58.718	11.91495	-5.745899	0.22	3	89	0	50	-0.4585948	1.481521	31.4845	
12:24:56	52.95269	-1.183358	58.754	11.91495	-5.745899	0.17	3	89	0	50	-0.4508138	1.337374	31.46939	
12:24:57	52.95269	-1.183358	58.759	11.85975	-4.350735	0.14	3	89	0	50	-0.4573888	1.792351	31.4828	
12:24:57	52.95269	-1.183358	58.857	11.85975	-4.350735	0.14	3	89	0	50	-0.3119081	1.628012	31.48257	
12:24:57	52.95269	-1.183357	59.005	11.85975	-4.350735	0.19	3	90	0	50	-0.3598553	1.536765	31.47814	
12:24:57	52.95269	-1.183358	59.185	11.85975	-4.350735	0.17	3	90	0	50	-0.510167	1.70004	31.44381	
12:24:57	52.95269	-1.183358	59.287	11.85975	-4.350735	0.38	3	90	0	50	-0.5424024	1.487118	31.43853	
12:24:58	52.95269	-1.183358	59.311	11.86703	0.5808502	0.14	3	90	0	50	-0.2905725	1.819104	31.4146	
12:24:58	52.9527	-1.183359	59.412	11.86703	0.5808502	0.19	3	90	0	50	-0.6478934	1.502541	31.39462	
12:24:58	52.9527	-1.183358	59.507	11.86703	0.5808502	0.25	3	90	0	50	-0.5921622	1.422072	31.40442	
12:24:58	52.9527	-1.183358	59.524	11.86703	0.5808502	0.29	3	90	0	50	-0.276812	1.369006	31.40363	
12:24:58	52.9527	-1.183357	59.521	11.86703	0.5808502	0.16	3	90	0	50	-0.5112488	1.141933	31.40643	
12:24:59	52.9527	-1.183358	59.605	12.33083	21.04093	0.28	3	90	0	50	-0.2434555	1.484136	31.41226	
12:24:59	52.9527	-1.183357	59.552	12.33083	21.04093	0.61	3	90	0	50	-0.3495265	1.550615	31.42197	
12:24:59	52.9527	-1.183356	59.54	12.33083	21.04093	0.32	3	90	0	50	-0.1957114	0.9183837	31.42863	
12:24:59	52.9527	-1.183356	59.612	12.33083	21.04093	0.29	3	91	0	50	-0.4480948	1.211172	31.44137	
12:24:59	52.9527	-1.183357	59.706	12.33083	21.04093	0.19	3	91	0	50	-0.6422378	1.565678	31.44629	
12:25:00	52.9527	-1.183357	59.784	12.45074	18.08307	0.07	3	91	0	50	-0.3882763	1.666402	31.42046	
12:25:00	52.9527	-1.183357	59.936	12.45074	18.08307	0.13	3	91	0	50	-0.4282654	1.510225	31.40502	
12:25:00	52.9527	-1.183358	60.045	12.45074	18.08307	0.04	3	91	0	50	-0.4528296	1.479772	31.3844	
12:25:00	52.9527	-1.183358	60.197	12.45074	18.08307	0.44	3	91	0	50	-0.3919692	1.562482	31.38029	
12:25:00	52.9527	-1.183359	60.371	12.45074	18.08307	0.41	3	91	0	50	-0.3787274	1.886093	31.37748	
12:25:01	52.9527	-1.18336	60.527	12.45684	13.91322	0.31	3	91	0	50	-0.4372932	1.780118	31.36889	
12:25:01	52.95271	-1.183361	60.616	12.45684	13.91322	0.32	3	91	0	50	-0.5355512	1.638685	31.34655	
12:25:01	52.95271	-1.183361	60.662	12.45684	13.91322	0.08	3	91	0	50	-0.5362207	1.552249	31.33216	
12:25:01	52.95271	-1.183361	60.68	12.45684	13.91322	0.16	3	91	0	50	-0.4780044	1.352926	31.30093	
12:25:01	52.95271	-1.18336	60.688	12.45684	13.91322	0.44	3	91	0	50	-0.4143653	1.235802	31.27663	
12:25:02	52.95271	-1.183359	60.669	12.74383	21.60156	0.16	3	91	0	50	-0.09802797	1.076777	31.27927	
12:25:02	52.95271	-1.183359	60.63	12.74383	21.60156	0.14	3	91	0	50	-0.435002	1.008374	31.31058	
12:25:02	52.95271	-1.183359	60.786	12.74383	21.60156	0.19	3	92	0	50	-0.466248	1.123	31.33117	
12:25:02	52.95271	-1.183359	60.806	12.74383	21.60156	0.11	3	92	0	50	-0.4965811	1.266274	31.31337	
12:25:02	52.95271	-1.18336	60.816	12.74383	21.60156	0.22	3	92	0	50	-0.4700377	1.132972	31.31158	
12:25:03	52.95271	-1.183361	60.897	12.98396	25.26663	0.31	3	92	0	50	-0.4672722	1.406485	31.31512	
12:25:03	52.95271	-1.183361	60.855	12.98396	25.26663	0.14	3	92	0	50	-0.527943	1.299119	31.30466	
12:25:03	52.95271	-1.183361	60.893	12.98396	25.26663	0.24	3	92	0	50	-0.430701	0.9643037	31.33349	
12:25:03	52.95271	-1.183361	60.798	12.98396	25.26663	0.07	3	92	0	50	-0.4862003	0.9492393	31.33115	
12:25:03	52.95271	-1.183361	60.713	12.98396	25.26663	0.14	3	92	0	50	-0.5525405	1.175946	31.31961	
12:25:04	52.95271	-1.183361	60.742	13.13373	22.15601	0.13	3	92	0	50	-0.4880887	1.277217	31.31572	
12:25:04	52.95271	-1.183362	60.662	13.13373	22.15601	0.09	3	92	0	50	-0.492998	1.210533	31.31978	
12:25:04	52.95271	-1.183362	60.566	13.13373	22.15601	0.32	3	92	0	50	-0.4309683	0.9670219	31.32401	
12:25:04	52.95271	-1.183362	60.592	13.13373	22.15601	0.24	3	92	0	50	-0.3148179	0.9621701	31.3379	
12:25:04	52.95271	-1.183362	60.557	13.13373	22.15601	0.12	3	92	0	50	-0.4255764	1.17865	31.34922	
12:25:05	52.95271	-1.183362	60.554	13.1828	15.04742	0.25	3	92	0	50	-0.3116793	1.126837	31.3636	
12:25:05	52.95271	-1.183362	60.421	13.1828	15.04742	0.12	3	93	0	50	-0.3083257	1.207352	31.39953	
12:25:05	52.95271	-1.183362	60.456	13.1828	15.04742	0.14	3	93	0	50	-0.3093264	1.037147	31.42106	
12:25:05	52.95271	-1.183362	60.375	13.1828	15.04742	0.38	3	93	0	50	-0.1957498	1.009892	31.4359	
12:25:05	52.95271	-1.183362	60.422	13.1828	15.04742	0.36	3	93	0	50	-0.2847297	1.125553	31.45829	
12:25:06	52.95271	-1.183364	60.465	12.92966	-2.021709	0.31	3	93	0	50	-0.5597133	1.494614	31.47087	
12:25:06	52.95271	-1.183364	60.51	12.92966	-2.021709	0.18	3	93	0	50	-0.4745378	1.399728	31.4784	
12:25:06	52.95271	-1.183365	60.433	12.92966	-2.021709	0.14	3	93	0	50	-0.5520745	1.24322	31.46228	
12:25:06	52.95271	-1.183366	60.444	12.92966	-2.021709	0.14	3	93	0	50	-0.5505577	1.17082	31.44728	
12:25:06	52.95271	-1.183366	60.425	12.92966	-2.021709	0.22	3	93	0	50	-0.4430983	1.205227	31.42782	
12:25:07	52.95271	-1.183367	60.484	12.89875	-2.066159	0.42	3	93	0	50	-0.563424	1.377702	31.3996	
12:25:07	52.95271	-1.183368	60.465	12.89875	-2.066159	0.28	3	93	0	50	-0.7304737	1.310945	31.35485	
12:25:07	52.95271	-1.183371	60.49	12.89875	-2.066159	0.42	3	93	0	50	-0.7775506	1.200578	31.32595	
12:25:07	52.95271	-1.183371	60.49	12.89875	-2.066159	0.19	3	93	0	50	-0.6510821	1.20531	31.33108	
12:25:07	52.95271	-1.183372	60.44	12.89875	-2.066159	0.09	3	93	0	50	-0.5532894	0.9723617	31.32099	
12:25:08	52.95271	-1.183373	60.517	12.94379	0.3241127	0.26	3	93	0	50	-0.5190138	0.9923822	31.32762	
12:25:08	52.95271	-1.183373	60.384	12.94379	0.3241127	0.39	3	93	0	50	-0.4966577	0.9174352	31.33023	
12:25:08	52.95271	-1.183374	60.492	12.94379	0.3241127	0.09	3	93	0	50	-0.5576476	0.8881102	31.37391	
12:25:08	52.95271	-1.183374	60.602	12.94379	0.3241127	0.14	3	94	0	50	-0.6748108	1.198428	31.37548	
12:25:08	52.95271	-1.183375	60.598	12.94379	0.3241127	0.29	3	94	0	50	-0.7483713	1.315228	31.36698	
12:25:09	52.95271	-1.183376	60.551	12.87813	-2.874721	0.14	3	94	0	50	-0.8401285	1.229387	31.33908	
12:25:09	52.95272	-1.183376	60.558	12.87813	-2.874721	0.09	3	94	0	50	-0.7482758	1.034332	31.33309	
12:25:09	52.95272	-1.183375	60.507	12.87813	-2.874721	0.04	3	94	0	50	-0.6777849	1.02676	31.33164	
12:25:09	52.95272	-1.183376	60.487	12.87813	-2.874721	0.09	3	94	0	50	-0.7236384	1.020762	31.31683	
12:25:09	52.95272	-1.183377	60.511	12.87813	-2.874721	0.34	3	94	0	50	-0.833647	1.217117	31.28806	
12:25:10	52.95272	-1.183377	60.425	12.46737	-20.28976	0.13	3	94	0	50	-0.7495894	1.281479	31.24117	
12:25:10	52.95272	-1.183378	60.402	12.46737	-20.28976	0.29	3	94	0	50	-0.7095636	1.254879	31.2109	
12:25:10	52.95272	-1.183378	60.36	12.46737	-20.28976	0.22	3	94	0	50	-0.759113	1.349058	31.19161	
12:25:10	52.95272	-1.183379	60.355	12.46737	-20.28976	0.29	3	94	0	50	-0.700248	1.352402	31.18417	
12:25:10	52.95272	-1.183379	60.35	12.46737	-20.28976	0.08	3	94	0	50	-0.6431144	1.169632	31.17847	
12:25:11	52.95272	-1.18338	60.367	12.05455	-29.15667	0.29	3	94	0	50	-0.814631	1.104646	31.18105	
12:25:11	52.95272	-1.18338	60.302	12.05455	-29.15667	0.41	3	94	0	50	-0.7861216	0.8141791	31.19322	
12:25:11	52.95272	-1.18338	60.41	12.05455	-29.15667	0.04	3	94	0	50	-0.7007008	0.8896223	31.21422	
12:25:11	52.95272	-1.18338	60.532	12.05455	-29.15667	0.07	3	94	0	50	-0.7290488	0.9835498	31.20089	
12:25:11	52.95272	-1.18338	60.526	12.05455	-29.15667	0.19	3	94	0	50	-0.7996708	0.8669389	31.20016	
12:25:12	52.95272	-1.18338	60.579	11.87141	-23.92693	0.22	3	94	0	50	-0.6764205	0.7883986	31.22755	
12:25:12	52.95272	-1.18338	60.583	11.87141	-23.92693	0.13	3	94	0	50	-0.5744343	0.9912879	31.26053	
12:25:12	52.95272	-1.18338	60.609	11.87141	-23.92693	0.31	3	94	0	50	-0.4564516	0.9889237	31.25954	
12:25:12	52.95272	-1.18338	60.67	11.87141	-23.92693	0.16	3	95	0	50	-0.6782762	1.054055	31.26011	
12:25:12	52.95272	-1.18338	60.596	11.87141	-23.92693	0.22	3	95	0	50	-0.7578299	0.9009698	31.26651	
12:25:13	52.95272	-1.183379	60.455	11.87024	-13.72485	0.26	3	95	0	50	-0.5504676	0.8079297	31.28593	
12:25:13	52.95272	-1.183379	60.319	11.87024	-13.72485	0.16	3	95	0	50	-0.5444644	0.8443304	31.32816	
12:25:13	52.95272	-1.183379	60.352	11.87024	-13.72485	0.11	3	95	0	50	-0.7353337	0.888312	31.33359	
12:25:13	52.95272	-1.18338	60.326	11.87024	-13.72485	0.28	3	95	0	50	-0.9534656	1.069803	31.31446	
12:25:13	52.95272	-1.183381	60.31	11.87024	-13.72485	0.29	3	95	0	50	-1.003351	1.161299	31.2623	
12:25:14	52.95273	-1.183382	60.293	12.15155	5.863298	0.16	3	95	0	50	-0.8556067	1.156109	31.23953	
12:25:14	52.95273	-1.183385	60.294	12.15155	5.863298	0.41	3	95	0	50	-0.6975692	1.328665	31.24465	
12:25:14	52.95273	-1.183385	60.294	12.15155	5.863298	0.03	3	95	0	50	-0.6631148	1.043939	31.24375	
12:25:14	52.95273	-1.183386	60.243	12.15155	5.863298	0.32	3	95	0	50	-0.7172545	1.142693	31.25291	
12:25:15	52.95273	-1.183387	60.273	12.15155	5.863298	0.17	3	95	0	50	-0.7561319	1.10016	31.26019	
12:25:15	52.95273	-1.183388	60.27	12.56767	22.04354	0.33	3	95	0	50	-0.6962565	1.192744	31.27172	
12:25:15	52.95273	-1.183389	60.299	12.56767	22.04354	0.18	3	95	0	50	-0.6262101	1.160562	31.26868	
12:25:15	52.95273	-1.18339	60.34	12.56767	22.04354	0.35	3	95	0	50	-0.745282	1.199321	31.26553	
12:25:15	52.95273	-1.183391	60.39	12.56767	22.04354	0.31	3	95	0	50	-0.6834599	1.235186	31.24371	
12:25:15	52.95273	-1.183392	60.5	12.56767	22.04354	0.42	3	95	0	50	-0.7054246	1.312464	31.2161	
12:25:16	52.95272	-1.183393	60.498	12.67815	19.72521	0.47	3	95	0	50	-0.5446163	1.405896	31.19203	
12:25:16	52.95272	-1.183394	60.419	12.67815	19.72521	0.83	3	95	0	50	-0.6117622	1.667311	31.16269	
12:25:16	52.95272	-1.183395	60.391	12.67815	19.72521	0.13	3	95	0	50	-0.4712406	1.141102	31.16272	
12:25:16	52.95272	-1.183397	60.267	12.67815	19.72521	0.95	3	95	0	50	-1.066024	1.053413	31.15652	
12:25:16	52.95273	-1.183399	60.237	12.67815	19.72521	0.72	3	95	0	50	-1.136658	1.190984	31.13509	
12:25:17	52.95272	-1.1834	60.436	12.75456	15.06965	0.24	3	95	0	50	-0.4818655	0.9916762	31.14021	
12:25:17	52.95272	-1.1834	60.327	12.75456	15.06965	0.63	3	95	0	50	-0.2566836	0.6178142	31.18853	
12:25:17	52.95272	-1.1834	60.339	12.75456	15.06965	0.01	3	95	0	50	0.005819427	0.8863316	31.24812	
12:25:17	52.95272	-1.1834	60.323	12.75456	15.06965	0.08	3	96	0	50	-0.419178	0.6350158	31.28493	
12:25:18	52.95272	-1.1834	60.161	12.75456	15.06965	0.52	3	96	0	50	-0.5055755	0.5396512	31.29396	
12:25:18	52.95272	-1.1834	60.239	12.99377	19.1561	0.45	3	96	0	50	-0.7746553	0.05248663	31.31294	
12:25:18	52.95272	-1.1834	60.346	12.99377	19.1561	0.48	3	96	0	50	-0.515734	0.7328971	31.32463	
12:25:18	52.95272	-1.183399	60.425	12.99377	19.1561	0.52	3	96	0	50	-0.239406	0.8182298	31.34639	
12:25:18	52.95272	-1.183399	60.492	12.99377	19.1561	0.18	3	96	0	50	-0.06688752	0.6496159	31.38334	
12:25:19	52.95272	-1.183399	60.536	12.99377	19.1561	0.06	3	96	0	50	-0.3947455	0.4141627	31.44017	
12:25:19	52.95272	-1.1834	60.692	13.11043	17.60599	0.41	3	96	0	50	-0.5513323	0.5840951	31.47074	
12:25:19	52.95272	-1.183401	60.84	13.11043	17.60599	0.48	3	96	0	50	-0.572003	0.9870248	31.47663	
12:25:19	52.95272	-1.183402	60.978	13.11043	17.60599	0.42	3	96	0	50	-0.6515701	1.159978	31.49752	
12:25:19	52.95272	-1.183402	61.14	13.11043	17.60599	0.19	3	96	0	50	-0.8208242	0.2933863	31.49735	
12:25:20	52.95272	-1.183402	61.052	13.11043	17.60599	0.37	3	96	0	50	-0.7632427	0.670391	31.50057	
12:25:20	52.95273	-1.183402	61.119	13.25253	13.50759	0.22	3	96	0	50	-0.4538276	0.3646616	31.48573	
12:25:20	52.95273	-1.183403	61.327	13.25253	13.50759	0.25	3	96	0	50	-0.8034249	0.4527112	31.51929	
12:25:20	52.95273	-1.183403	61.248	13.25253	13.50759	0.22	3	96	0	50	-0.4528672	0.7907314	31.51854	
12:25:20	52.95273	-1.183404	61.311	13.25253	13.50759	0.44	3	96	0	50	-0.3937021	0.7365593	31.51848	
12:25:21	52.95273	-1.183405	61.232	13.25253	13.50759	0.11	3	96	0	50	-1.106886	0.9228189	31.50408	
12:25:21	52.95273	-1.183407	61.303	13.23552	7.237561	0.24	3	96	0	50	-0.9239736	0.8400863	31.47399	
12:25:21	52.95273	-1.183407	61.303	13.23552	7.237561	0.37	3	96	0	50	-0.8783638	0.9981576	31.47693	
12:25:21	52.95273	-1.183408	61.255	13.23552	7.237561	0.16	3	96	0	50	-0.6922212	0.471323	31.47219	
12:25:21	52.95273	-1.183408	61.255	13.23552	7.237561	0.39	3	96	0	50	-0.9177224	0.69753	31.46167	
12:25:22	52.95273	-1.183409	60.843	13.23552	7.237561	0.75	3	96	0	50	-1.071835	0.5294648	31.46066	
12:25:22	52.95273	-1.18341	60.7	13.30842	6.470128	0.25	3.106337	96	0	50	-1.203239	0.09049627	31.46569	
12:25:22	52.95273	-1.183411	60.767	13.30842	6.470128	0.13	3.106337	96	0	50	-0.9580934	1.041967	31.47671	
12:25:22	52.95273	-1.183411	60.956	13.30842	6.470128	0.32	3.106337	96	0	50	-0.7719301	0.8398797	31.44699	
12:25:22	52.95273	-1.183411	60.791	13.30842	6.470128	0.14	3.106337	96	0	50	-0.3044009	0.9011791	31.45492	
12:25:23	52.95273	-1.183411	60.731	13.30842	6.470128	0.31	3.106337	96	0	50	-0.8375047	0.9232926	31.44969	
12:25:23	52.95273	-1.183412	60.581	13.33895	5.345191	0.48	3	96	0	50	-0.786351	0.6563576	31.44189	
12:25:23	52.95273	-1.183414	60.324	13.33895	5.345191	0.36	3	96	0	50	-1.008427	0.492189	31.44951	
12:25:23	52.95274	-1.183414	60.19	13.33895	5.345191	0.18	3	96	0	50	-1.083163	0.8606835	31.43868	
12:25:23	52.95274	-1.183415	59.868	13.33895	5.345191	0.33	3	96	0	50	-0.8027194	0.8112106	31.41045	
12:25:24	52.95274	-1.183416	59.762	13.33895	5.345191	0.24	3	96	0	50	-1.075311	1.00423	31.37731	
12:25:24	52.95274	-1.183416	59.796	13.62092	14.99969	0.12	3	97	0	50	-0.764501	0.6976401	31.36933	
12:25:24	52.95274	-1.183417	59.801	13.62092	14.99969	0.32	3	97	0	50	-0.7929519	1.023293	31.37217	
12:25:24	52.95274	-1.183417	59.92	13.62092	14.99969	0.16	3	97	0	50	-0.6611292	0.6110489	31.38566	
12:25:24	52.95274	-1.183418	59.875	13.62092	14.99969	0.11	3	97	0	50	-0.4961833	0.8413224	31.39348	
12:25:25	52.95274	-1.183419	59.675	13.62092	14.99969	0.32	3	97	0	50	-0.6015219	1.028811	31.44672	
12:25:25	52.95274	-1.183419	59.841	13.55991	5.505515	0.29	3	97	0	50	-0.944402	0.7003544	31.45099	
12:25:25	52.95274	-1.183419	60.024	13.55991	5.505515	0.53	3	97	0	50	-0.3556163	0.8255411	31.46943	
12:25:25	52.95274	-1.183419	60.093	13.55991	5.505515	0.39	3	97	0	50	-0.1677738	1.342447	31.48147	
12:25:25	52.95274	-1.18342	60.024	13.55991	5.505515	0.06	3	97	0	50	-0.3561074	1.329624	31.50051	
12:25:26	52.95274	-1.183421	60.099	13.55991	5.505515	0.12	3	97	0	50	-0.6158998	1.059171	31.5124	
12:25:26	52.95274	-1.183421	60.092	13.79521	12.59455	0.37	3	97	0	50	-0.6071873	0.8201034	31.52135	
12:25:26	52.95274	-1.183422	59.891	13.79521	12.59455	0.22	3	97	0	50	-0.295491	0.8499597	31.5512	
12:25:26	52.95274	-1.183423	59.85	13.79521	12.59455	0.09	3	97	0	50	-0.8523566	0.7553982	31.57179	
12:25:26	52.95274	-1.183425	59.631	13.79521	12.59455	0.39	3	97	0	50	-0.7071959	0.7830974	31.58823	
12:25:27	52.95274	-1.183426	59.61	13.79521	12.59455	0.18	3	97	0	50	-0.9376215	0.5935123	31.57174	
12:25:27	52.95274	-1.183427	59.395	13.85799	10.05309	0.22	3	97	0	50	-0.7639427	0.7610672	31.57038	
12:25:27	52.95274	-1.183429	59.264	13.85799	10.05309	0.25	3	97	0	50	-0.8629335	0.7892074	31.54904	
12:25:27	52.95274	-1.183429	59.192	13.85799	10.05309	0.14	3	97	0	50	-0.5798093	0.6749135	31.5311	
12:25:27	52.95274	-1.18343	59.069	13.85799	10.05309	0.12	3	97	0	50	-0.6482294	0.7826967	31.53338	
12:25:28	52.95274	-1.183431	59.13	13.85799	10.05309	0.07	3	97	0	50	-0.7486244	0.9093469	31.54112	
12:25:28	52.95274	-1.183432	59.222	13.63626	-5.138875	0.03	3	97	0	50	-0.6049514	0.9681301	31.56696	
12:25:28	52.95274	-1.183432	59.075	13.63626	-5.138875	0.16	3	97	0	50	-0.6761335	0.9627908	31.58129	
12:25:28	52.95274	-1.183431	59.008	13.63626	-5.138875	0.19	3	97	0	50	-0.7178553	1.062808	31.59107	
12:25:28	52.95274	-1.18343	58.957	13.63626	-5.138875	0.25	3	97	0	50	-0.5212366	1.079936	31.58649	
12:25:29	52.95274	-1.183429	58.929	13.63626	-5.138875	0.22	3	97	0	50	-0.34976	0.8724923	31.60185	
12:25:29	52.95274	-1.183428	58.976	13.67934	-1.654474	0.45	3	97	0	50	-0.3033698	1.073109	31.63542	
12:25:29	52.95274	-1.183426	58.936	13.67934	-1.654474	0.37	3	97	0	50	-0.1406317	1.080001	31.6572	
12:25:29	52.95274	-1.183425	58.915	13.67934	-1.654474	0.29	3	97	0	50	-0.2548475	0.7811887	31.66406	
12:25:29	52.95274	-1.183424	58.874	13.67934	-1.654474	0.22	3	97	0	50	-0.3246758	0.9880592	31.65056	
12:25:30	52.95274	-1.183423	58.879	13.67934	-1.654474	0.09	3	97	0	50	-0.4425612	0.7804298	31.66741	
12:25:30	52.95274	-1.183422	58.833	13.40845	-11.69736	0.38	3	97	0	50	-0.6008083	0.9858751	31.67572	
12:25:30	52.95274	-1.183421	58.484	13.40845	-11.69736	0.25	3	97	0	50	-0.3526353	0.9060013	31.68746	
12:25:30	52.95274	-1.183421	58.484	13.40845	-11.69736	0.22	3	97	0	50	-0.7457544	0.5788616	31.67723	
12:25:30	52.95274	-1.183421	58.34	13.40845	-11.69736	0.13	3	97	0	50	-0.8214174	0.7821284	31.66996	
12:25:31	52.95274	-1.183421	58.274	13.40845	-11.69736	0.45	3	97	0	50	-0.6406919	1.05421	31.62833	
12:25:31	52.95274	-1.18342	58.259	13.39269	-10.15688	0.34	3	97	0	50	-0.6622297	1.034149	31.62022	
12:25:31	52.95274	-1.183419	58.255	13.39269	-10.15688	0.11	3	97	0	50	-0.6039214	0.5895241	31.63073	
12:25:31	52.95274	-1.183418	58.093	13.39269	-10.15688	0.48	3	97	0	50	-0.3863081	0.77794	31.63739	
12:25:31	52.95274	-1.183416	58.057	13.39269	-10.15688	0.41	3	97	0	50	-0.1690965	0.5766032	31.65163	
12:25:32	52.95274	-1.183414	58.066	13.39269	-10.15688	0.32	3	97	0	50	-0.1991044	0.9644133	31.71139	
12:25:32	52.95274	-1.183413	57.973	13.32962	-8.322308	0.07	3	97	0	50	-0.433619	1.152269	31.72354	
12:25:32	52.95275	-1.183412	57.77	13.32962	-8.322308	0.22	3	97	0	50	-0.4887536	0.9904677	31.72278	
12:25:32	52.95275	-1.183411	57.792	13.32962	-8.322308	0.32	3	97	0	50	-0.4507687	1.117507	31.74522	
12:25:32	52.95275	-1.183411	57.684	13.32962	-8.322308	0.22	3	97	0	50	-0.5421308	1.215407	31.73666	
12:25:33	52.95275	-1.183411	57.439	13.32962	-8.322308	0.29	3	97	0	50	-0.7044017	1.004022	31.70963	
12:25:33	52.95275	-1.18341	57.247	13.32125	-5.97247	0.19	3	98	0	50	-0.7912048	0.7143934	31.68871	
12:25:33	52.95275	-1.183408	57.155	13.32125	-5.97247	0.29	3	98	0	50	-0.45229	0.7359151	31.70956	
12:25:33	52.95275	-1.183409	57.057	13.32125	-5.97247	0.53	3	98	0	50	-0.5565307	1.028522	31.74662	
12:25:33	52.95275	-1.18341	57.009	13.32125	-5.97247	0.09	3	98	0	50	-1.092629	1.302619	31.73331	
12:25:34	52.95275	-1.183412	57.251	13.32125	-5.97247	0.09	3	98	0	50	-0.8618751	1.072531	31.67801	
12:25:34	52.95275	-1.183413	57.439	13.2272	-8.163855	0.22	3	98	0	50	-0.8013796	1.004106	31.6258	
12:25:34	52.95275	-1.183414	57.548	13.2272	-8.163855	0.18	3	98	0	50	-0.8040302	0.923952	31.60579	
12:25:34	52.95275	-1.183414	57.696	13.2272	-8.163855	0.31	3	98	0	50	-0.6579157	1.101717	31.57404	
12:25:34	52.95274	-1.183414	57.937	13.2272	-8.163855	0.22	3	98	0	50	-0.475398	0.946344	31.61013	
12:25:35	52.95274	-1.183415	57.839	13.2272	-8.163855	0.17	3	98	0	50	-0.6044475	1.012612	31.62023	
12:25:35	52.95274	-1.183416	57.67	13.06335	-13.51764	0.11	3	98	0	50	-0.8185266	1.00592	31.63313	
12:25:35	52.95274	-1.183416	57.781	13.06335	-13.51764	0.14	3	98	0	50	-0.786689	1.177629	31.62406	
12:25:35	52.95274	-1.183416	57.897	13.06335	-13.51764	0.16	3	98	0	50	-0.688804	1.306152	31.61069	
12:25:35	52.95274	-1.183417	57.819	13.06335	-13.51764	0.16	3	98	0	50	-0.7437083	1.295101	31.58441	
12:25:36	52.95274	-1.183419	57.814	13.06335	-13.51764	0.32	3	98	0	50	-0.8868831	1.28584	31.55321	
12:25:36	52.95274	-1.18342	57.693	12.87933	-16.57917	0.29	3	98	0	50	-1.023446	1.260443	31.50659	
12:25:36	52.95274	-1.183421	57.239	12.87933	-16.57917	1.16	3	98	0	50	-0.7691241	0.7880233	31.47633	
12:25:36	52.95274	-1.183419	56.878	12.87933	-16.57917	1.38	3	98	0	50	-0.1842274	0.1661667	31.48499	
12:25:36	52.95274	-1.183418	56.427	12.87933	-16.57917	0.69	3	98	0	50	-0.3163392	0.4738535	31.55498	
12:25:37	52.95275	-1.183418	56.285	12.87933	-16.57917	0.22	3	98	0	50	-0.9764762	1.07457	31.55313	
12:25:37	52.95275	-1.183418	56.285	13.00319	-3.586099	0.39	3	98	0	50	-1.379713	1.504623	31.51662	
12:25:37	52.95275	-1.183418	56.485	13.00319	-3.586099	0.14	3	98	0	50	-1.291823	1.612571	31.45921	
12:25:37	52.95275	-1.183418	56.406	13.00319	-3.586099	0.19	3	98	0	50	-1.089429	1.694816	31.41606	
12:25:37	52.95274	-1.183418	56.583	13.00319	-3.586099	0.26	3	98	0	50	-1.107043	1.849801	31.36314	
12:25:38	52.95274	-1.183418	56.64	13.00319	-3.586099	0.22	3	98	0	50	-1.157487	1.796575	31.2958	
12:25:38	52.95274	-1.183418	56.797	13.25311	8.301879	0.29	3	98	0	50	-1.083274	1.764382	31.20943	
12:25:38	52.95274	-1.183418	56.799	13.25311	8.301879	0.11	3	98	0	50	-0.9962135	1.602842	31.14861	
12:25:38	52.95274	-1.183419	56.803	13.25311	8.301879	0.52	3	98	0	50	-1.339711	1.341498	31.09633	
12:25:38	52.95274	-1.183418	56.848	13.25311	8.301879	0.44	3	98	0	50	-1.242825	1.113941	31.0332	
12:25:39	52.95275	-1.183418	56.735	13.25311	8.301879	0.5	3	98	0	50	-1.279123	1.27943	31.04094	
12:25:39	52.95275	-1.183419	56.564	13.06915	-4.2682	0.28	3	98	0	50	-1.490351	1.485089	30.99657	
12:25:39	52.95275	-1.183419	56.549	13.06915	-4.2682	0.12	3	98	0	50	-1.107853	1.447663	30.96573	
12:25:39	52.95275	-1.183418	56.646	13.06915	-4.2682	0.26	3	98	0	50	-0.8078495	1.570458	30.95684	
12:25:39	52.95274	-1.183417	56.774	13.06915	-4.2682	0.52	3	98	0	50	-0.888091	1.837267	30.94418	
12:25:40	52.95274	-1.183417	56.771	13.06915	-4.2682	0.22	3	98	0	50	-0.9934931	1.619993	30.90724	
12:25:40	52.95274	-1.183417	56.706	13.06465	-0.5445896	0.14	3	98	0	50	-0.99659	1.390984	30.89959	
12:25:40	52.95274	-1.183416	56.633	13.06465	-0.5445896	0.16	3	98	0	50	-1.024188	1.425673	30.91171	
12:25:40	52.95275	-1.183416	56.568	13.06465	-0.5445896	0.24	3	98	0	50	-1.111522	1.338876	30.89555	
12:25:40	52.95275	-1.183416	56.394	13.06465	-0.5445896	0.35	3	98	0	50	-1.149262	1.229032	30.84896	
12:25:41	52.95275	-1.183416	56.371	13.06465	-0.5445896	0.09	3	98	0	50	-1.007707	1.220207	30.82906	
12:25:41	52.95275	-1.183416	56.28	13.15878	3.037039	0.17	3	98	0	50	-0.9986186	1.486791	30.81882	
12:25:41	52.95275	-1.183416	56.28	13.15878	3.037039	0.14	3	98	0	50	-1.064812	1.48968	30.7745	
12:25:41	52.95275	-1.183416	56.031	13.15878	3.037039	0.36	3	98	0	50	-1.143453	1.269266	30.73401	
12:25:41	52.95275	-1.183415	55.91	13.15878	3.037039	0.44	3	98	0	50	-0.8719408	1.031985	30.71185	
12:25:42	52.95275	-1.183414	56.001	13.15878	3.037039	0.22	3	98	0	50	-0.7118567	1.392237	30.71728	
12:25:42	52.95275	-1.183414	56.04	13.08914	-2.797265	0.13	3	98	0	50	-0.8151404	1.601736	30.69311	
12:25:42	52.95275	-1.183414	55.841	13.08914	-2.797265	0.26	3	98	0	50	-0.9951896	1.344764	30.67107	
12:25:42	52.95275	-1.183414	55.638	13.08914	-2.797265	0.37	3	98	0	50	-0.9555768	1.013318	30.65149	
12:25:42	52.95275	-1.183413	55.785	13.08914	-2.797265	0.16	3	98	0	50	-0.7700796	1.248657	30.64775	
12:25:43	52.95275	-1.183414	55.789	13.08914	-2.797265	0.21	3	98	0	50	-0.8966972	1.407798	30.65565	
12:25:43	52.95275	-1.183414	55.891	13.11774	0.5947402	0.22	3	98	0	50	-0.8671924	1.179091	30.6556	
12:25:43	52.95275	-1.183413	55.785	13.11774	0.5947402	0.56	3	98	0	50	-0.8557187	0.802407	30.67618	
12:25:43	52.95275	-1.183413	55.621	13.11774	0.5947402	0.48	3	98	0	50	-1.091332	0.811202	30.69485	
12:25:43	52.95275	-1.183414	55.567	13.11774	0.5947402	0.32	3	98	0	50	-0.9950885	0.9282377	30.68746	
12:25:44	52.95275	-1.183414	55.637	13.11774	0.5947402	0.42	3	98	0	50	-1.003593	0.9621052	30.70274	
12:25:44	52.95275	-1.183414	55.646	13.16283	2.346025	0.36	3	98	0	50	-1.035652	1.310145	30.67309	
12:25:44	52.95275	-1.183415	55.67	13.16283	2.346025	0.14	3	98	0	50	-0.725452	1.186617	30.68437	
12:25:44	52.95275	-1.183414	55.738	13.16283	2.346025	0.13	3	98	0	50	-0.57785	1.000608	30.70298	
12:25:44	52.95275	-1.183414	55.732	13.16283	2.346025	0.06	3	98	0	50	-0.6350121	1.03854	30.69606	
12:25:45	52.95275	-1.183414	55.8	13.16283	2.346025	0.41	3	98	0	50	-0.8043363	0.8210258	30.69476	
12:25:45	52.95275	-1.183414	56.012	12.87534	-12.5542	0.09	3	98	0	50	-0.6626916	0.9310226	30.69368	
12:25:45	52.95275	-1.183412	56.214	12.87534	-12.5542	0.41	3	98	0	50	-0.3250763	1.126073	30.70299	
12:25:45	52.95275	-1.183411	56.25	12.87534	-12.5542	0.17	3	98	0	50	-0.4886863	1.002038	30.73426	
12:25:45	52.95275	-1.183411	56.261	12.87534	-12.5542	0.07	3	98	0	50	-0.7539123	0.9717596	30.76449	
12:25:46	52.95275	-1.183411	56.262	12.87534	-12.5542	0.31	3	98	0	50	-0.9535396	0.8155448	30.76905	
12:25:46	52.95274	-1.183411	56.387	12.78775	-9.777356	0.37	3	98	0	50	-0.6381078	1.040389	30.79982	
12:25:46	52.95274	-1.183411	56.39	12.78775	-9.777356	0.13	3	98	0	50	-0.7694394	0.8951847	30.82891	
12:25:46	52.95274	-1.183411	56.49	12.78775	-9.777356	0.14	3	98	0	50	-0.9433143	0.8262407	30.83327	
12:25:46	52.95274	-1.183411	56.494	12.78775	-9.777356	0.18	3	98	0	50	-0.9877802	0.7966173	30.82761	
12:25:47	52.95274	-1.183411	56.431	12.78775	-9.777356	0.32	3	98	0	50	-0.8438152	0.646118	30.83477	
12:25:47	52.95274	-1.183411	56.454	13.01285	3.921824	0.24	3	98	0	50	-0.8021653	0.6315803	30.88233	
12:25:47	52.95274	-1.18341	56.562	13.01285	3.921824	0.19	3	98	0	50	-0.7942032	0.7055091	30.91063	
12:25:47	52.95274	-1.18341	56.649	13.01285	3.921824	0.41	3	98	0	50	-0.4873698	1.051975	30.92155	
12:25:47	52.95274	-1.183408	57.056	13.01285	3.921824	0.39	3	98	0	50	-0.5524067	1.081689	30.94089	
12:25:48	52.95274	-1.183408	57.172	13.01285	3.921824	0.35	3	98	0	50	-0.3906721	1.120187	30.97922	
12:25:48	52.95274	-1.183408	57.256	12.77116	-7.714924	0.24	3	98	0	50	-0.79993	1.249353	30.98329	
12:25:48	52.95274	-1.183407	57.29	12.77116	-7.714924	0.26	3	98	0	50	-0.5764665	1.022448	30.96556	
12:25:48	52.95274	-1.183407	57.375	12.77116	-7.714924	0.44	3	99	0	50	-0.5693887	1.106832	30.98143	
12:25:48	52.95274	-1.183408	57.244	12.77116	-7.714924	0.25	3	99	0	50	-0.6090191	1.35052	30.97704	
12:25:49	52.95274	-1.183407	57.225	12.77116	-7.714924	0.24	3	99	0	50	-0.9180762	0.9346507	30.95897	
12:25:49	52.95274	-1.183408	57.097	12.88685	0.1286222	0.25	3	99	0	50	-0.7028846	0.6645222	30.93931	
12:25:49	52.95274	-1.183407	57.2	12.88685	0.1286222	0.22	3	99	0	50	-0.9038365	0.7273123	30.9297	
12:25:49	52.95274	-1.183407	57.225	12.88685	0.1286222	0.21	3	99	0	50	-0.6582749	0.6818721	30.94351	
12:25:50	52.95274	-1.183407	57.187	12.88685	0.1286222	0.06	3	99	0	50	-0.7027578	1.041966	30.96579	
12:25:50	52.95274	-1.183407	57.224	12.88685	0.1286222	0.22	3	99	0	50	-0.6693635	0.911065	30.98766	
12:25:50	52.95274	-1.183407	57.19	12.92735	1.737489	0.33	3	99	0	50	-0.8676804	0.8350442	30.99856	
12:25:50	52.95274	-1.183408	57.02	12.92735	1.737489	0.47	3	99	0	50	-0.485081	0.7073594	31.00617	
12:25:50	52.95274	-1.183408	57.065	12.92735	1.737489	0.26	3	99	0	50	-1.081151	0.7006943	31.01797	
12:25:51	52.95274	-1.183408	57.104	12.92735	1.737489	0.19	3	99	0	50	-0.7369832	0.982239	31.00808	
12:25:51	52.95274	-1.183407	57.124	12.92735	1.737489	0.36	3	99	0	50	-0.5924774	0.8081223	31.01791	
12:25:51	52.95274	-1.183407	57.085	13.20576	13.722	0.25	3	99	0	50	-0.6123077	0.5203248	31.06375	
12:25:51	52.95274	-1.183407	57.238	13.20576	13.722	0.08	3	99	0	50	-0.7272435	0.5360901	31.10501	
12:25:51	52.95274	-1.183408	57.247	13.20576	13.722	0.36	3	99	0	50	-0.8143041	0.9167446	31.12293	
12:25:52	52.95274	-1.183409	57.265	13.20576	13.722	0.19	3	99	0	50	-1.014952	1.212233	31.08889	
12:25:52	52.95273	-1.18341	57.206	13.20576	13.722	0.03	3	99	0	50	-0.917381	1.104381	31.06017	
12:25:52	52.95273	-1.18341	57.254	13.09925	2.607183	0.29	3	99	0	50	-0.7625212	0.9621584	31.04403	
12:25:52	52.95273	-1.18341	57.252	13.09925	2.607183	0.22	3	99	0	50	-0.8142844	0.6583268	31.04008	
12:25:52	52.95274	-1.183411	57.159	13.09925	2.607183	0.39	3	99	0	50	-0.7229062	0.6598075	31.05476	
12:25:53	52.95274	-1.183411	57.278	13.09925	2.607183	0.36	3	99	0	50	-0.8982813	0.5707734	31.05442	
12:25:53	52.95274	-1.183412	57.134	13.09925	2.607183	0.57	3	99	0	50	-0.7886246	0.5287389	31.04357	
12:25:53	52.95274	-1.183413	57.136	12.9911	-2.593274	0.63	3	99	0	50	-1.083974	0.4872599	31.09307	
12:25:53	52.95274	-1.183414	57.204	12.9911	-2.593274	0.29	3	99	0	50	-1.062884	0.3697128	31.09855	
12:25:53	52.95274	-1.183414	57.226	12.9911	-2.593274	0.26	3	99	0	50	-0.9272783	0.9859893	31.10662	
12:25:54	52.95274	-1.183414	57.239	12.9911	-2.593274	0.29	3	99	0	50	-0.7158068	1.273569	31.09759	
12:25:54	52.95274	-1.183414	57.245	12.9911	-2.593274	0.12	3	99	0	50	-0.3514992	1.268202	31.10672	
12:25:54	52.95273	-1.183413	57.225	12.93898	-3.5139	0.19	3	99	0	50	-0.6350259	1.008927	31.11029	
12:25:54	52.95273	-1.183413	57.225	12.93898	-3.5139	0.13	3	99	0	50	-0.3925786	1.114891	31.10886	
12:25:54	52.95273	-1.183412	57.239	12.93898	-3.5139	0.28	3	99	0	50	-0.4502226	0.8572158	31.10996	
12:25:55	52.95274	-1.183412	57.188	12.93898	-3.5139	0.66	3	99	0	50	-0.5615469	0.6059824	31.12592	
12:25:55	52.95274	-1.183412	57.129	12.93898	-3.5139	0.28	3	99	0	50	-1.019163	0.3519835	31.11569	
12:25:55	52.95274	-1.183411	57.145	12.83937	-6.074055	0.36	3	99	0	50	-0.7446282	0.7012429	31.12237	
12:25:55	52.95274	-1.183411	57.145	12.83937	-6.074055	0.31	3	99	0	50	-0.5459902	0.5713518	31.11785	
12:25:55	52.95274	-1.183411	57.096	12.83937	-6.074055	0.39	3	99	0	50	-0.7862179	0.7799296	31.13406	
12:25:56	52.95274	-1.183411	57.187	12.83937	-6.074055	0.19	3	99	0	50	-0.9581789	0.9283741	31.13141	
12:25:56	52.95273	-1.183411	57.314	12.83937	-6.074055	0.36	3	99	0	50	-0.4003532	1.242457	31.14421	
12:25:56	52.95274	-1.183411	57.481	12.85925	-2.697672	1.73	3	99	0	50	-0.167334	1.346132	31.15349	
12:25:56	52.95274	-1.183411	57.873	12.85925	-2.697672	3.11	3	99	0	50	-1.42907	0.00447818	31.15233	
12:25:56	52.95275	-1.18341	58.166	12.85925	-2.697672	2.47	3	99	0	50	-2.162441	-1.091174	31.15442	
12:25:57	52.95275	-1.18341	58.067	12.85925	-2.697672	0.58	3	99	0	50	-1.528695	-0.671923	31.13921	
12:25:57	52.95275	-1.183409	58.211	12.85925	-2.697672	0.59	3	99	0	50	-0.6694433	0.5271234	31.146	
12:25:57	52.95275	-1.183409	58.218	12.83116	-3.339295	0.41	3	99	0	50	0.19572	1.277874	31.18025	
12:25:57	52.95275	-1.183409	58.199	12.83116	-3.339295	1.22	3	99	0	50	-0.06874257	1.373875	31.22663	
12:25:57	52.95275	-1.183408	58.261	12.83116	-3.339295	0.42	3	99	0	50	-1.138046	0.2791653	31.22077	
12:25:58	52.95275	-1.183408	58.248	12.83116	-3.339295	0.38	3	99	0	50	-0.2688896	0.9497584	31.23281	
12:25:58	52.95275	-1.183408	58.358	12.83116	-3.339295	0.84	3	99	0	50	-1.056534	0.5561399	31.2215	
12:25:58	52.95275	-1.183407	58.438	12.6931	-6.74858	0.52	3.192835	99	0	50	-1.245323	0.1211418	31.21633	
12:25:58	52.95275	-1.183408	58.303	12.6931	-6.74858	0.58	3.192835	99	0	50	-1.160466	0.4441279	31.20221	
12:25:58	52.95275	-1.183408	58.094	12.6931	-6.74858	0.42	3.192835	99	0	50	-1.230242	0.5645134	31.20104	
12:25:59	52.95274	-1.183408	58.115	12.6931	-6.74858	0.09	3.192835	99	0	50	-0.8854782	1.393942	31.20227	
12:25:59	52.95274	-1.183408	58.134	12.6931	-6.74858	0.09	3.192835	99	0	50	-0.6458555	1.053033	31.19528	
12:25:59	52.95274	-1.183409	58.068	12.89818	5.394068	1.32	3	99	0	50	-0.9012914	1.090179	31.20125	
12:25:59	52.95274	-1.18341	58.111	12.89818	5.394068	0.38	3	99	0	50	-2.127642	0.5450398	31.1409	
12:25:59	52.95274	-1.183409	58.232	12.89818	5.394068	0.71	3	99	0	50	-1.157946	1.014367	31.08076	
12:26:00	52.95274	-1.183409	58.306	12.89818	5.394068	0.45	3	99	0	50	-1.74225	0.3773984	31.01692	
12:26:00	52.95274	-1.183407	58.413	12.89818	5.394068	0.66	3	99	0	50	-0.8922455	0.8308584	30.98671	
12:26:00	52.95274	-1.183406	58.529	13.15664	13.24094	0.28	3	99	0	50	-0.7673821	1.148172	30.99675	
12:26:00	52.95274	-1.183406	58.624	13.15664	13.24094	0.39	3	99	0	50	-1.018974	0.9347922	30.99935	
12:26:00	52.95274	-1.183405	58.789	13.15664	13.24094	0.14	3	99	0	50	-1.024832	1.0812	31.01253	
12:26:01	52.95274	-1.183404	58.868	13.15664	13.24094	0.24	3	99	0	50	-1.23914	0.6108848	30.98681	
12:26:01	52.95273	-1.183403	58.984	13.15664	13.24094	0.63	3	99	0	50	-1.317202	0.5955122	30.96583	
12:26:01	52.95273	-1.183403	58.945	13.04131	2.4246	0.55	3	99	0	50	-0.8167784	1.230011	30.98467	
12:26:01	52.95273	-1.183403	59.124	13.04131	2.4246	0.14	3	99	0	50	-1.043819	1.172564	30.98089	
12:26:01	52.95273	-1.183402	59.145	13.04131	2.4246	1.11	3	99	0	50	-1.193945	0.9298984	30.98733	
12:26:02	52.95273	-1.183402	59.373	13.04131	2.4246	0.84	3	99	0	50	-0.69491	1.443989	30.96803	
12:26:02	52.95272	-1.183402	59.396	13.04131	2.4246	0.81	3	99	0	50	-1.276847	1.450306	30.95122	
12:26:02	52.95272	-1.183401	59.536	13.17415	7.17819	0.45	3	99	0	50	-0.906645	1.208053	30.90402	
12:26:02	52.95272	-1.183401	59.556	13.17415	7.17819	0.22	3	99	0	50	-1.322878	0.8603998	30.86644	
12:26:02	52.95272	-1.183401	59.435	13.17415	7.17819	0.37	3	99	0	50	-1.640027	0.5965567	30.82672	
12:26:03	52.95272	-1.183401	59.326	13.17415	7.17819	1.65	3	99	0	50	-1.368163	1.059492	30.77818	
12:26:03	52.95271	-1.183401	59.311	13.17415	7.17819	0.44	3	99	0	50	-0.715283	1.5575	30.75395	
12:26:03	52.95271	-1.183401	59.234	13.01086	-1.892113	0.56	3	99	0	50	-1.47997	0.6392543	30.72453	
12:26:03	52.95271	-1.1834	59.16	13.01086	-1.892113	1.73	3	99	0	50	-1.722795	0.1661176	30.68118	
12:26:03	52.95271	-1.183399	59.242	13.01086	-1.892113	1.2	3	99	0	50	-0.9311633	1.085802	30.6846	
12:26:04	52.95271	-1.183398	59.286	13.01086	-1.892113	0.58	3	99	0	50	-1.168031	0.512713	30.71382	
12:26:04	52.95271	-1.183398	59.321	13.01086	-1.892113	0.16	3	99	0	50	-1.727355	0.07025357	30.69807	
12:26:04	52.95271	-1.183396	59.364	13.10762	1.540555	1.06	3	99	0	50	-1.764897	-0.1262244	30.68756	
12:26:04	52.95271	-1.183396	59.365	13.10762	1.540555	0.29	3	99	0	50	-1.250924	0.4994485	30.71022	
12:26:04	52.9527	-1.183396	59.237	13.10762	1.540555	1.44	3	99	0	50	-1.592665	0.2800462	30.72238	
12:26:05	52.95269	-1.183396	59.036	13.10762	1.540555	1.39	3	99	0	50	-0.8968686	1.111864	30.72219	
12:26:05	52.95269	-1.183396	59.077	13.10762	1.540555	0.24	3	99	0	50	-1.25079	0.8559531	30.68337	
12:26:05	52.95269	-1.183396	58.877	13.21837	5.346215	0.47	3	99	0	50	-1.829059	0.02288421	30.64462	
12:26:05	52.95269	-1.183395	58.819	13.21837	5.346215	1.46	3	99	0	50	-1.186818	0.3908011	30.60529	
12:26:05	52.95269	-1.183394	58.822	13.21837	5.346215	0.97	3	99	0	50	-0.9502669	1.000394	30.62109	
12:26:06	52.95269	-1.183394	58.772	13.21837	5.346215	0.79	3	99	0	50	-1.331103	0.7547616	30.60544	
12:26:06	52.95268	-1.183393	58.806	13.21837	5.346215	1.3	3	99	0	50	-1.184908	0.7038321	30.58136	
12:26:06	52.95268	-1.183391	58.89	13.27241	4.564916	0.22	3	99	0	50	-0.9947402	0.6075102	30.61378	
12:26:06	52.95268	-1.18339	58.972	13.27241	4.564916	0.41	3	99	0	50	-1.501058	0.1036272	30.6288	
12:26:06	52.95268	-1.18339	59.017	13.27241	4.564916	0.47	3	99	0	50	-1.59589	-0.04326085	30.63343	
12:26:07	52.95268	-1.183389	58.986	13.27241	4.564916	0.39	3	99	0	50	-1.90408	-0.5005231	30.64295	
12:26:07	52.95268	-1.183388	59.047	13.27241	4.564916	0.14	3	99	0	50	-1.668643	-0.3845282	30.6369	
12:26:07	52.95268	-1.183388	59.041	13.42748	9.835899	0.29	3	99	0	50	-2.000253	-0.2903167	30.62341	
12:26:07	52.95268	-1.183388	59.021	13.42748	9.835899	0.34	3	99	0	50	-2.12909	-0.2217807	30.60444	
12:26:07	52.95269	-1.183388	59.035	13.42748	9.835899	1.29	3	99	0	50	-2.330146	-0.4567197	30.58171	
12:26:08	52.95269	-1.183388	59.015	13.42748	9.835899	0.22	3	99	0	50	-2.240212	-0.5239977	30.55375	
12:26:08	52.95268	-1.183388	58.853	13.42748	9.835899	1.01	3	99	0	50	-1.432106	0.4675241	30.552	
12:26:08	52.95268	-1.183387	59.044	13.52307	11.5777	0.21	3	99	0	50	-1.268741	0.5688595	30.55168	
12:26:08	52.95268	-1.183387	59.152	13.52307	11.5777	0.51	3	99	0	50	-1.838322	-0.01982338	30.54756	
12:26:08	52.95268	-1.183385	59.252	13.52307	11.5777	1.29	3	99	0	50	-1.677629	0.02542694	30.53481	
12:26:09	52.95268	-1.183384	59.25	13.52307	11.5777	0.24	3	99	0	50	-1.270427	0.30794	30.53725	
12:26:09	52.95268	-1.183383	59.163	13.52307	11.5777	0.96	3	99	0	50	-1.481097	0.04680639	30.55162	
12:26:09	52.95268	-1.183383	59.264	13.71726	15.07705	0.42	3	99	0	50	-1.396773	0.2894395	30.56768	
12:26:09	52.95267	-1.183383	59.206	13.71726	15.07705	0.07	3	99	0	50	-1.874118	-0.04810613	30.55828	
12:26:09	52.95268	-1.183383	59.297	13.71726	15.07705	0.37	3	99	0	50	-2.047465	-0.4543823	30.52621	
12:26:10	52.95268	-1.183383	59.358	13.71726	15.07705	0.12	3	99	0	50	-2.027541	-0.534906	30.50481	
12:26:10	52.95267	-1.183383	59.23	13.71726	15.07705	0.18	3	99	0	50	-1.901833	-0.1675989	30.50406	
12:26:10	52.95267	-1.183382	59.408	14.00054	19.65876	0.12	3	99	0	50	-1.760618	-0.1334248	30.49533	
12:26:10	52.95267	-1.183382	59.408	14.00054	19.65876	0.16	3	99	0	50	-1.618202	-0.199902	30.50799	
12:26:10	52.95268	-1.183382	59.382	14.00054	19.65876	0.69	3	99	0	50	-1.764363	-0.5390227	30.53664	
12:26:11	52.95268	-1.183382	59.411	14.00054	19.65876	0.37	3	99	0	50	-1.971005	-0.6272937	30.5314	
12:26:11	52.95268	-1.183381	59.538	14.00054	19.65876	0.09	3	99	0	50	-1.740003	-0.2683366	30.53279	
12:26:11	52.95268	-1.183381	59.584	13.9978	10.49061	0.16	3	99	0	50	-1.392067	-0.08769528	30.53527	
12:26:11	52.95268	-1.18338	59.671	13.9978	10.49061	0.26	3	99	0	50	-1.302268	-0.1365015	30.56216	
12:26:11	52.95268	-1.18338	59.52	13.9978	10.49061	0.53	3	99	0	50	-1.298583	0.1642428	30.59439	
12:26:12	52.95268	-1.18338	59.651	13.9978	10.49061	0.25	3	99	0	50	-1.445482	0.3271674	30.55524	
12:26:12	52.95267	-1.18338	59.749	13.9978	10.49061	0.65	3	99	0	50	-1.266067	0.338633	30.53135	
12:26:12	52.95267	-1.183379	59.814	14.01236	7.320857	0.12	3	99	0	50	-1.102278	0.37613	30.54897	
12:26:12	52.95267	-1.18338	59.632	14.01236	7.320857	0.83	3	99	0	50	-1.609968	-0.1921448	30.56422	
12:26:12	52.95267	-1.18338	59.617	14.01236	7.320857	0.52	3	99	0	50	-1.743122	-0.4688925	30.56168	
12:26:13	52.95267	-1.18338	59.679	14.01236	7.320857	0.16	3	99	0	50	-1.371965	-0.02685457	30.54306	
12:26:13	52.95267	-1.183381	59.631	14.01236	7.320857	0.25	3	99	0	50	-1.266819	0.299698	30.54723	
12:26:13	52.95267	-1.183382	59.707	14.00821	3.497206	0.35	3	99	0	50	-1.150008	0.4303392	30.5506	
12:26:13	52.95267	-1.183382	60.04	14.00821	3.497206	0.94	3	99	0	50	-1.360847	0.7657637	30.57613	
12:26:13	52.95267	-1.183383	59.961	14.00821	3.497206	0.18	3	99	0	50	-1.446342	0.5625646	30.57212	
12:26:14	52.95267	-1.183383	60.158	14.00821	3.497206	0.61	3	99	0	50	-0.8749703	0.4275858	30.57354	
12:26:14	52.95267	-1.183382	60.142	14.00821	3.497206	0.42	3	99	0	50	-0.7107618	0.6807832	30.60244	
12:26:14	52.95267	-1.183382	60.152	13.89209	-4.462246	0.91	3	99	0	50	-0.532043	0.8703845	30.65019	
12:26:14	52.95267	-1.183382	60.234	13.89209	-4.462246	0.34	3	99	0	50	-0.7292303	0.7673135	30.67913	
12:26:14	52.95267	-1.183383	60.08	13.89209	-4.462246	0.39	3	99	0	50	-1.157473	0.1796926	30.71536	
12:26:15	52.95267	-1.183383	59.925	13.89209	-4.462246	0.78	3	99	0	50	-0.7858551	0.408984	30.73814	
