Date	Latitude(deg) 	Longitude(deg)	hamsl(m)	hafl(m)	climbrate(cm/s)	GroundSpeed(m/s)	Airspeed(m/s)	Mav_Link(%)	Rssi_Link(%)	Throttle	Roll(deg)	Pitch(deg)	Yaw(deg)
18:57:15	52.95264	-1.183381	46.394	0	0	0.62	0	94	0	0	0	0	0	
18:57:15	52.95264	-1.183394	46.669	0	0	0.62	0	94	0	0	-4.077835	5.408484	54.91823	
18:57:15	52.95264	-1.183394	46.669	0	0	0.97	0	95	0	0	-4.333978	5.389074	54.8695	
18:57:15	52.95264	-1.183394	46.669	0	0	0.42	0	95	0	0	-4.006431	5.656134	54.85226	
18:57:16	52.95255	-1.18342	55.201	0	0	0.42	0	96	0	0	-3.635096	5.838148	54.85923	
18:57:16	52.95255	-1.18342	55.201	0.4637867	24.57874	1.53	3	96	0	6453	-4.22383	5.502712	54.80136	
18:57:16	52.95255	-1.183422	55.98	0.4637867	24.57874	1.11	3	96	0	6453	-4.355111	5.202726	54.76798	
18:57:16	52.95253	-1.18342	56.2	0.4637867	24.57874	1.11	3	97	0	6453	-4.145262	5.12876	54.76355	
18:57:16	52.95253	-1.183419	56.552	0.4637867	24.57874	1.11	3	97	0	6453	-4.098076	5.120214	54.76321	
18:57:16	52.95252	-1.183417	56.75	0.4637867	24.57874	1.11	3	97	0	6453	-4.066677	5.127864	54.77118	
18:57:16	52.95252	-1.183417	56.567	1.287035	62.13382	1.11	3	97	0	6453	-4.027193	5.112041	54.781	
18:57:17	52.95251	-1.183421	56.291	1.287035	62.13382	1.11	3	97	0	6453	-3.997022	5.104624	54.80265	
18:57:17	52.95251	-1.183421	56.291	1.287035	62.13382	1.11	3	97	0	6453	-3.974484	5.092845	54.78244	
18:57:17	52.95251	-1.183421	56.291	1.287035	62.13382	1.11	3	98	0	6453	-3.957761	5.116314	54.7701	
18:57:17	52.9525	-1.183417	56.432	1.287035	62.13382	1.11	3	98	0	6453	-3.983663	5.155119	54.75927	
18:57:17	52.95249	-1.183416	56.799	1.288674	51.74506	1.11	3	98	0	6453	-3.958863	5.151514	54.7623	
18:57:17	52.95249	-1.183416	56.799	1.288674	51.74506	1.11	3	98	0	6453	-3.906898	5.13173	54.78234	
18:57:17	52.95249	-1.183416	56.799	1.288674	51.74506	1.11	3	98	0	6453	-3.88332	5.141445	54.7702	
18:57:18	52.95247	-1.183415	57.813	1.288674	51.74506	1.11	3	98	0	6453	-3.86525	5.127451	54.76809	
18:57:18	52.95247	-1.183416	58.052	1.288674	51.74506	1.11	3	98	0	6453	-3.844002	5.147207	54.77725	
18:57:18	52.95247	-1.183416	58.052	1.191672	40.82462	1.11	3	98	0	6453	-3.820991	5.126243	54.80172	
18:57:18	52.95245	-1.183415	58.483	1.191672	40.82462	0.5	3	98	0	6453	-3.5836	5.299314	54.85103	
18:57:18	52.95245	-1.183417	58.632	1.191672	40.82462	0.5	3	98	0	6453	-3.473787	5.38764	54.85933	
18:57:18	52.95245	-1.183417	58.632	1.191672	40.82462	0.5	3	98	0	6453	-3.46511	5.379128	54.87488	
18:57:18	52.95245	-1.183417	58.632	1.191672	40.82462	0.66	3	98	0	6453	-3.441709	4.923839	54.84768	
18:57:19	52.95245	-1.183417	58.632	0.9782934	27.61049	1.86	3	98	0	6453	-4.14006	4.513232	54.82322	
18:57:19	52.95245	-1.183417	58.632	0.9782934	27.61049	1.78	3	98	0	6453	-4.542141	5.059803	54.80704	
18:57:19	52.95245	-1.183417	58.632	0.9782934	27.61049	0.97	3	98	0	6453	-4.072569	5.276574	54.8323	
18:57:19	52.95245	-1.183417	58.632	0.9782934	27.61049	1.54	3	98	0	6453	-4.069219	5.026062	54.77615	
18:57:19	52.95244	-1.183424	59.037	0.9782934	27.61049	1.54	3	99	0	6453	-4.140999	4.912887	54.7619	
18:57:19	52.95245	-1.183429	59.035	0.7779214	17.75571	1.54	3	99	0	6453	-4.122761	4.88924	54.75414	
18:57:19	52.95245	-1.183429	59.035	0.7779214	17.75571	2.99	3	99	0	6453	-5.155663	4.802008	54.64146	
18:57:20	52.95245	-1.183431	59.119	0.7779214	17.75571	2.99	3	99	0	6453	-5.587967	4.772298	54.56636	
18:57:20	52.95245	-1.183431	59.119	0.7779214	17.75571	2.99	3	99	0	6453	-5.556301	4.782093	54.50644	
18:57:20	52.95244	-1.183431	58.922	0.7779214	17.75571	2.99	3	99	0	6453	-5.539584	4.774828	54.45565	
18:57:20	52.95244	-1.183431	58.922	0.5968763	13.9734	2.99	3	99	0	6453	-5.497115	4.759489	54.39485	
18:57:20	52.95245	-1.183433	59.227	0.5968763	13.9734	1.58	3	99	0	6453	-5.435501	4.745581	54.36599	
18:57:20	52.95245	-1.183433	59.227	0.5968763	13.9734	0.64	3	99	0	6453	-4.63694	4.767952	54.40028	
18:57:20	52.95244	-1.183434	59.621	0.5968763	13.9734	0.29	3	99	0	6453	-3.602997	5.365963	54.47444	
18:57:21	52.95244	-1.183434	59.621	0.5968763	13.9734	1.1	3	99	0	6453	-3.191309	6.147534	54.51567	
18:57:21	52.95244	-1.183434	59.621	0.7301241	24.66991	1.1	3	99	0	6453	-2.029182	6.341062	54.6501	
18:57:21	52.95244	-1.183434	59.621	0.7301241	24.66991	1.1	3	99	0	6453	-1.746257	6.32124	54.70386	
18:57:21	52.95243	-1.183431	59.811	0.7301241	24.66991	1.36	3	99	0	6453	-1.750812	6.282714	54.74031	
18:57:21	52.95243	-1.183431	59.811	0.7301241	24.66991	0.89	3	99	0	6453	-1.730348	6.429533	54.77383	
18:57:21	52.95242	-1.18343	59.917	0.7301241	24.66991	1.68	3	99	0	6453	-2.232144	6.357764	54.7318	
18:57:21	52.95242	-1.18343	59.917	0.8001086	26.09263	0.57	3	99	0	6453	-1.688883	6.225232	54.79879	
18:57:22	52.95242	-1.18343	59.917	0.8001086	26.09263	0.58	3	99	0	6453	-2.537431	6.090348	54.73534	
18:57:22	52.95242	-1.18343	59.917	0.8001086	26.09263	0.79	3	99	0	6453	-2.724586	5.723445	54.7072	
18:57:22	52.95242	-1.18343	59.917	0.8001086	26.09263	0.22	3	99	0	6453	-2.550078	5.821914	54.72553	
18:57:22	52.95241	-1.18343	60.456	0.8001086	26.09263	0.66	3	99	0	6453	-3.031933	5.538643	54.68884	
18:57:22	52.95241	-1.18343	60.456	0.8726294	27.45572	0.29	3	99	0	6453	-3.894144	5.455572	54.60501	
18:57:23	52.95241	-1.183429	60.634	0.8726294	27.45572	0.29	3	99	0	6453	-3.637938	5.705597	54.60799	
18:57:23	52.95241	-1.183429	60.634	0.8726294	27.45572	0.29	3	99	0	6453	-3.505097	5.741539	54.56904	
18:57:23	52.95241	-1.183429	60.634	0.8726294	27.45572	0.29	3	99	0	6453	-3.49118	5.716749	54.51531	
18:57:23	52.95241	-1.183429	60.634	0.8726294	27.45572	0.29	3	99	0	6453	-3.468888	5.694899	54.48193	
18:57:23	52.95241	-1.183429	60.634	0.7625578	18.9264	0.29	3	99	0	6453	-3.441304	5.695096	54.44336	
18:57:23	52.95241	-1.183429	60.634	0.7625578	18.9264	0.29	3	99	0	6453	-3.412267	5.67795	54.41616	
18:57:24	52.95243	-1.183425	60.944	0.7625578	18.9264	0.29	3	99	0	6453	-3.397399	5.649647	54.37688	
18:57:24	52.95243	-1.183425	60.944	0.7625578	18.9264	0.29	3	99	0	6453	-3.389141	5.601574	54.34816	
18:57:24	52.95243	-1.183427	60.957	0.7625578	18.9264	0.29	3	99	0	6453	-3.364821	5.582506	54.32592	
18:57:24	52.95243	-1.183427	60.957	0.8958934	24.86024	0.29	3	99	0	6453	-3.34725	5.539655	54.3581	
18:57:24	52.95243	-1.183427	60.957	0.8958934	24.86024	0.29	3	99	0	6453	-3.33987	5.49391	54.35145	
18:57:25	52.95243	-1.183426	60.847	0.8958934	24.86024	0.29	3	99	0	6453	-3.330877	5.462243	54.35756	
18:57:25	52.95243	-1.183425	60.747	0.8958934	24.86024	0.39	3	99	0	6453	-3.33606	5.425196	54.34637	
18:57:25	52.95243	-1.183424	60.746	0.8958934	24.86024	0.39	3	99	0	6453	-2.786061	5.082156	54.42917	
18:57:25	52.95243	-1.183424	60.746	0.8978161	21.9147	0.39	3	99	0	6453	-2.720848	5.026692	54.50488	
18:57:25	52.95245	-1.183424	60.8	0.8978161	21.9147	1.23	3	99	0	6453	-2.71329	5.001637	54.55999	
18:57:26	52.95245	-1.183424	60.8	0.8978161	21.9147	1.23	3	99	0	6453	-3.20467	4.697532	54.58755	
18:57:26	52.95245	-1.183424	60.871	0.8978161	21.9147	0.31	3	99	0	6453	-3.769408	4.369015	54.57348	
18:57:26	52.95245	-1.183424	60.871	0.8978161	21.9147	0.31	3	99	0	6453	-3.543484	4.692744	54.62697	
18:57:26	52.95245	-1.183423	60.596	0.9825951	24.54852	0.35	3	99	0	6453	-3.216086	5.091082	54.69076	
18:57:26	52.95245	-1.183423	60.596	0.9825951	24.54852	0.35	3	99	0	6453	-3.221615	5.182098	54.70724	
18:57:27	52.95246	-1.183423	60.156	0.9825951	24.54852	0.33	3	99	0	6453	-3.256204	5.263353	54.7127	
18:57:27	52.95247	-1.183422	59.686	0.9825951	24.54852	0.33	3	99	0	6453	-3.058702	5.478246	54.69759	
18:57:27	52.95247	-1.183422	59.686	0.9825951	24.54852	0.33	3	99	0	6453	-3.03795	5.469606	54.65674	
18:57:27	52.95247	-1.183422	59.686	0.8904955	15.21125	0.33	3	99	0	6453	-3.041612	5.457451	54.64664	
18:57:28	52.95247	-1.183423	59.037	0.8904955	15.21125	0.33	3	99	0	6453	-3.0485	5.451795	54.63688	
18:57:28	52.95247	-1.183423	59.037	0.8904955	15.21125	0.38	3	99	0	6453	-3.070639	5.435388	54.61529	
18:57:28	52.95247	-1.183423	59.037	0.8904955	15.21125	0.34	3	99	0	6453	-3.380899	5.57103	54.57822	
18:57:28	52.95247	-1.183423	59.037	0.8904955	15.21125	0.34	3	99	0	6453	-3.167824	5.305265	54.58733	
18:57:28	52.95247	-1.18342	59.016	0.7449827	8.859198	1.7	3	99	0	6453	-2.896028	4.998468	54.61254	
18:57:29	52.95247	-1.18342	59.016	0.7449827	8.859198	1.7	3	99	0	6453	-2.272824	4.78583	54.70137	
18:57:29	52.95247	-1.18342	59.016	0.7449827	8.859198	0.97	3	99	0	6453	-2.215618	4.749962	54.77142	
18:57:29	52.95247	-1.18342	59.016	0.7449827	8.859198	0.9	3	99	0	6453	-4.043703	5.003808	54.65467	
18:57:29	52.95247	-1.18342	59.016	0.7449827	8.859198	2.19	3	99	0	6453	-3.938195	4.291038	54.6549	
18:57:29	52.95247	-1.18342	59.016	0.7400976	10.69416	1.5	3	99	0	6453	-5.021837	4.050375	54.58718	
18:57:30	52.95247	-1.18342	59.016	0.7400976	10.69416	1.46	3	99	0	6453	-4.000765	4.038604	54.65938	
18:57:30	52.95247	-1.18342	59.016	0.7400976	10.69416	0.61	3	99	0	6453	-3.830333	4.123601	54.70288	
18:57:30	52.95247	-1.18342	59.016	0.7400976	10.69416	0.63	3	99	0	6453	-2.902386	4.753595	54.8315	
18:57:30	52.95247	-1.18342	59.016	0.7400976	10.69416	0.7	3	99	0	6453	-1.623829	5.061765	54.99606	
18:57:30	52.95247	-1.18342	59.016	0.8628591	16.24854	1.73	3	99	0	6453	-1.893575	5.944489	55.02122	
18:57:31	52.95247	-1.18342	59.016	0.8628591	16.24854	0.45	3	99	0	6453	-0.6373171	5.945124	55.19215	
18:57:31	52.95247	-1.18342	59.016	0.8628591	16.24854	0.79	3	99	0	6453	-1.686942	5.843481	55.14261	
18:57:31	52.95251	-1.183415	57.801	0.8628591	16.24854	0.79	3	99	0	6453	-2.266826	5.292052	55.09954	
18:57:31	52.95251	-1.183415	57.834	0.8628591	16.24854	0.79	3	99	0	6453	-2.39084	5.178735	55.1006	
18:57:31	52.95251	-1.183414	57.576	0.7323899	7.807502	0.79	3	99	0	6453	-2.433652	5.159854	55.13166	
18:57:32	52.95251	-1.183414	57.576	0.7323899	7.807502	0.79	3	99	0	6453	-2.469528	5.14287	55.17992	
18:57:32	52.95251	-1.183414	57.576	0.7323899	7.807502	0.79	3	99	0	6453	-2.509856	5.108179	55.19062	
18:57:32	52.95251	-1.183412	57.395	0.7323899	7.807502	0.79	3	99	0	6453	-2.544166	5.082937	55.21017	
18:57:32	52.95251	-1.183412	57.395	0.7323899	7.807502	0.39	3	99	0	6453	-2.574377	5.088094	55.23756	
18:57:32	52.95251	-1.183412	57.774	0.5879636	2.588688	0.39	3	99	0	6453	-1.385977	6.277851	55.38346	
18:57:32	52.95251	-1.183412	57.774	0.5879636	2.588688	0.82	3	99	0	6453	-1.403037	6.262392	55.40578	
18:57:33	52.95251	-1.183412	57.774	0.5879636	2.588688	0.52	3	99	0	6453	-1.7451	5.249749	55.39286	
18:57:33	52.95251	-1.183412	57.774	0.5879636	2.588688	0.52	3	99	0	6453	-1.771467	5.435522	55.42758	
18:57:33	52.95253	-1.183407	57.951	0.5879636	2.588688	0.52	3	99	0	6453	-1.79274	5.623142	55.46012	
18:57:33	52.95253	-1.183407	57.951	0.4580409	-0.6518717	0.74	3	99	0	6453	-1.860096	5.582392	55.49051	
18:57:34	52.95253	-1.183404	57.502	0.4580409	-0.6518717	0.74	3	99	0	6453	-1.826611	5.202596	55.51916	
18:57:34	52.95253	-1.183402	57.526	0.4580409	-0.6518717	0.74	3	99	0	6453	-1.883039	5.163162	55.56741	
18:57:34	52.95253	-1.183402	57.526	0.4580409	-0.6518717	0.97	3	99	0	6453	-1.950264	5.130353	55.58258	
18:57:34	52.95253	-1.183402	57.526	0.4580409	-0.6518717	0.7	3	99	0	6453	-0.4210935	5.454168	55.76023	
18:57:34	52.95253	-1.183402	57.526	0.4265392	0.9504434	0.14	3	99	0	6453	-0.9150988	5.340046	55.77781	
18:57:35	52.95253	-1.183402	57.526	0.4265392	0.9504434	0.58	3	99	0	6453	-1.299982	6.037968	55.78743	
18:57:35	52.95253	-1.183402	57.526	0.4265392	0.9504434	1.48	3	99	0	6453	-0.569822	6.682689	55.88436	
18:57:35	52.95254	-1.183392	55.898	0.4265392	0.9504434	1.48	3	99	0	6453	0.1077437	6.581127	55.9772	
18:57:35	52.95254	-1.183392	55.898	0.4265392	0.9504434	1.48	3	99	0	6453	0.02071205	6.489093	55.96613	
18:57:35	52.95254	-1.183392	55.898	0.7087565	16.37981	1.48	3	99	0	6453	-0.03144217	6.410927	56.01148	
18:57:36	52.95254	-1.183392	55.898	0.7087565	16.37981	1.48	3	99	0	6453	-0.1481962	6.339558	56.03329	
18:57:36	52.95254	-1.183392	55.898	0.7087565	16.37981	1.48	3	99	0	6453	-0.2462518	6.272024	56.0718	
18:57:36	52.95254	-1.183392	55.898	0.7087565	16.37981	1.48	3	99	0	6453	-0.3503808	6.214042	56.09061	
18:57:36	52.95254	-1.183392	55.898	0.7087565	16.37981	1.48	3	99	0	6453	-0.4442287	6.168029	56.0952	
18:57:36	52.95255	-1.183391	54.421	0.9670107	20.9859	1.48	3	99	0	6453	-0.6027478	6.100866	56.0894	
18:57:37	52.95255	-1.183391	54.421	0.9670107	20.9859	1.48	3	99	0	6453	-0.72071	6.018939	56.09924	
18:57:37	52.95256	-1.183393	53.66	0.9670107	20.9859	1.02	3	99	0	6453	-0.9571638	5.943305	56.10178	
18:57:37	52.95256	-1.183393	53.66	0.9670107	20.9859	1.02	3	99	0	6453	-2.34734	5.693084	55.96625	
18:57:37	52.95256	-1.183393	53.549	0.9670107	20.9859	1.09	3	99	0	6453	-3.608475	5.426635	55.80457	
18:57:38	52.95257	-1.183392	53.435	0.7775689	6.570418	1.09	3	99	0	6453	-3.760352	5.268335	55.73312	
18:57:38	52.95257	-1.183393	53.544	0.7775689	6.570418	1.09	3	99	0	6453	-3.788689	5.223444	55.6651	
18:57:38	52.95257	-1.183393	53.544	0.7775689	6.570418	0.75	3	99	0	6453	-3.687263	5.172585	55.61477	
18:57:38	52.95257	-1.183393	53.544	0.7775689	6.570418	0.36	3	99	0	6453	-2.373605	5.088686	55.67547	
18:57:38	52.95257	-1.183393	53.544	0.7775689	6.570418	1.19	3	99	0	6453	-3.052669	6.027385	55.60544	
18:57:38	52.95257	-1.183393	53.544	0.697889	2.528324	0.34	3	99	0	6453	-3.702698	5.646058	55.48262	
18:57:39	52.95257	-1.183393	53.544	0.697889	2.528324	0.14	3	99	0	6453	-2.487907	5.400786	55.5493	
18:57:39	52.95257	-1.183393	53.544	0.697889	2.528324	0.19	3	99	0	6453	-2.692713	5.659712	55.54395	
18:57:39	52.95257	-1.183393	53.544	0.697889	2.528324	2.26	3	99	0	6453	-2.931543	5.575577	55.4875	
18:57:39	52.95257	-1.183393	53.544	0.697889	2.528324	0.75	3	99	0	6453	-4.053592	5.216097	55.3511	
18:57:39	52.95257	-1.183393	53.544	0.3535248	-11.25402	0.39	3	99	0	6453	-2.352603	5.745772	55.44743	
18:57:40	52.95257	-1.183393	53.544	0.3535248	-11.25402	1.03	3	99	0	6453	-2.647685	5.719202	55.39637	
18:57:40	52.95258	-1.183389	52.896	0.3535248	-11.25402	1.46	3	99	0	6453	-2.116638	5.978979	55.44332	
18:57:40	52.95258	-1.183385	53.019	0.3535248	-11.25402	2.01	3	99	0	6453	-1.730822	5.668215	55.48271	
18:57:40	52.95258	-1.183383	52.94	0.3535248	-11.25402	2.01	3	99	0	6453	-1.018995	5.70537	55.58366	
18:57:40	52.95258	-1.183383	52.94	0.5453238	4.30305	2.09	3	99	0	6453	-1.093154	5.73342	55.66343	
18:57:41	52.95258	-1.183383	52.94	0.5453238	4.30305	0.29	3	99	0	6453	-1.336204	6.15686	55.72111	
18:57:41	52.95258	-1.183383	52.94	0.5453238	4.30305	0.24	3	99	0	6453	-2.909312	5.719628	55.58699	
18:57:41	52.95258	-1.183376	52.542	0.5453238	4.30305	0.24	3	99	0	6453	-3.461099	5.537415	55.50667	
18:57:41	52.95258	-1.183375	52.566	0.5453238	4.30305	1.13	3	99	0	6453	-3.358125	5.576854	55.47008	
18:57:41	52.95258	-1.183373	52.386	0.7951047	15.87753	1.61	3	99	0	6453	-1.882596	6.299819	55.5837	
18:57:42	52.95258	-1.183373	52.386	0.7951047	15.87753	1.16	3	99	0	6453	-1.567263	5.570153	55.61815	
18:57:42	52.95258	-1.18337	52.032	0.7951047	15.87753	1.16	3	99	0	6453	-2.272264	5.287337	55.57142	
18:57:42	52.95258	-1.18337	52.032	0.7951047	15.87753	2	3	99	0	6453	-2.565054	5.238434	55.56116	
18:57:42	52.95259	-1.18337	51.629	0.7951047	15.87753	2	3	99	0	6453	-4.539017	5.231555	55.39414	
18:57:42	52.95259	-1.18337	51.629	0.7975841	11.22154	0.08	3	99	0	6453	-4.431649	5.257967	55.32693	
18:57:43	52.95259	-1.18337	51.776	0.7975841	11.22154	0.08	3	99	0	6453	-2.877162	5.741081	55.40343	
18:57:43	52.95259	-1.18337	51.869	0.7975841	11.22154	0.08	3	99	0	6453	-2.878819	5.685457	55.37026	
18:57:43	52.95259	-1.183369	51.758	0.7975841	11.22154	0.08	3	99	0	6453	-2.89354	5.629189	55.31895	
18:57:43	52.95261	-1.183371	51.361	0.7975841	11.22154	0.08	3	99	0	6453	-2.931581	5.573622	55.29402	
18:57:43	52.95261	-1.183375	51.026	0.8675886	11.99436	0.08	3	99	0	6453	-2.985665	5.513484	55.27551	
18:57:44	52.95262	-1.183377	50.891	0.8675886	11.99436	0.08	3	99	0	6453	-3.029749	5.459941	55.25802	
18:57:44	52.95262	-1.183377	50.891	0.8675886	11.99436	0.08	3	99	0	6453	-3.085493	5.407347	55.22216	
18:57:44	52.95261	-1.183372	50.798	0.8675886	11.99436	2.37	3	99	0	6453	-2.880013	5.434059	55.22206	
18:57:44	52.95261	-1.183372	50.798	0.8675886	11.99436	2.37	3	99	0	6453	-1.68474	5.626428	55.32147	
18:57:44	52.95262	-1.183372	50.311	0.9374778	11.55762	0.28	3	99	0	6453	-0.9424192	5.713845	55.42978	
18:57:45	52.95262	-1.183372	50.311	0.9374778	11.55762	0.19	3	99	0	6453	-1.829365	5.510705	55.38882	
18:57:45	52.95262	-1.183372	50.311	0.9374778	11.55762	1.57	3	99	0	6453	-1.354501	5.825245	55.4631	
18:57:45	52.95262	-1.183372	50.311	0.9374778	11.55762	1.57	3	99	0	6453	-0.1027922	5.84412	55.6241	
18:57:45	52.95262	-1.18337	50.208	0.9374778	11.55762	0.19	3	99	0	6453	0.7961287	5.840225	55.8006	
18:57:45	52.95262	-1.18337	50.208	0.8310436	1.939282	0.52	3	99	0	6453	0.03163212	5.63902	55.82088	
18:57:46	52.95262	-1.18337	50.208	0.8310436	1.939282	0.37	3	99	0	6453	-0.4138249	5.346607	55.85153	
18:57:46	52.95262	-1.18337	50.208	0.8310436	1.939282	0.41	3	99	0	6453	-0.37315	5.396506	55.94387	
18:57:46	52.95262	-1.18337	50.208	0.8310436	1.939282	1.38	3	99	0	6453	-0.9882783	5.900391	55.96017	
18:57:46	52.95263	-1.183374	50.131	0.8310436	1.939282	0.48	3	99	0	6453	-1.841119	6.230528	55.86327	
18:57:46	52.95263	-1.183374	50.131	0.7704202	-0.01786994	1.65	3	99	0	6453	-0.8681287	5.781878	55.9683	
18:57:47	52.95263	-1.183374	50.131	0.7704202	-0.01786994	0.57	3	99	0	6453	-0.3491922	5.877165	56.06528	
18:57:47	52.95263	-1.183371	50.419	0.7704202	-0.01786994	1.2	3	99	0	6453	-2.097023	5.493714	55.92123	
18:57:47	52.95263	-1.183371	50.316	0.7704202	-0.01786994	1.2	3	99	0	6453	-3.568504	5.800167	55.74841	
18:57:47	52.95263	-1.183368	49.84	0.7704202	-0.01786994	1.95	3	99	0	6453	-3.301603	5.749471	55.68332	
18:57:47	52.95263	-1.183369	49.87	0.9378189	8.167176	1.95	3	99	0	6453	-1.794121	5.760906	55.78289	
18:57:48	52.95263	-1.183369	49.616	0.9378189	8.167176	1.95	3	99	0	6453	-1.80933	5.726892	55.78368	
18:57:48	52.95263	-1.183369	49.837	0.9378189	8.167176	1.95	3	99	0	6453	-1.865759	5.669684	55.75573	
18:57:48	52.95263	-1.183368	50.037	0.9378189	8.167176	1.95	3	99	0	6453	-1.961624	5.614686	55.73745	
18:57:48	52.95263	-1.183369	49.703	0.9378189	8.167176	1.95	3	99	0	6453	-2.053855	5.565213	55.72118	
18:57:48	52.95263	-1.183369	49.703	0.9432186	7.125091	1.95	3	99	0	6453	-2.141958	5.511424	55.71924	
18:57:49	52.95263	-1.183369	50.526	0.9432186	7.125091	1.95	3	99	0	6453	-2.217483	5.465846	55.71363	
18:57:49	52.95263	-1.183371	50.769	0.9432186	7.125091	1.95	3	99	0	6453	-2.298624	5.424123	55.70094	
18:57:49	52.95263	-1.183371	50.769	0.9432186	7.125091	1.95	3	99	0	6453	-2.378109	5.370527	55.69502	
18:57:49	52.95263	-1.183371	50.769	0.9432186	7.125091	1.95	3	99	0	6453	-2.460058	5.326954	55.67978	
18:57:49	52.95264	-1.183374	51.769	1.207551	15.43419	1.95	3	99	0	6453	-2.537956	5.292737	55.66389	
18:57:50	52.95264	-1.183377	51.446	1.207551	15.43419	1.95	3	99	0	6453	-2.615224	5.253384	55.65568	
18:57:50	52.95264	-1.183377	51.446	1.207551	15.43419	1.95	3	99	0	6453	-2.673784	5.216567	55.64701	
18:57:50	52.95264	-1.18338	51.125	1.207551	15.43419	1.02	3	99	0	6453	-3.144919	5.169161	55.6017	
18:57:50	52.95264	-1.18338	51.125	1.207551	15.43419	0.39	3	99	0	6453	-4.009932	5.164361	55.47919	
18:57:50	52.95264	-1.18338	51.125	1.366102	18.90605	0.39	3	99	0	6453	-3.676149	5.097601	55.44624	
18:57:51	52.95264	-1.18338	51.125	1.366102	18.90605	1.37	3	99	0	6453	-3.343739	4.929815	55.43339	
18:57:51	52.95264	-1.18338	51.125	1.366102	18.90605	1.03	3	99	0	6453	-3.097102	4.549043	55.45735	
18:57:51	52.95265	-1.183378	50.646	1.366102	18.90605	2.08	3	99	0	6453	-4.927182	4.616648	55.31765	
18:57:51	52.95265	-1.183378	50.646	1.366102	18.90605	1.76	3	99	0	6453	-6.054316	4.567994	55.12955	
18:57:51	52.95265	-1.183378	50.646	1.148103	1.619393	0.77	3	99	0	6453	-5.425801	4.548298	55.06488	
18:57:52	52.95265	-1.183378	50.646	1.148103	1.619393	1.22	3	99	0	6453	-4.483364	4.640344	55.07774	
18:57:52	52.95265	-1.183378	50.646	1.148103	1.619393	0.75	3	99	0	6453	-4.480653	4.621842	55.04924	
18:57:52	52.95265	-1.183378	50.646	1.148103	1.619393	0.88	3	99	0	6453	-4.137987	4.981083	55.06304	
18:57:52	52.95265	-1.183378	50.646	1.148103	1.619393	0.31	3	99	0	6453	-4.187006	5.313424	55.0218	
18:57:52	52.95265	-1.183378	50.646	1.012919	-2.401576	1.09	3	99	0	6453	-3.949902	5.574565	55.00192	
18:57:53	52.95265	-1.183378	50.646	1.012919	-2.401576	1.01	3	99	0	6453	-4.090225	6.215559	54.9191	
18:57:53	52.95265	-1.183378	50.646	1.012919	-2.401576	1.41	3	99	0	6453	-3.009524	5.818264	54.95742	
18:57:53	52.95265	-1.183378	50.646	1.012919	-2.401576	1.35	3	99	0	6453	-2.72494	5.945107	54.96775	
18:57:53	52.95265	-1.183378	50.646	1.012919	-2.401576	0.85	3	99	0	6453	-3.025262	5.928634	54.92411	
18:57:53	52.95266	-1.183383	49.968	0.9457076	-4.146651	0.85	3	99	0	6453	-3.502682	5.593315	54.84875	
18:57:54	52.95266	-1.183383	49.968	0.9457076	-4.146651	2.32	3	99	0	6453	-4.178183	5.569031	54.75054	
18:57:54	52.95267	-1.18339	49.389	0.9457076	-4.146651	2.32	3	99	0	6453	-5.641776	5.583744	54.56145	
18:57:54	52.95267	-1.18339	49.389	0.9457076	-4.146651	0.19	3	99	0	6453	-5.17481	5.486193	54.48488	
18:57:54	52.95267	-1.18339	49.168	0.9457076	-4.146651	0.19	3	99	0	6453	-3.988184	5.353225	54.52181	
18:57:54	52.95267	-1.18339	49.168	0.9107983	-3.117566	1.28	3	99	0	6453	-3.56983	5.561121	54.53814	
18:57:55	52.95267	-1.183391	49.122	0.9107983	-3.117566	1.28	3	99	0	6453	-2.692679	6.088609	54.60954	
18:57:55	52.95267	-1.183391	49.122	0.9107983	-3.117566	1.28	3	99	0	6453	-2.725811	6.044162	54.61655	
18:57:55	52.95267	-1.183392	49.092	0.9107983	-3.117566	0.64	3	99	0	6453	-2.846127	5.930285	54.58849	
18:57:55	52.95267	-1.183393	49.518	0.9107983	-3.117566	0.64	3	99	0	6453	-3.111305	5.709761	54.56409	
18:57:55	52.95267	-1.183393	49.525	0.8495872	-1.711104	0.64	3	99	0	6453	-3.193033	5.631876	54.54922	
18:57:56	52.95267	-1.183393	49.525	0.8495872	-1.711104	0.64	3	99	0	6453	-3.260935	5.562855	54.54819	
18:57:56	52.95267	-1.183393	49.525	0.8495872	-1.711104	0.64	3	99	0	6453	-3.335309	5.507655	54.54847	
18:57:56	52.95267	-1.183398	50.122	0.8495872	-1.711104	0.64	3	99	0	6453	-3.419769	5.436882	54.52226	
18:57:56	52.95267	-1.183398	50.122	0.8495872	-1.711104	0.64	3	99	0	6453	-3.480916	5.409861	54.51101	
18:57:56	52.95267	-1.183395	50.036	0.9571689	4.306524	0.64	3	99	0	6453	-3.529835	5.368454	54.48935	
18:57:57	52.95267	-1.183395	50.036	0.9571689	4.306524	0.64	3	99	0	6453	-3.582227	5.318755	54.47358	
18:57:57	52.95267	-1.183393	50.352	0.9571689	4.306524	2.18	3	99	0	6453	-3.327138	5.424325	54.50011	
18:57:57	52.95267	-1.183393	50.352	0.9571689	4.306524	0.93	3	99	0	6453	-3.31094	5.47521	54.4982	
18:57:57	52.95267	-1.183397	50.869	0.9571689	4.306524	0.93	3	99	0	6453	-4.267657	5.15541	54.39547	
18:57:57	52.95267	-1.183398	51.088	1.102454	10.05954	0.93	3	99	0	6453	-4.313784	5.094148	54.38107	
18:57:58	52.95267	-1.183398	51.088	1.102454	10.05954	0.45	3	99	0	6453	-4.04673	5.357075	54.38412	
18:57:58	52.95267	-1.183398	51.088	1.102454	10.05954	0.06	3	99	0	6453	-3.463272	5.638364	54.40336	
18:57:58	52.95267	-1.183398	51.088	1.102454	10.05954	0.14	3	99	0	6453	-3.350223	5.403076	54.40913	
18:57:58	52.95267	-1.183398	51.088	1.102454	10.05954	0.87	3	99	0	6453	-3.842531	5.475626	54.35392	
18:57:58	52.95267	-1.183398	51.088	1.044418	3.802345	0.09	3	99	0	6453	-4.017311	5.514567	54.29887	
18:57:59	52.95267	-1.183398	51.088	1.044418	3.802345	1.18	3	99	0	6453	-3.203089	5.698306	54.37028	
18:57:59	52.95267	-1.183406	51.568	1.044418	3.802345	1.53	3	99	0	6453	-2.688708	6.432814	54.40891	
18:57:59	52.95267	-1.183404	51.691	1.044418	3.802345	2.31	3	99	0	6453	-2.159862	6.343289	54.42224	
18:57:59	52.95267	-1.183404	51.691	1.044418	3.802345	2.02	3	99	0	6453	-1.626973	6.061549	54.47597	
18:57:59	52.95267	-1.183404	51.691	0.6582349	-14.37446	0.16	3	99	0	6453	-2.607529	5.93372	54.39388	
18:58:00	52.95267	-1.183404	51.691	0.6582349	-14.37446	0.16	3	99	0	6453	-4.125895	5.188704	54.25974	
18:58:00	52.95267	-1.183405	51.383	0.6582349	-14.37446	0.39	3	99	0	6453	-5.141871	4.742985	54.16397	
18:58:00	52.95267	-1.183403	51.239	0.6582349	-14.37446	0.39	3	99	0	6453	-5.28397	4.726195	54.11507	
18:58:00	52.95267	-1.183402	51.15	0.6582349	-14.37446	0.39	3	99	0	6453	-5.293192	4.692625	54.07668	
18:58:00	52.95267	-1.183402	51.15	0.5388848	-12.95193	0.39	3	99	0	6453	-5.289463	4.671347	54.03224	
18:58:01	52.95267	-1.1834	50.705	0.5388848	-12.95193	0.39	3	99	0	6453	-5.265532	4.646749	53.99722	
18:58:01	52.95267	-1.1834	50.705	0.5388848	-12.95193	0.39	3	99	0	6453	-5.246594	4.636966	53.95941	
18:58:01	52.95268	-1.183408	50.969	0.5388848	-12.95193	0.39	3	99	0	6453	-5.22397	4.60599	53.93657	
18:58:01	52.95268	-1.183407	51.112	0.5388848	-12.95193	0.39	3	99	0	6453	-5.207746	4.588415	53.88595	
18:58:01	52.95268	-1.183407	51.112	0.5504324	-6.576622	0.39	3	99	0	6453	-5.188993	4.563056	53.83189	
18:58:02	52.95267	-1.18341	51.596	0.5504324	-6.576622	0.57	3	99	0	6453	-5.101156	4.645116	53.80645	
18:58:02	52.95268	-1.183412	51.677	0.5504324	-6.576622	0.57	3	99	0	6453	-5.008252	4.71771	53.79336	
18:58:02	52.95268	-1.183414	51.71	0.5504324	-6.576622	0.57	3	99	0	6453	-4.988258	4.72831	53.76341	
18:58:02	52.95268	-1.183416	51.581	0.5504324	-6.576622	0.57	3	99	0	6453	-4.970945	4.70289	53.73552	
18:58:02	52.95268	-1.183415	51.473	0.7967943	8.399751	0.57	3	99	0	6453	-4.955049	4.690033	53.69397	
18:58:03	52.95268	-1.183415	51.473	0.7967943	8.399751	0.57	3	99	0	6453	-4.935889	4.664832	53.69515	
18:58:03	52.95268	-1.183415	51.473	0.7967943	8.399751	0.57	3	99	0	6453	-4.923969	4.639169	53.67938	
18:58:03	52.95268	-1.183415	51.473	0.7967943	8.399751	0.57	3	99	0	6453	-4.905001	4.622077	53.65015	
18:58:03	52.95268	-1.183415	51.473	0.7967943	8.399751	0.57	3	99	0	6453	-4.877441	4.614366	53.64087	
18:58:03	52.95267	-1.183409	51.809	0.8892547	10.5011	0.57	3	99	0	6453	-4.858885	4.606063	53.63409	
18:58:04	52.95267	-1.183409	51.855	0.8892547	10.5011	0.57	3	99	0	6453	-4.836981	4.593557	53.62294	
18:58:04	52.95267	-1.183409	51.669	0.8892547	10.5011	0.57	3	99	0	6453	-4.822086	4.586557	53.6243	
18:58:04	52.95267	-1.183409	51.669	0.8892547	10.5011	1.27	3	99	0	6453	-4.01637	4.834681	53.69353	
18:58:04	52.95267	-1.183409	50.989	0.8892547	10.5011	1.42	3	99	0	6453	-2.9897	4.856213	53.82333	
18:58:04	52.95267	-1.183411	50.582	1.010058	11.08308	0.97	3	99	0	6453	-3.523932	4.523272	53.87745	
18:58:05	52.95267	-1.183411	50.213	1.010058	11.08308	0.97	3	99	0	6453	-4.322273	4.38545	53.84459	
18:58:05	52.95267	-1.18341	50.452	1.010058	11.08308	0.97	3	99	0	6453	-4.362961	4.364959	53.86419	
18:58:05	52.95267	-1.183409	50.407	1.010058	11.08308	0.97	3	99	0	6453	-4.384952	4.365745	53.87096	
18:58:05	52.95267	-1.183409	50.039	1.010058	11.08308	0.97	3	99	0	6453	-4.382215	4.374561	53.89695	
18:58:05	52.95267	-1.183409	50.039	0.8240368	-0.1211956	0.97	3	99	0	6453	-4.387426	4.374121	53.88882	
18:58:06	52.95267	-1.183409	50.039	0.8240368	-0.1211956	0.97	3	99	0	6453	-4.38257	4.383478	53.91027	
18:58:06	52.95267	-1.183409	49.392	0.8240368	-0.1211956	0.97	3	99	0	6453	-4.385286	4.38911	53.9179	
18:58:06	52.95267	-1.183406	49.452	0.8240368	-0.1211956	0.97	3	99	0	6453	-4.391205	4.400082	53.92522	
18:58:06	52.95267	-1.183406	49.452	0.8240368	-0.1211956	0.97	3	99	0	6453	-4.393005	4.397573	53.92739	
18:58:06	52.95267	-1.183406	49.452	0.7058236	-4.537137	0.97	3	99	0	6453	-4.399493	4.399772	53.90854	
18:58:07	52.95267	-1.183406	49.452	0.7058236	-4.537137	0.97	3	99	0	6453	-4.398633	4.387896	53.9044	
18:58:07	52.95267	-1.183406	49.452	0.7058236	-4.537137	0.97	3	99	0	6453	-4.395763	4.369554	53.92826	
18:58:07	52.95267	-1.183406	49.452	0.7058236	-4.537137	0.97	3	99	0	6453	-4.392468	4.370238	53.96252	
18:58:07	52.95267	-1.183403	48.528	0.7058236	-4.537137	0.97	3	99	0	6453	-4.398927	4.382581	53.96674	
18:58:07	52.95267	-1.183403	48.528	0.617397	-5.801092	1.05	3	99	0	6453	-3.40079	4.590022	54.03561	
18:58:08	52.95267	-1.183403	48.528	0.617397	-5.801092	0.37	3	99	0	6453	-3.190748	4.405416	54.10629	
18:58:08	52.95267	-1.183403	48.528	0.617397	-5.801092	0.48	3	99	0	6453	-3.488914	4.072341	54.16922	
18:58:08	52.95267	-1.183403	48.528	0.617397	-5.801092	0.48	3	99	0	6453	-3.471653	3.876325	54.21652	
18:58:08	52.95267	-1.183403	48.528	0.617397	-5.801092	0.48	3	99	0	6453	-3.446367	3.680738	54.30954	
18:58:08	52.95267	-1.183394	48.897	0.6636505	-1.742285	0.83	3	99	0	6453	-3.376875	3.621727	54.40001	
18:58:09	52.95267	-1.183394	48.897	0.6636505	-1.742285	0.29	3	99	0	6453	-4.350343	3.893118	54.4318	
18:58:09	52.95267	-1.183393	48.578	0.6636505	-1.742285	0.29	3	99	0	6453	-5.061989	4.062958	54.41667	
18:58:09	52.95267	-1.183393	48.578	0.6636505	-1.742285	1.19	3	99	0	6453	-4.330199	4.078362	54.4444	
18:58:09	52.95267	-1.183388	48.131	0.6636505	-1.742285	1.19	3	99	0	6453	-3.825415	4.094798	54.50458	
18:58:09	52.95267	-1.183388	48.131	0.4705202	-8.681801	0.42	3	99	0	6453	-4.380334	4.243253	54.50934	
18:58:10	52.95267	-1.183388	48.131	0.4705202	-8.681801	0.83	3	99	0	6453	-4.464291	4.465568	54.51005	
18:58:10	52.95267	-1.183388	48.131	0.4705202	-8.681801	0.9	3	99	0	6453	-4.963116	4.218145	54.48296	
18:58:10	52.95267	-1.183388	48.131	0.4705202	-8.681801	1.33	3	99	0	6453	-5.739944	3.919813	54.42184	
18:58:10	52.95267	-1.183388	48.131	0.4705202	-8.681801	1.29	3	99	0	6453	-5.915961	3.787069	54.33076	
18:58:10	52.95267	-1.183388	48.131	0.446931	-5.385837	2.98	3	99	0	6453	-6.581049	3.508438	54.22174	
18:58:11	52.95267	-1.183388	48.131	0.446931	-5.385837	3	3	99	0	6453	-7.167701	3.755193	53.67242	
18:58:11	52.95269	-1.183399	48.293	0.446931	-5.385837	1.82	3	99	0	6453	-6.612617	4.073577	53.61145	
18:58:11	52.9527	-1.1834	48.509	0.446931	-5.385837	1.23	3	99	0	6453	-5.741479	4.076891	53.58073	
18:58:11	52.9527	-1.1834	48.509	0.446931	-5.385837	2.58	3	99	0	6453	-6.546962	4.346309	53.512	
18:58:11	52.95271	-1.183405	48.465	0.573346	1.724549	2.58	3	99	0	6453	-7.273167	4.543238	53.35593	
18:58:12	52.95271	-1.183405	48.465	0.573346	1.724549	2.58	3	99	0	6453	-7.228608	4.543264	53.2416	
18:58:12	52.95271	-1.183405	48.465	0.573346	1.724549	2.58	3	99	0	6453	-7.190848	4.530812	53.13369	
18:58:12	52.95272	-1.183409	48.464	0.573346	1.724549	2.58	3	99	0	6453	-7.127735	4.508627	53.04707	
18:58:12	52.95272	-1.183409	48.464	0.573346	1.724549	1.96	3	99	0	6453	-6.611977	4.413351	53.00654	
18:58:12	52.95272	-1.183413	48.762	0.6794895	6.615433	1.96	3	99	0	6453	-6.285955	4.379016	52.98635	
18:58:13	52.95272	-1.183413	48.762	0.6794895	6.615433	1.96	3	99	0	6453	-6.178428	4.355119	52.97306	
18:58:13	52.95272	-1.183413	48.984	0.6794895	6.615433	0.39	3	99	0	6453	-5.396169	4.642248	52.99856	
18:58:13	52.95272	-1.183413	48.984	0.6794895	6.615433	1.1	3	99	0	6453	-4.275801	4.868085	53.10246	
18:58:13	52.95272	-1.183411	48.919	0.6794895	6.615433	0.37	3	99	0	6453	-4.524917	4.764061	53.12077	
18:58:13	52.95272	-1.183411	48.919	0.7605777	7.23727	0.04	3	99	0	6453	-4.853685	4.482007	53.12806	
18:58:14	52.95272	-1.183411	48.919	0.7605777	7.23727	1.28	3	99	0	6453	-4.204975	4.859431	53.22118	
18:58:14	52.95272	-1.183411	48.919	0.7605777	7.23727	2	3	99	0	6453	-3.067613	5.052888	53.34834	
18:58:14	52.95272	-1.183411	48.919	0.7605777	7.23727	0.77	3	99	0	6453	-3.223639	4.586723	53.42639	
18:58:14	52.95272	-1.183411	48.919	0.7605777	7.23727	0.09	3	99	0	6453	-4.229398	4.65471	53.45004	
18:58:14	52.95272	-1.183411	48.919	0.6964927	2.321153	1.52	3	99	0	6453	-3.524855	5.049021	53.53772	
18:58:15	52.95271	-1.183401	48.654	0.6964927	2.321153	1.52	3	99	0	6453	-3.061922	5.178274	53.62249	
18:58:15	52.95271	-1.183401	48.654	0.6964927	2.321153	0.14	3	99	0	6453	-3.88912	4.927574	53.58223	
18:58:15	52.95271	-1.1834	48.487	0.6964927	2.321153	0.19	3	99	0	6453	-4.132941	4.999156	53.58445	
18:58:15	52.95271	-1.1834	48.487	0.6964927	2.321153	0.32	3	99	0	6453	-4.061793	4.758818	53.57572	
18:58:15	52.95271	-1.1834	48.487	0.6508912	-1.079839	2.01	3	99	0	6453	-2.658378	5.081719	53.69709	
18:58:16	52.95271	-1.1834	48.487	0.6508912	-1.079839	0.97	3	99	0	6453	-2.708098	4.983243	53.755	
18:58:16	52.95271	-1.1834	48.487	0.6508912	-1.079839	0.45	3	99	0	6453	-3.772324	4.920599	53.7242	
18:58:16	52.95271	-1.1834	48.487	0.6508912	-1.079839	1.29	3	99	0	6453	-5.040449	5.070945	53.63131	
18:58:16	52.95271	-1.183395	48.519	0.6508912	-1.079839	1.29	3	99	0	6453	-5.441852	5.121032	53.54701	
18:58:16	52.95271	-1.183395	48.519	0.6261293	-0.7770392	0.81	3	99	0	6453	-5.014711	4.697235	53.5065	
18:58:17	52.95271	-1.183396	49.046	0.6261293	-0.7770392	0.81	3	99	0	6453	-4.774457	4.517206	53.50517	
18:58:17	52.95271	-1.183396	49.046	0.6261293	-0.7770392	0.89	3	99	0	6453	-3.742079	5.512264	53.57518	
18:58:17	52.95271	-1.183396	48.898	0.6261293	-0.7770392	0.29	3	99	0	6453	-3.902726	5.635104	53.54872	
18:58:17	52.95271	-1.183396	48.898	0.6261293	-0.7770392	0.56	3	99	0	6453	-3.711919	5.391862	53.53164	
18:58:17	52.95271	-1.183393	49.139	0.697108	2.553946	0.56	3	99	0	6453	-3.519862	5.319983	53.54203	
18:58:18	52.9527	-1.183391	49.673	0.697108	2.553946	0.56	3	99	0	6453	-3.472818	5.303982	53.54708	
18:58:18	52.9527	-1.183388	50.035	0.697108	2.553946	0.56	3	99	0	6453	-3.466346	5.279305	53.56366	
18:58:18	52.95269	-1.183387	50.451	0.697108	2.553946	0.56	3	99	0	6453	-3.460925	5.243847	53.59504	
18:58:18	52.95269	-1.183385	51.367	0.697108	2.553946	0.56	3	99	0	6453	-3.455711	5.215012	53.62489	
18:58:18	52.95268	-1.183384	51.801	0.6345645	-1.24242	0.56	3	99	0	6453	-3.459449	5.193402	53.64746	
18:58:19	52.95268	-1.183384	51.801	0.6345645	-1.24242	0.56	3	99	0	6453	-3.453142	5.171145	53.69146	
18:58:19	52.95267	-1.183382	52.693	0.6345645	-1.24242	0.56	3	99	0	6453	-3.469483	5.156595	53.74475	
18:58:19	52.95267	-1.183376	53.646	0.6345645	-1.24242	0.56	3	99	0	6453	-3.497744	5.133226	53.78252	
18:58:19	52.95267	-1.183376	53.646	0.6345645	-1.24242	0.56	3	99	0	6453	-3.506859	5.110968	53.80183	
18:58:19	52.95265	-1.18337	55.152	0.6554521	0.2503017	0.56	3	99	0	6453	-3.519607	5.064383	53.81572	
18:58:20	52.95265	-1.18337	55.152	0.6554521	0.2503017	0.58	3	99	0	6453	-3.534827	5.03415	53.82354	
18:58:20	52.95265	-1.18337	55.152	0.6554521	0.2503017	0.58	3	99	0	6453	-3.596481	5.314505	53.8542	
18:58:20	52.95264	-1.183367	56.636	0.6554521	0.2503017	0.58	3	99	0	6453	-3.66811	5.661502	53.85303	
18:58:20	52.95264	-1.183367	56.636	0.6554521	0.2503017	0.35	3	99	0	6453	-3.702841	5.703044	53.84064	
18:58:20	52.95264	-1.183367	56.636	0.7560587	4.142057	0.35	3	99	0	6453	-4.561021	5.323068	53.73714	
18:58:21	52.95263	-1.183363	57.786	0.7560587	4.142057	0.77	3	99	0	6453	-5.636642	4.833705	53.60332	
18:58:21	52.95263	-1.183363	57.786	0.7560587	4.142057	0.93	3	99	0	6453	-6.036671	4.502859	53.51647	
18:58:21	52.95263	-1.18336	58.441	0.7560587	4.142057	0.93	3	99	0	6453	-6.007175	4.094417	53.45695	
18:58:21	52.95263	-1.18336	58.441	0.7560587	4.142057	0.57	3	99	0	6453	-5.921856	3.998003	53.43308	
18:58:21	52.95263	-1.18336	58.441	0.7907759	3.633552	1.27	3	99	0	6453	-5.741615	4.345526	53.44001	
18:58:22	52.95263	-1.18336	58.441	0.7907759	3.633552	1.3	3	99	0	6453	-6.284027	4.538906	53.36508	
18:58:22	52.95263	-1.18336	58.441	0.7907759	3.633552	0.76	3	99	0	6453	-6.429843	4.818575	53.27691	
18:58:22	52.95263	-1.18336	58.441	0.7907759	3.633552	0.9	3	99	0	6453	-5.933046	4.804262	53.21372	
18:58:22	52.95263	-1.18336	58.441	0.7907759	3.633552	0.71	3	99	0	6453	-4.616619	4.926433	53.28122	
18:58:22	52.95263	-1.18336	58.441	0.7912712	1.148344	1.83	3	99	0	6453	-4.485367	4.589962	53.29847	
18:58:23	52.95263	-1.18336	58.441	0.7912712	1.148344	2.32	3	99	0	6453	-3.68656	4.786923	53.39475	
18:58:23	52.95263	-1.18336	58.441	0.7912712	1.148344	1.57	3	99	0	6453	-2.904236	5.747434	53.51132	
18:58:23	52.95263	-1.18336	58.441	0.7912712	1.148344	1.15	3	99	0	6453	-3.119326	5.567236	53.53915	
18:58:23	52.95263	-1.18336	58.441	0.7912712	1.148344	0.42	3	99	0	6453	-3.727653	5.628673	53.52354	
18:58:23	52.95263	-1.18336	58.441	0.8289405	1.766206	0.34	3	99	0	6453	-5.050369	5.427818	53.41087	
18:58:24	52.95259	-1.183342	61.486	0.8289405	1.766206	0.34	3	99	0	6453	-4.913572	5.234964	53.34492	
18:58:24	52.95259	-1.183345	61.581	0.8289405	1.766206	0.34	3	99	0	6453	-4.77802	5.166898	53.33621	
18:58:24	52.95259	-1.183345	61.581	0.8289405	1.766206	0.34	3	99	0	6453	-4.74486	5.125594	53.30048	
18:58:24	52.95259	-1.183345	61.581	0.8289405	1.766206	0.34	3	99	0	6453	-4.707092	5.097997	53.28548	
18:58:24	52.95259	-1.183345	61.581	0.6524441	-7.368008	0.34	3	99	0	6453	-4.664523	5.07771	53.27762	
18:58:25	52.95261	-1.183359	62.178	0.6524441	-7.368008	0.34	3	99	0	6453	-4.625054	5.051329	53.26289	
18:58:25	52.95261	-1.183359	62.178	0.6524441	-7.368008	2.39	3	99	0	6453	-4.588442	5.017809	53.25262	
18:58:25	52.95261	-1.183359	62.178	0.6524441	-7.368008	2.39	3	99	0	6453	-5.917481	4.940594	53.09531	
18:58:25	52.95263	-1.183376	63.43	0.6524441	-7.368008	2.39	3	99	0	6453	-7.614918	4.841209	52.8699	
18:58:26	52.95263	-1.183376	63.43	0.5536196	-8.121154	2.39	3	99	0	6453	-7.945992	4.790656	52.66953	
18:58:26	52.95263	-1.183376	63.43	0.5536196	-8.121154	2.39	3	99	0	6453	-7.922133	4.742397	52.51695	
18:58:26	52.95265	-1.183388	63.979	0.5536196	-8.121154	2.39	3	99	0	6453	-7.90339	4.705303	52.37773	
18:58:26	52.95265	-1.183388	63.979	0.5536196	-8.121154	1.3	3	99	0	6453	-7.827086	4.662601	52.24272	
18:58:26	52.95265	-1.183388	63.979	0.5536196	-8.121154	0.87	3	99	0	6453	-6.38835	5.73209	52.2504	
18:58:26	52.95265	-1.183388	63.979	0.5931268	-5.670574	1.33	3	99	0	6453	-5.611353	5.894902	52.23926	
18:58:27	52.95265	-1.183388	63.979	0.5931268	-5.670574	2.04	3	99	0	6453	-6.056727	5.575007	52.14899	
18:58:27	52.95266	-1.183403	63.609	0.5931268	-5.670574	2.04	3	99	0	6453	-6.705082	4.744767	52.04338	
18:58:27	52.95266	-1.183401	63.425	0.5931268	-5.670574	0.65	3	99	0	6453	-6.70612	4.628614	52.01935	
18:58:27	52.95266	-1.183401	63.425	0.5931268	-5.670574	0.65	3	99	0	6453	-5.03468	5.022119	52.1263	
18:58:27	52.95266	-1.183403	62.855	0.5567914	-5.917049	1.19	3	99	0	6453	-3.170267	5.470129	52.3193	
18:58:28	52.95266	-1.183403	62.855	0.5567914	-5.917049	0.35	3	99	0	6453	-2.603532	5.623372	52.45218	
18:58:28	52.95266	-1.183403	62.855	0.5567914	-5.917049	0.35	3	99	0	6453	-3.686579	5.226449	52.42908	
18:58:28	52.95266	-1.183403	62.855	0.5567914	-5.917049	0.31	3	99	0	6453	-3.846473	5.154397	52.46982	
18:58:28	52.95266	-1.183403	62.855	0.5567914	-5.917049	0.48	3	99	0	6453	-3.137346	5.085875	52.58205	
18:58:28	52.95266	-1.183403	62.855	0.6023301	-0.7508452	0.62	3	99	0	6453	-3.358523	4.808883	52.65205	
18:58:29	52.95266	-1.183403	62.855	0.6023301	-0.7508452	1.36	3	99	0	6453	-3.514172	4.645927	52.71738	
18:58:29	52.95266	-1.183403	62.855	0.6023301	-0.7508452	2.79	3	99	0	6453	-4.879634	4.731175	52.67458	
18:58:29	52.95266	-1.183403	62.855	0.6023301	-0.7508452	1.92	3	99	0	6453	-6.622545	5.586036	52.50058	
18:58:29	52.95266	-1.183403	62.855	0.6023301	-0.7508452	2.25	3	99	0	6453	-6.111198	4.936549	52.43551	
18:58:29	52.95269	-1.183412	62.373	0.7833992	7.253572	2.25	3	99	0	6453	-6.210993	4.485788	52.38153	
18:58:30	52.95269	-1.183412	62.373	0.7833992	7.253572	2.16	3	99	0	6453	-6.161265	4.399469	52.37176	
18:58:30	52.95269	-1.183412	62.373	0.7833992	7.253572	1.1	3	99	0	6453	-6.144492	4.791755	52.35274	
18:58:30	52.95269	-1.183417	61.768	0.7833992	7.253572	1.1	3	99	0	6453	-4.848642	5.911292	52.44086	
18:58:30	52.95269	-1.183417	61.768	0.7833992	7.253572	1.93	3	99	0	6453	-4.637354	6.000275	52.45393	
18:58:30	52.9527	-1.183422	61.793	0.9251013	10.6251	1.93	3	99	0	6453	-5.178803	5.443555	52.36665	
18:58:31	52.9527	-1.183422	61.793	0.9251013	10.6251	1.35	3	99	0	6453	-5.240902	5.304478	52.34609	
18:58:31	52.9527	-1.183424	62.053	0.9251013	10.6251	1.35	3	99	0	6453	-4.784281	5.422405	52.37751	
18:58:31	52.95269	-1.183423	62	0.9251013	10.6251	1.59	3	99	0	6453	-4.690104	5.39546	52.41735	
18:58:31	52.95269	-1.183422	61.852	0.9251013	10.6251	1.59	3	99	0	6453	-2.918197	6.049251	52.58143	
18:58:31	52.95269	-1.183422	61.852	0.6967277	-3.977952	1.59	3	99	0	6453	-2.695515	6.091839	52.63414	
18:58:32	52.95269	-1.183422	61.852	0.6967277	-3.977952	1.59	3	99	0	6453	-2.683274	6.043813	52.67589	
18:58:32	52.95269	-1.183422	61.852	0.6967277	-3.977952	1.59	3	99	0	6453	-2.659562	6.006731	52.73196	
18:58:32	52.95269	-1.183422	61.852	0.6967277	-3.977952	1.59	3	99	0	6453	-2.637982	5.960571	52.77057	
18:58:32	52.95269	-1.183422	61.852	0.6967277	-3.977952	1.59	3	99	0	6453	-2.618231	5.909144	52.8127	
18:58:32	52.95269	-1.183422	61.852	0.6148732	-6.353398	1.59	3	99	0	6453	-2.593947	5.852735	52.85823	
18:58:33	52.95265	-1.183405	63.886	0.6148732	-6.353398	1.59	3	99	0	6453	-2.579941	5.819893	52.90055	
18:58:33	52.95265	-1.183405	63.886	0.6148732	-6.353398	1.59	3	99	0	6453	-2.590618	5.760129	52.94936	
18:58:33	52.95263	-1.183395	64.05	0.6148732	-6.353398	1.59	3	99	0	6453	-2.598788	5.720471	53.01033	
18:58:33	52.95263	-1.183395	64.05	0.6148732	-6.353398	1.59	3	99	0	6453	-2.655288	5.6556	53.05794	
18:58:33	52.95262	-1.183388	64.618	0.5756317	-6.43463	0.61	3	99	0	6453	-2.721258	5.596378	53.08959	
18:58:34	52.95262	-1.183388	64.618	0.5756317	-6.43463	1.45	3	99	0	6453	-3.212049	5.243233	53.09572	
18:58:34	52.95262	-1.183388	64.618	0.5756317	-6.43463	1.33	3	99	0	6453	-2.303191	5.426716	53.2282	
18:58:34	52.95262	-1.183388	64.618	0.5756317	-6.43463	0.5	3	99	0	6453	-2.709582	5.788493	53.25905	
18:58:34	52.95262	-1.183388	64.618	0.5756317	-6.43463	0.63	3	99	0	6453	-3.536231	4.915678	53.18345	
18:58:34	52.95262	-1.183388	64.618	0.3059372	-14.88777	0.29	3	99	0	6453	-3.470953	4.727942	53.20725	
18:58:35	52.95262	-1.183388	64.618	0.3059372	-14.88777	0.55	3	99	0	6453	-3.601513	5.183616	53.24579	
18:58:35	52.95258	-1.183363	65.233	0.3059372	-14.88777	0.41	3	99	0	6453	-4.224099	5.1462	53.21695	
18:58:35	52.95258	-1.183363	65.233	0.3059372	-14.88777	1.37	3	99	0	6453	-3.458525	5.193297	53.31732	
18:58:35	52.95258	-1.18336	66.099	0.3059372	-14.88777	1.37	3	99	0	6453	-4.516016	4.49678	53.26455	
18:58:35	52.95258	-1.183359	66.321	0.135482	-17.99291	1.37	3	99	0	6453	-4.509969	4.472198	53.28484	
18:58:36	52.95258	-1.183359	66.406	0.135482	-17.99291	1.37	3	99	0	6453	-4.502577	4.46392	53.31178	
18:58:36	52.95258	-1.183361	67.046	0.135482	-17.99291	1.37	3	99	0	6453	-4.483181	4.434242	53.35423	
18:58:36	52.95259	-1.183365	67.525	0.135482	-17.99291	1.37	3	99	0	6453	-4.450299	4.399931	53.42279	
18:58:36	52.95259	-1.183365	67.54	0.135482	-17.99291	1.37	3	99	0	6453	-4.411205	4.377165	53.43891	
18:58:36	52.95259	-1.183365	68.018	0.3654996	-0.1008831	1.37	3	99	0	6453	-4.375542	4.365848	53.45199	
18:58:37	52.95259	-1.183363	68.158	0.3654996	-0.1008831	1.37	3	99	0	6453	-4.351126	4.349575	53.49135	
18:58:37	52.95259	-1.183362	68.35	0.3654996	-0.1008831	1.37	3	99	0	6453	-4.326521	4.346324	53.52649	
18:58:37	52.95259	-1.183362	68.35	0.3654996	-0.1008831	1.37	3	99	0	6453	-4.303566	4.334394	53.57448	
18:58:37	52.95259	-1.183362	68.35	0.3654996	-0.1008831	1.37	3	99	0	6453	-4.277004	4.309991	53.5966	
18:58:37	52.95259	-1.183362	68.35	0.7132554	15.54759	1.37	3	99	0	6453	-4.256904	4.294267	53.63908	
18:58:38	52.95259	-1.183362	68.35	0.7132554	15.54759	1.37	3	99	0	6453	-4.230701	4.284455	53.69634	
18:58:38	52.95258	-1.183354	68.484	0.7132554	15.54759	1.37	3	99	0	6453	-4.203659	4.279181	53.74884	
18:58:38	52.95258	-1.183354	68.484	0.7132554	15.54759	1.37	3	99	0	6453	-4.182937	4.273568	53.81574	
18:58:38	52.95257	-1.183354	68.821	0.7132554	15.54759	0.87	3	99	0	6453	-4.161314	4.318695	53.8546	
18:58:39	52.95257	-1.183354	68.821	0.9098685	17.74111	0.13	3	99	0	6453	-4.043881	4.82922	53.87941	
18:58:39	52.95257	-1.183354	68.821	0.9098685	17.74111	0.13	3	99	0	6453	-3.29493	4.835557	53.96556	
18:58:39	52.95256	-1.183349	69.777	0.9098685	17.74111	0.97	3	99	0	6453	-2.567032	4.829596	54.07776	
18:58:39	52.95256	-1.183347	69.415	0.9098685	17.74111	1.06	3	99	0	6453	-2.272909	4.864176	54.19679	
18:58:39	52.95256	-1.183347	69.415	0.9098685	17.74111	1.06	3	99	0	6453	-4.353634	4.965092	54.08842	
18:58:39	52.95256	-1.183347	69.049	0.8392163	7.171882	1.06	3	99	0	6453	-6.248786	5.041831	53.89676	
18:58:40	52.95256	-1.183347	69.049	0.8392163	7.171882	0.87	3	99	0	6453	-6.261574	5.063138	53.77554	
18:58:40	52.95256	-1.183347	69.049	0.8392163	7.171882	1.04	3	99	0	6453	-5.689958	5.580812	53.71505	
18:58:40	52.95256	-1.183347	69.049	0.8392163	7.171882	0.09	3	99	0	6453	-5.775915	5.075402	53.62711	
18:58:40	52.95256	-1.183347	69.049	0.8392163	7.171882	1.23	3	99	0	6453	-4.640346	5.368688	53.66508	
18:58:41	52.95256	-1.183347	69.049	1.179464	19.08171	0.53	3	99	0	6453	-3.465734	6.016597	53.74514	
18:58:41	52.95256	-1.183347	69.049	1.179464	19.08171	1.04	3	99	0	6453	-3.941609	5.610754	53.69552	
18:58:41	52.95252	-1.183323	67.819	1.179464	19.08171	1.04	3	99	0	6453	-3.477465	5.335293	53.7356	
18:58:41	52.95252	-1.183323	67.819	1.179464	19.08171	0.75	3	99	0	6453	-3.669455	5.258322	53.75021	
18:58:41	52.95251	-1.183316	67.452	1.179464	19.08171	0.75	3	99	0	6453	-5.284994	4.956181	53.60853	
18:58:42	52.95251	-1.183314	67.272	1.35325	17.87898	0.75	3	99	0	6453	-5.297733	4.926297	53.55457	
18:58:42	52.95251	-1.183314	67.272	1.35325	17.87898	1.71	3	99	0	6453	-5.425538	4.912344	53.49682	
18:58:42	52.95251	-1.183314	67.272	1.35325	17.87898	1.71	3	99	0	6453	-6.893655	5.14692	53.31135	
18:58:42	52.95251	-1.183323	68.218	1.35325	17.87898	1.71	3	99	0	6453	-8.200852	5.35949	53.06309	
18:58:42	52.95251	-1.183323	68.218	1.35325	17.87898	1.05	3	99	0	6453	-8.021292	5.34153	52.85524	
18:58:43	52.95251	-1.183323	68.218	1.414953	12.46586	1.05	3	99	0	6453	-6.353327	5.640686	52.80172	
18:58:43	52.9525	-1.183317	68.439	1.414953	12.46586	1.05	3	99	0	6453	-4.97674	5.884227	52.81104	
18:58:43	52.9525	-1.183317	68.439	1.414953	12.46586	1.05	3	99	0	6453	-4.825896	5.844913	52.76995	
18:58:43	52.9525	-1.183309	68.761	1.414953	12.46586	1.05	3	99	0	6453	-4.6796	5.805604	52.75782	
18:58:43	52.95249	-1.183306	69.16	1.414953	12.46586	1.05	3	99	0	6453	-4.588656	5.740145	52.74211	
18:58:44	52.95249	-1.183301	69.134	1.311386	3.256603	1.05	3	99	0	6453	-4.560798	5.675758	52.72691	
18:58:44	52.95249	-1.183301	69.134	1.311386	3.256603	1.05	3	99	0	6453	-4.533142	5.629947	52.72208	
18:58:44	52.95248	-1.183297	69.642	1.311386	3.256603	1.18	3	99	0	6453	-4.488427	5.495896	52.72374	
18:58:44	52.95248	-1.183297	69.642	1.311386	3.256603	1.74	3	99	0	6453	-4.242817	5.467087	52.7853	
18:58:44	52.95248	-1.183297	69.642	1.311386	3.256603	1.66	3	99	0	6453	-3.710558	6.742388	52.86716	
18:58:45	52.95248	-1.183297	69.642	1.466826	9.503442	2.37	3	99	0	6453	-3.996373	7.23205	52.78454	
18:58:45	52.95246	-1.183292	70.029	1.466826	9.503442	2.37	3	99	0	6453	-3.597729	7.843632	52.7432	
18:58:45	52.95246	-1.183292	70.029	1.466826	9.503442	2.37	3	99	0	6453	-3.576092	7.778674	52.6511	
18:58:45	52.95245	-1.183287	70.14	1.466826	9.503442	2.37	3	99	0	6453	-3.575839	7.696011	52.56894	
18:58:45	52.95245	-1.183282	69.93	1.466826	9.503442	2.37	3	99	0	6453	-3.580458	7.560152	52.49881	
18:58:46	52.95245	-1.183282	69.93	1.534491	7.544127	0.52	3	99	0	6453	-3.809546	7.254544	52.42065	
18:58:46	52.95245	-1.183282	69.93	1.534491	7.544127	1.22	3	99	0	6453	-4.609267	6.382484	52.27186	
18:58:46	52.95245	-1.183282	69.93	1.534491	7.544127	1.17	3	99	0	6453	-4.083167	6.187348	52.29645	
18:58:46	52.95243	-1.183277	70.75	1.534491	7.544127	1.17	3	99	0	6453	-4.06059	6.094748	52.32747	
18:58:46	52.95243	-1.183277	70.75	1.534491	7.544127	0.45	3	99	0	6453	-4.175258	5.954637	52.33046	
18:58:47	52.95244	-1.183285	72.482	1.642091	7.996201	0.88	3	99	0	6453	-5.020155	5.520018	52.24752	
18:58:47	52.95244	-1.183285	72.482	1.642091	7.996201	2.57	3	99	0	6453	-6.232717	5.625172	52.11738	
18:58:47	52.95244	-1.183285	72.482	1.642091	7.996201	2.57	3	99	0	6453	-7.492352	5.336372	51.93168	
18:58:47	52.95244	-1.183285	72.482	1.642091	7.996201	2.57	3	99	0	6453	-8.75036	5.01006	51.68562	
18:58:47	52.95244	-1.183285	72.482	1.642091	7.996201	2.57	3	99	0	6453	-10.02298	4.657271	51.41653	
18:58:48	52.95243	-1.183292	73.958	1.539999	-3.052876	2.57	3	99	0	6453	-11.02515	4.339086	51.1125	
18:58:48	52.95243	-1.183293	74.292	1.539999	-3.052876	2.57	3	99	0	6453	-10.92601	4.280602	50.85293	
18:58:48	52.95243	-1.183293	74.292	1.539999	-3.052876	2.57	3	99	0	6453	-10.7226	4.231515	50.63928	
18:58:48	52.95243	-1.183295	74.348	1.539999	-3.052876	2.57	3	99	0	6453	-10.49584	4.216734	50.45025	
18:58:48	52.95243	-1.183295	74.348	1.539999	-3.052876	2.57	3	99	0	6453	-10.20688	4.213483	50.276	
18:58:49	52.95243	-1.183295	74.348	1.113007	-23.78169	2.57	3	99	0	6453	-9.919868	4.197649	50.11532	
18:58:49	52.95243	-1.183295	74.348	1.113007	-23.78169	2.57	3	99	0	6453	-9.645343	4.162826	49.94215	
18:58:49	52.95243	-1.183295	74.348	1.113007	-23.78169	2.57	3	99	0	6453	-9.360161	4.167822	49.82754	
18:58:49	52.95244	-1.183313	76.657	1.113007	-23.78169	2.57	3	99	0	6453	-9.067637	4.181005	49.74806	
18:58:49	52.95244	-1.183313	76.657	1.113007	-23.78169	2.57	3	99	0	6453	-8.796363	4.189747	49.66718	
18:58:50	52.95245	-1.183316	77.217	0.9814001	-23.36143	1.58	3	99	0	6453	-8.35297	4.168074	49.61509	
18:58:50	52.95245	-1.183316	77.217	0.9814001	-23.36143	0.98	3	99	0	6453	-7.569235	4.583901	49.63362	
18:58:50	52.95245	-1.183316	77.217	0.9814001	-23.36143	0.76	3	99	0	6453	-6.797488	5.753346	49.62402	
18:58:50	52.95245	-1.18333	78.312	0.9814001	-23.36143	0.37	3	99	0	6453	-6.027464	5.965844	49.63862	
18:58:50	52.95245	-1.18333	78.312	0.9814001	-23.36143	1.58	3	99	0	6453	-5.440477	5.700308	49.67196	
18:58:51	52.95244	-1.183323	78.082	0.9404516	-15.54792	1.58	3	99	0	6453	-4.378654	5.797523	49.7872	
18:58:51	52.95244	-1.18332	77.856	0.9404516	-15.54792	0.18	3	99	0	6453	-4.813916	5.649559	49.78656	
18:58:51	52.95243	-1.183315	77.607	0.9404516	-15.54792	0.18	3	99	0	6453	-6.000494	5.33538	49.70814	
18:58:51	52.95243	-1.183316	77.405	0.9404516	-15.54792	0.58	3	99	0	6453	-6.028152	5.50466	49.67993	
18:58:51	52.95243	-1.183318	77.225	0.9404516	-15.54792	0.58	3	99	0	6453	-6.130714	5.980385	49.65712	
18:58:52	52.95243	-1.183322	77.57	1.065731	-3.555584	0.91	3	99	0	6453	-6.267316	5.812117	49.6105	
18:58:52	52.95243	-1.183324	77.625	1.065731	-3.555584	0.91	3	99	0	6453	-6.720835	5.448616	49.52837	
18:58:52	52.95243	-1.183327	78.125	1.065731	-3.555584	0.91	3	99	0	6453	-6.60491	5.391709	49.51025	
18:58:52	52.95243	-1.183328	78.305	1.065731	-3.555584	0.91	3	99	0	6453	-6.482835	5.341999	49.50703	
18:58:52	52.95243	-1.183328	78.305	1.065731	-3.555584	1.33	3	99	0	6453	-6.458666	5.224302	49.50138	
18:58:53	52.95243	-1.183328	78.305	1.257284	5.072499	2.12	3	99	0	6453	-6.760391	4.910088	49.47826	
18:58:53	52.95243	-1.183328	78.305	1.257284	5.072499	0.39	3	99	0	6453	-6.564278	4.870443	49.51099	
18:58:53	52.95243	-1.183328	78.305	1.257284	5.072499	0.83	3	99	0	6453	-5.044883	5.425523	49.66722	
18:58:53	52.95243	-1.183328	78.305	1.257284	5.072499	0.7	3	99	0	6453	-4.637769	5.623966	49.7342	
18:58:53	52.95243	-1.183328	78.305	1.257284	5.072499	1	3	99	0	6453	-4.423236	5.358659	49.80011	
18:58:54	52.95243	-1.183328	78.305	1.048843	-6.540003	1	3	99	0	6453	-3.994554	5.081258	49.92763	
18:58:54	52.95243	-1.183344	81.089	1.048843	-6.540003	1	3	99	0	6453	-3.678282	4.880813	50.07417	
18:58:54	52.95243	-1.183344	81.089	1.048843	-6.540003	1	3	99	0	6453	-3.627274	4.840709	50.2441	
18:58:54	52.95243	-1.183344	81.089	1.048843	-6.540003	1	3	99	0	6453	-3.561228	4.823481	50.38555	
18:58:54	52.95243	-1.183344	81.089	1.048843	-6.540003	1	3	99	0	6453	-3.505166	4.795041	50.51375	
18:58:55	52.95243	-1.183344	81.089	0.8771326	-10.4307	1	3	99	0	6453	-3.446941	4.755857	50.63548	
18:58:55	52.95243	-1.183356	82.535	0.8771326	-10.4307	1	3	99	0	6453	-3.393502	4.727767	50.75866	
18:58:55	52.95243	-1.183356	82.535	0.8771326	-10.4307	0.71	3	99	0	6453	-4.143376	4.743852	50.81466	
18:58:55	52.95243	-1.183356	82.535	0.8771326	-10.4307	0.66	3	99	0	6453	-4.962096	5.038291	50.87131	
18:58:55	52.95243	-1.183356	82.535	0.8771326	-10.4307	0.68	3	99	0	6453	-4.353133	5.426016	50.95731	
18:58:56	52.95243	-1.183356	82.535	0.8450129	-7.408559	0.68	3	99	0	6453	-4.187373	5.377531	51.02127	
18:58:56	52.95243	-1.183356	82.535	0.8450129	-7.408559	1.58	3	99	0	6453	-4.493189	4.91669	51.02124	
18:58:56	52.95243	-1.183356	82.535	0.8450129	-7.408559	1.99	3	99	0	6453	-5.264558	4.251681	51.01279	
18:58:56	52.95243	-1.183356	82.535	0.8450129	-7.408559	3.31	3	99	0	6453	-6.267759	4.155125	50.11146	
18:58:56	52.95243	-1.183356	82.535	0.8450129	-7.408559	3.72	3	99	0	6453	-7.39595	4.036966	48.04588	
18:58:57	52.95243	-1.183356	82.535	0.8255877	-5.830713	1.78	3	99	0	6453	-7.055343	4.255495	46.99798	
18:58:57	52.95243	-1.183356	82.535	0.8255877	-5.830713	1.66	3	99	0	6453	-5.889163	4.609528	47.22097	
18:58:57	52.95243	-1.183356	82.535	0.8255877	-5.830713	0.72	3	99	0	6453	-5.106015	4.748008	47.44492	
18:58:57	52.95243	-1.183356	82.535	0.8255877	-5.830713	0.59	3	99	0	6453	-3.691429	5.088282	47.77322	
18:58:57	52.95243	-1.183356	82.535	0.8255877	-5.830713	0.52	3	99	0	6453	-3.311297	5.160007	48.03348	
18:58:58	52.95243	-1.183356	82.535	0.7860759	-4.101684	2.15	3	99	0	6453	-4.345897	4.894461	48.15588	
18:58:58	52.95243	-1.183356	82.535	0.7860759	-4.101684	3.21	3	99	0	6453	-5.53902	4.236922	47.34954	
18:58:58	52.95243	-1.183356	82.535	0.7860759	-4.101684	2.54	3	99	0	6453	-6.032401	4.021804	46.34307	
18:58:58	52.95243	-1.183356	82.535	0.7860759	-4.101684	1.63	3	99	0	6453	-5.159592	4.216845	46.63059	
18:58:58	52.95243	-1.183356	82.535	0.7860759	-4.101684	1.61	3	99	0	6453	-4.447252	4.15948	46.9317	
18:58:59	52.95248	-1.183409	85.854	0.8116016	-1.418258	1.61	3	99	0	6453	-4.494057	4.439502	47.22423	
18:58:59	52.95248	-1.183409	85.854	0.8116016	-1.418258	1.26	3	99	0	6453	-4.294536	4.477772	47.48168	
18:58:59	52.95248	-1.183409	85.854	0.8116016	-1.418258	2.01	3	99	0	6453	-4.613758	4.912914	47.70374	
18:58:59	52.95249	-1.183442	88.905	0.8116016	-1.418258	1.2	3	99	0	6453	-4.968434	5.813199	47.86966	
18:58:59	52.95249	-1.183448	89.432	0.8116016	-1.418258	1.2	3	99	0	6453	-4.262817	6.24919	48.03188	
18:59:00	52.9525	-1.183457	90.045	0.9054503	3.284805	1.2	3	99	0	6453	-4.194476	6.213017	48.13003	
18:59:00	52.9525	-1.183457	90.045	0.9054503	3.284805	2.98	3	99	0	6453	-4.868708	6.013783	48.17934	
18:59:00	52.9525	-1.183457	90.045	0.9054503	3.284805	1.66	3	99	0	6453	-5.39939	5.785004	48.14975	
18:59:00	52.95251	-1.183482	91.698	0.9054503	3.284805	1.66	3	99	0	6453	-4.558567	5.76703	48.18604	
18:59:00	52.95251	-1.183482	91.698	0.9054503	3.284805	1.66	3	99	0	6453	-4.484004	5.70869	48.19712	
18:59:01	52.95251	-1.183482	91.698	0.9868302	6.758078	1.66	3	99	0	6453	-4.352503	5.628997	48.18675	
18:59:01	52.95251	-1.183482	91.698	0.9868302	6.758078	1.66	3	99	0	6453	-4.209673	5.553517	48.20943	
18:59:01	52.95252	-1.18351	93.432	0.9868302	6.758078	1.66	3	99	0	6453	-4.095727	5.49648	48.24634	
18:59:01	52.95252	-1.183514	93.66	0.9868302	6.758078	1.66	3	99	0	6453	-3.962076	5.431788	48.29262	
18:59:01	52.95252	-1.183514	93.66	0.9868302	6.758078	1.19	3	99	0	6453	-3.813968	5.290592	48.35073	
18:59:02	52.95252	-1.183514	93.66	0.9585743	2.346004	1.19	3	99	0	6453	-3.514406	5.021323	48.43469	
18:59:02	52.95253	-1.183529	95.013	0.9585743	2.346004	1.19	3	99	0	6453	-3.316668	4.875715	48.53012	
18:59:02	52.95253	-1.183529	95.013	0.9585743	2.346004	1.23	3	99	0	6453	-3.336033	4.594366	48.62831	
18:59:02	52.95253	-1.183529	95.013	0.9585743	2.346004	1.25	3	99	0	6453	-3.366408	4.486449	48.71494	
18:59:02	52.95253	-1.183547	96.843	0.9585743	2.346004	1.25	3	99	0	6453	-3.325083	4.647512	48.82965	
18:59:03	52.95253	-1.183547	96.843	0.9177133	0.931531	2.82	3	99	0	6453	-3.995505	4.51693	48.86425	
18:59:03	52.95253	-1.183547	96.843	0.9177133	0.931531	2.04	3	99	0	6453	-4.28169	4.232873	48.89523	
18:59:03	52.95253	-1.183547	96.843	0.9177133	0.931531	2.04	3	99	0	6453	-3.478874	3.953345	49.03604	
18:59:03	52.95253	-1.183547	96.843	0.9177133	0.931531	2.04	3	99	0	6453	-2.675155	3.668597	49.22533	
18:59:03	52.95253	-1.183547	96.843	0.9177133	0.931531	2.04	3	99	0	6453	-1.860405	3.386778	49.4452	
18:59:04	52.95256	-1.183587	99.921	0.8430076	-2.257061	2.18	3	99	0	6453	-1.450325	3.287993	49.70226	
18:59:04	52.95256	-1.183587	99.921	0.8430076	-2.257061	2.18	3	99	0	6453	-1.443198	3.390602	49.92896	
18:59:04	52.95257	-1.183609	102.316	0.8430076	-2.257061	2.28	3	99	0	6453	-1.46076	3.473845	50.15411	
18:59:04	52.95257	-1.183609	102.316	0.8430076	-2.257061	2.1	3	99	0	6453	-1.376782	3.462026	50.37391	
18:59:04	52.95257	-1.183609	102.316	0.8430076	-2.257061	2.34	3	99	0	6453	-1.465707	3.273536	50.5685	
18:59:05	52.95257	-1.183609	102.316	0.6179388	-14.17818	1.86	3	99	0	6453	-1.376835	3.29178	50.74976	
18:59:05	52.95257	-1.183609	102.316	0.6179388	-14.17818	0.87	3	99	0	6453	-0.5202606	3.295207	50.98641	
18:59:05	52.95259	-1.183629	103.584	0.6179388	-14.17818	0.48	3	99	0	6453	0.3709497	3.128667	51.25967	
18:59:05	52.95259	-1.183629	103.584	0.6179388	-14.17818	1.33	3	99	0	6453	0.3456134	2.939931	51.54109	
18:59:05	52.95259	-1.183629	103.584	0.6179388	-14.17818	1.01	3	99	0	6453	-0.0227623	3.132735	51.82423	
18:59:06	52.95259	-1.183629	103.584	0.4607089	-15.92643	1.52	3	99	0	6453	-0.5952991	3.713131	52.03388	
18:59:06	52.95259	-1.183629	103.584	0.4607089	-15.92643	0.29	3	99	0	6453	-0.5439074	3.802444	52.23314	
18:59:06	52.95259	-1.183629	103.584	0.4607089	-15.92643	1.41	3	99	0	6453	0.7313719	3.944955	52.5391	
18:59:06	52.95261	-1.183642	105.107	0.4607089	-15.92643	1.53	3	99	0	6453	1.441456	4.138174	52.80824	
18:59:06	52.95261	-1.183645	105.163	0.4607089	-15.92643	1.23	3	99	0	6453	0.467409	3.922977	52.98238	
18:59:07	52.95261	-1.183645	105.163	0.4861832	-9.157095	1.37	3	99	0	6453	-0.6858079	3.534841	53.11193	
18:59:07	52.95261	-1.183646	104.573	0.4861832	-9.157095	1.37	3	99	0	6453	-0.8750643	3.324573	53.28265	
18:59:07	52.95261	-1.183647	104.452	0.4861832	-9.157095	1.37	3	99	0	6453	-0.9664215	3.33814	53.44742	
18:59:07	52.95261	-1.183647	104.452	0.4861832	-9.157095	1.37	3	99	0	6453	-1.04256	3.348552	53.6059	
18:59:07	52.95262	-1.183651	104.963	0.4861832	-9.157095	1.37	3	99	0	6453	-1.125738	3.358387	53.76572	
18:59:08	52.95262	-1.183651	104.963	0.9098758	13.59474	1.37	3	99	0	6453	-1.197848	3.367361	53.89131	
18:59:08	52.95263	-1.183655	105.413	0.9098758	13.59474	1.37	3	99	0	6453	-1.271794	3.381415	54.02893	
18:59:08	52.95263	-1.183657	105.723	0.9098758	13.59474	1.37	3	99	0	6453	-1.336667	3.411311	54.16188	
18:59:08	52.95263	-1.183657	105.723	0.9098758	13.59474	0.25	3	99	0	6453	-0.660926	3.683333	54.34431	
18:59:08	52.95263	-1.183658	106.078	0.9098758	13.59474	0.25	3	99	0	6453	-0.2339018	3.869336	54.50375	
18:59:09	52.95263	-1.183658	106.078	1.366888	28.43795	0.97	3	99	0	6453	-0.6292989	3.839381	54.59128	
18:59:09	52.95264	-1.18366	106.415	1.366888	28.43795	0.97	3	99	0	6453	-0.9806297	3.81316	54.64935	
18:59:09	52.95264	-1.18366	106.415	1.366888	28.43795	0.97	3	99	0	6453	-1.075837	3.823285	54.73427	
18:59:09	52.95263	-1.183655	106.121	1.366888	28.43795	1.58	3	99	0	6453	-0.4027527	4.067715	54.87043	
18:59:09	52.95263	-1.183655	106.121	1.366888	28.43795	0.85	3	99	0	6453	-0.4699641	4.121873	54.95398	
