Date	Latitude(deg) 	Longitude(deg)	hamsl(m)	hafl(m)	climbrate(cm/s)	GroundSpeed(m/s)	Airspeed(m/s)	Mav_Link(%)	Rssi_Link(%)	Throttle	Roll(deg)	Pitch(deg)	Yaw(deg)
19:11:18	0	0	0	0	0	0	0	100	0	0	0	0	0	
19:11:18	0	0	0	0	0	0	3	100	0	4	0	0	0	
19:11:18	0	0	0	0	0	0	3	100	0	4	0	0	0	
19:11:18	0	0	0	0	0	0	3	100	0	4	0	0	0	
19:11:18	0	0	0	0	0	0	3	100	0	4	0	0	0	
19:11:19	0	0	0	0	0	0	3	100	0	4	0	0	0	
19:11:19	0	0	0	0	0	0	3	100	0	4	0	0	0	
19:11:19	0	0	0	0	0	0	3	100	0	4	0	0	0	
19:11:19	0	0	0	0	0	0	3	100	0	4	0	0	0	
19:11:19	0	0	0	0	0	0	3	100	0	4	0	0	0	
19:11:20	0	0	0	0	0	0	3	100	0	4	0	0	0	
19:11:20	0	0	0	0	0	0	3	100	0	4	0	0	0	
19:11:20	0	0	0	0	0	0	3	100	0	4	0	0	0	
19:11:20	0	0	0	0	0	0	3	100	0	4	0	0	0	
19:11:20	0	0	0	0	0	0	3	100	0	4	0	0	0	
19:11:21	0	0	0	0	0	0	3	100	0	4	0	0	0	
19:11:21	0	0	0	0	0	0	3	100	0	5	0	0	0	
19:11:21	0	0	0	0	0	0	3	100	0	4	0	0	0	
19:11:21	0	0	0	0	0	0	3	100	0	4	0	0	0	
19:11:21	0	0	0	0	0	0	3	100	0	4	0	0	0	
19:11:22	0	0	0	0	0	0	3	100	0	4	0	0	0	
19:11:22	0	0	0	0	0	0	3	100	0	4	0	0	0	
19:11:22	0	0	0	0	0	0	3	100	0	4	0	0	0	
19:11:22	0	0	0	0	0	0	3	100	0	4	0	0	0	
19:11:22	0	0	0	0	0	0	3	100	0	4	0	0	0	
19:11:23	0	0	0	0	0	0	3	100	0	5	0	0	0	
19:11:23	0	0	0	0	0	0	3	100	0	4	0	0	0	
19:11:23	0	0	0	0	0	0	3	100	0	4	0	0	0	
19:11:23	0	0	0	0	0	0	3	100	0	4	0	0	0	
19:11:23	0	0	0	0	0	0	3	100	0	5	0	0	0	
19:11:24	0	0	0	0	0	0	3	100	0	5	0	0	0	
19:11:24	0	0	0	0	0	0	3	100	0	4	0	0	0	
19:11:24	0	0	0	0	0	0	3	100	0	5	0	0	0	
19:11:24	0	0	0	0	0	0	3	100	0	4	0	0	0	
19:11:24	0	0	0	0	0	0	3	100	0	4	0	0	0	
19:11:25	0	0	0	0	0	0	3	100	0	4	0	0	0	
19:11:25	0	0	0	0	0	0	3	100	0	4	0	0	0	
19:11:25	0	0	0	0	0	0	3	100	0	4	0	0	0	
19:11:25	0	0	0	0	0	0	3	100	0	4	0	0	0	
19:11:25	0	0	0	0	0	0	3	100	0	4	-4.107045E-05	-0.0002733317	9.796406E-11	
19:11:26	47.46363	-122.3077	0.02	-1.970591E-05	-0.06233186	0	3	100	0	5	-0.005455636	-0.001045958	-1.421858	
19:11:26	47.46363	-122.3077	0.02	-0.00032037	-0.2586341	0	3	100	0	4	-0.01277371	0.0003599901	-3.303283	
19:11:26	47.46363	-122.3077	0.02	0.002684243	-0.2454777	0	3	100	0	4	-0.01516122	0.007523043	-5.864326	
19:11:26	47.46363	-122.3077	0.02	0.00568181	-0.2636551	0	3	100	0	4	-0.01490453	0.02358933	-9.278488	
19:11:26	47.46363	-122.3077	0.02	0.007753093	-0.4071116	0	3	100	0	4	-0.01506633	0.05646032	-13.58721	
19:11:27	47.46363	-122.3077	0.02	0.009044957	-0.5615402	0	3	100	0	5	-0.01977513	0.09963328	-19.2754	
19:11:27	47.46363	-122.3077	0.02	0.009810004	-0.8552016	0	3	100	0	5	-0.0299901	0.1172684	-27.00374	
19:11:27	47.46363	-122.3077	0.02	0.009872679	-1.100871	0	3	100	0	4	-0.03954548	0.09634864	-36.6461	
19:11:27	47.46363	-122.3077	0.02	0.009383447	-1.397577	0	3	100	0	4	-0.04107623	0.0593351	-49.19749	
19:11:27	47.46363	-122.3077	0.02	0.008379498	-1.818547	0	3	100	0	4	-0.03054995	0.02318107	-63.80782	
19:11:28	47.46363	-122.3077	0.02	0.006927997	-2.098342	0	3	100	0	4	-0.01311668	0.005708785	-80.77996	
19:11:28	47.46363	-122.3077	0.02	0.005063481	-2.520125	0	3	100	0	5	0.0008775905	0.007760287	-98.38596	
19:11:28	47.46363	-122.3077	0.02	0.00285445	-2.800017	0	3	100	0	5	0.008942872	0.01748897	-115.0853	
19:11:28	47.46363	-122.3077	0.02	0.0005097943	-3.174528	0	3	100	0	4	0.03186806	0.02374117	-129.6824	
19:11:28	47.46363	-122.3077	0.02	-0.001925515	-3.56036	0	3	100	0	4	0.03195725	0.02838857	-141.645	
19:11:29	47.46363	-122.3077	0.02	-0.004773562	-3.872191	0	3	100	0	4	0.02480303	0.02974023	-150.7379	
19:11:29	47.46363	-122.3077	0.02	-0.007616331	-4.147328	0	3	100	0	4	0.01390581	0.03129897	-157.5577	
19:11:29	47.46363	-122.3077	0.02	-0.01065853	-4.407938	0	3	100	0	4	0.004014346	0.02362567	-162.624	
19:11:29	47.46363	-122.3077	0.02	-0.01310818	-4.594819	0	3	100	0	5	-0.001981567	0.01415043	-166.3688	
19:11:29	47.46363	-122.3077	0.02	-0.01598389	-4.789638	0	3	100	0	4	-0.004076634	0.009963483	-168.9919	
19:11:30	47.46363	-122.3077	0.02	-0.01829646	-4.926078	0	3	100	0	4	-0.003325589	0.01217602	-170.8836	
19:11:30	47.46363	-122.3077	0.02	-0.02026643	-5.0264	0	3	100	0	4	-0.00227052	0.01165251	-172.2595	
19:11:30	47.46363	-122.3077	0.02	-0.02217407	-5.107257	0	3	100	0	4	-0.001679039	-0.006342155	-173.2425	
19:11:30	47.46363	-122.3077	0.02	-0.02404942	-5.168396	0	3	100	0	4	-6.640708E-05	-0.01022369	-173.9491	
19:11:30	47.46363	-122.3077	0.02	-0.02548553	-5.199893	0	3	100	0	4	0.00168039	-0.01033976	-174.4719	
19:11:31	47.46363	-122.3077	0.02	-0.02658964	-5.210692	0	3	100	0	5	0.003403209	-0.01044622	-174.857	
19:11:31	47.46363	-122.3077	0.02	-0.02769876	-5.204355	0	3	100	0	4	0.005082013	-0.01191202	-175.2001	
19:11:31	47.46363	-122.3077	0.02	-0.02848546	-5.181437	0	3	100	0	4	0.005736998	-0.0132531	-175.5774	
19:11:31	47.46363	-122.3077	0.02	-0.02906647	-5.144027	0	3	100	0	4	0.004779271	-0.007964817	-175.8387	
19:11:31	47.46363	-122.3077	0.02	-0.02942742	-5.099916	0	3	100	0	4	0.003335442	-0.003275607	-176.0278	
19:11:32	47.46363	-122.3077	0.02	-0.02968143	-5.035203	0	3	100	0	5	0.002060006	0.001904197	-176.168	
19:11:32	47.46363	-122.3077	0.02	-0.02974393	-4.977476	0	3	100	0	4	-9.872459E-05	0.007379108	-176.2965	
19:11:32	47.46363	-122.3077	0.02	-0.02968343	-4.907233	0	3	100	0	4	-0.002183444	0.01193467	-176.4359	
19:11:32	47.46363	-122.3077	0.02	-0.02947593	-4.824922	0	3	100	0	4	-0.003656689	0.01195907	-176.4631	
19:11:32	47.46363	-122.3077	0.02	-0.02917409	-4.745658	0	3	100	0	4	-0.004068923	0.01274847	-176.4911	
19:11:33	47.46363	-122.3077	0.02	-0.02881931	-4.67184	0	3	100	0	4	-0.003522253	0.009285442	-176.4928	
19:11:33	47.46363	-122.3077	0.02	-0.0283018	-4.581187	0	3	100	0	4	-0.002703195	0.004813808	-176.4934	
19:11:33	47.46363	-122.3077	0.02	-0.02775532	-4.497238	0	3	100	0	4	-0.001771545	0.002476644	-176.4952	
19:11:33	47.46363	-122.3077	0.02	-0.02716641	-4.415	0	3	100	0	4	-0.0005320424	0.000199618	-176.4985	
19:11:33	47.46363	-122.3077	0.02	-0.02659683	-4.341115	0	3	100	0	4	0.0005715888	-0.001720463	-176.5313	
19:11:34	47.46363	-122.3077	0.02	-0.02586438	-4.252388	0	3	100	0	4	0.001678743	-0.003638887	-176.615	
19:11:34	47.46363	-122.3077	0.02	-0.02517235	-4.172811	0	3	100	0	4	0.002797316	-0.005563776	-176.7368	
19:11:34	47.46363	-122.3077	0.02	-0.02453333	-4.102648	0	3	100	0	4	0.003917565	-0.00747508	-176.8858	
19:11:34	47.46363	-122.3077	0.02	-0.02373962	-4.019493	0	3	100	0	4	0.005045805	-0.00938185	-177.0553	
19:11:34	47.46363	-122.3077	0.02	-0.02302011	-3.947796	0	3	100	0	4	0.006182406	-0.01128378	-177.2398	
19:11:35	47.46363	-122.3077	0.02	-0.02302011	-3.947796	0	3	100	0	4	0.007339	-0.01319967	-177.4375	
19:11:35	47.46363	-122.3077	0.02	-0.02302011	-3.947796	0	3	100	0	4	0.008492664	-0.01509151	-177.6413	
19:11:35	47.46363	-122.3077	0.02	-0.02302011	-3.947796	0	3	100	0	4	0.00966058	-0.01698769	-177.8523	
19:11:35	47.46363	-122.3077	0.02	-0.02302011	-3.947796	0	3	100	0	4	0.010831	-0.01886936	-178.0667	
19:11:35	47.46363	-122.3077	0.02	-0.02302011	-3.947796	0	3	100	0	4	0.01201549	-0.02075534	-178.2854	
19:11:36	47.46363	-122.3077	0.02	-0.02302011	-3.947796	0	3	100	0	4	0.01320811	-0.02263624	-178.5065	
19:11:36	47.46363	-122.3077	0.02	-0.02302011	-3.947796	0	3	100	0	4	0.01420885	-0.02428931	-178.4618	
19:11:36	47.46363	-122.3077	0.02	-0.02265695	-4.023778	0	3	100	0	4	0.01479943	-0.02543695	-177.9478	
19:11:36	47.46363	-122.3077	0.02	-0.02231665	-4.164575	0	3	100	0	4	0.01546472	-0.02653348	-177.6294	
19:11:36	47.46363	-122.3077	0.02	-0.02231072	-4.287055	0	3	100	0	4	0.016195	-0.02759982	-177.4526	
19:11:37	47.46363	-122.3077	0.02	-0.02249257	-4.351227	0	3	100	0	4	0.0138595	-0.02619168	-177.2035	
19:11:37	47.46363	-122.3077	0.02	-0.02259832	-4.254475	0	3	100	0	4	0.009058599	-0.02013871	-177.0096	
19:11:37	47.46363	-122.3077	0.02	-0.02250157	-4.161756	0	3	100	0	4	0.004793799	-0.01448914	-176.8722	
19:11:37	47.46363	-122.3077	0.02	-0.02227898	-4.074174	0	3	100	0	4	0.002132451	-0.0120208	-176.7718	
19:11:37	47.46363	-122.3077	0.02	-0.02208477	-4.150063	0	3	100	0	4	-0.0005724519	-0.005824963	-176.6985	
19:11:38	47.46363	-122.3077	0.02	-0.02184907	-4.035803	0	3	100	0	4	-0.002257401	-0.001705574	-176.6779	
19:11:38	47.46363	-122.3077	0.02	-0.02147452	-3.930107	0	3	100	0	5	-0.003949814	0.00243147	-176.7219	
19:11:38	47.46363	-122.3077	0.02	-0.02102443	-3.833308	0	3	100	0	4	-0.005649248	0.006563168	-176.8137	
19:11:38	47.46363	-122.3077	0.02	-0.02036002	-3.716877	0	3	100	0	4	-0.007360636	0.01068812	-176.9407	
19:11:38	47.46363	-122.3077	0.02	-0.01973557	-3.621994	0	3	100	0	4	-0.007834046	0.01453994	-176.8388	
19:11:39	47.46363	-122.3077	0.02	-0.01892401	-3.511991	0	3	100	0	4	-0.008129179	0.01786675	-176.7601	
19:11:39	47.46363	-122.3077	0.02	-0.01820934	-3.423959	0	3	100	0	4	-0.007341767	0.01883486	-176.7095	
19:11:39	47.46363	-122.3077	0.02	-0.01729566	-3.320082	0	3	100	0	4	-0.004171374	0.01563528	-176.6496	
19:11:39	47.46363	-122.3077	0.02	-0.0164507	-3.230521	0	3	100	0	4	-0.003572053	0.00971897	-176.6033	
19:11:40	47.46363	-122.3077	0.02	-0.01565317	-3.242446	0	3	100	0	4	-0.001909425	0.004027908	-176.5683	
19:11:40	47.46363	-122.3077	0.02	-0.01496207	-3.15872	0	3	100	0	4	-0.0008507657	0.0001073593	-176.5453	
19:11:40	47.46363	-122.3077	0.02	-0.01427487	-3.081518	0	3	100	0	4	0.0003008505	-0.00238017	-176.5306	
19:11:40	47.46363	-122.3077	0.02	-0.01356265	-3.005829	0	3	100	0	4	0.0007446343	-0.003555869	-176.5169	
19:11:40	47.46363	-122.3077	0.02	-0.01291443	-2.940299	0	3	100	0	4	-0.000521762	-0.003377629	-176.5113	
19:11:41	47.46363	-122.3077	0.02	-0.01219131	-2.870603	0	3	100	0	4	-0.0004491463	-0.002398415	-176.5285	
19:11:41	47.46363	-122.3077	0.02	-0.01141321	-2.798784	0	3	100	0	4	-0.0001587821	-0.002127253	-176.721	
19:11:41	47.46363	-122.3077	0.02	-0.01072998	-2.737987	0	3	100	0	5	-3.031386E-05	-0.001914228	-176.9059	
19:11:41	47.46363	-122.3077	0.02	-0.01005434	-2.67968	0	3	100	0	4	2.30784E-05	-0.001842234	-177.0796	
19:11:41	47.46363	-122.3077	0.02	-0.00940665	-2.625297	0	3	100	0	5	-0.0002365533	-0.0006971536	-177.2424	
19:11:42	47.46363	-122.3077	0.02	-0.008833533	-2.57822	0	3	100	0	4	-0.0001041015	-0.0006995736	-177.3965	
19:11:42	47.46363	-122.3077	0.02	-0.008161434	-2.524747	0	3	100	0	4	0.0005053653	-0.002032498	-177.5472	
19:11:42	47.46363	-122.3077	0.02	-0.007640664	-2.54401	0	3	100	0	4	0.0001074439	-0.001755532	-177.6911	
19:11:42	47.46363	-122.3077	0.02	-0.007312436	-2.57818	0	3	100	0	4	-4.086978E-05	-0.001322022	-177.8304	
19:11:42	47.46363	-122.3077	0.02	-0.006989096	-2.533996	0	3	100	0	4	-0.00015332	-0.0008100861	-177.9819	
19:11:43	47.46363	-122.3077	0.02	-0.006608389	-2.48595	0	3	100	0	4	0.0002980912	-0.0007263142	-178.1094	
19:11:43	47.46363	-122.3077	0.02	-0.006278084	-2.446755	0	3	100	0	4	0.0007077959	-0.0009897422	-178.2329	
19:11:43	47.46363	-122.3077	0.02	-0.005907075	-2.404458	0	3	100	0	4	0.002122012	-0.002428781	-178.3528	
19:11:43	47.46363	-122.3077	0.02	-0.00560746	-2.51583	0	3	100	0	4	0.003659025	-0.002898968	-178.4798	
19:11:43	47.46363	-122.3077	0.02	-0.005600694	-2.549799	0	3	100	0	4	0.00330871	-0.002688329	-178.5895	
19:11:44	47.46363	-122.3077	0.02	-0.0055386	-2.503414	0	3	100	0	4	0.003116104	-0.003103211	-178.7054	
19:11:44	47.46363	-122.3077	0.02	-0.005399049	-2.454071	0	3	100	0	5	0.002443318	-0.00319755	-178.808	
19:11:44	47.46363	-122.3077	0.02	-0.005214436	-2.407713	0	3	100	0	4	0.00179248	-0.003630145	-178.9057	
19:11:44	47.46363	-122.3077	0.02	-0.004953324	-2.37142	0	3	100	0	4	0.001376203	-0.002512675	-179.004	
19:11:44	47.46363	-122.3077	0.02	-0.004706627	-2.324444	0	3	100	0	4	0.000883844	-0.001270594	-179.1312	
19:11:45	47.46363	-122.3077	0.02	-0.004352144	-2.26708	0	3	100	0	5	0.0003914457	-3.55329E-05	-179.2805	
19:11:45	47.46363	-122.3077	0.02	-0.003993194	-2.21591	0	3	100	0	4	-0.0001093262	0.001210609	-179.4482	
19:11:45	47.46363	-122.3077	0.02	-0.003643442	-2.170116	0	3	100	0	6	-0.0006091303	0.002442883	-179.6266	
19:11:45	47.46363	-122.3077	0.02	-0.00323858	-2.121248	0	3	100	0	4	-0.000874213	0.00304012	-179.7883	
19:11:45	47.46363	-122.3077	0.02	-0.002773526	-2.069026	0	3	100	0	4	-0.000565778	0.002156062	-179.8694	
19:11:46	47.46363	-122.3077	0.02	-0.002389841	-2.028342	0	3	100	0	4	-0.0002571164	0.001272196	-179.9851	
19:11:46	47.46363	-122.3077	0.02	-0.001959688	-1.98505	0	3	100	0	5	7.480791E-06	0.0006686707	179.9123	
19:11:46	47.46363	-122.3077	0.02	-0.001485347	-1.939377	0	3	100	0	4	-0.0001361388	0.0001747619	179.8623	
19:11:46	47.46363	-122.3077	0.02	-0.00106309	-1.900258	0	3	100	0	5	-0.0003897843	-0.0009814164	179.7793	
19:11:46	47.46363	-122.3077	0.02	-0.0006863856	-1.866413	0	3	100	0	4	-0.000639557	-0.002132517	179.6625	
19:11:47	47.46363	-122.3077	0.02	-0.0002391783	-1.827741	0	3	100	0	4	-0.0008869977	-0.003290223	179.5197	
19:11:47	47.46363	-122.3077	0.02	0.0001555847	-1.794469	0	3	100	0	4	-0.0008013981	-0.004092892	179.4114	
19:11:47	47.46363	-122.3077	0.02	0.0005022138	-1.766095	0	3	100	0	4	-0.0002297535	-0.004382577	179.3898	
19:11:47	47.46363	-122.3077	0.02	0.0008706366	-1.736497	0	3	100	0	4	0.0002553379	-0.004683847	179.3274	
19:11:47	47.46363	-122.3077	0.02	0.001256674	-1.70612	0	3	100	0	4	-0.0001402126	-0.005255468	179.3406	
19:11:48	47.46363	-122.3077	0.02	0.00157337	-1.739384	0	3	100	0	4	0.0004100458	-0.002588806	179.3549	
19:11:48	47.46363	-122.3077	0.02	0.001768708	-1.7161	0	3	100	0	4	0.0007262822	0.00581849	179.3672	
19:11:48	47.46363	-122.3077	0.02	0.001991559	-1.690376	0	3	100	0	4	0.0007156403	0.006487476	179.3772	
19:11:48	47.46363	-122.3077	0.02	0.002245645	-1.662041	0	3	100	0	4	0.0002498254	0.005628802	179.3884	
19:11:48	47.46363	-122.3077	0.02	0.002476317	-1.637212	0	3	100	0	5	0.0001390718	0.00517686	179.3992	
19:11:49	47.46363	-122.3077	0.02	0.00271059	-1.612513	0	3	100	0	4	0.0004901143	0.005320927	179.4097	
19:11:49	47.46363	-122.3077	0.02	0.002838429	-1.704629	0	3	100	0	4	0.001387006	0.002011245	179.4192	
19:11:49	47.46363	-122.3077	0.02	0.002878613	-1.680802	0	3	100	0	4	0.001956786	0.001168263	179.4278	
19:11:49	47.46363	-122.3077	0.02	0.002900156	-1.727018	0	3	100	0	5	0.002612622	0.001456726	179.4383	
19:11:49	47.46363	-122.3077	0.02	0.002897045	-1.696944	0	3	100	0	4	0.002162456	0.001999769	179.444	
19:11:50	47.46363	-122.3077	0.02	0.002951283	-1.665455	0	3	100	0	5	0.001809918	0.002770438	179.4487	
19:11:50	47.46363	-122.3077	0.02	0.003043372	-1.635912	0	3	100	0	4	0.001425475	0.002620413	179.4546	
19:11:50	47.46363	-122.3077	0.02	0.003186367	-1.602478	0	3	100	0	4	0.0005682518	0.002193728	179.4631	
19:11:50	47.46363	-122.3077	0.02	0.003365019	-1.568532	0	3	100	0	5	0.001095017	0.00303971	179.4711	
19:11:50	47.46363	-122.3077	0.02	0.003596243	-1.531006	0	3	100	0	4	0.001368734	0.0009852471	179.478	
19:11:51	47.46363	-122.3077	0.02	0.00371278	-1.639125	0	3	100	0	4	0.001542734	0.004793935	179.4856	
19:11:51	47.46363	-122.3077	0.02	0.0035474	-1.78081	0	3	100	0	4	0.001961704	0.006229354	179.4924	
19:11:51	47.46363	-122.3077	0.02	0.00319051	-1.813546	0	3	100	0	4	0.002049487	0.003084598	179.4894	
19:11:51	47.46363	-122.3077	0.02	0.003005429	-1.772525	0	3	100	0	4	0.002132393	0.003013937	179.471	
19:11:51	47.46363	-122.3077	0.02	0.002914754	-1.716583	0	3	100	0	4	0.002258245	0.005638354	179.4719	
19:11:52	47.46363	-122.3077	0.02	0.002817814	-1.828101	0	3	100	0	4	0.002200258	0.004057225	179.4761	
19:11:52	47.46363	-122.3077	0.02	0.002471409	-1.901286	0	3	100	0	5	0.002104668	0.004281339	179.4822	
19:11:52	47.46363	-122.3077	0.02	0.002256747	-1.837169	0	3	100	0	4	0.001989618	0.007485817	179.5379	
19:11:52	47.46363	-122.3077	0.02	0.002194163	-1.792141	0	3	100	0	4	0.001539226	0.006198458	179.5889	
19:11:52	47.46363	-122.3077	0.02	0.002173543	-1.81895	0	3	100	0	4	0.002248493	0.004245574	179.6396	
19:11:53	47.46363	-122.3077	0.02	0.002175574	-1.746218	0	3	100	0	4	0.001980586	0.004001488	179.6893	
19:11:53	47.46363	-122.3077	0.02	0.002293811	-1.679618	0	3	100	0	4	0.002073396	0.00490571	179.731	
19:11:53	47.46363	-122.3077	0.02	0.002562486	-1.597637	0	3	100	0	4	0.00196853	0.004586534	179.7764	
19:11:53	47.46363	-122.3077	0.02	0.002878852	-1.544353	0	3	100	0	4	0.002155135	0.0103761	179.8198	
19:11:53	47.46363	-122.3077	0.02	0.003252466	-1.472764	0	3	100	0	4	0.002594969	0.01052119	179.8627	
19:11:54	47.46363	-122.3077	0.02	0.003527144	-1.56717	0	3	100	0	4	0.002975646	0.01210878	179.9042	
19:11:54	47.46363	-122.3077	0.02	0.003593018	-1.606176	0	3	100	0	4	0.002205225	0.01520466	179.944	
19:11:54	47.46363	-122.3077	0.02	0.003707646	-1.540663	0	3	100	0	4	0.001265522	0.01659144	179.965	
19:11:54	47.46363	-122.3077	0.02	0.003970257	-1.460646	0	3	100	0	4	0.001357432	0.01495984	-179.9978	
19:11:54	47.46363	-122.3077	0.02	0.004272134	-1.465561	0	3	100	0	4	0.002370372	0.01483107	-179.96	
19:11:55	47.46363	-122.3077	0.02	0.004382234	-1.51146	0	3	100	0	4	0.002176306	0.01136991	-179.929	
19:11:55	47.46363	-122.3077	0.02	0.004496759	-1.538128	0	3	100	0	4	0.002571799	0.009651805	-179.8954	
19:11:55	47.46363	-122.3077	0.02	0.004573938	-1.472361	0	3	100	0	4	0.00293249	0.007725562	-179.8633	
19:11:55	47.46363	-122.3077	0.02	0.004676325	-1.489568	0	3	100	0	4	0.002669893	0.003930043	-179.8337	
19:11:55	47.46363	-122.3077	0.02	0.004756806	-1.52032	0	3	100	0	4	0.002733813	0.002299321	-179.809	
19:11:56	47.46363	-122.3077	0.02	0.004650264	-1.639777	0	3	100	0	5	0.002568087	0.0003610269	-179.8047	
19:11:56	47.46363	-122.3077	0.02	0.00437505	-1.649833	0	3	100	0	4	0.003410272	-0.002129622	-179.7746	
19:11:56	47.46363	-122.3077	0.02	0.004294651	-1.564568	0	3	100	0	5	0.003244349	-0.003194611	-179.7479	
19:11:56	47.46363	-122.3077	0.02	0.004383667	-1.514362	0	3	100	0	4	0.003834542	-0.004232069	-179.7198	
19:11:56	47.46363	-122.3077	0.02	0.004427663	-1.512857	0	3	100	0	4	0.004497405	-0.004813136	-179.6953	
19:11:57	47.46363	-122.3077	0.02	0.004457822	-1.518854	0	3	100	0	4	0.004278692	-0.005405975	-179.6735	
19:11:57	47.46363	-122.3077	0.02	0.004503889	-1.495144	0	3	100	0	5	0.004857316	-0.006566027	-179.6494	
19:11:57	47.46363	-122.3077	0.02	0.004572575	-1.558281	0	3	100	0	4	0.004789326	-0.005593499	-179.5986	
19:11:57	47.46363	-122.3077	0.02	0.004476894	-1.581321	0	3	100	0	4	0.005150671	-0.007281916	-179.535	
19:11:57	47.46363	-122.3077	0.02	0.004447235	-1.544315	0	3	100	0	4	0.005071398	-0.007367818	-179.4728	
19:11:58	47.46363	-122.3077	0.02	0.004421593	-1.551962	0	3	100	0	4	0.005396083	-0.008761516	-179.4137	
19:11:58	47.46363	-122.3077	0.02	0.004549094	-1.440032	0	3	100	0	4	0.005350397	-0.008838477	-179.3563	
19:11:58	47.46363	-122.3077	0.02	0.004652494	-1.525777	0	3	100	0	4	0.004624865	-0.004859572	-179.3023	
19:11:58	47.46363	-122.3077	0.02	0.004674704	-1.48035	0	3	100	0	4	0.004305576	-0.004362256	-179.2508	
19:11:58	47.46363	-122.3077	0.02	0.004819596	-1.434311	0	3	100	0	4	0.005420246	-0.005133728	-179.2016	
19:11:59	47.46363	-122.3077	0.02	0.005107923	-1.318795	0	3	100	0	5	0.004038699	-0.005095396	-179.1533	
19:11:59	47.46363	-122.3077	0.02	0.005482365	-1.223877	0	3	100	0	4	0.003705963	-0.004688439	-179.1059	
19:11:59	47.46363	-122.3077	0.02	0.005916811	-1.221216	0	3	100	0	4	0.003768106	-0.005740785	-179.061	
19:11:59	47.46363	-122.3077	0.02	0.006400303	-1.114813	0	3	100	0	4	0.003255524	-0.009997535	-179.019	
19:11:59	47.46363	-122.3077	0.02	0.006943688	-1.020643	0	3	100	0	4	0.002549878	-0.007976031	-178.9771	
19:12:00	47.46363	-122.3077	0.02	0.007444886	-1.066575	0	3	100	0	4	0.002978881	-0.005712276	-178.9361	
19:12:00	47.46363	-122.3077	0.02	0.007827869	-0.9888412	0	3	100	0	4	0.002009984	-0.008331952	-178.8975	
19:12:00	47.46363	-122.3077	0.02	0.008329317	-0.9056078	0	3	100	0	4	0.001630153	-0.0080867	-178.8601	
19:12:00	47.46363	-122.3077	0.02	0.008788599	-0.9165934	0	3	100	0	4	0.001546271	-0.01178154	-178.8245	
19:12:00	47.46363	-122.3077	0.02	0.009068565	-0.9479134	0	3	100	0	4	0.001808378	-0.01106327	-178.7926	
19:12:01	47.46363	-122.3077	0.02	0.009450893	-0.865436	0	3	100	0	5	0.00217716	-0.01293735	-178.7581	
19:12:01	47.46363	-122.3077	0.02	0.009878106	-0.7927223	0	3	100	0	4	0.002079579	-0.01130399	-178.7254	
19:12:01	47.46363	-122.3077	0.02	0.01019544	-0.8430288	0	3	100	0	5	0.001878665	-0.01071329	-178.6941	
19:12:01	47.46363	-122.3077	0.02	0.01047991	-0.7828661	0	3	100	0	5	0.001113776	-0.006735886	-178.6646	
19:12:01	47.46363	-122.3077	0.02	0.01088908	-0.7135099	0	3	100	0	5	0.0006294728	-0.005283471	-178.6387	
19:12:02	47.46363	-122.3077	0.02	0.01131223	-0.6529719	0	3	100	0	6	0.0007241172	-0.003960337	-178.6113	
19:12:02	47.46363	-122.3077	0.02	0.01176673	-0.5961024	0	3	100	0	4	0.001161321	-0.0007179645	-178.584	
19:12:02	47.46363	-122.3077	0.02	0.01214719	-0.6611868	0	3	100	0	4	0.001264773	-0.005003582	-178.5446	
19:12:02	47.46363	-122.3077	0.02	0.0123983	-0.6150938	0	3	100	0	4	0.0006597855	-0.004159359	-178.4872	
19:12:02	47.46363	-122.3077	0.02	0.01268583	-0.6420578	0	3	100	0	5	0.001794052	-0.001441393	-178.4334	
19:12:03	47.46363	-122.3077	0.02	0.01289859	-0.5945238	0	3	100	0	4	0.00200321	-0.00116954	-178.38	
19:12:03	47.46363	-122.3077	0.02	0.01308639	-0.6708664	0	3	100	0	4	0.001617587	-0.004346748	-178.3292	
19:12:03	47.46363	-122.3077	0.02	0.0131565	-0.6299899	0	3	100	0	4	0.001710319	-0.00666004	-178.2808	
19:12:03	47.46363	-122.3077	0.02	0.01331549	-0.581144	0	3	100	0	5	0.001764455	-0.005398052	-178.2335	
19:12:03	47.46363	-122.3077	0.02	0.01349419	-0.5821119	0	3	100	0	4	0.001076042	-0.002464468	-178.1915	
19:12:04	47.46363	-122.3077	0.02	0.0134843	-0.6929266	0	3	100	0	5	0.0006088825	-0.00343575	-178.1474	
19:12:04	47.46363	-122.3077	0.02	0.0133307	-0.7413543	0	3	100	0	5	0.0005325228	-0.003648618	-178.1062	
19:12:04	47.46363	-122.3077	0.02	0.01308932	-0.8682905	0	3	100	0	4	0.0005879959	-0.00153806	-178.0667	
19:12:04	47.46363	-122.3077	0.02	0.01261933	-1.013364	0	3	100	0	6	5.396055E-05	-0.000254528	-178.0282	
19:12:04	47.46363	-122.3077	0.02	0.01212935	-1.077712	0	3	100	0	4	-0.0001721577	-0.0006298614	-177.9932	
19:12:05	47.46363	-122.3077	0.02	0.01161814	-1.00454	0	3	100	0	4	-0.0003548098	0.0006412528	-177.9576	
19:12:05	47.46363	-122.3077	0.02	0.01134777	-1.011281	0	3	100	0	4	-0.0003286798	0.002302504	-177.9233	
19:12:05	47.46363	-122.3077	0.02	0.01110879	-0.9578402	0	3	100	0	4	-0.001491061	0.000855463	-177.8905	
19:12:05	47.46363	-122.3077	0.02	0.01102591	-0.9571834	0	3	100	0	4	-0.001034505	0.0008206246	-177.8588	
19:12:05	47.46363	-122.3077	0.02	0.01085103	-0.9764466	0	3	100	0	4	-0.001020994	0.001118635	-177.8293	
19:12:06	47.46363	-122.3077	0.02	0.01069502	-0.9903113	0	3	100	0	4	-0.001336646	-0.001081334	-177.8006	
19:12:06	47.46363	-122.3077	0.02	0.0105635	-0.9816123	0	3	100	0	4	-0.001270418	-0.00144273	-177.7719	
19:12:06	47.46363	-122.3077	0.02	0.01057891	-0.8918999	0	3	100	0	4	-0.0009906131	-0.001451739	-177.7445	
19:12:06	47.46363	-122.3077	0.02	0.01075824	-0.8018878	0	3	100	0	4	-0.0008402584	1.977735E-05	-177.7178	
19:12:06	47.46363	-122.3077	0.02	0.01095345	-0.8030872	0	3	100	0	4	-0.001017191	0.001381011	-177.694	
19:12:07	47.46363	-122.3077	0.02	0.01115654	-0.8139133	0	3	100	0	4	-0.0007171354	0.004778563	-177.6703	
19:12:07	47.46363	-122.3077	0.02	0.01132349	-0.7779996	0	3	100	0	5	-0.0001571543	0.003207869	-177.6471	
19:12:07	47.46363	-122.3077	0.02	0.01139692	-0.8358305	0	3	100	0	4	-0.0003478198	0.0005684042	-177.6178	
19:12:07	47.46363	-122.3077	0.02	0.01154186	-0.7419794	0	3	100	0	5	-0.0001881113	-0.0004885592	-177.5729	
19:12:07	47.46363	-122.3077	0.02	0.01178872	-0.6633149	0	3	100	0	4	-0.00028417	-0.001128469	-177.5302	
19:12:08	47.46363	-122.3077	0.02	0.01220344	-0.5715722	0	3	100	0	4	-0.0002540696	-0.003159597	-177.4892	
19:12:08	47.46363	-122.3077	0.02	0.01254979	-0.5720711	0	3	100	0	5	-0.0008805862	0.001260479	-177.4498	
19:12:08	47.46363	-122.3077	0.02	0.01283557	-0.6207313	0	3	100	0	4	-0.0006995143	0.0006797771	-177.4126	
19:12:08	47.46363	-122.3077	0.02	0.01308305	-0.5455878	0	3	100	0	4	-0.0003401749	0.0007303285	-177.3763	
19:12:09	47.46363	-122.3077	0.02	0.01346758	-0.4641015	0	3	100	0	4	0.0001189297	0.0004456681	-177.3419	
19:12:09	47.46363	-122.3077	0.02	0.01383615	-0.4018769	0	3	100	0	4	0.0003154223	-0.003338247	-177.3088	
19:12:09	47.46363	-122.3077	0.02	0.01433796	-0.370153	0	3	100	0	4	0.0002208182	-0.001571439	-177.2765	
19:12:09	47.46363	-122.3077	0.02	0.01463073	-0.3738223	0	3	100	0	4	0.0004326132	-0.001325204	-177.2453	
19:12:09	47.46363	-122.3077	0.02	0.01502847	-0.3087955	0	3	100	0	4	0.0007086508	-0.001747045	-177.2155	
19:12:10	47.46363	-122.3077	0.02	0.01543533	-0.2528175	0	3	100	0	4	0.0009408521	0.002960238	-177.1857	
19:12:10	47.46363	-122.3077	0.02	0.01586788	-0.2008563	0	3	100	0	4	0.0008578146	0.004086226	-177.1596	
19:12:10	47.46363	-122.3077	0.02	0.01618225	-0.2160089	0	3	100	0	4	0.0009293898	0.003657216	-177.1333	
19:12:10	47.46363	-122.3077	0.02	0.01640786	-0.3307875	0	3	100	0	4	0.001019755	0.002874843	-177.1075	
19:12:10	47.46363	-122.3077	0.02	0.01644576	-0.3201255	0	3	100	0	4	0.0002336622	-0.008612731	-177.0831	
19:12:11	47.46363	-122.3077	0.02	0.01641682	-0.3793342	0	3	100	0	4	-6.678853E-05	0.003141251	-177.0596	
19:12:11	47.46363	-122.3077	0.02	0.01629766	-0.4926332	0	3	100	0	4	0.0004536096	0.003176456	-177.038	
19:12:11	47.46363	-122.3077	0.02	0.01601255	-0.5446191	0	3	100	0	4	0.001077202	0.004968364	-177.0164	
19:12:11	47.46363	-122.3077	0.02	0.01572698	-0.5303462	0	3	100	0	4	0.001088855	0.00591223	-176.9954	
19:12:11	47.46363	-122.3077	0.02	0.01558169	-0.4697154	0	3	100	0	5	0.000690853	0.004374218	-176.9749	
19:12:12	47.46363	-122.3077	0.02	0.01557627	-0.4520682	0	3	100	0	4	0.0001344008	0.004038614	-176.9552	
19:12:12	47.46363	-122.3077	0.02	0.01552164	-0.4592037	0	3	100	0	5	0.001046251	0.00524505	-176.9384	
19:12:12	47.46363	-122.3077	0.02	0.01556569	-0.3952003	0	3	100	0	4	0.002730011	0.001933135	-176.9214	
19:12:12	47.46363	-122.3077	0.02	0.01569287	-0.3979113	0	3	100	0	4	0.001820004	0.00130154	-176.8976	
19:12:12	47.46363	-122.3077	0.02	0.01580853	-0.3409169	0	3	100	0	4	0.000497136	0.0028471	-176.8662	
19:12:13	47.46363	-122.3077	0.02	0.01598592	-0.2901844	0	3	100	0	4	0.0007147566	0.004583264	-176.8361	
19:12:13	47.46363	-122.3077	0.02	0.0162454	-0.2359979	0	3	100	0	4	0.000599644	0.00354281	-176.8078	
19:12:13	47.46363	-122.3077	0.02	0.01658318	-0.1801898	0	3	100	0	4	0.0006998956	0.003442671	-176.7809	
19:12:13	47.46363	-122.3077	0.02	0.01689611	-0.1365199	0	3	100	0	4	0.0006038994	0.002673279	-176.7547	
19:12:13	47.46363	-122.3077	0.02	0.01717072	-0.1885102	0	3	100	0	4	0.001127112	0.005167665	-176.7291	
19:12:14	47.46363	-122.3077	0.02	0.01738768	-0.1455997	0	3	100	0	4	0.001344313	0.006343035	-176.7048	
19:12:14	47.46363	-122.3077	0.02	0.01762494	-0.1644787	0	3	100	0	4	0.001316551	0.005769195	-176.6811	
19:12:14	47.46363	-122.3077	0.02	0.01772041	-0.1679112	0	3	100	0	5	0.0006945712	0.004174625	-176.6584	
19:12:14	47.46363	-122.3077	0.02	0.01788357	-0.1266671	0	3	100	0	4	0.001217133	0.003082829	-176.6371	
19:12:14	47.46363	-122.3077	0.02	0.01802046	-0.1159034	0	3	100	0	4	0.001334916	-0.0006049251	-176.6161	
19:12:15	47.46363	-122.3077	0.02	0.01820939	-0.08041538	0	3	100	0	4	0.00149087	-0.0008746837	-176.5959	
19:12:15	47.46363	-122.3077	0.02	0.01844262	-0.04483572	0	3	100	0	4	0.001079997	-0.00189925	-176.5763	
19:12:15	47.46363	-122.3077	0.02	0.01867768	-0.01430106	0	3	100	0	4	0.001545895	-0.004144043	-176.5572	
19:12:15	47.46363	-122.3077	0.02	0.0189248	0.01390674	0	3	100	0	4	0.001643185	-0.006784082	-176.5395	
19:12:15	47.46363	-122.3077	0.02	0.01917568	0.03946283	0	3	100	0	5	0.001505125	-0.008221118	-176.5222	
19:12:16	47.46363	-122.3077	0.02	0.01932864	-0.07690859	0	3	100	0	4	0.001410701	-0.007669462	-176.5053	
19:12:16	47.46363	-122.3077	0.02	0.01921347	-0.1766016	0	3	100	0	4	0.001133338	-0.005945503	-176.4894	
19:12:16	47.46363	-122.3077	0.02	0.01894234	-0.2082221	0	3	100	0	4	0.0007678889	-0.005047648	-176.474	
19:12:16	47.46363	-122.3077	0.02	0.01877816	-0.1803748	0	3	100	0	4	0.001039145	-0.007107842	-176.4602	
19:12:16	47.46363	-122.3077	0.02	0.01854112	-0.2681045	0	3	100	0	4	0.0006412957	-0.006955271	-176.4463	
19:12:17	47.46363	-122.3077	0.02	0.01833773	-0.2747338	0	3	100	0	4	0.0005591072	-0.006929832	-176.4323	
19:12:17	47.46363	-122.3077	0.02	0.01807756	-0.297251	0	3	100	0	4	6.930861E-05	-0.004228959	-176.419	
19:12:17	47.46363	-122.3077	0.02	0.01793065	-0.2632942	0	3	100	0	4	0.0001812379	-0.003529625	-176.4061	
19:12:17	47.46363	-122.3077	0.02	0.01786213	-0.2197593	0	3	100	0	4	0.0003962323	-0.003014109	-176.39	
19:12:17	47.46363	-122.3077	0.02	0.01778852	-0.3221766	0	3	100	0	4	0.0003594892	-0.0003660446	-176.3697	
19:12:18	47.46363	-122.3077	0.02	0.01755893	-0.3959569	0	3	100	0	5	0.001250176	0.001223952	-176.3502	
19:12:18	47.46363	-122.3077	0.02	0.01732096	-0.3506121	0	3	100	0	4	0.001279105	0.002122885	-176.3315	
19:12:18	47.46363	-122.3077	0.02	0.01705327	-0.4214732	0	3	100	0	4	0.0005747361	0.002743353	-176.3136	
19:12:18	47.46363	-122.3077	0.02	0.01688032	-0.375535	0	3	100	0	4	0.0003713878	0.001205057	-176.2966	
19:12:18	47.46363	-122.3077	0.02	0.016813	-0.3175279	0	3	100	0	4	0.0006184978	0.003312599	-176.2799	
19:12:19	47.46363	-122.3077	0.02	0.01686862	-0.2627673	0	3	100	0	4	0.0004965165	0.004230055	-176.2641	
19:12:19	47.46363	-122.3077	0.02	0.01691056	-0.3107553	0	3	100	0	5	0.0005594355	0.006067354	-176.2487	
19:12:19	47.46363	-122.3077	0.02	0.0168953	-0.3379804	0	3	100	0	4	0.002341226	0.004682688	-176.2342	
19:12:19	47.46363	-122.3077	0.02	0.01678526	-0.3988388	0	3	100	0	4	0.002953055	0.004582757	-176.22	
19:12:19	47.46363	-122.3077	0.02	0.01662622	-0.4351033	0	3	100	0	3	0.001627509	0.00239396	-176.2066	
19:12:20	47.46363	-122.3077	0.02	0.01650679	-0.3821686	0	3	100	0	4	0.0006266581	0.003406126	-176.1933	
19:12:20	47.46363	-122.3077	0.02	0.01643841	-0.4355477	0	3	100	0	4	0.0001716759	0.00411982	-176.1807	
19:12:20	47.46363	-122.3077	0.02	0.01620786	-0.4746972	0	3	100	0	4	8.254683E-05	0.001964981	-176.1685	
19:12:20	47.46363	-122.3077	0.02	0.0160926	-0.4096682	0	3	100	0	4	0.0003586719	0.004126584	-176.1572	
19:12:20	47.46363	-122.3077	0.02	0.01611165	-0.3507434	0	3	100	0	4	0.0001008623	0.005049509	-176.1462	
19:12:21	47.46363	-122.3077	0.02	0.01616599	-0.3659298	0	3	100	0	4	0.0001902951	0.003500154	-176.1353	
19:12:21	47.46363	-122.3077	0.02	0.01628133	-0.2918766	0	3	100	0	4	8.142157E-05	0.002107119	-176.1246	
19:12:21	47.46363	-122.3077	0.02	0.01649358	-0.2267392	0	3	100	0	4	0.0004070499	0.001302099	-176.1149	
19:12:21	47.46363	-122.3077	0.02	0.01678379	-0.1642793	0	3	100	0	4	9.591081E-05	0.001114233	-176.1052	
19:12:21	47.46363	-122.3077	0.02	0.01713468	-0.1046614	0	3	100	0	4	-0.0001843429	0.001229961	-176.0964	
19:12:22	47.46363	-122.3077	0.02	0.01739964	-0.1519752	0	3	100	0	4	-0.0002526291	0.0006806519	-176.0872	
19:12:22	47.46363	-122.3077	0.02	0.01765424	-0.1517387	0	3	100	0	4	-0.0002065841	-1.686845E-05	-176.0787	
19:12:22	47.46363	-122.3077	0.02	0.01785357	-0.1012638	0	3	100	0	4	0.0001072068	-0.001879405	-176.0705	
19:12:22	47.46363	-122.3077	0.02	0.01808339	-0.05690593	0	3	100	0	4	0.0007326966	0.0001565534	-176.0599	
19:12:22	47.46363	-122.3077	0.02	0.01837769	-0.01032267	0	3	100	0	4	0.0007646678	0.0001982198	-176.0477	
19:12:23	47.46363	-122.3077	0.02	0.0187375	0.03759835	0	3	100	0	4	0.001600916	-0.001328895	-176.0361	
19:12:23	47.46363	-122.3077	0.02	0.01908481	0.07762628	0	3	100	0	5	0.00189907	-0.003179794	-176.025	
19:12:23	47.46363	-122.3077	0.02	0.01943166	0.1132559	0	3	100	0	5	0.001773554	-0.004964399	-176.0143	
19:12:23	47.46363	-122.3077	0.02	0.01978055	0.1454691	0	3	100	0	4	0.001122908	-0.0004792915	-176.0038	
19:12:23	47.46363	-122.3077	0.02	0.02003658	0.09168104	0	3	100	0	4	0.0006487838	-0.002197282	-175.994	
19:12:24	47.46363	-122.3077	0.02	0.02022448	0.1176604	0	3	100	0	4	0.0006982789	-0.0003793369	-175.9847	
19:12:24	47.46363	-122.3077	0.02	0.02041726	0.1026335	0	3	100	0	4	0.0006604902	0.002526548	-175.9754	
19:12:24	47.46363	-122.3077	0.02	0.02033659	-0.09132864	0	3	100	0	4	0.0006453018	0.0009649476	-175.9665	
19:12:24	47.46363	-122.3077	0.02	0.02009063	-0.08627655	0	3	100	0	4	0.0004272631	-0.003150879	-175.9581	
19:12:24	47.46363	-122.3077	0.02	0.01993987	-0.0594906	0	3	100	0	4	-0.0007203454	-0.004603704	-175.9498	
19:12:25	47.46363	-122.3077	0.02	0.01986398	-0.05391049	0	3	100	0	4	8.006176E-05	-0.005418701	-175.9419	
19:12:25	47.46363	-122.3077	0.02	0.01972722	-0.0805714	0	3	100	0	4	0.001025642	-0.002914937	-175.9342	
19:12:25	47.46363	-122.3077	0.02	0.0196577	-0.05010686	0	3	100	0	4	0.0009858507	-0.00277835	-175.927	
19:12:25	47.46363	-122.3077	0.02	0.0196551	-0.02227288	0	3	100	0	4	0.0001468833	0.001168433	-175.9201	
19:12:25	47.46363	-122.3077	0.02	0.01971477	0.01144225	0	3	100	0	4	0.0008021613	-0.002012377	-175.9133	
19:12:26	47.46363	-122.3077	0.02	0.01981839	0.04168063	0	3	100	0	4	0.001316094	0.0004136876	-175.907	
19:12:26	47.46363	-122.3077	0.02	0.01981992	-0.04929575	0	3	100	0	6	0.0001816559	-0.001292458	-175.9008	
19:12:26	47.46363	-122.3077	0.02	0.01979025	-0.01970812	0	3	100	0	4	-0.001499322	-0.00230379	-175.8948	
19:12:26	47.46363	-122.3077	0.02	0.01981621	0.007373066	0	3	100	0	4	-0.0007350306	-0.004118965	-175.8891	
19:12:26	47.46363	-122.3077	0.02	0.01990063	0.0391032	0	3	100	0	4	-0.0008022243	-0.003996958	-175.8835	
19:12:27	47.46363	-122.3077	0.02	0.0200172	0.06686466	0	3	100	0	4	-0.0007801505	-0.006703736	-175.8782	
19:12:27	47.46363	-122.3077	0.02	0.02014706	0.09072219	0	3	100	0	4	-0.001399835	-0.008147229	-175.873	
19:12:27	47.46363	-122.3077	0.02	0.02033084	0.1183319	0	3	100	0	4	-0.0007804137	-0.006453593	-175.8679	
19:12:27	47.46363	-122.3077	0.02	0.02050918	0.1410365	0	3	100	0	4	-0.0009975868	-0.00362551	-175.862	
19:12:27	47.46363	-122.3077	0.02	0.02055064	0.02190712	0	3	100	0	4	-0.0007086273	-0.006372844	-175.8553	
19:12:28	47.46363	-122.3077	0.02	0.02044231	-0.05327224	0	3	100	0	4	-0.0005902091	-0.005292519	-175.849	
19:12:28	47.46363	-122.3077	0.02	0.02028273	-0.03000354	0	3	100	0	4	-0.0002949888	-0.002153452	-175.8431	
19:12:28	47.46363	-122.3077	0.02	0.02019787	-0.005530369	0	3	100	0	5	-5.430079E-06	-0.001101516	-175.8373	
19:12:28	47.46363	-122.3077	0.02	0.02017497	0.02012525	0	3	100	0	4	2.781714E-05	0.002471109	-175.8318	
19:12:29	47.46363	-122.3077	0.02	0.02020371	0.04510501	0	3	100	0	4	0.0002155419	0.005858191	-175.8266	
19:12:29	47.46363	-122.3077	0.02	0.0201715	-0.05011482	0	3	100	0	4	0.000675466	0.005534695	-175.8216	
19:12:29	47.46363	-122.3077	0.02	0.01994314	-0.1628074	0	3	100	0	5	0.000981754	0.003818659	-175.8169	
19:12:29	47.46363	-122.3077	0.02	0.01966423	-0.1315452	0	3	100	0	4	0.0008162107	0.00444037	-175.8124	
19:12:29	47.46363	-122.3077	0.02	0.01946655	-0.1972701	0	3	100	0	5	0.0008808181	0.003229638	-175.8079	
19:12:30	47.46363	-122.3077	0.02	0.01922812	-0.1622373	0	3	100	0	5	0.0007116008	0.003823989	-175.8036	
19:12:30	47.46363	-122.3077	0.02	0.01910624	-0.1261715	0	3	100	0	4	0.0008066705	0.003198817	-175.7995	
19:12:30	47.46363	-122.3077	0.02	0.0190735	-0.09202911	0	3	100	0	4	0.001203207	0.002361464	-175.7955	
19:12:30	47.46363	-122.3077	0.02	0.0191186	-0.05041032	0	3	100	0	4	0.0009235984	0.001253289	-175.7917	
19:12:30	47.46363	-122.3077	0.02	0.0192224	-0.01391032	0	3	100	0	4	0.001023772	-0.0012021	-175.7879	
19:12:31	47.46363	-122.3077	0.02	0.01937587	0.02195361	0	3	100	0	4	0.001591405	-0.003919257	-175.7844	
19:12:31	47.46363	-122.3077	0.02	0.0195638	0.05565197	0	3	100	0	4	0.001622556	-0.006197094	-175.7809	
19:12:31	47.46363	-122.3077	0.02	0.01974713	0.009287396	0	3	100	0	4	0.001390644	-0.005969992	-175.7775	
19:12:31	47.46363	-122.3077	0.02	0.01974639	-0.02093912	0	3	100	0	4	0.0009712919	-0.007374735	-175.7742	
19:12:31	47.46363	-122.3077	0.02	0.01976893	-0.01125696	0	3	100	0	4	0.0007162471	-0.0085755	-175.771	
19:12:32	47.46363	-122.3077	0.02	0.01975866	-0.03427413	0	3	100	0	4	0.001115929	-0.007773519	-175.7678	
19:12:32	47.46363	-122.3077	0.02	0.01976904	-0.003751143	0	3	100	0	4	0.001684327	-0.008510812	-175.7648	
19:12:32	47.46363	-122.3077	0.02	0.01983529	0.02702556	0	3	100	0	5	0.001624686	-0.006278677	-175.762	
19:12:32	47.46363	-122.3077	0.02	0.01994506	0.05664786	0	3	100	0	4	0.001355328	-0.01092712	-175.7593	
19:12:32	47.46363	-122.3077	0.02	0.01994284	-0.05207495	0	3	100	0	4	0.0004795916	-0.01203446	-175.7566	
19:12:33	47.46363	-122.3077	0.02	0.01985476	-0.1005149	0	3	100	0	4	0.001184031	-0.008926726	-175.7536	
19:12:33	47.46363	-122.3077	0.02	0.01972422	-0.07018685	0	3	100	0	4	0.001176731	-0.0080902	-175.7507	
19:12:33	47.46363	-122.3077	0.02	0.0195832	-0.1215428	0	3	100	0	4	0.0009959181	-0.006298097	-175.7479	
19:12:33	47.46363	-122.3077	0.02	0.01927488	-0.2865394	0	3	100	0	5	0.001537596	-0.002921192	-175.7453	
19:12:33	47.46363	-122.3077	0.02	0.01872543	-0.3642865	0	3	100	0	4	0.001491316	-0.003177092	-175.7429	
19:12:34	47.46363	-122.3077	0.02	0.01824988	-0.4202143	0	3	100	0	4	0.001049822	-0.00371807	-175.7405	
19:12:34	47.46363	-122.3077	0.02	0.01776665	-0.4630258	0	3	100	0	4	0.001328018	0.0002050686	-175.7382	
19:12:34	47.46363	-122.3077	0.02	0.01737583	-0.4073539	0	3	100	0	4	0.00122064	0.002236661	-175.736	
19:12:34	47.46363	-122.3077	0.02	0.01710015	-0.4333619	0	3	100	0	4	0.001073248	0.002903296	-175.7339	
19:12:34	47.46363	-122.3077	0.02	0.01677952	-0.4445958	0	3	100	0	4	0.001090629	0.001190707	-175.7319	
19:12:35	47.46363	-122.3077	0.02	0.01661641	-0.3780991	0	3	100	0	4	0.001026752	-0.001913771	-175.7299	
19:12:35	47.46363	-122.3077	0.02	0.01657624	-0.3894116	0	3	100	0	4	0.0005917088	-0.001399448	-175.728	
19:12:35	47.46363	-122.3077	0.02	0.01651527	-0.3424727	0	3	100	0	4	0.0005540807	-0.002445247	-175.7262	
19:12:35	47.46363	-122.3077	0.02	0.01659293	-0.2726848	0	3	100	0	4	0.001395833	-0.003758618	-175.7244	
19:12:35	47.46363	-122.3077	0.02	0.01678817	-0.202752	0	3	100	0	4	0.001083052	-0.003952361	-175.7226	
19:12:36	47.46363	-122.3077	0.02	0.01704552	-0.1414119	0	3	100	0	4	0.0007375984	-0.006195264	-175.7209	
19:12:36	47.46363	-122.3077	0.02	0.01740248	-0.09146632	0	3	100	0	5	0.0005773851	-0.007173492	-175.7192	
19:12:36	47.46363	-122.3077	0.02	0.01761395	-0.1485661	0	3	100	0	4	0.0001930984	-0.007090006	-175.7175	
19:12:36	47.46363	-122.3077	0.02	0.01771833	-0.1873824	0	3	100	0	4	0.0002045688	-0.008404466	-175.7159	
19:12:36	47.46363	-122.3077	0.02	0.0178022	-0.2262027	0	3	100	0	4	-8.317633E-05	-0.007437446	-175.7144	
19:12:37	47.46363	-122.3077	0.02	0.01783803	-0.1728799	0	3	100	0	4	0.000508807	-0.006861501	-175.7129	
19:12:37	47.46363	-122.3077	0.02	0.01797291	-0.1152433	0	3	100	0	4	0.001369091	-0.005230249	-175.7115	
19:12:37	47.46363	-122.3077	0.02	0.0182136	-0.05355686	0	3	100	0	4	0.001632348	-0.007395757	-175.7103	
19:12:37	47.46363	-122.3077	0.02	0.01849404	-0.000513337	0	3	100	0	4	0.001911604	-0.00867357	-175.709	
19:12:37	47.46363	-122.3077	0.02	0.01870087	-0.02932289	0	3	100	0	4	0.001211724	-0.007792216	-175.7078	
19:12:38	47.46363	-122.3077	0.02	0.01891466	-0.03953206	0	3	100	0	4	0.001228812	-0.004343818	-175.7068	
19:12:38	47.46363	-122.3077	0.02	0.0190525	-0.0127315	0	3	100	0	4	0.0005629155	-0.004801621	-175.7059	
19:12:38	47.46363	-122.3077	0.02	0.01924831	0.03264338	0	3	100	0	4	0.0007948815	-0.00562211	-175.705	
19:12:38	47.46363	-122.3077	0.02	0.0194909	0.07589754	0	3	100	0	4	0.0004189048	-0.006029399	-175.7041	
19:12:38	47.46363	-122.3077	0.02	0.01974642	0.1136896	0	3	100	0	4	0.0007439359	-0.006271658	-175.7032	
19:12:39	47.46363	-122.3077	0.02	0.02007091	0.1546509	0	3	100	0	4	0.001018142	-0.003934858	-175.7024	
19:12:39	47.46363	-122.3077	0.02	0.0203467	0.1851808	0	3	100	0	4	0.0006728617	-0.003837724	-175.7017	
19:12:39	47.46363	-122.3077	0.02	0.02065426	0.2156351	0	3	100	0	4	0.0006914655	-0.002723491	-175.701	
19:12:39	47.46363	-122.3077	0.02	0.02095407	0.2423207	0	3	100	0	5	0.001000992	-0.001419906	-175.7003	
19:12:39	47.46363	-122.3077	0.02	0.02127861	0.268207	0	3	100	0	4	0.0007094328	-0.004692082	-175.6996	
19:12:40	47.46363	-122.3077	0.02	0.0215593	0.2882403	0	3	100	0	4	0.0009840069	-0.003112615	-175.699	
19:12:40	47.46363	-122.3077	0.02	0.02181921	0.3048481	0	3	100	0	4	0.001091157	-0.001710846	-175.6984	
19:12:40	47.46363	-122.3077	0.02	0.02203767	0.3172905	0	3	100	0	4	0.001128301	-0.0004953188	-175.6979	
19:12:40	47.46363	-122.3077	0.02	0.02224321	0.2687956	0	3	100	0	4	0.001222776	0.0007189094	-175.6974	
19:12:40	47.46363	-122.3077	0.02	0.02224312	0.2210658	0	3	100	0	4	0.001168723	-0.001120364	-175.6969	
19:12:41	47.46363	-122.3077	0.02	0.02213643	0.1490566	0	3	100	0	4	0.001144064	-0.0016052	-175.6965	
19:12:41	47.46363	-122.3077	0.02	0.021975	0.1020855	0	3	100	0	4	0.001107185	-0.00160226	-175.696	
19:12:41	47.46363	-122.3077	0.02	0.02182434	0.1131355	0	3	100	0	4	0.0009802255	0.0001602927	-175.6956	
19:12:41	47.46363	-122.3077	0.02	0.0216275	0.04435969	0	3	100	0	4	0.001208566	0.0003473173	-175.6951	
19:12:41	47.46363	-122.3077	0.02	0.02138612	0.0406241	0	3	100	0	4	0.001102206	-0.001367632	-175.6948	
19:12:42	47.46363	-122.3077	0.02	0.02122159	0.05894485	0	3	100	0	4	0.0006515861	-0.001094389	-175.6945	
19:12:42	47.46363	-122.3077	0.02	0.02113049	0.07648663	0	3	100	0	4	0.0004180297	-0.002321626	-175.694	
19:12:42	47.46363	-122.3077	0.02	0.02108224	0.09657127	0	3	100	0	4	3.329275E-05	0.001258645	-175.6937	
19:12:42	47.46363	-122.3077	0.02	0.0210818	0.11864	0	3	100	0	4	0.0005564893	-0.0006284442	-175.6934	
19:12:42	47.46363	-122.3077	0.02	0.0211208	0.1388235	0	3	100	0	4	0.0004759518	0.001908306	-175.693	
19:12:43	47.46363	-122.3077	0.02	0.02107462	0.057628	0	3	100	0	4	0.0008555435	0.003313959	-175.693	
19:12:43	47.46363	-122.3077	0.02	0.02077617	-0.1148022	0	3	100	0	4	0.0006961533	0.003297904	-175.6933	
19:12:43	47.46363	-122.3077	0.02	0.02041299	-0.1694949	0	3	100	0	5	9.388801E-05	0.004999571	-175.6934	
19:12:43	47.46363	-122.3077	0.02	0.01986199	-0.3369514	0	3	100	0	4	4.677625E-05	0.008155968	-175.6936	
19:12:43	47.46363	-122.3077	0.02	0.01920453	-0.3589921	0	3	100	0	4	0.0001277034	0.003789381	-175.6938	
19:12:44	47.46363	-122.3077	0.02	0.0187251	-0.3157939	0	3	100	0	4	-0.0001766222	0.001770427	-175.694	
19:12:44	47.46363	-122.3077	0.02	0.01827059	-0.384937	0	3	100	0	5	-0.0006088173	0.002785263	-175.6942	
19:12:44	47.46363	-122.3077	0.02	0.01792722	-0.3314945	0	3	100	0	4	-0.0004076365	0.005472486	-175.6944	
19:12:44	47.46363	-122.3077	0.02	0.01775145	-0.2753122	0	3	100	0	5	-0.0004712889	0.007580506	-175.6947	
19:12:44	47.46363	-122.3077	0.02	0.01771199	-0.2218335	0	3	100	0	4	0.0002242504	0.005156572	-175.695	
19:12:45	47.46363	-122.3077	0.02	0.01779043	-0.1590051	0	3	100	0	4	-9.648271E-05	0.003671237	-175.6952	
19:12:45	47.46363	-122.3077	0.02	0.01795827	-0.1022474	0	3	100	0	4	0.0002738275	0.00356516	-175.6954	
19:12:45	47.46363	-122.3077	0.02	0.01819964	-0.0471379	0	3	100	0	4	0.0007488942	0.003029066	-175.6954	
19:12:45	47.46363	-122.3077	0.02	0.0183727	-0.1168601	0	3	100	0	4	0.0009118536	0.004296707	-175.6955	
19:12:45	47.46363	-122.3077	0.02	0.01840966	-0.2058119	0	3	100	0	4	0.0003239051	0.006452903	-175.6958	
19:12:46	47.46363	-122.3077	0.02	0.01824797	-0.2241694	0	3	100	0	5	0.0008259485	0.007381807	-175.6959	
19:12:46	47.46363	-122.3077	0.02	0.01820891	-0.1705257	0	3	100	0	4	0.0007505155	0.01020103	-175.6962	
19:12:46	47.46363	-122.3077	0.02	0.01811069	-0.2998344	0	3	100	0	4	0.0005299748	0.009540356	-175.6966	
19:12:46	47.46363	-122.3077	0.02	0.01777415	-0.4388755	0	3	100	0	4	0.0007603617	0.01330504	-175.6968	
19:12:46	47.46363	-122.3077	0.02	0.01723244	-0.4894981	0	3	100	0	4	0.0003097777	0.01160341	-175.6971	
19:12:47	47.46363	-122.3077	0.02	0.01687465	-0.5001078	0	3	100	0	4	0.000497452	0.008642906	-175.6973	
19:12:47	47.46363	-122.3077	0.02	0.01647601	-0.5533298	0	3	100	0	4	-0.0004930281	0.008169021	-175.6975	
19:12:47	47.46363	-122.3077	0.02	0.01612978	-0.5467393	0	3	100	0	4	-0.0009341313	0.01008973	-175.6976	
19:12:47	47.46363	-122.3077	0.02	0.01575229	-0.5833057	0	3	100	0	4	-0.0001894606	0.007419855	-175.6978	
19:12:47	47.46363	-122.3077	0.02	0.01555208	-0.5061681	0	3	100	0	4	0.0005308735	0.008112949	-175.6979	
19:12:48	47.46363	-122.3077	0.02	0.01545388	-0.5358808	0	3	100	0	4	0.000319335	0.005392236	-175.6981	
19:12:48	47.46363	-122.3077	0.02	0.01527153	-0.5748689	0	3	100	0	4	0.000838207	0.003966319	-175.6989	
19:12:48	47.46363	-122.3077	0.02	0.01509636	-0.5599319	0	3	100	0	4	0.001221095	0.003079732	-175.6997	
19:12:48	47.46363	-122.3077	0.02	0.01490039	-0.6516237	0	3	100	0	4	0.0005036767	0.003901575	-175.7003	
19:12:48	47.46363	-122.3077	0.02	0.01458719	-0.6576189	0	3	100	0	4	6.48893E-05	0.002957302	-175.7008	
19:12:49	47.46363	-122.3077	0.02	0.01428151	-0.7327245	0	3	100	0	4	-0.0006062174	0.003993638	-175.7013	
19:12:49	47.46363	-122.3077	0.02	0.01409394	-0.6369038	0	3	100	0	4	-0.001396499	0.0027752	-175.7018	
19:12:49	47.46363	-122.3077	0.02	0.01411084	-0.5292289	0	3	100	0	5	-0.0005790897	-0.0002523812	-175.7021	
19:12:49	47.46363	-122.3077	0.02	0.01432281	-0.4219772	0	3	100	0	5	-0.0004062947	-0.0009323746	-175.7025	
19:12:49	47.46363	-122.3077	0.02	0.01458388	-0.4631238	0	3	100	0	4	-0.0004328488	-0.003372596	-175.7028	
19:12:50	47.46363	-122.3077	0.02	0.01479999	-0.3686143	0	3	100	0	5	-6.61322E-05	-0.003639197	-175.703	
19:12:50	47.46363	-122.3077	0.02	0.01521716	-0.2584207	0	3	100	0	4	-0.0005771941	-0.004622834	-175.7032	
19:12:50	47.46363	-122.3077	0.02	0.01572224	-0.1607235	0	3	100	0	4	-0.0009050929	-0.002245362	-175.7035	
19:12:50	47.46363	-122.3077	0.02	0.01630921	-0.06841487	0	3	100	0	4	-0.001052917	-0.001880253	-175.7037	
19:12:50	47.46363	-122.3077	0.02	0.01694526	0.01658204	0	3	100	0	4	-0.0007210898	-0.003596518	-175.704	
19:12:51	47.46363	-122.3077	0.02	0.01762579	0.09606559	0	3	100	0	4	0.0001197693	-0.002710848	-175.7042	
19:12:51	47.46363	-122.3077	0.02	0.01831875	0.1679854	0	3	100	0	4	4.863258E-05	-0.003055401	-175.7044	
19:12:51	47.46363	-122.3077	0.02	0.01880997	0.1289263	0	3	100	0	4	-0.0004081189	-0.001422207	-175.7047	
19:12:51	47.46363	-122.3077	0.02	0.01931093	0.15181	0	3	100	0	4	-0.0007799632	-0.001812623	-175.7049	
19:12:51	47.46363	-122.3077	0.02	0.01977003	0.2057689	0	3	100	0	4	-0.0008803222	0.0004389151	-175.7051	
19:12:52	47.46363	-122.3077	0.02	0.02016348	0.1703201	0	3	100	0	4	-0.0008475508	0.001438005	-175.7054	
19:12:52	47.46363	-122.3077	0.02	0.02052728	0.1984076	0	3	100	0	4	-0.0007670033	0.001032717	-175.7056	
19:12:52	47.46363	-122.3077	0.02	0.02064866	0.04403502	0	3	100	0	4	-0.000803593	0.004161445	-175.7058	
19:12:52	47.46363	-122.3077	0.02	0.02051055	-0.03608913	0	3	100	0	4	-0.0006097845	0.004069708	-175.7061	
19:12:52	47.46363	-122.3077	0.02	0.02039038	0.007516112	0	3	100	0	4	-0.0006420194	0.00329871	-175.7064	
19:12:53	47.46363	-122.3077	0.02	0.02037394	0.05124458	0	3	100	0	5	-0.0007720425	0.001132021	-175.7066	
19:12:53	47.46363	-122.3077	0.02	0.02045034	0.07691339	0	3	100	0	5	-0.0008033456	0.002280521	-175.707	
19:12:53	47.46363	-122.3077	0.02	0.02039445	-0.01943764	0	3	100	0	4	-0.0009216215	-0.001180302	-175.7076	
19:12:53	47.46363	-122.3077	0.02	0.02030826	-0.03006968	0	3	100	0	4	-0.0007043679	-0.001048661	-175.7082	
19:12:53	47.46363	-122.3077	0.02	0.02014656	-0.04363099	0	3	100	0	4	-0.001191532	-0.002169257	-175.7087	
19:12:54	47.46363	-122.3077	0.02	0.02006879	-0.05785187	0	3	100	0	4	-0.0003645144	-0.004024014	-175.7092	
19:12:54	47.46363	-122.3077	0.02	0.01985881	-0.08496764	0	3	100	0	3	-0.0009702762	-0.009710367	-175.7097	
19:12:54	47.46363	-122.3077	0.02	0.01968068	-0.1519607	0	3	100	0	4	-0.001448997	-0.007708786	-175.7101	
19:12:54	47.46363	-122.3077	0.02	0.01950355	-0.1376737	0	3	100	0	4	-0.001095147	-0.00600417	-175.7105	
19:12:54	47.46363	-122.3077	0.02	0.01934455	-0.1442346	0	3	100	0	4	-0.0002369516	-0.00285235	-175.711	
19:12:55	47.46363	-122.3077	0.02	0.01906128	-0.2859694	0	3	100	0	4	0.0003537088	0.0009955011	-175.7114	
19:12:55	47.46363	-122.3077	0.02	0.01859876	-0.3435257	0	3	100	0	4	-0.0005164257	-0.003177204	-175.712	
19:12:55	47.46363	-122.3077	0.02	0.01830758	-0.3056085	0	3	100	0	4	-0.0007994181	-0.002393448	-175.7125	
19:12:55	47.46363	-122.3077	0.02	0.01797981	-0.3074269	0	3	100	0	4	-0.0005769156	-0.0006728637	-175.713	
19:12:55	47.46363	-122.3077	0.02	0.01785331	-0.234985	0	3	100	0	4	-0.0004045088	0.0003052041	-175.7135	
19:12:56	47.46363	-122.3077	0.02	0.01788532	-0.1620118	0	3	100	0	4	-0.0002557983	0.002528693	-175.714	
19:12:56	47.46363	-122.3077	0.02	0.0180432	-0.09052048	0	3	100	0	5	-0.0003950102	0.000575604	-175.7145	
19:12:56	47.46363	-122.3077	0.02	0.01830513	-0.02017928	0	3	100	0	4	-0.0006842228	0.001926941	-175.715	
19:12:56	47.46363	-122.3077	0.02	0.01864234	0.04657862	0	3	100	0	4	-0.0004457277	0.0007423474	-175.7155	
19:12:56	47.46363	-122.3077	0.02	0.01904435	0.1106701	0	3	100	0	5	0.0001892595	-0.0004016736	-175.7159	
19:12:57	47.46363	-122.3077	0.02	0.01948458	0.1698846	0	3	100	0	4	-0.002851998	0.00178923	-175.7162	
19:12:57	47.46363	-122.3077	0.02	0.01994604	0.2239784	0	3	100	0	4	-0.001166352	0.004469712	-175.7166	
19:12:57	47.46363	-122.3077	0.02	0.02028607	0.15572	0	3	100	0	4	-0.001129297	0.006994258	-175.7169	
19:12:57	47.46363	-122.3077	0.02	0.02039196	0.06225528	0	3	100	0	3	-0.0007487669	0.007517906	-175.7173	
19:12:57	47.46363	-122.3077	0.02	0.02049351	0.1134467	0	3	100	0	4	-0.0005463962	0.006031476	-175.7177	
19:12:58	47.46363	-122.3077	0.02	0.02063455	0.1530204	0	3	100	0	4	-0.00109868	0.004238949	-175.718	
19:12:58	47.46363	-122.3077	0.02	0.0208616	0.1991337	0	3	100	0	4	-0.001156914	0.001451438	-175.7184	
19:12:58	47.46363	-122.3077	0.02	0.02106324	0.14142	0	3	100	0	4	-0.001566307	0.001615234	-175.7189	
19:12:58	47.46363	-122.3077	0.02	0.02109794	0.1398029	0	3	100	0	5	-0.001756296	0.0003823329	-175.7194	
19:12:59	47.46363	-122.3077	0.02	0.02110239	0.1127487	0	3	100	0	5	-0.001758957	0.0007508266	-175.7198	
19:12:59	47.46363	-122.3077	0.02	0.02115043	0.1538157	0	3	100	0	4	-0.001475228	0.001862158	-175.7202	
19:12:59	47.46363	-122.3077	0.02	0.02123983	0.1318166	0	3	100	0	4	-0.001374951	0.003313923	-175.7207	
19:12:59	47.46363	-122.3077	0.02	0.02125169	0.1467371	0	3	100	0	4	-0.0009616116	0.00472634	-175.7212	
19:12:59	47.46363	-122.3077	0.02	0.02131546	0.1783712	0	3	100	0	4	-0.0007206055	0.003519064	-175.7217	
19:13:00	47.46363	-122.3077	0.02	0.02144954	0.2158922	0	3	100	0	4	-0.0009431497	0.004945137	-175.7222	
19:13:00	47.46363	-122.3077	0.02	0.02153775	0.1693564	0	3	100	0	4	-0.001167002	0.008331059	-175.7227	
19:13:00	47.46363	-122.3077	0.02	0.0215877	0.1771687	0	3	100	0	4	-0.0006853504	0.007118908	-175.7232	
19:13:00	47.46363	-122.3077	0.02	0.02149704	0.09270527	0	3	100	0	4	-0.0002509608	0.004386108	-175.7237	
19:13:00	47.46363	-122.3077	0.02	0.02142163	0.1252698	0	3	100	0	4	-0.0001538917	0.00173395	-175.7242	
19:13:01	47.46363	-122.3077	0.02	0.02142459	0.1606982	0	3	100	0	4	-0.0008898741	0.003841581	-175.7247	
19:13:01	47.46363	-122.3077	0.02	0.02145704	0.1133405	0	3	100	0	4	-0.001375521	0.00467038	-175.7251	
19:13:01	47.46363	-122.3077	0.02	0.02140961	0.08237316	0	3	100	0	5	-0.0008594759	0.003790337	-175.7256	
19:13:01	47.46363	-122.3077	0.02	0.02126125	0.07388923	0	3	100	0	4	0.0004395625	0.00342277	-175.726	
19:13:01	47.46363	-122.3077	0.02	0.02119496	0.1107679	0	3	100	0	4	-0.0003677578	0.00490019	-175.7263	
19:13:02	47.46363	-122.3077	0.02	0.02121099	0.1445454	0	3	100	0	4	-0.0002772184	0.007115491	-175.7267	
19:13:02	47.46363	-122.3077	0.02	0.02127675	0.1747271	0	3	100	0	4	-0.0009301969	0.009276254	-175.7271	
19:13:02	47.46363	-122.3077	0.02	0.02137599	0.189827	0	3	100	0	4	-0.001233173	0.008199244	-175.7275	
19:13:02	47.46363	-122.3077	0.02	0.0214357	0.10581	0	3	100	0	5	-0.001894131	0.008243306	-175.7278	
19:13:02	47.46363	-122.3077	0.02	0.02124182	-0.04396635	0	3	100	0	4	-0.001776489	0.005639256	-175.7282	
19:13:03	47.46363	-122.3077	0.02	0.02094168	-0.006313877	0	3	100	0	4	-0.001309362	0.003929395	-175.7285	
19:13:03	47.46363	-122.3077	0.02	0.02079054	0.03043598	0	3	100	0	4	-0.002054311	0.00533014	-175.7287	
19:13:03	47.46363	-122.3077	0.02	0.02064744	-0.02656771	0	3	100	0	4	-0.001610713	0.005695092	-175.729	
19:13:03	47.46363	-122.3077	0.02	0.02037071	-0.08782168	0	3	100	0	4	-0.0008916103	0.005931879	-175.7295	
19:13:03	47.46363	-122.3077	0.02	0.02017985	-0.04477081	0	3	100	0	4	0.000103648	0.005973285	-175.7301	
19:13:04	47.46363	-122.3077	0.02	0.02010605	4.645044E-05	0	3	100	0	4	-7.004185E-05	0.005433339	-175.7307	
19:13:04	47.46363	-122.3077	0.02	0.0200076	-0.0536962	0	3	100	0	4	7.499222E-05	0.006730052	-175.7313	
19:13:04	47.46363	-122.3077	0.02	0.01995105	-0.007363422	0	3	100	0	4	0.0002349185	0.008008225	-175.7319	
19:13:04	47.46363	-122.3077	0.02	0.0199602	-0.03954377	0	3	100	0	4	0.0003461047	0.009698004	-175.7325	
19:13:04	47.46363	-122.3077	0.02	0.01978427	-0.1085345	0	3	100	0	6	0.0001358819	0.00628973	-175.7331	
19:13:05	47.46363	-122.3077	0.02	0.01965127	-0.1178328	0	3	100	0	4	0.0002996926	0.004564729	-175.7337	
19:13:05	47.46363	-122.3077	0.02	0.01947053	-0.1305436	0	3	100	0	4	0.000324462	0.004602734	-175.7342	
19:13:05	47.46363	-122.3077	0.02	0.01937686	-0.07794103	0	3	100	0	4	0.0004502775	0.006480368	-175.7347	
19:13:05	47.46363	-122.3077	0.02	0.01940672	-0.01931441	0	3	100	0	4	0.0008939296	0.01042975	-175.7351	
19:13:05	47.46363	-122.3077	0.02	0.01946563	-0.07225247	0	3	100	0	4	0.000830072	0.01075576	-175.7356	
19:13:06	47.46363	-122.3077	0.02	0.01948526	-0.0383695	0	3	100	0	4	0.001111732	0.0109098	-175.7361	
19:13:06	47.46363	-122.3077	0.02	0.01948811	-0.1057562	0	3	100	0	5	5.248869E-05	0.01071912	-175.7366	
19:13:06	47.46363	-122.3077	0.02	0.0192462	-0.25095	0	3	100	0	5	-0.0001500454	0.01145134	-175.7371	
19:13:06	47.46363	-122.3077	0.02	0.01897442	-0.1943595	0	3	100	0	4	3.37596E-05	0.01288409	-175.7376	
19:13:06	47.46363	-122.3077	0.02	0.0187999	-0.2221419	0	3	100	0	4	0.0001494044	0.0116421	-175.7379	
19:13:07	47.46363	-122.3077	0.02	0.01866333	-0.1544895	0	3	100	0	4	0.0002047363	0.00889744	-175.7383	
19:13:07	47.46363	-122.3077	0.02	0.0185932	-0.1578134	0	3	100	0	5	0.0001999724	0.0101411	-175.7386	
19:13:07	47.46363	-122.3077	0.02	0.01862125	-0.09523525	0	3	100	0	5	-5.047999E-05	0.0116446	-175.7389	
19:13:07	47.46363	-122.3077	0.02	0.01877709	-0.02745979	0	3	100	0	4	4.773763E-05	0.01293119	-175.7392	
19:13:07	47.46363	-122.3077	0.02	0.01889776	-0.07178603	0	3	100	0	4	-3.608882E-05	0.01218305	-175.7396	
19:13:08	47.46363	-122.3077	0.02	0.01887003	-0.1291052	0	3	100	0	4	0.0003019798	0.01329143	-175.7399	
19:13:08	47.46363	-122.3077	0.02	0.01882877	-0.1415332	0	3	100	0	4	-0.0001022165	0.01040444	-175.7402	
19:13:08	47.46363	-122.3077	0.02	0.0188405	-0.08174007	0	3	100	0	5	0.0002314779	0.01142394	-175.7405	
19:13:08	47.46363	-122.3077	0.02	0.01887566	-0.1453683	0	3	100	0	4	4.371504E-05	0.01442289	-175.7406	
19:13:08	47.46363	-122.3077	0.02	0.01868555	-0.2806211	0	3	100	0	4	-0.0001440215	0.01742183	-175.7407	
19:13:09	47.46363	-122.3077	0.02	0.01823567	-0.4251128	0	3	100	0	4	-0.0003317299	0.02042077	-175.7406	
19:13:09	47.46363	-122.3077	0.02	0.01772098	-0.5387732	0	3	100	0	4	-0.0005022144	0.02184047	-175.7408	
19:13:09	47.46363	-122.3077	0.02	0.01702812	-0.5546876	0	3	100	0	4	-0.0007698372	0.02227007	-175.7415	
19:13:09	47.46363	-122.3077	0.02	0.01663134	-0.4701366	0	3	100	0	4	-0.001304938	0.02093311	-175.7421	
19:13:09	47.46363	-122.3077	0.02	0.01646795	-0.3816554	0	3	100	0	5	-0.001733177	0.0202594	-175.7427	
19:13:10	47.46363	-122.3077	0.02	0.01648855	-0.3023089	0	3	100	0	5	-0.001187506	0.01852672	-175.7433	
19:13:10	47.46363	-122.3077	0.02	0.01662234	-0.3039869	0	3	100	0	4	-0.00157334	0.01592306	-175.7438	
19:13:10	47.46363	-122.3077	0.02	0.01675088	-0.2235019	0	3	100	0	4	-0.001243839	0.01363378	-175.7443	
19:13:10	47.46363	-122.3077	0.02	0.01695308	-0.2349892	0	3	100	0	4	-0.001412024	0.01306798	-175.7448	
19:13:10	47.46363	-122.3077	0.02	0.01716745	-0.1490762	0	3	100	0	4	-0.0007243401	0.01278972	-175.7451	
19:13:11	47.46363	-122.3077	0.02	0.01752716	-0.06006918	0	3	100	0	4	-0.0006341362	0.01171352	-175.7455	
19:13:11	47.46363	-122.3077	0.02	0.01794308	0.01699039	0	3	100	0	5	-0.0006845111	0.008044113	-175.7459	
19:13:11	47.46363	-122.3077	0.02	0.01842758	0.09054702	0	3	100	0	4	-0.0005226426	0.007016372	-175.7462	
19:13:11	47.46363	-122.3077	0.02	0.01895296	0.1586477	0	3	100	0	4	-0.0004971214	0.007288848	-175.7465	
19:13:11	47.46363	-122.3077	0.02	0.01950244	0.2210216	0	3	100	0	4	-0.000733831	0.008594593	-175.7467	
19:13:12	47.46363	-122.3077	0.02	0.01998202	0.2115435	0	3	100	0	5	-0.000730815	0.01165159	-175.747	
19:13:12	47.46363	-122.3077	0.02	0.02036548	0.2234796	0	3	100	0	4	-0.00061006	0.01126091	-175.7473	
19:13:12	47.46363	-122.3077	0.02	0.0207422	0.2148384	0	3	100	0	4	-0.0005465489	0.008143412	-175.7476	
19:13:12	47.46363	-122.3077	0.02	0.02104191	0.2579513	0	3	100	0	4	0.0001001169	0.006613302	-175.7478	
19:13:12	47.46363	-122.3077	0.02	0.02133957	0.2949044	0	3	100	0	4	-0.0006097	0.002866463	-175.748	
19:13:13	47.46363	-122.3077	0.02	0.02170694	0.3348058	0	3	100	0	5	-0.0004550688	0.002225036	-175.7482	
19:13:13	47.46363	-122.3077	0.02	0.02203639	0.3663934	0	3	100	0	5	-0.0006027914	0.003011286	-175.7483	
19:13:13	47.46363	-122.3077	0.02	0.02236919	0.3948995	0	3	100	0	4	-0.0007759221	0.00263375	-175.7484	
19:13:13	47.46363	-122.3077	0.02	0.02250064	0.2399227	0	3	100	0	4	-0.0003368506	0.002949502	-175.7485	
19:13:13	47.46363	-122.3077	0.02	0.02250785	0.2663308	0	3	100	0	4	-0.0003626024	0.001929703	-175.7486	
19:13:14	47.46363	-122.3077	0.02	0.02255849	0.2894979	0	3	100	0	5	-0.0002835582	-0.0005361228	-175.7487	
19:13:14	47.46363	-122.3077	0.02	0.0226336	0.3098196	0	3	100	0	4	-0.0004226712	0.0003337051	-175.7488	
19:13:14	47.46363	-122.3077	0.02	0.02270242	0.2340376	0	3	100	0	4	-0.0001874572	0.001615932	-175.7489	
19:13:14	47.46363	-122.3077	0.02	0.02265738	0.2526453	0	3	100	0	4	1.60773E-06	0.002389658	-175.7491	
19:13:14	47.46363	-122.3077	0.02	0.02260567	0.1764303	0	3	100	0	4	-0.000227276	0.004864578	-175.7493	
19:13:15	47.46363	-122.3077	0.02	0.02246934	0.1980069	0	3	100	0	4	-0.0005949916	0.002116542	-175.7494	
19:13:15	47.46363	-122.3077	0.02	0.02240032	0.2199835	0	3	100	0	4	-0.0008622317	-0.0003615576	-175.7495	
19:13:15	47.46363	-122.3077	0.02	0.02235161	0.1981625	0	3	100	0	4	-0.0008678837	-0.0006236593	-175.7496	
19:13:15	47.46363	-122.3077	0.02	0.02217682	0.1218328	0	3	100	0	4	-0.001115193	0.001327272	-175.7497	
19:13:15	47.46363	-122.3077	0.02	0.02203514	0.1442001	0	3	100	0	4	-0.0006364801	-0.0004762055	-175.7498	
19:13:16	47.46363	-122.3077	0.02	0.02194493	0.1730138	0	3	100	0	4	0.0007798933	-0.003791265	-175.7498	
19:13:16	47.46363	-122.3077	0.02	0.0219305	0.1995829	0	3	100	0	5	0.0007149719	-0.007266558	-175.7498	
19:13:16	47.46363	-122.3077	0.02	0.02196251	0.22335	0	3	100	0	4	0.0007995733	-0.004856428	-175.7497	
19:13:16	47.46363	-122.3077	0.02	0.02203721	0.2486374	0	3	100	0	4	0.0008359127	-0.005813792	-175.7497	
19:13:16	47.46363	-122.3077	0.02	0.02214223	0.2723857	0	3	100	0	4	0.0003824342	-0.004618689	-175.7496	
19:13:17	47.46363	-122.3077	0.02	0.0222859	0.2970731	0	3	100	0	4	0.0002429584	-0.006186853	-175.7496	
19:13:17	47.46363	-122.3077	0.02	0.02243227	0.3174728	0	3	100	0	4	0.0002293362	-0.007311032	-175.7495	
19:13:17	47.46363	-122.3077	0.02	0.02257362	0.3343718	0	3	100	0	4	0.0001804242	-0.007228462	-175.7494	
19:13:17	47.46363	-122.3077	0.02	0.02273059	0.3507343	0	3	100	0	4	0.0008218335	-0.005219888	-175.7493	
19:13:17	47.46363	-122.3077	0.02	0.02288879	0.3651968	0	3	100	0	4	0.0009241114	-0.005428506	-175.7493	
19:13:18	47.46363	-122.3077	0.02	0.02290418	0.2222598	0	3	100	0	4	0.0003491717	-0.004277993	-175.7493	
19:13:18	47.46363	-122.3077	0.02	0.02278995	0.2352658	0	3	100	0	4	7.461978E-05	-0.003302278	-175.7492	
19:13:18	47.46363	-122.3077	0.02	0.02272243	0.2488131	0	3	100	0	4	-7.459672E-05	-0.005620447	-175.7493	
19:13:18	47.46363	-122.3077	0.02	0.0226925	0.2625634	0	3	100	0	4	-0.000186108	-0.002767497	-175.7492	
19:13:18	47.46363	-122.3077	0.02	0.02261169	0.1938918	0	3	100	0	5	-0.0006361724	-0.003326173	-175.7493	
19:13:19	47.46363	-122.3077	0.02	0.02250159	0.2086588	0	3	100	0	4	-0.001212972	-0.00667751	-175.7493	
19:13:19	47.46363	-122.3077	0.02	0.02243924	0.2242144	0	3	100	0	4	-0.001157583	-0.005251614	-175.7493	
19:13:19	47.46363	-122.3077	0.02	0.02241777	0.239581	0	3	100	0	5	-0.001529965	-0.007987591	-175.7493	
19:13:19	47.46363	-122.3077	0.02	0.02243095	0.256383	0	3	100	0	5	-0.001904207	-0.01073725	-175.7494	
19:13:19	47.46363	-122.3077	0.02	0.02246496	0.2697168	0	3	100	0	5	-0.002276587	-0.01347323	-175.7494	
19:13:20	47.46363	-122.3077	0.02	0.02252747	0.2849681	0	3	100	0	4	-0.002650827	-0.01622289	-175.7494	
