Date	Latitude(deg) 	Longitude(deg)	hamsl(m)	hafl(m)	climbrate(cm/s)	GroundSpeed(m/s)	Airspeed(m/s)	Mav_Link(%)	Rssi_Link(%)	Throttle	Roll(deg)	Pitch(deg)	Yaw(deg)
10:10:18	0	0	0	0	0	0	0	100	0	0	-0.5709149	0.8861347	16.24502	
10:10:18	0	0	0	0	0	0	0	100	0	0	-0.5646597	0.8853564	16.23173	
10:10:18	0	0	0	0	0	0	0	100	0	0	-0.5571996	0.883491	16.23588	
10:10:19	0	0	0	0	0	0	0	100	0	0	-0.5596758	0.8675351	16.20513	
10:10:19	0	0	0	-1.888679	-35.03366	0	3	100	0	50	-0.5647774	0.845103	16.19604	
10:10:19	0	0	0	-1.888679	-35.03366	0	3	100	0	50	-0.5693844	0.8294626	16.17618	
10:10:19	0	0	0	-1.888679	-35.03366	0	3	100	0	50	-0.5855727	0.8114316	16.12914	
10:10:19	0	0	0	-1.888679	-35.03366	0	3	100	0	50	-0.5982655	0.7936336	16.10635	
10:10:19	0	0	0	-1.888679	-35.03366	0	3	100	0	50	-0.6064979	0.7899393	16.13837	
10:10:19	0	0	0	-1.162896	31.74868	0	3	100	0	50	-0.6241894	0.7679728	16.14055	
10:10:20	0	0	0	-1.162896	31.74868	0	3	100	0	50	-0.6329679	0.7556332	16.1567	
10:10:20	0	0	0	-1.162896	31.74868	0	3	100	0	50	-0.6303195	0.7527085	16.19553	
10:10:20	0	0	0	-1.162896	31.74868	0	3	100	0	50	-0.6340985	0.7747907	16.20968	
10:10:20	0	0	0	-1.162896	31.74868	0	3	100	0	50	-0.6392782	0.7671105	16.24873	
10:10:20	0	0	0	-0.7451712	51.17043	0	3	100	0	50	-0.6468635	0.7610717	16.23746	
10:10:20	0	0	0	-0.7451712	51.17043	0	3	100	0	50	-0.6520682	0.7617517	16.21528	
10:10:20	0	0	0	-0.7451712	51.17043	0	3	100	0	50	-0.6994758	0.7134642	16.20983	
10:10:21	0	0	0	-0.7451712	51.17043	0	3	100	0	50	-0.7071075	0.7050575	16.17541	
10:10:21	0	0	0	-0.7451712	51.17043	0	3	100	0	50	-0.7030055	0.6849338	16.14274	
10:10:21	0	0	0	-0.5280617	56.38903	0	3	100	0	50	-0.7018387	0.6782852	16.11701	
10:10:21	0	0	0	-0.5280617	56.38903	0	3	100	0	50	-0.6924449	0.6753852	16.08296	
10:10:21	0	0	0	-0.5280617	56.38903	0	3	100	0	50	-0.6831195	0.6790553	16.06733	
10:10:21	0	0	0	-0.5280617	56.38903	0	3	100	0	50	-0.6769229	0.6926176	16.06167	
10:10:21	0	0	0	-0.5280617	56.38903	0	3	100	0	50	-0.663016	0.7075402	16.05961	
10:10:22	0	0	0	-0.5084375	46.33839	0	3	100	0	50	-0.6651077	0.6999363	16.02729	
10:10:22	0	0	0	-0.5084375	46.33839	0	3	100	0	50	-0.6719149	0.6971572	16.05486	
10:10:22	0	0	0	-0.5084375	46.33839	0	3	100	0	50	-0.6715016	0.6973403	16.06557	
10:10:22	0	0	0	-0.5084375	46.33839	0	3	100	0	50	-0.6669084	0.6982011	16.06178	
10:10:22	0	0	0	-0.5084375	46.33839	0	3	100	0	50	-0.6759962	0.7101339	16.01852	
10:10:22	0	0	0	-0.5127962	40.69791	0	3	100	0	50	-0.6805931	0.7160259	16.00573	
10:10:22	0	0	0	-0.5127962	40.69791	0	3	100	0	50	-0.6719516	0.7515567	15.99387	
10:10:23	0	0	0	-0.5127962	40.69791	0	3	100	0	50	-0.6733564	0.7441514	15.96854	
10:10:23	0	0	0	-0.5127962	40.69791	0	3	100	0	50	-0.6642805	0.7508611	15.94096	
10:10:23	0	0	0	-0.5127962	40.69791	0	3	100	0	50	-0.6708221	0.7462863	15.91537	
10:10:23	0	0	0	-0.6817162	29.1165	0	3	100	0	50	-0.6663597	0.7485896	15.92048	
10:10:23	0	0	0	-0.6817162	29.1165	0	3	100	0	50	-0.6576499	0.7433436	15.9041	
10:10:23	0	0	0	-0.6817162	29.1165	0	3	100	0	50	-0.6576581	0.7607854	15.9101	
10:10:23	0	0	0	-0.6817162	29.1165	0	3	100	0	50	-0.6565341	0.7522143	15.92957	
10:10:24	0	0	0	-0.6817162	29.1165	0	3	100	0	50	-0.6571939	0.7643666	15.93487	
10:10:24	0	0	0	-0.6867174	28.42132	0	3	100	0	50	-0.654713	0.7574841	15.96782	
10:10:24	0	0	0	-0.6867174	28.42132	0	3	100	0	50	-0.6493484	0.7611815	16.00954	
10:10:24	0	0	0	-0.6867174	28.42132	0	3	100	0	50	-0.6480305	0.7685575	15.97947	
10:10:24	0	0	0	-0.6867174	28.42132	0	3	100	0	50	-0.6549333	0.76021	15.97074	
10:10:24	0	0	0	-0.6867174	28.42132	0	3	100	0	50	-0.6648237	0.7632043	15.97524	
10:10:25	0	0	0	-0.6665796	28.94825	0	3	100	0	50	-0.6592603	0.7463126	15.92942	
10:10:25	0	0	0	-0.6665796	28.94825	0	3	100	0	50	-0.666083	0.7450645	15.92949	
10:10:25	0	0	0	-0.6665796	28.94825	0	3	100	0	50	-0.663209	0.7576803	15.95273	
10:10:25	0	0	0	-0.6665796	28.94825	0	3	100	0	50	-0.6543011	0.7604351	15.97348	
10:10:25	0	0	0	-0.6665796	28.94825	0	3	100	0	50	-0.6580546	0.7800832	16.00547	
10:10:25	0	0	0	-0.5323462	33.20559	0	3	100	0	50	-0.6588876	0.7688951	15.99335	
10:10:26	0	0	0	-0.5323462	33.20559	0	3	100	0	50	-0.664397	0.7686856	15.9471	
10:10:26	0	0	0	-0.5323462	33.20559	0	3	100	0	50	-0.6611688	0.7559271	15.94645	
10:10:26	0	0	0	-0.5323462	33.20559	0	3	100	0	50	-0.6571965	0.7239752	15.94079	
10:10:26	0	0	0	-0.5323462	33.20559	0	3	100	0	50	-0.6588088	0.7203316	15.91146	
10:10:26	0	0	0	-0.4501863	31.38316	0	3	100	0	50	-0.6670713	0.698571	15.8813	
10:10:26	0	0	0	-0.4501863	31.38316	0	3	100	0	50	-0.6722349	0.7162818	15.90126	
10:10:26	0	0	0	-0.4501863	31.38316	0	3	100	0	50	-0.6779418	0.7153252	15.92292	
10:10:26	0	0	0	-0.4501863	31.38316	0	3	100	0	50	-0.6759973	0.7221519	15.94466	
10:10:27	0	0	0	-0.4501863	31.38316	0	3	100	0	50	-0.6737168	0.7200658	15.97792	
10:10:27	0	0	0	-0.5601902	22.56135	0	3	100	0	50	-0.6786414	0.7023348	16.0173	
10:10:27	0	0	0	-0.5601902	22.56135	0	3	100	0	50	-0.6730424	0.6845855	15.97244	
10:10:27	0	0	0	-0.5601902	22.56135	0	3	100	0	50	-0.6712245	0.6710572	15.95894	
10:10:27	0	0	0	-0.5601902	22.56135	0	3	100	0	50	-0.6813575	0.6658431	15.94988	
10:10:27	0	0	0	-0.5601902	22.56135	0	3	100	0	50	-0.6850451	0.6670209	15.90614	
10:10:28	0	0	0	-0.9076513	5.858972	0	3	100	0	50	-0.6793486	0.672355	15.89077	
10:10:28	0	0	0	-0.9076513	5.858972	0	3	100	0	50	-0.6837635	0.6764143	15.86178	
10:10:28	0	0	0	-0.9076513	5.858972	0	3	100	0	50	-0.6824681	0.677238	15.84627	
10:10:28	0	0	0	-0.9076513	5.858972	0	3	100	0	50	-0.6773918	0.6842389	15.84552	
10:10:28	0	0	0	-0.9076513	5.858972	0	3	100	0	50	-0.6762777	0.6745832	15.86284	
10:10:28	0	0	0	-1.265574	-3.865421	0	3	100	0	50	-0.6703523	0.6787738	15.85543	
10:10:28	0	0	0	-1.265574	-3.865421	0	3	100	0	50	-0.6613408	0.6723047	15.80123	
10:10:29	0	0	0	-1.265574	-3.865421	0	3	100	0	50	-0.6582808	0.6821809	15.77952	
10:10:29	0	0	0	-1.265574	-3.865421	0	3	100	0	50	-0.6270748	0.7033591	15.79803	
10:10:29	0	0	0	-1.265574	-3.865421	0	3	100	0	50	-0.6063184	0.7213011	15.81753	
10:10:29	0	0	0	-1.196173	9.540344	0	3	100	0	50	-0.6030758	0.7113836	15.86624	
10:10:29	0	0	0	-1.196173	9.540344	0	3	100	0	50	-0.5910431	0.7211356	15.8888	
10:10:29	0	0	0	-1.196173	9.540344	0	3	100	0	50	-0.5833156	0.7342099	15.92508	
10:10:30	0	0	0	-1.196173	9.540344	0	3	100	0	50	-0.5789506	0.732849	15.98048	
10:10:30	0	0	0	-1.196173	9.540344	0	3	100	0	50	-0.5858274	0.7158682	16.02559	
10:10:30	0	0	0	-0.9524866	22.27013	0	3	100	0	50	-0.5969941	0.7092959	16.05701	
10:10:30	0	0	0	-0.9524866	22.27013	0	3	100	0	50	-0.6010494	0.7261406	16.07512	
10:10:30	0	0	0	-0.9524866	22.27013	0	3	100	0	50	-0.6010011	0.7232834	16.10656	
10:10:30	0	0	0	-0.9524866	22.27013	0	3	100	0	50	-0.6041057	0.7236555	16.11738	
10:10:30	0	0	0	-0.9524866	22.27013	0	3	100	0	50	-0.6067873	0.7219037	16.12612	
10:10:31	0	0	0	-0.8329067	24.53925	0	3	100	0	50	-0.6099149	0.7402524	16.13126	
10:10:31	0	0	0	-0.8329067	24.53925	0	3	100	0	50	-0.6115413	0.7449616	16.10614	
10:10:31	0	0	0	-0.8329067	24.53925	0	3	100	0	50	-0.6149771	0.7436482	16.07152	
10:10:31	0	0	0	-0.8329067	24.53925	0	3	100	0	50	-0.6102995	0.7556145	16.06239	
10:10:31	0	0	0	-0.8329067	24.53925	0	3	100	0	50	-0.6076594	0.7745357	16.0875	
10:10:31	0	0	0	-0.7763613	21.2381	0	3	100	0	50	-0.5995665	0.7840251	16.10004	
10:10:31	0	0	0	-0.7763613	21.2381	0	3	100	0	50	-0.5996219	0.795956	16.11585	
10:10:32	0	0	0	-0.7763613	21.2381	0	3	100	0	50	-0.5900309	0.7937986	16.10862	
10:10:32	0	0	0	-0.7763613	21.2381	0	3	100	0	50	-0.599525	0.7918986	16.05694	
10:10:32	0	0	0	-0.7763613	21.2381	0	3	100	0	50	-0.5989323	0.7945672	16.06372	
10:10:32	0	0	0	-0.7078635	19.30112	0	3	100	0	50	-0.5909516	0.8023639	16.06777	
10:10:32	0	0	0	-0.7078635	19.30112	0	3	100	0	50	-0.5890479	0.8108101	16.08089	
10:10:32	0	0	0	-0.7078635	19.30112	0	3	100	0	50	-0.5891846	0.7948376	16.10228	
10:10:32	0	0	0	-0.7078635	19.30112	0	3	100	0	50	-0.5949057	0.794625	16.12621	
10:10:33	0	0	0	-0.7078635	19.30112	0	3	100	0	50	-0.5973653	0.7951003	16.08021	
10:10:33	0	0	0	-0.9548126	8.15324	0	3	100	0	50	-0.5931359	0.7996635	16.06681	
10:10:33	0	0	0	-0.9548126	8.15324	0	3	100	0	50	-0.5766787	0.8422205	16.05006	
10:10:33	0	0	0	-0.9548126	8.15324	0	3	100	0	50	-0.5765218	0.8586577	16.06666	
10:10:33	0	0	0	-0.9548126	8.15324	0	3	100	0	50	-0.570891	0.8549212	16.10148	
10:10:34	0	0	0	-0.9548126	8.15324	0	3	100	0	50	-0.5735816	0.8552254	16.12787	
10:10:34	0	0	0	-0.7694273	17.58244	0	3	100	0	50	-0.5689008	0.8317834	16.13243	
10:10:34	0	0	0	-0.7694273	17.58244	0	3	100	0	50	-0.5820225	0.8297829	16.12356	
10:10:34	0	0	0	-0.7694273	17.58244	0	3	100	0	50	-0.5822586	0.8071405	16.1165	
10:10:34	0	0	0	-0.7694273	17.58244	0	3	100	0	50	-0.5739774	0.794131	16.15341	
10:10:35	0	0	0	-0.7694273	17.58244	0	3	100	0	50	-0.5683135	0.8005481	16.18431	
10:10:35	0	0	0	-0.553533	23.68718	0	3	100	0	50	-0.5776905	0.7860491	16.18307	
10:10:35	0	0	0	-0.553533	23.68718	0	3	100	0	50	-0.5896219	0.786458	16.15334	
10:10:35	0	0	0	-0.553533	23.68718	0	3	100	0	50	-0.5845641	0.781323	16.1607	
10:10:35	0	0	0	-0.553533	23.68718	0	3	100	0	50	-0.5922462	0.7652426	16.15399	
10:10:36	0	0	0	-0.553533	23.68718	0	3	100	0	50	-0.6312039	0.71716	16.13566	
10:10:36	0	0	0	-0.6963507	13.26551	0	3	100	0	50	-0.633722	0.7029193	16.13836	
10:10:36	0	0	0	-0.6963507	13.26551	0	3	100	0	50	-0.6378428	0.6938499	16.10566	
10:10:36	0	0	0	-0.6963507	13.26551	0	3	100	0	50	-0.6518041	0.6819294	16.10094	
10:10:36	0	0	0	-0.6963507	13.26551	0	3	100	0	50	-0.6512913	0.7040147	16.12219	
10:10:37	0	0	0	-0.6963507	13.26551	0	3	100	0	50	-0.6422851	0.7235332	15.83141	
10:10:37	0	0	0	-0.9110429	1.545064	0	3	100	0	50	-3.026363	0.3636866	15.61155	
10:10:37	0	0	0	-0.9110429	1.545064	0	3	100	0	50	-1.484675	-0.270571	15.82531	
10:10:37	0	0	0	-0.9110429	1.545064	0	3	100	0	50	-1.990318	0.3697977	15.57666	
10:10:37	0	0	0	-0.9110429	1.545064	0	3	100	0	50	-4.998828	-0.1483739	15.77687	
10:10:38	0	0	0	-0.9110429	1.545064	0	3	100	0	50	-1.143332	-0.08713574	15.64073	
10:10:38	0	0	0	-1.140321	-5.625006	0	3	100	0	50	-5.494823	-0.2138333	14.94567	
10:10:38	0	0	0	-1.140321	-5.625006	0	3	100	0	50	-5.984778	-0.260965	15.03359	
10:10:38	0	0	0	-1.140321	-5.625006	0	3	100	0	50	-2.134002	-0.7791607	15.46415	
10:10:38	0	0	0	-1.140321	-5.625006	0	3	100	0	50	0.4835318	-0.3779405	15.94014	
10:10:39	0	0	0	-1.140321	-5.625006	0	3	100	0	50	-0.5641487	-0.357951	15.39977	
10:10:39	0	0	0	-1.179252	7.7126	0	3	100	0	50	-5.527931	-0.4150339	15.69145	
10:10:39	0	0	0	-1.179252	7.7126	0	3	100	0	50	-7.891267	-0.1937481	16.13567	
10:10:39	0	0	0	-1.179252	7.7126	0	3	100	0	50	-2.701733	-0.7710935	16.35808	
10:10:39	0	0	0	-1.179252	7.7126	0	3	100	0	50	3.040766	-0.5742593	15.8012	
10:10:40	0	0	0	-1.179252	7.7126	0	3	100	0	50	7.416821	0.5677703	16.14795	
10:10:40	0	0	0	-1.003784	18.03854	0	3	100	0	50	8.30154	0.7086163	16.1288	
10:10:40	0	0	0	-1.003784	18.03854	0	3	100	0	50	10.68873	1.053507	15.98169	
10:10:40	0	0	0	-1.003784	18.03854	0	3	100	0	50	9.147733	0.7125162	15.22315	
10:10:40	0	0	0	-1.003784	18.03854	0	3	100	0	50	2.077901	0.02639838	14.59541	
10:10:41	0	0	0	-1.003784	18.03854	0	3	100	0	50	-2.051054	-0.2520851	13.88778	
10:10:41	0	0	0	-0.9733267	18.38337	0	3	100	0	50	-6.156744	-0.04533741	14.20913	
10:10:41	0	0	0	-0.9733267	18.38337	0	3	100	0	50	-5.524596	-0.2078938	14.87536	
10:10:41	0	0	0	-0.9733267	18.38337	0	3	100	0	50	-2.928119	-0.8259444	15.0265	
10:10:41	0	0	0	-0.9733267	18.38337	0	3	100	0	50	3.370185	-0.3201598	14.92212	
10:10:42	0	0	0	-0.9733267	18.38337	0	3	100	0	50	7.751262	0.8932547	15.18982	
10:10:42	0	0	0	-1.082916	6.728677	0	3	100	0	50	7.152346	0.7564489	15.19569	
10:10:42	0	0	0	-1.082916	6.728677	0	3	100	0	50	0.7145469	-0.3968287	14.73694	
10:10:42	0	0	0	-1.082916	6.728677	0	3	100	0	50	-2.634578	-0.3200929	14.43125	
10:10:42	0	0	0	-1.082916	6.728677	0	3	100	0	50	-7.136613	0.04643808	14.92173	
10:10:43	0	0	0	-1.082916	6.728677	0	3	100	0	50	-6.196238	-0.3014525	15.37543	
10:10:43	0	0	0	-1.141833	6.868073	0	3	100	0	50	-0.6033169	-0.4681318	15.18748	
10:10:43	0	0	0	-1.141833	6.868073	0	3	100	0	50	7.110476	1.321355	14.70169	
10:10:43	0	0	0	-1.141833	6.868073	0	3	100	0	50	6.70319	1.204513	14.50067	
10:10:43	0	0	0	-1.141833	6.868073	0	3	100	0	50	-2.194907	-0.1619136	14.10096	
10:10:44	0	0	0	-1.141833	6.868073	0	3	100	0	50	-6.274752	-0.07671664	15.07735	
10:10:44	0	0	0	-1.164467	-0.6988244	0	3	100	0	50	-4.788006	-0.1087938	15.4776	
10:10:44	0	0	0	-1.164467	-0.6988244	0	3	100	0	50	-0.4914616	0.9235664	15.22918	
10:10:44	0	0	0	-1.164467	-0.6988244	0	3	100	0	50	-0.6537126	0.8558425	16.11168	
10:10:44	0	0	0	-1.164467	-0.6988244	0	3	100	0	50	-0.7083224	0.8317329	16.57959	
10:10:45	0	0	0	-1.164467	-0.6988244	0	3	100	0	50	-0.8205293	0.7782834	18.45213	
10:10:45	0	0	0	-1.649532	-25.4294	0	3	100	0	50	-0.8083037	0.7660159	18.58227	
10:10:45	0	0	0	-1.649532	-25.4294	0	3	100	0	50	-0.813998	0.7662025	18.67563	
10:10:45	0	0	0	-1.649532	-25.4294	0	3	100	0	50	-0.8029463	0.7783116	18.73551	
10:10:45	0	0	0	-1.649532	-25.4294	0	3	100	0	50	-0.7986858	0.7793968	18.78338	
10:10:46	0	0	0	-1.649532	-25.4294	0	3	100	0	50	-0.7950634	0.7858007	18.82025	
10:10:46	0	0	0	-1.42554	-2.144585	0	3	100	0	50	-0.7938608	0.7864981	18.90325	
10:10:46	0	0	0	-1.42554	-2.144585	0	3	100	0	50	-0.708474	0.8346371	18.10401	
10:10:46	0	0	0	-1.42554	-2.144585	0	3	100	0	50	-1.586065	0.6098203	18.44038	
10:10:46	0	0	0	-1.42554	-2.144585	0	3	100	0	50	-11.02895	-0.08261057	17.68804	
10:10:47	0	0	0	-1.42554	-2.144585	0	3	100	0	50	-8.557911	-0.3354014	17.43139	
10:10:47	0	0	0	-1.308711	2.198638	0	3	100	0	50	-1.12697	-1.257037	17.71527	
10:10:47	0	0	0	-1.308711	2.198638	0	3	100	0	50	5.255656	-0.6376223	17.84855	
10:10:47	0	0	0	-1.308711	2.198638	0	3	100	0	50	6.081635	-0.2009064	17.75315	
10:10:47	0	0	0	-1.308711	2.198638	0	3	100	0	50	8.033042	0.4946612	17.56628	
10:10:48	0	0	0	-1.308711	2.198638	0	3	100	0	50	-0.8820766	-2.892488	17.13298	
10:10:48	0	0	0	-1.424332	-10.74513	0	3	100	0	50	-8.113585	-2.749561	16.82798	
10:10:48	0	0	0	-1.424332	-10.74513	0	3	100	0	50	-12.65346	-1.577923	17.13815	
10:10:48	0	0	0	-1.424332	-10.74513	0	3	100	0	50	-6.502699	-2.102357	16.48873	
10:10:48	0	0	0	-1.424332	-10.74513	0	3	100	0	50	0.7587451	-1.392809	16.47774	
10:10:49	0	0	0	-1.424332	-10.74513	0	3	100	0	50	5.745014	0.5498419	16.41765	
10:10:49	0	0	0	-1.269137	1.941334	0	3	100	0	50	-0.0002729331	-0.560003	16.26475	
10:10:49	0	0	0	-1.269137	1.941334	0	3	100	0	50	-1.064578	0.3935955	17.00252	
10:10:49	0	0	0	-1.269137	1.941334	0	3	100	0	50	-0.9591522	0.7485757	20.93853	
10:10:49	0	0	0	-1.269137	1.941334	0	3	100	0	50	-0.9718999	0.7548491	21.07217	
10:10:50	0	0	0	-1.269137	1.941334	0	3	100	0	50	-0.9929584	0.7880089	21.30419	
10:10:50	0	0	0	-1.239571	5.99069	0	3	100	0	50	-0.9935852	0.8161634	21.42273	
10:10:50	0	0	0	-1.239571	5.99069	0	3	100	0	50	-0.9799202	0.8334613	21.59089	
10:10:50	0	0	0	-1.239571	5.99069	0	3	100	0	50	-0.9785948	0.823208	21.71626	
10:10:50	0	0	0	-1.239571	5.99069	0	3	100	0	50	-0.9638166	0.8499946	21.83328	
10:10:51	0	0	0	-1.239571	5.99069	0	3	100	0	50	-0.945797	0.8346459	21.97358	
10:10:51	0	0	0	-1.177712	7.789306	0	3	100	0	50	-0.9282466	0.8296546	22.13541	
10:10:51	0	0	0	-1.177712	7.789306	0	3	100	0	50	-0.9282963	0.8207346	22.28899	
10:10:51	0	0	0	-1.177712	7.789306	0	3	100	0	50	-0.9178026	0.8223022	22.45588	
10:10:51	0	0	0	-1.177712	7.789306	0	3	100	0	50	-0.9126043	0.8421355	22.51955	
10:10:52	0	0	0	-1.177712	7.789306	0	3	100	0	50	-0.9001532	0.8508598	22.61584	
10:10:52	0	0	0	-1.20097	4.403519	0	3	100	0	50	-0.8831576	0.8601828	22.72262	
10:10:52	0	0	0	-1.20097	4.403519	0	3	100	0	50	-0.8703669	0.8620708	22.81081	
10:10:52	0	0	0	-1.20097	4.403519	0	3	100	0	50	-0.8543155	0.8620619	22.89841	
10:10:52	0	0	0	-1.20097	4.403519	0	3	100	0	50	-0.8447487	0.8622083	22.97899	
10:10:53	0	0	0	-1.20097	4.403519	0	3	100	0	50	-0.8503841	0.8508326	23.0435	
10:10:53	0	0	0	-1.307362	-0.4993333	0	3	100	0	50	-0.8579576	0.8400305	23.1017	
10:10:53	0	0	0	-1.307362	-0.4993333	0	3	100	0	50	-0.8575546	0.8316514	23.16777	
10:10:53	0	0	0	-1.307362	-0.4993333	0	3	100	0	50	-0.8599465	0.8248022	23.21587	
10:10:53	0	0	0	-1.307362	-0.4993333	0	3	100	0	50	-0.8659503	0.8341963	23.28031	
10:10:54	0	0	0	-1.307362	-0.4993333	0	3	100	0	50	-0.8368012	0.8578717	23.3647	
10:10:54	0	0	0	-0.9670116	14.91067	0	3	100	0	50	-0.8202015	0.8637308	23.42151	
10:10:54	0	0	0	-0.9670116	14.91067	0	3	100	0	50	-0.8086863	0.8716444	23.43168	
10:10:54	0	0	0	-0.9670116	14.91067	0	3	100	0	50	-0.7626258	0.9021645	23.50489	
10:10:55	0	0	0	-0.9670116	14.91067	0	3	100	0	50	-0.7418718	0.9068163	23.55623	
10:10:55	0	0	0	-0.9670116	14.91067	0	3	100	0	50	-0.7484333	0.9048429	23.62537	
10:10:55	0	0	0	-1.103739	6.462783	0	3	100	0	50	-0.7545108	0.9136032	23.69186	
10:10:55	0	0	0	-1.103739	6.462783	0	3	100	0	50	-0.7575803	0.906868	23.73342	
10:10:55	0	0	0	-1.103739	6.462783	0	3	100	0	50	-0.7375668	0.9143608	23.75206	
10:10:56	0	0	0	-1.103739	6.462783	0	3	100	0	50	-0.7260017	0.9167465	23.78603	
10:10:56	0	0	0	-1.103739	6.462783	0	3	100	0	50	-0.7224799	0.9323846	23.83906	
10:10:56	0	0	0	-1.17543	1.55459	0	3	100	0	50	-0.7129918	0.9152685	23.88075	
10:10:56	0	0	0	-1.17543	1.55459	0	3	100	0	50	-0.7039011	0.934864	23.95146	
10:10:56	0	0	0	-1.17543	1.55459	0	3	100	0	50	-0.6996743	0.9385009	23.99819	
10:10:57	0	0	0	-1.17543	1.55459	0	3	100	0	50	-0.6997327	0.920958	24.03227	
10:10:57	0	0	0	-1.17543	1.55459	0	3	100	0	50	-0.7017671	0.9087612	24.09939	
10:10:57	0	0	0	-1.325875	-5.295344	0	3	100	0	50	-0.7016107	0.896776	24.14679	
10:10:57	0	0	0	-1.325875	-5.295344	0	3	100	0	50	-0.703262	0.8896141	24.20693	
10:10:57	0	0	0	-1.325875	-5.295344	0	3	100	0	50	-0.7054417	0.885679	24.24814	
10:10:58	0	0	0	-1.325875	-5.295344	0	3	100	0	50	-0.7133493	0.8763164	24.29271	
10:10:58	0	0	0	-1.325875	-5.295344	0	3	100	0	50	-0.7041196	0.8771957	24.33605	
10:10:58	0	0	0	-1.193693	3.525415	0	3	100	0	50	-0.6985793	0.8673114	24.3923	
10:10:58	0	0	0	-1.193693	3.525415	0	3	100	0	50	-0.7016767	0.8631035	24.44319	
10:10:58	0	0	0	-1.193693	3.525415	0	3	100	0	50	-0.7030863	0.8335913	24.49918	
10:10:59	0	0	0	-1.193693	3.525415	0	3	100	0	50	-0.7409324	0.7954235	24.54313	
10:10:59	0	0	0	-1.193693	3.525415	0	3	100	0	50	-0.7430764	0.7782198	24.58047	
10:10:59	0	0	0	-1.172268	3.291295	0	3	100	0	50	-0.7398	0.7697659	24.61899	
10:10:59	0	0	0	-1.172268	3.291295	0	3	100	0	50	-0.749299	0.7678024	24.64961	
10:10:59	0	0	0	-1.172268	3.291295	0	3	100	0	50	-0.7442024	0.7876311	24.68319	
10:11:00	0	0	0	-1.172268	3.291295	0	3	100	0	50	-0.743602	0.7741001	24.72153	
10:11:00	0	0	0	-1.172268	3.291295	0	3	100	0	50	-0.7660515	0.7674127	24.5838	
10:11:00	0	0	0	-0.9658417	13.74883	0	3	100	0	50	-3.830443	0.1377958	23.98688	
10:11:00	0	0	0	-0.9658417	13.74883	0	3	100	0	50	-9.273519	-0.09904268	23.47248	
10:11:00	0	0	0	-0.9658417	13.74883	0	3	100	0	50	-4.541729	-0.9412507	23.38952	
10:11:01	0	0	0	-0.9658417	13.74883	0	3	100	0	50	2.067616	-0.3656608	23.67023	
10:11:01	0	0	0	-0.9658417	13.74883	0	3	100	0	50	5.448469	0.2181105	23.49454	
10:11:01	0	0	0	-0.6597775	24.82649	0	3	100	0	50	3.851933	0.1749808	22.40811	
10:11:01	0	0	0	-0.6597775	24.82649	0	3	100	0	50	-1.387592	-0.3953158	20.72878	
10:11:01	0	0	0	-0.6597775	24.82649	0	3	100	0	50	-4.800801	-0.6839239	20.30305	
10:11:02	0	0	0	-0.6597775	24.82649	0	3	100	0	50	-3.909935	-0.6582788	20.76753	
10:11:02	0	0	0	-0.6597775	24.82649	0	3	100	0	50	-0.1980006	0.526482	21.38205	
10:11:02	0	0	0	-0.790344	11.43235	0	3	100	0	50	-0.7238398	0.7612851	22.2408	
10:11:02	0	0	0	-0.790344	11.43235	0	3	100	0	50	-0.8579058	0.8510165	23.25274	
10:11:02	0	0	0	-0.790344	11.43235	0	3	100	0	50	-0.8540661	0.8541462	23.33176	
10:11:03	0	0	0	-0.790344	11.43235	0	3	100	0	50	-0.7878703	0.8504688	23.37438	
10:11:03	0	0	0	-0.790344	11.43235	0	3	100	0	50	-0.7749801	0.8583421	23.41298	
10:11:03	0	0	0	-0.9288805	-4.97284	0	3	100	0	50	-0.7600449	0.8530113	23.47294	
10:11:03	0	0	0	-0.9288805	-4.97284	0	3	100	0	50	-0.7436211	0.854215	23.48041	
10:11:03	0	0	0	-0.9288805	-4.97284	0	3	100	0	50	-0.727361	0.8928161	23.49137	
10:11:04	0	0	0	-0.9288805	-4.97284	0	3	100	0	50	-0.6996006	0.9144344	23.54864	
10:11:04	0	0	0	-0.9288805	-4.97284	0	3	100	0	50	-0.6952245	0.9001969	23.63231	
10:11:04	0	0	0	-1.334801	-19.78669	0	3	100	0	50	-0.6804172	0.9039164	23.70565	
10:11:04	0	0	0	-1.334801	-19.78669	0	3	100	0	50	-0.6758978	0.8993261	23.76439	
10:11:04	0	0	0	-1.334801	-19.78669	0	3	100	0	50	-0.6560388	0.9101934	23.81235	
10:11:05	0	0	0	-1.334801	-19.78669	0	3	100	0	50	-0.6664423	0.8986989	23.89557	
10:11:05	0	0	0	-1.334801	-19.78669	0	3	100	0	50	-0.666983	0.8930758	23.94508	
10:11:05	0	0	0	-1.37206	-12.49217	0	3	100	0	50	-0.657104	0.9033643	23.99053	
10:11:05	0	0	0	-1.37206	-12.49217	0	3	100	0	50	-0.6404537	0.908695	24.03202	
10:11:05	0	0	0	-1.37206	-12.49217	0	3	100	0	50	-0.6363341	0.924049	24.06292	
10:11:06	0	0	0	-1.37206	-12.49217	0	3	100	0	50	-0.6281207	0.9101701	24.09216	
10:11:06	0	0	0	-1.37206	-12.49217	0	3	100	0	50	-0.6257057	0.8940584	24.13367	
10:11:06	0	0	0	-1.558315	-14.44529	0	3	100	0	50	-0.6211317	0.8911299	24.15791	
10:11:06	0	0	0	-1.558315	-14.44529	0	3	100	0	50	-0.6241934	0.8673593	24.20032	
10:11:06	0	0	0	-1.558315	-14.44529	0	3	100	0	50	-0.6226969	0.8485071	24.26287	
10:11:07	0	0	0	-1.558315	-14.44529	0	3	100	0	50	-0.6204867	0.8553566	24.3104	
10:11:07	0	0	0	-1.558315	-14.44529	0	3	100	0	50	-0.6143855	0.8435635	24.38002	
10:11:07	0	0	0	-1.580373	-8.999172	0	3	100	0	50	-0.6048434	0.8582278	24.39608	
10:11:07	0	0	0	-1.580373	-8.999172	0	3	100	0	50	-0.5932566	0.8356356	24.46633	
10:11:07	0	0	0	-1.580373	-8.999172	0	3	100	0	50	-0.5888663	0.8491583	24.48897	
10:11:08	0	0	0	-1.580373	-8.999172	0	3	100	0	50	-0.5735065	0.8584676	24.52995	
10:11:08	0	0	0	-1.580373	-8.999172	0	3	100	0	50	-0.5566019	0.8632206	24.56696	
10:11:08	0	0	0	-1.262729	9.382148	0	3	100	0	50	-0.544074	0.8555842	24.60507	
10:11:08	0	0	0	-1.262729	9.382148	0	3	100	0	50	-0.5369946	0.8576808	24.65775	
10:11:08	0	0	0	-1.262729	9.382148	0	3	100	0	50	-0.5231703	0.8690285	24.72022	
10:11:09	0	0	0	-1.262729	9.382148	0	3	100	0	50	-0.5190098	0.8881086	24.78265	
10:11:09	0	0	0	-1.262729	9.382148	0	3	100	0	50	-0.5154248	0.9074269	24.83013	
10:11:09	0	0	0	-1.013214	15.9912	0	3	100	0	50	-0.5189155	0.8960102	24.86264	
10:11:09	0	0	0	-1.013214	15.9912	0	3	100	0	50	-0.5326928	0.8966289	24.88738	
10:11:09	0	0	0	-1.013214	15.9912	0	3	100	0	50	-0.5302158	0.8890664	24.92421	
10:11:10	0	0	0	-1.013214	15.9912	0	3	100	0	50	-0.5260074	0.8747782	24.97531	
10:11:10	0	0	0	-1.013214	15.9912	0	3	100	0	50	-0.524855	0.8638061	25.03626	
10:11:10	0	0	0	-0.8377044	19.64525	0	3	100	0	50	-0.5231442	0.8436757	25.05847	
10:11:10	0	0	0	-0.8377044	19.64525	0	3	100	0	50	-0.522217	0.8420398	25.08822	
10:11:10	0	0	0	-0.8377044	19.64525	0	3	100	0	50	-0.5238951	0.8183365	25.12166	
10:11:11	0	0	0	-0.8377044	19.64525	0	3	100	0	50	-0.5205127	0.8332475	25.13368	
10:11:11	0	0	0	-0.8377044	19.64525	0	3	100	0	50	-0.5244325	0.8398106	25.12956	
10:11:11	0	0	0	-0.6978647	18.97006	0	3	100	0	50	-0.523429	0.8557398	25.13699	
10:11:11	0	0	0	-0.6978647	18.97006	0	3	100	0	50	-0.5314636	0.8609743	25.11741	
10:11:11	0	0	0	-0.6978647	18.97006	0	3	100	0	50	-0.5138906	0.8769742	25.09168	
10:11:12	0	0	0	-0.6978647	18.97006	0	3	100	0	50	-0.5193501	0.8737781	25.1322	
10:11:12	0	0	0	-0.6978647	18.97006	0	3	100	0	50	-0.5145414	0.8794806	25.18769	
10:11:12	0	0	0	-0.7539618	8.672147	0	3	100	0	50	-0.520881	0.8673715	25.21775	
10:11:12	0	0	0	-0.7539618	8.672147	0	3	100	0	50	-0.5222925	0.8660259	25.23353	
10:11:12	0	0	0	-0.7539618	8.672147	0	3	100	0	50	-0.5231428	0.8664472	25.2352	
10:11:13	0	0	0	-0.7539618	8.672147	0	3	100	0	50	-0.5190563	0.8679912	25.26838	
10:11:13	0	0	0	-0.7539618	8.672147	0	3	100	0	50	-0.5218566	0.8936748	25.29404	
10:11:13	0	0	0	-0.8203077	4.151484	0	3	100	0	50	-0.5200159	0.9103363	25.26282	
10:11:13	0	0	0	-0.8203077	4.151484	0	3	100	0	50	-0.500986	0.946614	25.22951	
10:11:13	0	0	0	-0.8203077	4.151484	0	3	100	0	50	-0.5083671	0.9352399	25.24825	
10:11:14	0	0	0	-0.8203077	4.151484	0	3	100	0	50	-0.5101566	0.9289249	25.27768	
10:11:14	0	0	0	-0.8203077	4.151484	0	3	100	0	50	-0.5165461	0.9236639	25.3084	
10:11:14	0	0	0	-0.9138517	-3.649302	0	3	100	0	50	-0.5255065	0.9252261	25.33446	
10:11:14	0	0	0	-0.9138517	-3.649302	0	3	100	0	50	-0.5205712	0.9371684	25.3844	
10:11:14	0	0	0	-0.9138517	-3.649302	0	3	100	0	50	-0.51851	0.9520661	25.4045	
10:11:15	0	0	0	-0.9138517	-3.649302	0	3	100	0	50	-0.5137261	0.9492382	25.39477	
10:11:15	0	0	0	-0.9138517	-3.649302	0	3	100	0	50	-0.5084664	0.9528023	25.41082	
10:11:15	0	0	0	-0.9446976	-3.234235	0	3	100	0	50	-0.5184689	0.9437706	25.42056	
10:11:15	0	0	0	-0.9446976	-3.234235	0	3	100	0	50	-0.5189819	0.9373122	25.4019	
10:11:15	0	0	0	-0.9446976	-3.234235	0	3	100	0	50	-0.5266059	0.9517908	25.37791	
10:11:16	0	0	0	-0.9446976	-3.234235	0	3	100	0	50	-0.5316659	0.9389695	25.34587	
10:11:16	0	0	0	-0.9446976	-3.234235	0	3	100	0	50	-0.5282409	0.9411854	25.31417	
10:11:16	0	0	0	-1.224553	-13.92791	0	3	100	0	50	-0.5264708	0.9339506	25.32118	
10:11:16	0	0	0	-1.224553	-13.92791	0	3	100	0	50	-0.5161621	0.9439403	25.28798	
10:11:16	0	0	0	-1.224553	-13.92791	0	3	100	0	50	-0.5155582	0.9376848	25.29017	
10:11:17	0	0	0	-1.224553	-13.92791	0	3	100	0	50	-0.5310321	0.9296485	25.32725	
10:11:17	0	0	0	-1.224553	-13.92791	0	3	100	0	50	-0.5259009	0.9259101	25.36205	
10:11:17	0	0	0	-1.295757	-9.392165	0	3	100	0	50	-0.5267995	0.9306592	25.40714	
10:11:17	0	0	0	-1.295757	-9.392165	0	3	100	0	50	-0.5570982	0.872575	25.42091	
10:11:17	0	0	0	-1.295757	-9.392165	0	3	100	0	50	-0.5486997	0.8782927	25.36937	
10:11:18	0	0	0	-1.295757	-9.392165	0	3	100	0	50	-0.5455058	0.8695647	25.36493	
10:11:18	0	0	0	-1.295757	-9.392165	0	3	100	0	50	-0.5439274	0.8647155	25.32791	
10:11:18	0	0	0	-1.220898	-3.225368	0	3	100	0	50	-0.5517201	0.8740738	25.30713	
10:11:18	0	0	0	-1.220898	-3.225368	0	3	100	0	50	-0.5498938	0.8794863	25.28786	
10:11:18	0	0	0	-1.220898	-3.225368	0	3	100	0	50	-0.5529084	0.8665155	25.2573	
10:11:19	0	0	0	-1.220898	-3.225368	0	3	100	0	50	-0.5568314	0.8715013	25.2634	
10:11:19	0	0	0	-1.220898	-3.225368	0	3	100	0	50	-0.5712614	0.8587956	25.2624	
10:11:19	0	0	0	-1.180765	0.09677447	0	3	100	0	50	-0.5699807	0.8400419	25.2698	
10:11:19	0	0	0	-1.180765	0.09677447	0	3	100	0	50	-0.5664154	0.8484595	25.27026	
10:11:19	0	0	0	-1.180765	0.09677447	0	3	100	0	50	-0.5723764	0.8409554	25.28671	
10:11:20	0	0	0	-1.180765	0.09677447	0	3	100	0	50	-0.5629327	0.8545198	25.25222	
10:11:20	0	0	0	-1.180765	0.09677447	0	3	100	0	50	-0.570721	0.8598213	25.2213	
10:11:20	0	0	0	-1.232688	-2.02873	0	3	100	0	50	-0.5720695	0.8690216	25.20553	
10:11:20	0	0	0	-1.232688	-2.02873	0	3	100	0	50	-0.5654392	0.8629279	25.204	
10:11:20	0	0	0	-1.232688	-2.02873	0	3	100	0	50	-0.5503967	0.8469198	25.18487	
10:11:21	0	0	0	-1.232688	-2.02873	0	3	100	0	50	-0.5528153	0.8386114	25.17176	
10:11:21	0	0	0	-1.232688	-2.02873	0	3	100	0	50	-0.5592295	0.8485518	25.17374	
10:11:21	0	0	0	-1.207851	-1.094187	0	3	100	0	50	-0.5537758	0.848505	25.19438	
10:11:21	0	0	0	-1.207851	-1.094187	0	3	100	0	50	-0.561402	0.8529047	25.20439	
10:11:22	0	0	0	-1.207851	-1.094187	0	3	100	0	50	-0.5542551	0.8569512	25.21987	
10:11:22	0	0	0	-1.207851	-1.094187	0	3	100	0	50	-0.5422172	0.885761	25.21944	
10:11:22	0	0	0	-1.207851	-1.094187	0	3	100	0	50	-0.5311878	0.8955983	25.23647	
10:11:22	0	0	0	-1.289678	-3.711366	0	3	100	0	50	-0.5218602	0.9113769	25.23537	
10:11:22	0	0	0	-1.289678	-3.711366	0	3	100	0	50	-0.5102001	0.9069104	25.23865	
10:11:22	0	0	0	-1.289678	-3.711366	0	3	100	0	50	-0.4933397	0.9147249	25.25826	
10:11:23	0	0	0	-1.289678	-3.711366	0	3	100	0	50	-0.4881045	0.9079677	25.26164	
10:11:23	0	0	0	-1.289678	-3.711366	0	3	100	0	50	-0.4830947	0.919269	25.23911	
10:11:23	0	0	0	-1.102394	6.367787	0	3	100	0	50	-0.4834411	0.9224623	25.19557	
10:11:23	0	0	0	-1.102394	6.367787	0	3	100	0	50	-0.478398	0.9139931	25.16928	
10:11:24	0	0	0	-1.102394	6.367787	0	3	100	0	50	-0.4797914	0.923631	25.18707	
10:11:24	0	0	0	-1.102394	6.367787	0	3	100	0	50	-0.4856362	0.9064708	25.14412	
10:11:24	0	0	0	-1.102394	6.367787	0	3	100	0	50	-0.4843274	0.8837485	25.1179	
10:11:24	0	0	0	-1.254026	-2.816244	0	3	100	0	50	-0.4936923	0.8676564	25.08863	
10:11:24	0	0	0	-1.254026	-2.816244	0	3	100	0	50	-0.5004879	0.8697719	25.06567	
10:11:25	0	0	0	-1.254026	-2.816244	0	3	100	0	50	-0.5022643	0.8714213	25.0104	
10:11:25	0	0	0	-1.254026	-2.816244	0	3	100	0	50	-0.5156742	0.8628543	25.0179	
10:11:25	0	0	0	-1.254026	-2.816244	0	3	100	0	50	-0.5190156	0.8615232	25.01084	
10:11:25	0	0	0	-1.32372	-5.849833	0	3	100	0	50	-0.5149584	0.8623758	25.04336	
10:11:25	0	0	0	-1.32372	-5.849833	0	3	100	0	50	-0.5245219	0.8608434	25.05947	
10:11:26	0	0	0	-1.32372	-5.849833	0	3	100	0	50	-0.5281009	0.8494886	25.02649	
10:11:26	0	0	0	-1.32372	-5.849833	0	3	100	0	50	-0.5401828	0.8454471	25.01078	
10:11:26	0	0	0	-1.32372	-5.849833	0	3	100	0	50	-0.541464	0.8558625	24.98522	
10:11:26	0	0	0	-1.093033	8.503067	0	3	100	0	50	-0.5480313	0.8734357	25.01883	
10:11:26	0	0	0	-1.093033	8.503067	0	3	100	0	50	-0.5862142	0.8191038	25.04384	
10:11:27	0	0	0	-1.093033	8.503067	0	3	100	0	50	-0.5941125	0.8287312	25.04301	
10:11:27	0	0	0	-1.093033	8.503067	0	3	100	0	50	-0.5983141	0.8313916	25.01572	
10:11:27	0	0	0	-1.093033	8.503067	0	3	100	0	50	-0.6078995	0.8321887	24.98098	
10:11:27	0	0	0	-0.8013648	17.27076	0	3	100	0	50	-0.6213335	0.8419102	24.97316	
10:11:27	0	0	0	-0.8013648	17.27076	0	3	100	0	50	-0.6739739	0.8064968	27.34649	
10:11:28	0	0	0	-0.8013648	17.27076	0	3	100	0	50	-3.279901	0.2960773	28.04179	
10:11:28	0	0	0	-0.8013648	17.27076	0	3	100	0	50	-7.610765	-0.1858062	25.76574	
10:11:28	0	0	0	-0.8013648	17.27076	0	3	100	0	50	0.9227446	0.1988489	24.65495	
10:11:28	0	0	0	-0.7728131	12.76904	0	3	100	0	50	7.383818	0.6018682	24.31063	
10:11:28	0	0	0	-0.7728131	12.76904	0	3	100	0	50	3.617905	0.5373539	23.77699	
10:11:29	0	0	0	-0.7728131	12.76904	0	3	100	0	50	0.03367347	0.356801	22.87054	
10:11:29	0	0	0	-0.7728131	12.76904	0	3	100	0	50	-5.190619	-0.1307848	22.3397	
10:11:29	0	0	0	-0.7728131	12.76904	0	3	100	0	50	-1.270905	0.2850122	22.81991	
10:11:29	0	0	0	-0.7688144	11.96194	0	3	100	0	50	-0.6747006	0.8177271	23.73142	
10:11:29	0	0	0	-0.7688144	11.96194	0	3	100	0	50	-0.7417215	0.793118	22.83366	
10:11:30	0	0	0	-0.7688144	11.96194	0	3	100	0	50	-0.7590227	0.8180143	22.81142	
10:11:30	0	0	0	-0.7688144	11.96194	0	3	100	0	50	-0.7450131	0.8497322	22.78563	
10:11:30	0	0	0	-0.7688144	11.96194	0	3	100	0	50	-0.724298	0.8505652	22.76764	
10:11:30	0	0	0	-0.9706778	-1.895198	0	3	100	0	50	-0.7078172	0.850107	22.74356	
10:11:30	0	0	0	-0.9706778	-1.895198	0	3	100	0	50	-0.7024447	0.8377506	22.70342	
10:11:31	0	0	0	-0.9706778	-1.895198	0	3	100	0	50	-0.6822983	0.8827449	22.64664	
10:11:31	0	0	0	-0.9706778	-1.895198	0	3	100	0	50	-0.6599901	0.9040819	22.61354	
10:11:31	0	0	0	-0.9706778	-1.895198	0	3	100	0	50	-0.6529439	0.8939934	22.59593	
10:11:31	0	0	0	-1.071814	-4.957421	0	3	100	0	50	-0.6461852	0.8836128	22.59921	
10:11:31	0	0	0	-1.071814	-4.957421	0	3	100	0	50	-0.6351346	0.8879676	22.53116	
10:11:32	0	0	0	-1.071814	-4.957421	0	3	100	0	50	-0.6284271	0.875387	22.50573	
10:11:32	0	0	0	-1.071814	-4.957421	0	3	100	0	50	-0.6224967	0.8671984	22.51473	
10:11:32	0	0	0	-1.071814	-4.957421	0	3	100	0	50	-0.6112075	0.8941523	22.53898	
10:11:32	0	0	0	-1.299696	-14.4516	0	3	100	0	50	-0.6096337	0.8980215	22.55107	
10:11:32	0	0	0	-1.299696	-14.4516	0	3	100	0	50	-0.600699	0.8952587	22.5364	
10:11:33	0	0	0	-1.299696	-14.4516	0	3	100	0	50	-0.5953492	0.8876933	22.54705	
10:11:33	0	0	0	-1.299696	-14.4516	0	3	100	0	50	-0.5908198	0.8819461	22.52195	
10:11:33	0	0	0	-1.299696	-14.4516	0	3	100	0	50	-0.5776737	0.8927056	22.5093	
10:11:33	0	0	0	-1.207864	-3.626283	0	3	100	0	50	-0.5724541	0.9032179	22.54185	
10:11:33	0	0	0	-1.207864	-3.626283	0	3	100	0	50	-0.558808	0.9015161	22.53214	
10:11:34	0	0	0	-1.207864	-3.626283	0	3	100	0	50	-0.5443919	0.9056515	22.54832	
10:11:34	0	0	0	-1.207864	-3.626283	0	3	100	0	50	-0.5432261	0.9005423	22.5332	
10:11:34	0	0	0	-1.207864	-3.626283	0	3	100	0	50	-0.5481712	0.9044205	22.49907	
10:11:34	0	0	0	-1.299902	-7.057363	0	3	100	0	50	-0.5516254	0.9398546	22.48213	
10:11:34	0	0	0	-1.299902	-7.057363	0	3	100	0	50	-0.5528383	0.9504568	22.45123	
10:11:35	0	0	0	-1.299902	-7.057363	0	3	100	0	50	-0.5581768	0.9724148	22.40962	
10:11:35	0	0	0	-1.299902	-7.057363	0	3	100	0	50	-0.5611721	0.9648159	22.36475	
10:11:35	0	0	0	-1.299902	-7.057363	0	3	100	0	50	-0.556242	0.9816568	22.36083	
10:11:35	0	0	0	-1.364388	-6.321902	0	3	100	0	50	-0.5559027	0.9851497	22.36613	
10:11:35	0	0	0	-1.364388	-6.321902	0	3	100	0	50	-0.5646294	0.9533417	22.36461	
10:11:36	0	0	0	-1.364388	-6.321902	0	3	100	0	50	-0.593712	0.9054418	22.34229	
10:11:36	0	0	0	-1.364388	-6.321902	0	3	100	0	50	-0.5993903	0.89433	22.33258	
10:11:36	0	0	0	-1.364388	-6.321902	0	3	100	0	50	-0.5967056	0.8939285	22.37472	
10:11:36	0	0	0	-1.212229	1.262783	0	3	100	0	50	-0.5936641	0.8701548	22.40269	
10:11:36	0	0	0	-1.212229	1.262783	0	3	100	0	50	-0.5866827	0.8672717	22.38478	
10:11:37	0	0	0	-1.212229	1.262783	0	3	100	0	50	-0.5871493	0.8634481	22.33755	
10:11:37	0	0	0	-1.212229	1.262783	0	3	100	0	50	-0.5989216	0.8497719	22.39655	
10:11:37	0	0	0	-1.212229	1.262783	0	3	100	0	50	-0.561357	0.9137008	23.77319	
10:11:37	0	0	0	-1.420751	-9.052439	0	3	100	0	50	-14.15964	-0.5522586	21.2091	
10:11:37	0	0	0	-1.420751	-9.052439	0	3	100	0	50	-10.76526	-2.493564	22.25314	
10:11:38	0	0	0	-1.420751	-9.052439	0	3	100	0	50	-3.88663	-3.899933	22.50928	
10:11:38	0	0	0	-1.420751	-9.052439	0	3	100	0	50	6.060938	-3.131105	23.0049	
10:11:38	0	0	0	-1.420751	-9.052439	0	3	100	0	50	1.585777	-3.604171	22.50719	
10:11:38	0	0	0	-1.317476	-3.03569	0	3	100	0	50	-12.45671	-4.921679	21.60824	
10:11:38	0	0	0	-1.317476	-3.03569	0	3	100	0	50	-19.83828	-3.16869	21.30806	
10:11:39	0	0	0	-1.317476	-3.03569	0	3	100	0	50	-15.43136	-3.444486	21.79103	
10:11:39	0	0	0	-1.317476	-3.03569	0	3	100	0	50	-8.233331	-3.879364	22.57928	
10:11:39	0	0	0	-1.317476	-3.03569	0	3	100	0	50	-0.3891405	-3.258558	23.03193	
10:11:39	0	0	0	-1.126538	5.955802	0	3	100	0	50	-0.5816339	-3.166459	23.1501	
10:11:39	0	0	0	-1.126538	5.955802	0	3	100	0	50	-1.068729	-3.043954	23.03356	
10:11:40	0	0	0	-1.126538	5.955802	0	3	100	0	50	1.038911	-2.883069	22.98876	
10:11:40	0	0	0	-1.126538	5.955802	0	3	100	0	50	2.670693	-2.657387	23.01803	
10:11:40	0	0	0	-1.126538	5.955802	0	3	100	0	50	-11.30367	-3.607903	22.93043	
10:11:40	0	0	0	-1.232944	-14.18198	0	3	100	0	50	-13.19198	-3.424582	22.69423	
10:11:40	0	0	0	-1.232944	-14.18198	0	3	100	0	50	-1.745545	-3.888751	22.54955	
10:11:41	0	0	0	-1.232944	-14.18198	0	3	100	0	50	3.500155	-2.926473	23.1022	
10:11:41	0	0	0	-1.232944	-14.18198	0	3	100	0	50	7.242529	-1.568825	22.93998	
10:11:41	0	0	0	-1.232944	-14.18198	0	3	100	0	50	12.27101	-0.004195435	23.49977	
10:11:41	0	0	0	-1.226351	-7.6333	0	3	100	0	50	2.502381	-2.691163	22.05584	
10:11:41	0	0	0	-1.226351	-7.6333	0	3	100	0	50	-8.075816	-3.602818	21.15174	
10:11:42	0	0	0	-1.226351	-7.6333	0	3	100	0	50	-12.59203	-3.107161	21.19685	
10:11:42	0	0	0	-1.226351	-7.6333	0	3	100	0	50	-7.973027	-3.56004	21.44478	
10:11:42	0	0	0	-1.226351	-7.6333	0	3	100	0	50	0.1239162	-2.697976	21.95729	
10:11:42	0	0	0	-1.307631	-2.717068	0	3	100	0	50	1.99144	-2.268413	22.22539	
10:11:42	0	0	0	-1.307631	-2.717068	0	3	100	0	50	-5.348312	-3.159318	22.02958	
10:11:43	0	0	0	-1.307631	-2.717068	0	3	100	0	50	-8.389042	-3.343362	22.123	
10:11:43	0	0	0	-1.307631	-2.717068	0	3	100	0	50	-7.317362	-3.190396	22.29857	
10:11:43	0	0	0	-1.307631	-2.717068	0	3	100	0	50	-1.506119	-2.392585	22.41192	
10:11:43	0	0	0	-1.360036	-4.974598	0	3	100	0	50	1.755166	-1.526025	22.66171	
10:11:43	0	0	0	-1.360036	-4.974598	0	3	100	0	50	-9.946624	-2.926084	22.53072	
10:11:44	0	0	0	-1.360036	-4.974598	0	3	100	0	50	-11.87722	-2.796019	22.91367	
10:11:44	0	0	0	-1.360036	-4.974598	0	3	100	0	50	2.032652	-2.839183	23.84714	
10:11:44	0	0	0	-1.360036	-4.974598	0	3	100	0	50	1.625728	-2.54859	23.84073	
10:11:44	0	0	0	-1.486133	-12.17229	0	3	100	0	50	-9.993138	-3.249999	23.08711	
10:11:44	0	0	0	-1.486133	-12.17229	0	3	100	0	50	-11.98811	-2.762541	23.16925	
10:11:45	0	0	0	-1.486133	-12.17229	0	3	100	0	50	-0.3996184	-1.80994	23.30906	
10:11:45	0	0	0	-1.486133	-12.17229	0	3	100	0	50	6.895817	-0.8234572	23.65885	
10:11:45	0	0	0	-1.486133	-12.17229	0	3	100	0	50	8.326772	-0.3787772	23.94982	
10:11:45	0	0	0	-1.543077	-13.44185	0	3	100	0	50	-2.759598	-1.088693	22.5865	
10:11:45	0	0	0	-1.543077	-13.44185	0	3	100	0	50	-12.63914	-0.7679583	21.55516	
10:11:46	0	0	0	-1.543077	-13.44185	0	3	100	0	50	-15.54538	-0.6265219	21.50258	
10:11:46	0	0	0	-1.543077	-13.44185	0	3	100	0	50	-6.472502	-1.962686	21.88126	
10:11:46	0	0	0	-1.543077	-13.44185	0	3	100	0	50	2.202219	-0.8603015	21.81824	
10:11:46	0	0	0	-1.307906	7.398114	0	3	100	0	50	7.025871	0.1014387	21.93775	
10:11:46	0	0	0	-1.307906	7.398114	0	3	100	0	50	0.4426243	-0.9470894	20.74241	
10:11:47	0	0	0	-1.307906	7.398114	0	3	100	0	50	-6.705832	-1.380647	19.98802	
10:11:47	0	0	0	-1.307906	7.398114	0	3	100	0	50	-12.61825	-0.4984761	20.44661	
10:11:47	0	0	0	-1.307906	7.398114	0	3	100	0	50	-17.4445	0.1419177	20.98061	
10:11:47	0	0	0	-1.379016	5.247869	0	3	100	0	50	-10.75665	-1.266541	21.88505	
10:11:47	0	0	0	-1.379016	5.247869	0	3	100	0	50	-5.07925	-2.107135	22.34218	
10:11:48	0	0	0	-1.379016	5.247869	0	3	100	0	50	3.812487	-1.774841	22.36636	
10:11:48	0	0	0	-1.379016	5.247869	0	3	100	0	50	10.95615	-1.125523	22.05336	
10:11:48	0	0	0	-1.379016	5.247869	0	3	100	0	50	15.0424	-0.784965	22.19615	
10:11:48	0	0	0	-1.711485	-7.503108	0	3	100	0	50	16.12544	-0.7506528	21.84115	
10:11:48	0	0	0	-1.711485	-7.503108	0	3	100	0	50	11.59484	-2.051082	20.59469	
10:11:49	0	0	0	-1.711485	-7.503108	0	3	100	0	50	1.527239	-2.921145	19.64538	
10:11:49	0	0	0	-1.711485	-7.503108	0	3	100	0	50	-10.54944	-4.000216	18.53247	
10:11:49	0	0	0	-1.711485	-7.503108	0	3	100	0	50	-17.05502	-2.857429	18.16371	
10:11:49	0	0	0	-1.842888	-7.854185	0	3	100	0	50	-21.25259	-2.504649	18.23517	
10:11:50	0	0	0	-1.842888	-7.854185	0	3	100	0	50	-24.58667	-2.150232	18.59654	
10:11:50	0	0	0	-1.842888	-7.854185	0	3	100	0	50	-22.26789	-3.169158	19.40192	
10:11:50	0	0	0	-1.842888	-7.854185	0	3	100	0	50	-16.55462	-5.03803	20.09654	
10:11:50	0	0	0	-1.842888	-7.854185	0	3	100	0	50	-8.94409	-5.923469	20.33549	
10:11:50	0	0	0	-1.945089	-2.023124	0	3	100	0	50	-4.539293	-5.876944	20.58257	
10:11:51	0	0	0	-1.945089	-2.023124	0	3	100	0	50	0.4690072	-5.595839	20.95728	
10:11:51	0	0	0	-1.945089	-2.023124	0	3	100	0	50	5.489066	-5.187118	21.13139	
10:11:51	0	0	0	-1.945089	-2.023124	0	3	100	0	50	9.793433	-4.790585	21.4259	
10:11:51	0	0	0	-1.945089	-2.023124	0	3	100	0	50	14.76263	-3.950685	21.29794	
10:11:51	0	0	0	-1.878006	5.602996	0	3	100	0	50	8.426522	-4.019339	20.42477	
10:11:52	0	0	0	-1.878006	5.602996	0	3	100	0	50	-7.951412	-4.19943	18.86549	
10:11:52	0	0	0	-1.878006	5.602996	0	3	100	0	50	-19.4681	-1.531662	16.7114	
10:11:52	0	0	0	-1.878006	5.602996	0	3	100	0	50	-23.43217	-0.9900877	17.03719	
10:11:52	0	0	0	-1.878006	5.602996	0	3	100	0	50	-9.819538	-2.634162	18.22449	
10:11:52	0	0	0	-1.77282	7.294868	0	3	100	0	50	2.030089	-0.6132166	19.13545	
10:11:53	0	0	0	-1.77282	7.294868	0	3	100	0	50	-0.01821118	0.07691227	19.72758	
10:11:53	0	0	0	-1.77282	7.294868	0	3	100	0	50	-1.624193	0.5989332	22.05925	
10:11:53	0	0	0	-1.77282	7.294868	0	3	100	0	50	-1.662495	0.5914768	22.11876	
10:11:53	0	0	0	-1.77282	7.294868	0	3	100	0	50	-1.795678	0.5797319	22.19029	
10:11:53	0	0	0	-1.721031	19.6712	0	3	100	0	50	-1.799769	0.5796497	22.20984	
10:11:54	0	0	0	-1.721031	19.6712	0	3	100	0	50	-1.749957	0.5986909	22.22572	
10:11:54	0	0	0	-1.721031	19.6712	0	3	100	0	50	-1.695362	0.6092725	22.18109	
10:11:54	0	0	0	-1.721031	19.6712	0	3	100	0	50	-1.661983	0.5828411	22.1847	
10:11:54	0	0	0	-1.721031	19.6712	0	3	100	0	50	-1.614125	0.5779591	22.1342	
10:11:54	0	0	0	-1.904399	1.749051	0	3	100	0	50	-1.566255	0.6114137	22.11875	
10:11:55	0	0	0	-1.904399	1.749051	0	3	100	0	50	-1.523618	0.5990492	22.09453	
10:11:55	0	0	0	-1.904399	1.749051	0	3	100	0	50	-1.481913	0.5919551	22.06576	
10:11:55	0	0	0	-1.904399	1.749051	0	3	100	0	50	-1.436838	0.6121495	22.07604	
10:11:55	0	0	0	-1.904399	1.749051	0	3	100	0	50	-1.405348	0.6014982	22.07084	
10:11:55	0	0	0	-1.86195	1.874862	0	3	100	0	50	-1.363315	0.6136723	22.14111	
10:11:56	0	0	0	-1.86195	1.874862	0	3	100	0	50	-1.323678	0.6265192	22.21662	
10:11:56	0	0	0	-1.86195	1.874862	0	3	100	0	50	-1.297076	0.6309537	22.29196	
10:11:56	0	0	0	-1.86195	1.874862	0	3	100	0	50	-1.265966	0.6427237	22.36514	
10:11:56	0	0	0	-1.86195	1.874862	0	3	100	0	50	-1.242742	0.6376996	22.4139	
10:11:56	0	0	0	-1.792984	1.756615	0	3	100	0	50	-1.21667	0.6357199	22.46098	
10:11:57	0	0	0	-1.792984	1.756615	0	3	100	0	50	-1.18611	0.6330653	22.50751	
10:11:57	0	0	0	-1.792984	1.756615	0	3	100	0	50	-1.166255	0.6068304	22.53763	
10:11:57	0	0	0	-1.792984	1.756615	0	3	100	0	50	-1.145664	0.6091357	22.60138	
10:11:57	0	0	0	-1.792984	1.756615	0	3	100	0	50	-1.113456	0.600597	22.65498	
10:11:57	0	0	0	-1.78055	-1.292034	0	3	100	0	50	-1.096849	0.6174159	22.67521	
10:11:58	0	0	0	-1.78055	-1.292034	0	3	100	0	50	-1.07664	0.6238723	22.72369	
10:11:58	0	0	0	-1.78055	-1.292034	0	3	100	0	50	-1.056532	0.638487	22.7795	
10:11:58	0	0	0	-1.78055	-1.292034	0	3	100	0	50	-1.032147	0.6295729	22.81287	
10:11:58	0	0	0	-1.78055	-1.292034	0	3	100	0	50	-1.003324	0.634136	22.86697	
10:11:58	0	0	0	-1.843044	-4.250835	0	3	100	0	50	-0.9805677	0.6420377	22.86139	
10:11:59	0	0	0	-1.843044	-4.250835	0	3	100	0	50	-0.9579028	0.6394612	22.90918	
10:11:59	0	0	0	-1.843044	-4.250835	0	3	100	0	50	-0.9362635	0.61767	22.93218	
10:11:59	0	0	0	-1.843044	-4.250835	0	3	100	0	50	-0.9050552	0.6461975	22.98804	
10:11:59	0	0	0	-1.843044	-4.250835	0	3	100	0	50	-0.8833058	0.6489782	22.99461	
10:11:59	0	0	0	-1.984152	-9.336957	0	3	100	0	50	-0.8665097	0.6513708	23.0018	
10:12:00	0	0	0	-1.984152	-9.336957	0	3	100	0	50	-0.8345369	0.6357492	23.02358	
10:12:00	0	0	0	-1.984152	-9.336957	0	3	100	0	50	-0.8191038	0.6343482	23.05615	
10:12:00	0	0	0	-1.984152	-9.336957	0	3	100	0	50	-0.7769539	0.6815052	23.87974	
10:12:00	0	0	0	-1.984152	-9.336957	0	3	100	0	50	-0.7170641	0.7261355	23.42039	
10:12:00	0	0	0	-2.147137	-13.78251	0	3	100	0	50	-6.555606	-0.2231587	22.94135	
10:12:01	0	0	0	-2.147137	-13.78251	0	3	100	0	50	-5.320669	-1.330276	23.0373	
10:12:01	0	0	0	-2.147137	-13.78251	0	3	100	0	50	3.286585	-2.655983	23.61333	
10:12:01	0	0	0	-2.147137	-13.78251	0	3	100	0	50	-10.11559	-2.573584	23.02953	
10:12:01	0	0	0	-2.147137	-13.78251	0	3	100	0	50	-13.81599	-1.628142	21.90896	
10:12:01	0	0	0	-2.184703	-5.87925	0	3	100	0	50	-4.559935	-2.709183	22.81259	
10:12:02	0	0	0	-2.184703	-5.87925	0	3	100	0	50	3.54128	-2.424309	23.59611	
10:12:02	0	0	0	-2.184703	-5.87925	0	3	100	0	50	8.526518	-1.422391	22.82108	
10:12:02	0	0	0	-2.184703	-5.87925	0	3	100	0	50	-0.1655582	-2.519214	22.02023	
10:12:02	0	0	0	-2.184703	-5.87925	0	3	100	0	50	-13.07915	-2.166978	20.85696	
10:12:02	0	0	0	-1.837967	14.65372	0	3	100	0	50	-20.58607	-1.028525	21.63206	
10:12:03	0	0	0	-1.837967	14.65372	0	3	100	0	50	-12.77282	-3.227813	22.55638	
10:12:03	0	0	0	-1.837967	14.65372	0	3	100	0	50	-6.390711	-4.505632	23.34181	
10:12:03	0	0	0	-1.837967	14.65372	0	3	100	0	50	-6.102402	-9.497855	23.65518	
10:12:03	0	0	0	-1.837967	14.65372	0	3	100	0	50	-4.83118	-8.012638	23.08739	
10:12:03	0	0	0	-1.582697	14.24404	0	3	100	0	50	-2.603192	-2.655036	23.15701	
10:12:04	0	0	0	-1.582697	14.24404	0	3	100	0	50	-1.395712	0.7533044	24.68976	
10:12:04	0	0	0	-1.582697	14.24404	0	3	100	0	50	-1.451566	0.7672075	25.18089	
10:12:04	0	0	0	-1.582697	14.24404	0	3	100	0	50	-1.624665	0.7278653	25.28257	
10:12:04	0	0	0	-1.582697	14.24404	0	3	100	0	50	-0.822591	1.261588	25.04634	
10:12:04	0	0	0	-1.777948	-2.185527	0	3	100	0	50	-3.28501	5.765454	24.69373	
10:12:05	0	0	0	-1.777948	-2.185527	0	3	100	0	50	-2.569706	6.068221	25.2775	
10:12:05	0	0	0	-1.777948	-2.185527	0	3	100	0	50	-1.425758	2.466626	24.62295	
10:12:05	0	0	0	-1.777948	-2.185527	0	3	100	0	50	0.8967271	-2.059861	23.82724	
10:12:05	0	0	0	-1.777948	-2.185527	0	3	100	0	50	-3.772599	-3.475953	23.15396	
10:12:05	0	0	0	-1.915258	-11.15726	0	3	100	0	50	-16.49083	-2.943564	23.00615	
10:12:06	0	0	0	-1.915258	-11.15726	0	3	100	0	50	-11.808	-2.96458	23.33541	
10:12:06	0	0	0	-1.915258	-11.15726	0	3	100	0	50	1.489437	-2.106499	24.27453	
10:12:06	0	0	0	-1.915258	-11.15726	0	3	100	0	50	-2.212797	-1.572298	24.54269	
10:12:06	0	0	0	-1.915258	-11.15726	0	3	100	0	50	-8.053003	-0.5891175	23.31678	
10:12:06	0	0	0	-1.708038	9.339726	0	3	100	0	50	-5.688034	-0.4843175	23.5535	
10:12:07	0	0	0	-1.708038	9.339726	0	3	100	0	50	2.471796	0.01867009	23.34338	
10:12:07	0	0	0	-1.708038	9.339726	0	3	100	0	50	-3.404467	-0.5008067	23.14473	
10:12:07	0	0	0	-1.708038	9.339726	0	3	100	0	50	-12.8193	-0.4605994	22.3643	
10:12:07	0	0	0	-1.708038	9.339726	0	3	100	0	50	-12.63574	-0.3292792	22.73605	
10:12:07	0	0	0	-1.583117	6.686887	0	3	100	0	50	-1.642307	-0.05240435	23.28007	
10:12:08	0	0	0	-1.583117	6.686887	0	3	100	0	50	5.73764	0.2201982	22.75485	
10:12:08	0	0	0	-1.583117	6.686887	0	3	100	0	50	5.927151	0.2655219	22.66315	
10:12:08	0	0	0	-1.583117	6.686887	0	3	100	0	50	-5.426303	-0.7189608	21.3728	
10:12:08	0	0	0	-1.583117	6.686887	0	3	100	0	50	-14.07854	-0.1853893	20.10575	
10:12:08	0	0	0	-1.521558	10.38561	0	3	100	0	50	-8.820736	-0.4124974	21.32987	
10:12:09	0	0	0	-1.521558	10.38561	0	3	100	0	50	2.218734	-0.7131641	21.99469	
10:12:09	0	0	0	-1.521558	10.38561	0	3	100	0	50	4.359748	0.5079356	21.38392	
10:12:09	0	0	0	-1.521558	10.38561	0	3	100	0	50	-7.087213	-0.1951327	21.48499	
10:12:09	0	0	0	-1.521558	10.38561	0	3	100	0	50	-9.03574	-0.2226703	21.61686	
10:12:09	0	0	0	-1.585331	12.89168	0	3	100	0	50	-2.125526	0.5511137	24.22409	
10:12:10	0	0	0	-1.585331	12.89168	0	3	100	0	50	-2.093943	0.5540871	24.23167	
10:12:10	0	0	0	-1.585331	12.89168	0	3	100	0	50	-2.110285	0.5395969	24.15328	
10:12:10	0	0	0	-1.585331	12.89168	0	3	100	0	50	-2.049732	0.5588848	24.11147	
10:12:10	0	0	0	-1.585331	12.89168	0	3	100	0	50	-1.972389	0.5530943	24.01517	
10:12:10	0	0	0	-1.737449	-1.116242	0	3	100	0	50	-1.902942	0.5712628	23.92754	
10:12:11	0	0	0	-1.737449	-1.116242	0	3	100	0	50	-1.832377	0.5787666	23.857	
10:12:11	0	0	0	-1.737449	-1.116242	0	3	100	0	50	-1.760976	0.5831984	23.82751	
10:12:11	0	0	0	-1.737449	-1.116242	0	3	100	0	50	-1.682621	0.6058863	23.83099	
10:12:11	0	0	0	-1.737449	-1.116242	0	3	100	0	50	-1.611978	0.6183375	23.85535	
10:12:11	0	0	0	-1.636132	5.845236	0	3	100	0	50	-1.556461	0.6253054	23.87621	
10:12:12	0	0	0	-1.636132	5.845236	0	3	100	0	50	-1.501807	0.6382208	23.90183	
10:12:12	0	0	0	-1.636132	5.845236	0	3	100	0	50	-1.454086	0.6591507	23.90087	
10:12:12	0	0	0	-1.636132	5.845236	0	3	100	0	50	-1.405555	0.6543095	23.95509	
10:12:12	0	0	0	-1.636132	5.845236	0	3	100	0	50	-1.356115	0.6500153	23.97549	
10:12:12	0	0	0	-1.543578	4.543241	0	3	100	0	50	-1.307118	0.6723359	23.95464	
10:12:13	0	0	0	-1.543578	4.543241	0	3	100	0	50	-1.252837	0.6859022	23.92513	
10:12:13	0	0	0	-1.543578	4.543241	0	3	100	0	50	-1.207874	0.6943602	23.91189	
10:12:13	0	0	0	-1.543578	4.543241	0	3	100	0	50	-1.158998	0.6822767	23.93787	
10:12:13	0	0	0	-1.543578	4.543241	0	3	100	0	50	-1.112822	0.6835359	23.97278	
10:12:14	0	0	0	-1.565254	-1.089025	0	3	100	0	50	-1.064469	0.7002421	24.01675	
10:12:14	0	0	0	-1.565254	-1.089025	0	3	100	0	50	-1.033229	0.7070692	24.06788	
10:12:14	0	0	0	-1.565254	-1.089025	0	3	100	0	50	-1.007306	0.7302535	24.05252	
10:12:14	0	0	0	-1.565254	-1.089025	0	3	100	0	50	-0.9889973	0.7560313	24.05206	
10:12:14	0	0	0	-1.565254	-1.089025	0	3	100	0	50	-0.9602374	0.7614751	24.07959	
10:12:15	0	0	0	-2.009458	-20.05969	0	3	100	0	50	-0.9206497	0.7837763	24.10319	
10:12:15	0	0	0	-2.009458	-20.05969	0	3	100	0	50	-0.886617	0.8081223	24.09767	
10:12:15	0	0	0	-2.009458	-20.05969	0	3	100	0	50	-0.855018	0.8166495	24.11188	
10:12:15	0	0	0	-2.009458	-20.05969	0	3	100	0	50	-0.8321751	0.8107393	24.12368	
10:12:15	0	0	0	-2.009458	-20.05969	0	3	100	0	50	-0.7991731	0.804493	24.12365	
10:12:16	0	0	0	-2.136721	-19.83442	0	3	100	0	50	-0.7524164	0.8103819	24.12993	
10:12:16	0	0	0	-2.136721	-19.83442	0	3	100	0	50	-0.7032655	0.8492189	24.1023	
10:12:16	0	0	0	-2.136721	-19.83442	0	3	100	0	50	-0.6683454	0.8773068	24.12696	
10:12:16	0	0	0	-2.136721	-19.83442	0	3	100	0	50	-0.6359756	0.9091113	24.18567	
10:12:16	0	0	0	-2.136721	-19.83442	0	3	100	0	50	-0.6067737	0.918398	24.2561	
10:12:17	0	0	0	-2.068556	-12.18931	0	3	100	0	50	-0.5861431	0.9046999	24.3457	
10:12:17	0	0	0	-2.068556	-12.18931	0	3	100	0	50	-0.5691081	0.9126402	24.3948	
10:12:17	0	0	0	-2.068556	-12.18931	0	3	100	0	50	-0.547418	0.9008092	24.41729	
10:12:17	0	0	0	-2.068556	-12.18931	0	3	100	0	50	-0.5336853	0.8953579	24.47623	
10:12:17	0	0	0	-2.068556	-12.18931	0	3	100	0	50	-0.5214935	0.9096035	24.56383	
10:12:18	0	0	0	-1.980866	-4.393243	0	3	100	0	50	-0.5169747	0.8955721	24.63797	
10:12:18	0	0	0	-1.980866	-4.393243	0	3	100	0	50	-0.4956471	0.8938923	24.68397	
10:12:18	0	0	0	-1.980866	-4.393243	0	3	100	0	50	-0.4742088	0.8889815	24.71662	
10:12:18	0	0	0	-1.980866	-4.393243	0	3	100	0	50	-0.4599584	0.8920385	24.78965	
10:12:18	0	0	0	-1.980866	-4.393243	0	3	100	0	50	-0.4506537	0.8885748	24.82359	
10:12:19	0	0	0	-1.890759	-1.85721	0	3	100	0	50	-0.4240863	0.8873122	24.82751	
10:12:19	0	0	0	-1.890759	-1.85721	0	3	100	0	50	-0.4113656	0.8905752	24.7972	
10:12:19	0	0	0	-1.890759	-1.85721	0	3	100	0	50	-0.5445512	0.7851174	27.30853	
10:12:19	0	0	0	-1.890759	-1.85721	0	3	100	0	50	-0.5304484	0.7611932	27.19347	
10:12:19	0	0	0	-1.890759	-1.85721	0	3	100	0	50	-0.5134717	0.7592676	27.31608	
10:12:20	0	0	0	-1.879821	-1.331421	0	3	100	0	50	0.1029677	0.672911	27.32712	
10:12:20	0	0	0	-1.879821	-1.331421	0	3	100	0	50	-0.1085296	0.5730006	26.92709	
10:12:20	0	0	0	-1.879821	-1.331421	0	3	100	0	50	-6.964516	-0.1112313	25.51948	
10:12:20	0	0	0	-1.879821	-1.331421	0	3	100	0	50	-3.079916	-0.1807244	25.82581	
10:12:20	0	0	0	-1.879821	-1.331421	0	3	100	0	50	0.9461508	0.317151	26.97571	
10:12:21	0	0	0	-1.986261	-10.82677	0	3	100	0	50	-9.339908	-0.2714214	25.59112	
10:12:21	0	0	0	-1.986261	-10.82677	0	3	100	0	50	-9.823689	-0.4235688	26.23147	
10:12:21	0	0	0	-1.986261	-10.82677	0	3	100	0	50	-0.6508238	-0.7266204	27.01867	
10:12:21	0	0	0	-1.986261	-10.82677	0	3	100	0	50	4.390088	0.3726157	27.72853	
10:12:21	0	0	0	-1.986261	-10.82677	0	3	100	0	50	1.014161	-0.5146546	26.90191	
10:12:22	0	0	0	-1.797394	1.62992	0	3	100	0	50	-9.593588	-0.9225018	25.11391	
10:12:22	0	0	0	-1.797394	1.62992	0	3	100	0	50	-15.77129	-0.8929793	24.69826	
10:12:22	0	0	0	-1.797394	1.62992	0	3	100	0	50	-15.35935	-0.9926364	24.954	
10:12:22	0	0	0	-1.797394	1.62992	0	3	100	0	50	0.8672481	-2.048005	24.98082	
10:12:22	0	0	0	-1.797394	1.62992	0	3	100	0	50	11.32229	-0.7844471	25.68847	
10:12:23	0	0	0	-1.760079	3.291551	0	3	100	0	50	7.174088	-0.7582341	24.52491	
10:12:23	0	0	0	-1.760079	3.291551	0	3	100	0	50	-6.80493	-1.231754	22.48717	
10:12:23	0	0	0	-1.760079	3.291551	0	3	100	0	50	-12.10304	-1.146123	22.58218	
10:12:23	0	0	0	-1.760079	3.291551	0	3	100	0	50	-6.831657	-1.041008	23.33271	
10:12:23	0	0	0	-1.760079	3.291551	0	3	100	0	50	4.345074	0.443491	24.57656	
10:12:24	0	0	0	-1.728525	9.258517	0	3	100	0	50	6.629644	0.5630574	24.88177	
10:12:24	0	0	0	-1.728525	9.258517	0	3	100	0	50	5.291202	0.578253	25.0626	
10:12:24	0	0	0	-1.728525	9.258517	0	3	100	0	50	-0.6170617	0.8393225	24.3382	
10:12:24	0	0	0	-1.728525	9.258517	0	3	100	0	50	-0.7402123	0.7934753	24.21319	
10:12:24	0	0	0	-1.728525	9.258517	0	3	100	0	50	-0.7178838	0.8042088	24.15615	
10:12:25	0	0	0	-1.739199	5.11018	0	3	100	0	50	-0.691901	0.7867012	24.12674	
10:12:25	0	0	0	-1.739199	5.11018	0	3	100	0	50	-0.6772391	0.7861074	24.13608	
10:12:25	0	0	0	-1.739199	5.11018	0	3	100	0	50	-0.643963	0.7989343	24.16465	
10:12:25	0	0	0	-1.739199	5.11018	0	3	100	0	50	-0.621761	0.7959763	24.20364	
10:12:25	0	0	0	-1.739199	5.11018	0	3	100	0	50	-0.5947264	0.8038925	24.23217	
10:12:26	0	0	0	-1.693523	4.322312	0	3	100	0	50	-0.5694511	0.8071334	24.24006	
10:12:26	0	0	0	-1.693523	4.322312	0	3	100	0	50	-0.5541108	0.7951525	24.21673	
10:12:26	0	0	0	-1.693523	4.322312	0	3	100	0	50	-0.538464	0.7922695	24.22555	
10:12:26	0	0	0	-1.693523	4.322312	0	3	100	0	50	-0.5213755	0.8025583	24.21544	
10:12:26	0	0	0	-1.693523	4.322312	0	3	100	0	50	-0.5035767	0.8215836	24.23993	
10:12:27	0	0	0	-1.406544	15.62197	0	3	100	0	50	-0.4712384	0.8586707	24.29407	
10:12:27	0	0	0	-1.406544	15.62197	0	3	100	0	50	-0.4505709	0.8667705	24.34301	
10:12:27	0	0	0	-1.406544	15.62197	0	3	100	0	50	-0.4217995	0.8787608	24.34663	
10:12:27	0	0	0	-1.406544	15.62197	0	3	100	0	50	-0.403035	0.8887162	24.37859	
10:12:27	0	0	0	-1.406544	15.62197	0	3	100	0	50	-0.3824478	0.9017705	24.41178	
10:12:28	0	0	0	-1.218683	16.29525	0	3	100	0	50	-0.3685848	0.9066633	24.46796	
10:12:28	0	0	0	-1.218683	16.29525	0	3	100	0	50	-0.3735364	0.9389154	24.45738	
10:12:28	0	0	0	-1.218683	16.29525	0	3	100	0	50	-0.3581486	0.9432731	24.43304	
10:12:28	0	0	0	-1.218683	16.29525	0	3	100	0	50	-0.3517781	0.9358896	24.42817	
10:12:28	0	0	0	-1.218683	16.29525	0	3	100	0	50	-0.3330927	0.9280385	24.44247	
10:12:29	0	0	0	-1.266201	6.063256	0	3	100	0	50	-0.3221195	0.9283344	24.45899	
10:12:29	0	0	0	-1.266201	6.063256	0	3	100	0	50	-0.3262252	0.9231915	24.48364	
10:12:29	0	0	0	-1.266201	6.063256	0	3	100	0	50	-0.3130626	0.9242857	24.54684	
10:12:29	0	0	0	-1.266201	6.063256	0	3	100	0	50	-0.3019466	0.930283	24.60146	
10:12:29	0	0	0	-1.266201	6.063256	0	3	100	0	50	-0.2905107	0.9144247	24.64707	
10:12:30	0	0	0	-1.494819	-8.419735	0	3	100	0	50	-0.2822284	0.9078877	24.64642	
10:12:30	0	0	0	-1.494819	-8.419735	0	3	100	0	50	-0.2699159	0.9042733	24.66778	
10:12:30	0	0	0	-1.494819	-8.419735	0	3	100	0	50	-0.2678464	0.8990192	24.67582	
10:12:30	0	0	0	-1.494819	-8.419735	0	3	100	0	50	-0.2485838	0.8971592	24.707	
10:12:30	0	0	0	-1.494819	-8.419735	0	3	100	0	50	-0.2418853	0.9004304	24.75855	
10:12:31	0	0	0	-1.567648	-10.04219	0	3	100	0	50	-0.2312427	0.8871114	24.79663	
10:12:31	0	0	0	-1.567648	-10.04219	0	3	100	0	50	-0.2249899	0.8834019	24.81188	
10:12:31	0	0	0	-1.567648	-10.04219	0	3	100	0	50	-0.2138002	0.8996247	24.84739	
10:12:31	0	0	0	-1.567648	-10.04219	0	3	100	0	50	-0.2174209	0.9110945	24.86876	
10:12:31	0	0	0	-1.567648	-10.04219	0	3	100	0	50	-0.2261787	0.9205648	24.85617	
10:12:32	0	0	0	-1.736256	-15.86987	0	3	100	0	50	-0.2343121	0.9320723	24.89719	
10:12:32	0	0	0	-1.736256	-15.86987	0	3	100	0	50	-0.2291477	0.9517514	24.97598	
10:12:32	0	0	0	-1.736256	-15.86987	0	3	100	0	50	-0.229518	0.9630492	24.98353	
10:12:32	0	0	0	-1.736256	-15.86987	0	3	100	0	50	-0.2312326	0.9585619	25.01537	
10:12:32	0	0	0	-1.736256	-15.86987	0	3	100	0	50	-0.2177953	0.9708245	25.0542	
10:12:33	0	0	0	-1.996065	-21.79015	0	3	100	0	50	-0.2156703	0.9680342	25.07371	
10:12:33	0	0	0	-1.996065	-21.79015	0	3	100	0	50	-0.2105833	0.9740943	25.07396	
10:12:33	0	0	0	-1.996065	-21.79015	0	3	100	0	50	-0.1931765	0.9761336	25.06958	
10:12:33	0	0	0	-1.996065	-21.79015	0	3	100	0	50	-0.1830283	0.9710469	25.09484	
10:12:33	0	0	0	-1.996065	-21.79015	0	3	100	0	50	-0.1805892	0.9893351	25.08155	
10:12:34	0	0	0	-2.152402	-22.81774	0	3	100	0	50	-3.542831	0.03136418	24.93044	
10:12:34	0	0	0	-2.152402	-22.81774	0	3	100	0	50	-9.752372	-0.5403349	24.71832	
10:12:34	0	0	0	-2.152402	-22.81774	0	3	100	0	50	0.2943161	-1.726914	25.6023	
10:12:34	0	0	0	-2.152402	-22.81774	0	3	100	0	50	0.8592589	-1.508069	25.84926	
10:12:34	0	0	0	-2.152402	-22.81774	0	3	100	0	50	-11.78305	-0.9230546	24.50757	
10:12:35	0	0	0	-2.110815	-19.19709	0	3	100	0	50	-10.97893	-1.082148	25.1602	
10:12:35	0	0	0	-2.110815	-19.19709	0	3	100	0	50	-4.481264	-2.410769	26.22643	
10:12:35	0	0	0	-2.110815	-19.19709	0	3	100	0	50	-13.5819	-0.9470956	25.84416	
10:12:35	0	0	0	-2.110815	-19.19709	0	3	100	0	50	-14.55328	-0.9161286	26.17244	
10:12:35	0	0	0	-2.110815	-19.19709	0	3	100	0	50	-6.479868	-2.773603	27.21636	
10:12:36	0	0	0	-1.781768	3.577357	0	3	100	0	50	0.2915523	-2.386027	27.83879	
10:12:36	0	0	0	-1.781768	3.577357	0	3	100	0	50	1.091698	-1.911038	27.98518	
10:12:36	0	0	0	-1.781768	3.577357	0	3	100	0	50	-9.045671	-0.9482194	27.11969	
10:12:36	0	0	0	-1.781768	3.577357	0	3	100	0	50	-6.552166	-0.5138635	27.9193	
10:12:36	0	0	0	-1.781768	3.577357	0	3	100	0	50	0.01611488	0.7795944	28.82821	
10:12:37	0	0	0	-1.874424	-0.192229	0	3	100	0	50	-0.3645322	0.9123315	28.7709	
10:12:37	0	0	0	-1.874424	-0.192229	0	3	100	0	50	-0.6038926	0.9595774	28.70597	
10:12:37	0	0	0	-1.874424	-0.192229	0	3	100	0	50	-0.6714837	0.9814101	28.64434	
10:12:37	0	0	0	-1.874424	-0.192229	0	3	100	0	50	-0.7531172	1.016038	28.5336	
10:12:37	0	0	0	-1.874424	-0.192229	0	3	100	0	50	-0.7350538	0.9940215	28.48886	
10:12:38	0	0	0	-1.897453	9.212216	0	3	100	0	50	-0.6935937	0.9932274	28.41409	
10:12:38	0	0	0	-1.897453	9.212216	0	3	100	0	50	-0.6769631	0.9955972	28.38117	
10:12:38	0	0	0	-1.897453	9.212216	0	3	100	0	50	-0.6491529	0.9815707	28.33972	
10:12:38	0	0	0	-1.897453	9.212216	0	3	100	0	50	-0.6250916	0.968082	28.30692	
10:12:38	0	0	0	-1.897453	9.212216	0	3	100	0	50	-0.6201117	0.9520299	28.29734	
10:12:39	0	0	0	-2.139031	-6.070736	0	3	100	0	50	-0.6013646	0.9316679	28.27742	
10:12:39	0	0	0	-2.139031	-6.070736	0	3	100	0	50	-0.6076936	0.9298609	28.29085	
10:12:39	0	0	0	-2.139031	-6.070736	0	3	100	0	50	-0.599687	0.9425199	28.30374	
10:12:39	0	0	0	-2.139031	-6.070736	0	3	100	0	50	-0.5947997	0.9260172	28.28969	
10:12:39	0	0	0	-2.139031	-6.070736	0	3	100	0	50	-0.725167	0.8720343	28.32489	
10:12:40	0	0	0	-2.080091	-2.494416	0	3	100	0	50	-0.6258517	0.8956631	28.31575	
10:12:40	0	0	0	-2.080091	-2.494416	0	3	100	0	50	-0.5603911	0.9221525	28.29035	
10:12:40	0	0	0	-2.080091	-2.494416	0	3	100	0	50	-0.5299083	0.9447319	28.25718	
10:12:40	0	0	0	-2.080091	-2.494416	0	3	100	0	50	-0.5518001	0.9533964	28.23614	
10:12:40	0	0	0	-2.080091	-2.494416	0	3	100	0	50	-0.5432696	0.9637386	28.21352	
10:12:41	0	0	0	-2.067456	-2.030406	0	3	100	0	50	-0.5878239	0.943093	28.21545	
10:12:41	0	0	0	-2.067456	-2.030406	0	3	100	0	50	-0.6217066	0.9238387	28.23125	
10:12:41	0	0	0	-2.067456	-2.030406	0	3	100	0	50	-3.578098	0.3061101	28.20648	
10:12:41	0	0	0	-2.067456	-2.030406	0	3	100	0	50	1.606392	0.185998	28.92677	
10:12:42	0	0	0	-2.067456	-2.030406	0	3	100	0	50	8.369368	0.4939804	29.78712	
10:12:42	0	0	0	-2.057827	-2.017568	0	3	100	0	50	-2.264803	-1.275713	27.88424	
10:12:42	0	0	0	-2.057827	-2.017568	0	3	100	0	50	-16.30656	-1.07487	25.3766	
10:12:42	0	0	0	-2.057827	-2.017568	0	3	100	0	50	-16.53138	-3.285739	26.47565	
10:12:42	0	0	0	-2.057827	-2.017568	0	3	100	0	50	-10.40288	-4.428433	30.67296	
10:12:43	0	0	0	-2.057827	-2.017568	0	3	100	0	50	-9.268414	-1.474292	35.14918	
10:12:43	0	0	0	-1.96873	6.164707	0	3	100	0	50	-15.69503	-0.7426664	34.37872	
10:12:43	0	0	0	-1.96873	6.164707	0	3	100	0	50	-19.81436	-1.193733	33.24229	
10:12:43	0	0	0	-1.96873	6.164707	0	3	100	0	50	-12.27896	-2.843371	31.87611	
10:12:43	0	0	0	-1.96873	6.164707	0	3	100	0	50	-5.843478	-3.047771	31.10482	
10:12:44	0	0	0	-1.96873	6.164707	0	3	100	0	50	0.9189469	-1.751373	31.08804	
10:12:44	0	0	0	-2.031071	-0.5589088	0	3	100	0	50	1.217264	0.8566589	30.36986	
10:12:44	0	0	0	-2.031071	-0.5589088	0	3	100	0	50	-5.40071	-5.841967	28.66171	
10:12:44	0	0	0	-2.031071	-0.5589088	0	3	100	0	50	-5.330456	-9.908888	27.71911	
10:12:44	0	0	0	-2.031071	-0.5589088	0	3	100	0	50	-4.4562	-7.280894	27.30347	
10:12:45	0	0	0	-2.031071	-0.5589088	0	3	100	0	50	-2.538586	-1.576663	27.59691	
10:12:45	0	0	0	-1.779126	9.978497	0	3	100	0	50	-1.04894	0.8835254	27.9851	
10:12:45	0	0	0	-1.779126	9.978497	0	3	100	0	50	-1.061484	0.8229828	29.73646	
10:12:45	0	0	0	-1.779126	9.978497	0	3	100	0	50	-4.278005	-0.6962807	27.93774	
10:12:45	0	0	0	-1.779126	9.978497	0	3	100	0	50	-7.522913	2.419682	28.33331	
10:12:46	0	0	0	-1.779126	9.978497	0	3	100	0	50	-8.522821	5.311191	30.6356	
10:12:46	0	0	0	-1.869112	-0.288599	0	3	100	0	50	-2.88612	1.370116	31.00275	
10:12:46	0	0	0	-1.869112	-0.288599	0	3	100	0	50	3.030969	-2.463406	29.49619	
10:12:46	0	0	0	-1.869112	-0.288599	0	3	100	0	50	4.590233	-6.149951	28.20274	
10:12:46	0	0	0	-1.869112	-0.288599	0	3	100	0	50	-2.028039	-2.755491	31.57045	
10:12:47	0	0	0	-1.869112	-0.288599	0	3	100	0	50	-3.951783	1.391027	31.82758	
10:12:47	0	0	0	-2.042742	-6.095928	0	3	100	0	50	-6.555259	0.5662994	31.79957	
10:12:47	0	0	0	-2.042742	-6.095928	0	3	100	0	50	-19.31495	-3.099302	30.67805	
10:12:47	0	0	0	-2.042742	-6.095928	0	3	100	0	50	-12.49334	-4.612586	33.13818	
10:12:47	0	0	0	-2.042742	-6.095928	0	3	100	0	50	0.9302197	-4.226313	34.16306	
10:12:48	0	0	0	-2.042742	-6.095928	0	3	100	0	50	7.837178	-3.235053	35.01282	
