Date	Latitude(deg) 	Longitude(deg)	hamsl(m)	hafl(m)	climbrate(cm/s)	GroundSpeed(m/s)	Airspeed(m/s)	Mav_Link(%)	Rssi_Link(%)	Throttle	Roll(deg)	Pitch(deg)	Yaw(deg)
08:27:50	0	0	0	0	0	0	0	100	0	0	9.487161	4.257658	-22.39247	
08:27:50	0	0	0	-0.5036959	1.768081	0	3	100	0	6546	9.503727	4.27674	-22.39892	
08:27:50	0	0	0	-0.5420874	2.802515	0	3	100	0	6546	9.516591	4.30022	-22.40504	
08:27:50	0	0	0	-0.5482557	5.671692	0	3	100	0	6546	9.507835	4.335521	-22.49831	
08:27:51	0	0	0	-0.5123795	10.10027	0	3	100	0	6546	9.500753	4.372316	-22.54697	
08:27:51	0	0	0	-0.4781632	14.10588	0	3	100	0	6546	9.514636	4.422338	-22.66953	
08:27:51	0	0	0	-0.3089891	24.74096	0	3	100	0	6546	9.516505	4.433341	-22.73221	
08:27:51	0	0	0	-0.1535679	34.33882	0	3	100	0	6546	9.53054	4.471226	-22.8098	
08:27:51	0	0	0	0.04845924	44.90319	0	3	100	0	6546	9.551241	4.479573	-22.81842	
08:27:52	0	0	0	0.2134525	52.72925	0	3	100	0	6546	9.570687	4.468576	-22.83021	
08:27:52	0	0	0	0.4393218	62.51468	0	3	100	0	6546	9.571813	4.482752	-22.91042	
08:27:52	0	0	0	0.6379281	69.2465	0	3	100	0	6546	9.566864	4.469769	-22.96972	
08:27:52	0	0	0	0.7181222	69.78435	0	3	100	0	6546	9.559134	4.476427	-23.06248	
08:27:52	0	0	0	0.7830576	69.30637	0	3	100	0	6546	9.557526	4.473075	-23.10834	
08:27:53	0	0	0	0.9195893	72.81402	0	3	100	0	6546	9.549393	4.479086	-23.17011	
08:27:53	0	0	0	1.025784	74.90427	0	3	100	0	6546	9.557438	4.483097	-23.22664	
08:27:53	0	0	0	1.03155	70.70477	0	3	100	0	6546	9.574042	4.47909	-23.24895	
08:27:53	0	0	0	1.02894	66.96796	0	3	100	0	6546	9.558442	4.467165	-23.28668	
08:27:53	0	0	0	0.9987151	61.89948	0	3	100	0	6546	9.5557	4.462125	-23.36387	
08:27:54	0	0	0	0.9683343	57.48425	0	3	100	0	6546	9.564386	4.471288	-23.39587	
08:27:54	0	0	0	0.9489177	53.16902	0	3	100	0	6546	9.557613	4.459282	-23.43454	
08:27:54	0	0	0	0.9251205	49.54179	0	3	100	0	6546	9.563299	4.467119	-23.49332	
08:27:54	0	0	0	0.8805451	45.04865	0	3	100	0	6546	9.568774	4.466544	-23.52071	
08:27:54	0	0	0	0.8364345	40.95665	0	3	100	0	6546	9.56839	4.470022	-23.5548	
08:27:55	0	0	0	0.8077344	38.04802	0	3	100	0	6547	9.573362	4.483709	-23.59892	
08:27:55	0	0	0	0.7810159	35.19888	0	3	100	0	6546	9.562653	4.481193	-23.65807	
08:27:55	0	0	0	0.7170957	31.04152	0	3	100	0	6546	9.568908	4.492775	-23.72692	
08:27:55	0	0	0	0.6578629	27.59914	0	3	100	0	6546	9.571016	4.4832	-23.7628	
08:27:55	0	0	0	0.6647007	27.5806	0	3	100	0	6546	9.567202	4.484569	-23.81834	
08:27:56	0	0	0	0.6697739	27.51155	0	3	100	0	6546	9.569685	4.501246	-23.86436	
08:27:56	0	0	0	0.6743544	27.7186	0	3	100	0	6546	9.568326	4.507384	-23.87556	
08:27:56	0	0	0	0.6776114	27.70475	0	3	100	0	6546	9.57466	4.510237	-23.84976	
08:27:56	0	0	0	0.6618799	26.6959	0	3	100	0	6546	9.579604	4.515638	-23.82908	
08:27:56	0	0	0	0.6211478	24.23904	0	3	100	0	6546	9.578008	4.532399	-23.85304	
08:27:57	0	0	0	0.6016918	22.93726	0	3	100	0	6546	9.565972	4.534348	-23.91903	
08:27:57	0	0	0	0.6014348	23.17859	0	3	100	0	6546	9.570856	4.533392	-23.93263	
08:27:57	0	0	0	0.539046	19.40469	0	3	100	0	6546	9.564077	4.545769	-24.00762	
08:27:57	0	0	0	0.442381	14.40653	0	3	100	0	6546	9.556993	4.559689	-24.02996	
08:27:57	0	0	0	0.394523	11.97551	0	3	100	0	6546	9.554847	4.547857	-24.0318	
08:27:58	0	0	0	0.3794083	11.99563	0	3	100	0	6546	9.560211	4.545978	-24.05622	
08:27:58	0	0	0	0.3477407	11.53155	0	3	100	0	6546	9.564866	4.522343	-24.09521	
08:27:58	0	0	0	0.2950272	9.834564	0	3	100	0	6546	9.566128	4.529727	-24.13643	
08:27:58	-6.728602	38.94616	127.43	0.2429666	8.104749	0.02	3	100	0	6546	9.582631	4.537606	-24.13584	
08:27:58	-6.728603	38.94616	127.354	0.186406	6.206706	0.04	3	100	0	6546	9.595633	4.514012	-24.14659	
08:27:59	-6.728602	38.94616	127.379	0.1516576	5.892772	0.04	3	100	0	6545	9.546535	4.485503	-24.18225	
08:27:59	-6.728602	38.94616	127.444	0.1301869	6.465104	0.03	3	100	0	6546	9.627868	4.536104	-24.21996	
08:27:59	-6.728602	38.94616	127.317	0.1117524	6.747124	0.12	3	100	0	6546	9.5581	4.480102	-24.24678	
08:27:59	-6.728602	38.94616	127.266	0.09583618	7.314051	0.02	3	100	0	6546	9.708716	4.387485	-24.22087	
08:27:59	-6.728601	38.94616	127.319	0.08088584	7.948551	0.03	3	100	0	6546	9.61736	4.457423	-24.26197	
08:28:00	-6.728601	38.94616	127.411	0.06875762	8.584625	0.04	3	100	0	6546	9.638917	4.475879	-24.32788	
08:28:00	-6.7286	38.94616	127.472	0.05838288	8.906357	0.03	3	100	0	6546	9.570677	4.465422	-24.30268	
08:28:00	-6.7286	38.94616	127.594	0.04999844	9.516623	0.09	3	100	0	6546	9.5855	4.465894	-24.36733	
08:28:00	-6.728599	38.94616	127.712	0.06689338	11.40251	0.03	3	100	0	6546	9.56284	4.592728	-24.35783	
08:28:00	-6.728599	38.94616	127.801	0.1218507	15.05008	0.03	3	100	0	6546	9.581473	4.525368	-24.37601	
08:28:01	-6.728599	38.94616	127.849	0.1685518	18.28634	0.12	3	100	0	6546	9.580765	4.498205	-24.33753	
08:28:01	-6.728599	38.94616	127.884	0.1745605	18.50445	0.03	3	100	0	6545	9.505274	4.574193	-24.37849	
08:28:01	-6.728599	38.94616	127.89	0.1817875	19.33324	0.04	3	100	0	6546	9.597239	4.465878	-24.32402	
08:28:02	-6.728598	38.94616	127.911	0.1686045	18.6125	0.07	3	100	0	6546	9.549758	4.51285	-24.38384	
08:28:02	-6.728598	38.94616	127.951	0.1574415	17.60636	0.04	3	100	0	6546	9.641431	4.493535	-24.34543	
08:28:02	-6.728598	38.94616	127.924	0.1928433	19.21236	0.04	3	100	0	6546	9.572259	4.536539	-24.33441	
08:28:02	-6.728597	38.94616	127.912	0.2271821	20.76163	0.01	3	100	0	6546	9.640471	4.447547	-24.3366	
08:28:02	-6.728597	38.94616	127.919	0.219141	20.39309	0.03	3	100	0	6546	9.62605	4.491957	-24.40118	
08:28:03	-6.728596	38.94616	127.912	0.2109558	19.71468	0.07	3	100	0	6546	9.661449	4.474776	-24.36529	
08:28:03	-6.728596	38.94616	127.903	0.2923851	23.14686	0.08	3	100	0	6546	9.624895	4.545484	-24.42659	
08:28:03	-6.728595	38.94616	127.898	0.3581147	25.89072	0.06	3	100	0	6546	9.723067	4.419149	-24.40568	
08:28:03	-6.728595	38.94616	127.893	0.3674835	25.34478	0.04	3	100	0	6546	9.660698	4.405453	-24.38868	
08:28:04	-6.728595	38.94616	127.919	0.3738042	24.30664	0.02	3	100	0	6546	9.651715	4.516487	-24.39121	
08:28:04	-6.728595	38.94616	127.922	0.3808538	24.05488	0.06	3	100	0	6546	9.657628	4.441374	-24.39722	
08:28:04	-6.728595	38.94616	127.956	0.3853267	23.71698	0.08	3	100	0	6546	9.697598	4.472548	-24.40118	
08:28:04	-6.728595	38.94616	127.971	0.3778637	22.59933	0.03	3	100	0	6546	9.592595	4.393351	-24.41871	
08:28:04	-6.728595	38.94616	127.995	0.3710168	21.41398	0.04	3	100	0	6546	9.676823	4.505366	-24.41264	
08:28:05	-6.728595	38.94616	127.963	0.3704833	20.49121	0.01	3	100	0	6546	9.692717	4.514606	-24.39473	
08:28:05	-6.728595	38.94616	127.925	0.3686194	19.98464	0.02	3	100	0	6546	9.672277	4.466399	-24.40127	
08:28:05	-6.728595	38.94616	127.97	0.4038046	21.6001	0.04	3	100	0	6546	9.679995	4.451226	-24.37781	
08:28:05	-6.728595	38.94616	127.997	0.4325869	23.06215	0.04	3	100	0	6546	9.68084	4.524484	-24.4286	
08:28:05	-6.728595	38.94616	127.909	0.3491323	18.0449	0.03	3	100	0	6546	9.679333	4.498796	-24.45781	
08:28:06	-6.728596	38.94616	127.818	0.272194	13.28835	0.08	3	100	0	6546	9.717315	4.443857	-24.4341	
08:28:06	-6.728596	38.94616	127.813	0.2525539	12.7631	0.07	3	100	0	6546	9.708918	4.509555	-24.42533	
08:28:06	-6.728596	38.94616	127.783	0.2335265	11.96528	0.07	3	100	0	6546	9.728978	4.396141	-24.39379	
08:28:07	-6.728596	38.94616	127.745	0.2074652	11.04095	0.07	3	100	0	6546	9.638151	4.415612	-24.39779	
08:28:07	-6.728596	38.94616	127.702	0.1677324	9.018525	0.11	3	100	0	6546	9.675989	4.346503	-24.39036	
08:28:07	-6.728596	38.94616	127.646	0.1319669	7.633799	0.02	3	100	0	6546	9.610614	4.459798	-24.44322	
08:28:07	-6.728596	38.94616	127.544	0.08871333	5.811664	0.04	3	100	0	6546	9.670378	4.380751	-24.39114	
08:28:08	-6.728596	38.94616	127.474	0.06179841	5.33793	0.02	3	100	0	6546	9.665407	4.370775	-24.40669	
08:28:08	-6.728596	38.94616	127.431	0.05125597	5.319644	0.07	3	100	0	6546	9.673082	4.383161	-24.38248	
08:28:08	-6.728596	38.94616	127.38	0.002318741	3.512303	0.06	3	100	0	6546	9.625895	4.311328	-24.36542	
08:28:08	-6.728596	38.94616	127.33	-0.06827803	0.5779325	0.02	3	100	0	6546	9.66479	4.316604	-24.32121	
08:28:08	-6.728596	38.94616	127.267	-0.09206359	0.630683	0.03	3	100	0	6546	9.725438	4.374952	-24.28105	
08:28:08	-6.728596	38.94616	127.188	-0.08792288	1.696518	0.03	3	100	0	6546	9.717854	4.361225	-24.30229	
08:28:09	-6.728596	38.94616	127.114	-0.09404799	2.591884	0.06	3	100	0	6546	9.704115	4.358338	-24.30612	
08:28:09	-6.728596	38.94616	127.072	-0.114185	2.822001	0.13	3	100	0	6546	9.731502	4.40993	-24.29411	
08:28:09	-6.728596	38.94616	127.07	-0.1238928	3.179481	0.06	3	100	0	6547	9.602446	4.382605	-24.28503	
08:28:09	-6.728596	38.94616	127.019	-0.1194399	4.89987	0.02	3	100	0	6546	9.73103	4.420477	-24.32408	
08:28:09	-6.728596	38.94616	126.99	-0.1085179	6.328727	0.01	3	100	0	6546	9.742134	4.393007	-24.35534	
08:28:10	-6.728596	38.94616	126.966	-0.09381165	7.590627	0.06	3	100	0	6546	9.722663	4.415332	-24.39591	
08:28:10	-6.728596	38.94616	126.923	-0.09995399	7.848305	0.03	3	100	0	6546	9.703205	4.443136	-24.38049	
08:28:10	-6.728596	38.94616	126.904	-0.124375	7.197248	0.02	3	100	0	6546	9.716063	4.372394	-24.38224	
08:28:10	-6.728596	38.94616	126.885	-0.1355373	7.028772	0.04	3	100	0	6546	9.703526	4.358427	-24.38801	
08:28:10	-6.728596	38.94616	126.854	-0.135231	7.392923	0.08	3	100	0	6546	9.688619	4.39714	-24.41827	
08:28:11	-6.728597	38.94616	126.827	-0.1326152	8.132546	0.12	3	100	0	6546	9.644701	4.409887	-24.35141	
08:28:11	-6.728597	38.94616	126.831	-0.1266584	8.721776	0.08	3	100	0	6546	9.621425	4.544875	-24.36573	
08:28:11	-6.728597	38.94616	126.822	-0.1138431	9.710544	0.04	3	100	0	6546	9.697899	4.502362	-24.31319	
08:28:11	-6.728597	38.94616	126.792	-0.09011837	11.30241	0.08	3	100	0	6546	9.755163	4.405898	-24.3318	
08:28:12	-6.728597	38.94616	126.781	-0.06901608	13.05957	0.04	3	100	0	6546	9.769675	4.432889	-24.32233	
08:28:12	-6.728597	38.94616	126.732	-0.09104826	11.74566	0.04	3	100	0	6546	9.711827	4.439034	-24.32931	
08:28:12	-6.728597	38.94616	126.706	-0.1112765	10.48771	0.04	3	100	0	6546	9.723253	4.345433	-24.27529	
08:28:12	-6.728597	38.94616	126.679	-0.166011	7.480587	0.08	3	100	0	6546	9.679112	4.386798	-24.30337	
08:28:12	-6.728597	38.94615	126.625	-0.2357049	3.91014	0.04	3	98	0	6546	9.587642	4.424172	-24.327	
08:28:13	-6.728597	38.94615	126.576	-0.2576402	3.25747	0.09	3	98	0	6546	9.582591	4.401772	-24.31767	
08:28:13	-6.728597	38.94615	126.547	-0.23615	4.497889	0.04	3	98	0	6546	9.543647	4.41892	-24.30466	
08:28:13	-6.728597	38.94615	126.519	-0.215727	6.090835	0.04	3	98	0	6546	9.585886	4.414792	-24.32912	
08:28:13	-6.728597	38.94615	126.447	-0.1585931	9.484974	0.04	3	98	0	6546	9.658602	4.345476	-24.35886	
08:28:13	-6.728597	38.94615	126.414	-0.1215164	11.0055	0.04	3	98	0	6546	9.618384	4.37497	-24.35668	
08:28:14	-6.728597	38.94615	126.38	-0.1309207	10.32362	0.04	3	98	0	6546	9.650065	4.355596	-24.35784	
08:28:14	-6.728597	38.94615	126.349	-0.09874453	11.88918	0.07	3	98	0	6546	9.648582	4.402168	-24.32624	
08:28:14	-6.728597	38.94615	126.317	-0.0731219	12.60685	0.06	3	98	0	6546	9.666547	4.381109	-24.3356	
08:28:14	-6.728597	38.94615	126.3	-0.02664919	14.89551	0.04	3	98	0	6546	9.562215	4.360362	-24.29793	
08:28:14	-6.728597	38.94615	126.288	0.01494551	16.44321	0.04	3	98	0	6546	9.603812	4.292726	-24.267	
08:28:15	-6.728597	38.94615	126.275	0.006465626	15.11517	0.06	3	98	0	6546	9.615141	4.309711	-24.24792	
08:28:15	-6.728597	38.94615	126.266	-0.003555585	13.67439	0.03	3	98	0	6546	9.557074	4.367765	-24.25791	
08:28:15	-6.728597	38.94615	126.265	0.02386118	14.89083	0	3	98	0	6546	9.577195	4.35013	-24.23216	
08:28:15	-6.728597	38.94615	126.273	0.04625291	16.09296	0.06	3	98	0	6546	9.567537	4.336569	-24.2774	
08:28:15	-6.728597	38.94615	126.289	0.01830293	13.70499	0.07	3	98	0	6546	9.527576	4.329298	-24.22515	
08:28:15	-6.728597	38.94615	126.306	-0.008412402	11.79815	0.04	3	98	0	6546	9.554029	4.330373	-24.24492	
08:28:16	-6.728597	38.94615	126.316	-0.04163978	9.966391	0.04	3	98	0	6546	9.62526	4.310372	-24.18949	
08:28:16	-6.728597	38.94615	126.3	-0.06869079	8.428988	0.04	3	98	0	6546	9.620042	4.314077	-24.22273	
08:28:16	-6.728597	38.94615	126.298	-0.09581191	7.034645	0.07	3	98	0	6546	9.641318	4.351269	-24.25095	
08:28:16	-6.728597	38.94615	126.307	-0.1199584	5.246088	0.03	3	98	0	6546	9.617422	4.345222	-24.24645	
08:28:16	-6.728596	38.94615	126.33	-0.1447039	4.236182	0.03	3	98	0	6546	9.60235	4.409263	-24.30288	
08:28:16	-6.728596	38.94615	126.311	-0.1715415	3.648156	0.08	3	98	0	6546	9.618731	4.433756	-24.28377	
08:28:17	-6.728596	38.94615	126.304	-0.1837744	3.729007	0.01	3	98	0	6546	9.610163	4.469987	-24.29813	
08:28:17	-6.728596	38.94615	126.335	-0.1792077	4.547426	0.02	3	98	0	6546	9.57884	4.391685	-24.25333	
08:28:17	-6.728596	38.94615	126.343	-0.1896788	4.017836	0.01	3	98	0	6546	9.562679	4.359558	-24.23922	
08:28:17	-6.728596	38.94615	126.356	-0.2136896	3.172583	0.04	3	98	0	6546	9.55699	4.347301	-24.24869	
08:28:18	-6.728596	38.94615	126.366	-0.22255	2.95249	0.04	3	98	0	6546	9.557899	4.372605	-24.30512	
08:28:18	-6.728596	38.94615	126.377	-0.2193857	2.919388	0.03	3	98	0	6546	9.604399	4.331765	-24.2531	
08:28:18	-6.728596	38.94615	126.405	-0.209444	3.914491	0.04	3	98	0	6546	9.55073	4.311005	-24.24436	
08:28:18	-6.728596	38.94615	126.433	-0.1898558	4.911685	0.04	3	98	0	6546	9.544662	4.314064	-24.2039	
08:28:19	-6.728596	38.94615	126.451	-0.1593738	6.950549	0.04	3	98	0	6545	9.541805	4.296039	-24.19679	
08:28:19	-6.728596	38.94615	126.488	-0.1291503	8.644555	0.01	3	98	0	6546	9.557415	4.291702	-24.1361	
08:28:19	-6.728596	38.94615	126.507	-0.09460937	10.13449	0.03	3	98	0	6546	9.583076	4.286597	-24.19105	
08:28:19	-6.728596	38.94615	126.552	-0.06554972	11.74315	0.06	3	98	0	6546	9.531781	4.271323	-24.1755	
08:28:19	-6.728597	38.94615	126.576	-0.07966274	11.14136	0.02	3	98	0	6546	9.522532	4.259458	-24.15082	
08:28:20	-6.728597	38.94615	126.609	-0.1324107	8.060167	0.04	3	98	0	6546	9.566781	4.295891	-24.11338	
08:28:20	-6.728597	38.94615	126.616	-0.1620244	6.336556	0.04	3	98	0	6546	9.602558	4.265393	-24.16284	
08:28:20	-6.728597	38.94615	126.663	-0.1748682	6.170211	0.02	3	98	0	6546	9.579954	4.215904	-24.13847	
08:28:20	-6.728597	38.94615	126.697	-0.1799498	6.193728	0.01	3	98	0	6546	9.551091	4.235332	-24.14915	
08:28:20	-6.728597	38.94615	126.732	-0.176689	6.786448	0.02	3	98	0	6546	9.56915	4.260943	-24.16458	
08:28:20	-6.728597	38.94615	126.757	-0.1469374	8.334365	0.03	3	98	0	6546	9.576898	4.25174	-24.12741	
08:28:21	-6.728597	38.94615	126.787	-0.08895608	11.23423	0.13	3	98	0	6546	9.633675	4.212289	-24.17999	
08:28:21	-6.728596	38.94615	126.789	-0.0422237	12.88777	0.04	3	98	0	6546	9.621086	4.176845	-24.2301	
08:28:21	-6.728596	38.94615	126.823	0.02357625	15.49358	0.09	3	98	0	6546	9.556167	4.171221	-24.23489	
08:28:21	-6.728596	38.94615	126.854	0.08052189	17.58288	0.02	3	98	0	6546	9.58845	4.166177	-24.20298	
08:28:21	-6.728596	38.94615	126.879	0.1493995	19.71896	0.04	3	98	0	6546	9.546044	4.23595	-24.17505	
08:28:22	-6.728596	38.94615	126.92	0.2032401	21.04333	0.03	3	98	0	6546	9.543726	4.224184	-24.1325	
08:28:22	-6.728596	38.94615	126.937	0.2760184	23.29753	0.01	3	98	0	6546	9.574572	4.217167	-24.12788	
08:28:22	-6.728596	38.94615	126.957	0.3387716	25.09207	0.07	3	98	0	6546	9.550476	4.256571	-24.10319	
08:28:22	-6.728596	38.94615	126.969	0.3641416	23.82733	0.03	3	98	0	6546	9.531696	4.278746	-24.07808	
08:28:22	-6.728596	38.94615	126.987	0.3833899	23.30952	0.04	3	98	0	6546	9.53138	4.203374	-24.05072	
08:28:23	-6.728596	38.94615	127.018	0.4398257	24.28129	0.04	3	98	0	6546	9.523023	4.195733	-24.03415	
08:28:23	-6.728596	38.94615	127.023	0.4826462	24.84027	0.04	3	98	0	6546	9.502229	4.209069	-23.98661	
08:28:23	-6.728597	38.94615	127.05	0.4812008	22.59898	0.13	3	98	0	6546	9.442673	4.236847	-24.02776	
08:28:23	-6.728597	38.94615	127.079	0.47627	20.69374	0.07	3	98	0	6546	9.438667	4.247105	-24.01056	
08:28:23	-6.728597	38.94615	127.105	0.4099802	15.3673	0.02	3	98	0	6546	9.490102	4.201892	-24.01492	
08:28:23	-6.728597	38.94615	127.136	0.3533074	11.95078	0.03	3	98	0	6546	9.525686	4.206413	-23.97329	
08:28:24	-6.728597	38.94615	127.146	0.3235649	9.663217	0.04	3	98	0	6546	9.514049	4.226496	-23.90037	
08:28:24	-6.728597	38.94615	127.17	0.294921	7.294361	0.03	3	98	0	6545	9.506972	4.189881	-23.89167	
08:28:24	-6.728597	38.94615	127.188	0.2707163	5.508381	0.04	3	99	0	6546	9.547055	4.171323	-23.92733	
08:28:24	-6.728597	38.94615	127.222	0.2478253	3.807614	0.06	3	99	0	6546	9.545838	4.192996	-23.93011	
08:28:24	-6.728597	38.94615	127.226	0.2675597	4.895315	0.04	3	99	0	6546	9.555252	4.219636	-23.91324	
08:28:25	-6.728597	38.94615	127.257	0.2835164	5.582352	0.04	3	99	0	6546	9.581614	4.191823	-23.92758	
08:28:25	-6.728597	38.94615	127.265	0.2540284	4.033406	0.03	3	99	0	6546	9.562929	4.173423	-23.8767	
08:28:25	-6.728597	38.94615	127.275	0.227574	2.81096	0.04	3	99	0	6546	9.614233	4.202935	-23.92068	
08:28:25	-6.728597	38.94615	127.288	0.275709	5.510678	0.06	3	99	0	6546	9.665018	4.22514	-23.91285	
08:28:25	-6.728597	38.94615	127.303	0.3153013	7.200642	0.03	3	99	0	6546	9.646579	4.24784	-23.95176	
08:28:26	-6.728597	38.94615	127.336	0.3419484	8.368684	0.06	3	99	0	6546	9.613173	4.278444	-23.87941	
08:28:26	-6.728597	38.94615	127.354	0.3473365	8.601163	0.02	3	99	0	6546	9.616769	4.28647	-23.85271	
08:28:26	-6.728597	38.94615	127.373	0.3674347	9.273891	0.08	3	99	0	6546	9.589207	4.287691	-23.83146	
08:28:26	-6.728598	38.94615	127.383	0.4070927	10.77754	0.07	3	99	0	6546	9.549426	4.316903	-23.86765	
08:28:27	-6.728598	38.94615	127.389	0.4499397	12.00062	0.04	3	99	0	6546	9.533516	4.275956	-23.86074	
08:28:27	-6.728598	38.94615	127.405	0.4878964	12.55754	0.06	3	99	0	6546	9.519586	4.223373	-23.85156	
08:28:27	-6.728598	38.94615	127.397	0.5131108	13.54208	0.04	3	99	0	6546	9.566655	4.217782	-23.79609	
08:28:27	-6.728598	38.94615	127.38	0.5276462	13.62965	0.02	3	99	0	6546	9.576745	4.252213	-23.83218	
08:28:27	-6.728598	38.94615	127.376	0.5576191	14.31013	0.06	3	99	0	6546	9.57434	4.221553	-23.82995	
08:28:27	-6.728598	38.94615	127.371	0.5971584	15.66499	0.08	3	99	0	6546	9.614637	4.195531	-23.80812	
08:28:28	-6.728598	38.94615	127.362	0.6237924	15.49282	0.04	3	99	0	6546	9.591418	4.226847	-23.80519	
08:28:28	-6.728598	38.94615	127.354	0.6305019	14.87936	0.04	3	99	0	6546	9.530718	4.28285	-23.79948	
08:28:28	-6.728598	38.94615	127.357	0.6317695	14.08484	0.06	3	99	0	6546	9.57752	4.284731	-23.74928	
08:28:28	-6.728598	38.94615	127.37	0.62815	13.04861	0.04	3	99	0	6546	9.584935	4.280244	-23.68322	
08:28:28	-6.728598	38.94615	127.356	0.6344762	12.461	0.13	3	99	0	6546	9.620614	4.316255	-23.68443	
08:28:28	-6.728598	38.94615	127.342	0.6492234	12.28842	0.07	3	99	0	6546	9.68151	4.310913	-23.71554	
08:28:29	-6.728598	38.94615	127.313	0.6269431	10.1301	0.09	3	99	0	6546	9.656971	4.274817	-23.7081	
08:28:29	-6.728598	38.94615	127.288	0.5846191	7.422355	0.03	3	99	0	6546	9.596803	4.263738	-23.69113	
08:28:29	-6.728598	38.94615	127.303	0.551511	5.022478	0.01	3	99	0	6546	9.527896	4.25483	-23.72943	
08:28:29	-6.728598	38.94615	127.296	0.5163299	2.932631	0.06	3	99	0	6546	9.530304	4.221999	-23.69489	
08:28:29	-6.728598	38.94615	127.301	0.4729845	0.3179072	0.06	3	99	0	6546	9.514447	4.266021	-23.68429	
08:28:30	-6.728598	38.94615	127.29	0.4059698	-3.266572	0.06	3	99	0	6546	9.570198	4.326164	-23.66606	
08:28:30	-6.728598	38.94615	127.278	0.3595392	-5.277159	0.04	3	99	0	6546	9.54351	4.340575	-23.70355	
08:28:30	-6.728598	38.94615	127.26	0.3358519	-5.828435	0.04	3	99	0	6546	9.512441	4.331388	-23.67682	
08:28:30	-6.728598	38.94615	127.241	0.3182247	-5.819119	0.04	3	99	0	6546	9.505773	4.362223	-23.66655	
08:28:30	-6.728598	38.94615	127.237	0.2777399	-6.796589	0.03	3	99	0	6546	9.48175	4.399445	-23.67025	
08:28:31	-6.728598	38.94615	127.211	0.2438103	-7.170238	0.03	3	99	0	6546	9.516236	4.394119	-23.63146	
08:28:31	-6.728598	38.94615	127.193	0.1881387	-8.757754	0.02	3	99	0	6546	9.510122	4.362845	-23.64242	
08:28:31	-6.728598	38.94615	127.188	0.1448569	-10.08084	0.04	3	99	0	6546	9.476183	4.388148	-23.62181	
08:28:31	-6.728599	38.94615	127.187	0.1077493	-10.97486	0.02	3	99	0	6546	9.488106	4.400795	-23.63262	
08:28:31	-6.728599	38.94615	127.156	0.07650042	-11.07067	0.03	3	99	0	6546	9.490727	4.390267	-23.61554	
08:28:31	-6.728599	38.94615	127.113	0.04084206	-10.91495	0.06	3	99	0	6546	9.541297	4.414415	-23.61455	
08:28:32	-6.728599	38.94615	127.085	0.01190544	-11.30091	0.01	3	99	0	6546	9.545059	4.433603	-23.60903	
08:28:32	-6.728599	38.94615	127.077	-0.001991664	-10.58985	0.04	3	99	0	6546	9.53974	4.446308	-23.61543	
08:28:32	-6.728599	38.94615	127.063	-0.01042151	-9.533973	0.04	3	99	0	6546	9.568162	4.433608	-23.6231	
08:28:32	-6.728599	38.94615	127.04	-0.009469417	-8.141637	0.03	3	99	0	6546	9.553508	4.439182	-23.6412	
08:28:33	-6.728599	38.94616	127.038	-0.005974648	-6.47697	0.02	3	99	0	6546	9.491432	4.43692	-23.6473	
08:28:33	-6.728599	38.94616	127.021	0.03706359	-3.597685	0.08	3	99	0	6546	9.516545	4.394119	-23.65931	
08:28:33	-6.728599	38.94616	126.993	0.07345172	-1.298277	0.02	3	99	0	6546	9.53961	4.397447	-23.62214	
08:28:33	-6.728599	38.94616	126.981	0.09264906	0.05130079	0.07	3	99	0	6546	9.547715	4.397759	-23.58913	
08:28:34	-6.728599	38.94616	126.968	0.1114287	1.692347	0.03	3	99	0	6546	9.540226	4.419269	-23.58418	
08:28:34	-6.728599	38.94616	126.957	0.1353731	2.550409	0.04	3	99	0	6546	9.51422	4.463928	-23.57376	
08:28:34	-6.728599	38.94616	126.938	0.1564866	3.769866	0.07	3	99	0	6546	9.4646	4.471235	-23.55997	
08:28:34	-6.728599	38.94616	126.919	0.167622	4.652731	0.08	3	99	0	6546	9.516526	4.5038	-23.51906	
08:28:35	-6.728599	38.94616	126.917	0.1766907	4.768222	0.03	3	99	0	6546	9.531961	4.486686	-23.48813	
08:28:35	-6.728599	38.94616	126.906	0.2624416	8.938053	0.04	3	99	0	6546	9.507669	4.470698	-23.47337	
08:28:35	-6.728599	38.94616	126.884	0.3408859	13.0307	0.02	3	99	0	6546	9.523581	4.421496	-23.52951	
08:28:35	-6.728599	38.94616	126.886	0.4319845	16.64544	0.07	3	99	0	6545	9.564704	4.448277	-23.51176	
08:28:35	-6.728599	38.94616	126.886	0.5048255	19.18774	0.03	3	99	0	6546	9.565522	4.390499	-23.48371	
08:28:36	-6.728599	38.94616	126.877	0.5621546	20.37366	0.01	3	99	0	6546	9.563297	4.376434	-23.48917	
08:28:36	-6.728599	38.94616	126.854	0.5846745	19.88968	0.07	3	99	0	6546	9.572201	4.391903	-23.53588	
08:28:36	-6.728599	38.94616	126.86	0.5957392	19.14377	0.04	3	99	0	6546	9.508197	4.363288	-23.55811	
08:28:36	-6.728599	38.94616	126.824	0.5953776	17.03428	0.09	3	99	0	6546	9.585843	4.369834	-23.57002	
08:28:37	-6.728599	38.94616	126.794	0.5982812	16.59263	0.12	3	99	0	6546	9.506709	4.382696	-23.60661	
08:28:37	-6.728599	38.94616	126.794	0.603317	16.0245	0.12	3	99	0	6546	9.426409	4.398248	-23.58422	
08:28:37	-6.728599	38.94616	126.768	0.5651474	12.82475	0.06	3	99	0	6546	9.497036	4.395405	-23.57798	
08:28:37	-6.728599	38.94616	126.768	0.5015643	8.634642	0.06	3	99	0	6546	9.514146	4.285948	-23.57093	
08:28:37	-6.728599	38.94616	126.785	0.4596759	6.136159	0.04	3	99	0	6546	9.50045	4.281811	-23.54398	
08:28:37	-6.728599	38.94616	126.782	0.4336181	4.649295	0.04	3	99	0	6546	9.49692	4.313992	-23.57598	
08:28:38	-6.728599	38.94616	126.779	0.4308864	4.37873	0.03	3	99	0	6546	9.530968	4.319833	-23.61131	
08:28:38	-6.728599	38.94616	126.779	0.4552267	4.980263	0.03	3	99	0	6546	9.532521	4.285635	-23.59762	
08:28:38	-6.728599	38.94616	126.788	0.4689777	5.599161	0.03	3	99	0	6545	9.485695	4.288923	-23.63537	
08:28:38	-6.728599	38.94616	126.789	0.4769571	5.684732	0.06	3	99	0	6546	9.489092	4.254964	-23.61123	
08:28:38	-6.728599	38.94616	126.812	0.4775251	5.412319	0.02	3	99	0	6546	9.498222	4.187608	-23.62635	
08:28:38	-6.728599	38.94616	126.812	0.4740396	5.064441	0.02	3	99	0	6546	9.531674	4.200846	-23.63744	
08:28:39	-6.728599	38.94616	126.806	0.4174412	1.373175	0.02	3	99	0	6546	9.552038	4.229104	-23.66623	
08:28:39	-6.728599	38.94616	126.806	0.313242	-4.185095	0.09	3	99	0	6546	9.471286	4.255041	-23.67707	
08:28:39	-6.728599	38.94616	126.82	0.2264751	-8.291819	0.02	3	99	0	6547	9.478129	4.234319	-23.72898	
08:28:39	-6.728599	38.94616	126.82	0.159185	-11.38551	0.04	3	99	0	6546	9.533904	4.228256	-23.75928	
08:28:39	-6.728599	38.94616	126.841	0.1382231	-11.19177	0.06	3	99	0	6546	9.48666	4.308388	-23.73455	
08:28:40	-6.728599	38.94616	126.841	0.1897093	-7.940638	0.06	3	99	0	6546	9.475997	4.26272	-23.68553	
08:28:40	-6.728599	38.94616	126.848	0.2450638	-4.35698	0.06	3	99	0	6545	9.530552	4.198843	-23.67645	
08:28:40	-6.728599	38.94616	126.83	0.3317242	1.140648	0.02	3	99	0	6546	9.494439	4.167513	-23.61063	
08:28:40	-6.7286	38.94616	126.827	0.4045762	4.875438	0.04	3	99	0	6546	9.447112	4.161142	-23.62745	
08:28:40	-6.7286	38.94616	126.808	0.4386995	6.491131	0.04	3	99	0	6546	9.439622	4.161518	-23.59829	
08:28:41	-6.7286	38.94616	126.815	0.4695634	8.288999	0.04	3	99	0	6546	9.439171	4.162302	-23.5462	
08:28:41	-6.7286	38.94616	126.815	0.4584794	6.942047	0.04	3	99	0	6546	9.428664	4.156617	-23.5939	
08:28:41	-6.7286	38.94616	126.796	0.4489883	5.952156	0.06	3	99	0	6546	9.473832	4.16768	-23.59408	
08:28:41	-6.7286	38.94616	126.77	0.4135427	3.360453	0.09	3	99	0	6546	9.523219	4.151332	-23.59263	
08:28:41	-6.728599	38.94616	126.777	0.3832857	1.43675	0.02	3	99	0	6546	9.540202	4.078917	-23.55872	
08:28:41	-6.728599	38.94616	126.746	0.327512	-1.560267	0.14	3	99	0	6546	9.484664	4.158419	-23.57235	
08:28:42	-6.728599	38.94616	126.733	0.2819607	-3.571279	0.01	3	99	0	6546	9.610837	4.178961	-23.55914	
08:28:42	-6.728599	38.94616	126.709	0.2619367	-3.604291	0.06	3	99	0	6545	9.536347	4.158299	-23.5503	
08:28:42	-6.728599	38.94616	126.686	0.247073	-3.950024	0.08	3	99	0	6544	9.446183	4.172595	-23.50797	
08:28:42	-6.728599	38.94616	126.664	0.2328077	-3.97708	0.02	3	99	0	6546	9.553077	4.182068	-23.49469	
08:28:42	-6.728599	38.94616	126.63	0.22067	-4.171616	0.04	3	99	0	6546	9.504282	4.192503	-23.44336	
08:28:43	-6.728599	38.94616	126.617	0.2033163	-4.725029	0.04	3	99	0	6546	9.435122	4.231948	-23.51	
08:28:43	-6.728599	38.94616	126.59	0.1886499	-4.947055	0.03	3	99	0	6546	9.443798	4.187366	-23.4935	
08:28:43	-6.728599	38.94616	126.555	0.2073062	-3.095682	0.01	3	99	0	6546	9.48616	4.151978	-23.43278	
08:28:43	-6.728599	38.94616	126.552	0.2255862	-1.762159	0.08	3	99	0	6546	9.483663	4.162982	-23.46269	
08:28:43	-6.728599	38.94616	126.561	0.2315945	-1.478811	0.04	3	99	0	6546	9.402807	4.151859	-23.47184	
08:28:44	-6.728599	38.94616	126.55	0.2370842	-0.7237875	0.09	3	99	0	6546	9.493717	4.155674	-23.54513	
08:28:44	-6.728599	38.94616	126.526	0.291607	2.429771	0.07	3	99	0	6546	9.415499	4.204655	-23.58337	
08:28:44	-6.728599	38.94616	126.533	0.3369273	4.972131	0.06	3	99	0	6546	9.560674	4.188574	-23.53297	
08:28:44	-6.728599	38.94616	126.532	0.3807159	6.450658	0.03	3	99	0	6546	9.495231	4.226114	-23.47886	
08:28:45	-6.728599	38.94616	126.497	0.4196648	8.333895	0.03	3	99	0	6546	9.535493	4.18867	-23.4481	
08:28:45	-6.728599	38.94616	126.473	0.4677489	10.00423	0.04	3	99	0	6546	9.510964	4.220473	-23.45663	
08:28:45	-6.728599	38.94616	126.473	0.5089411	11.13461	0.04	3	99	0	6546	9.46232	4.191001	-23.45576	
08:28:45	-6.728599	38.94616	126.428	0.5396009	11.53012	0.12	3	99	0	6546	9.519609	4.127667	-23.44924	
08:28:45	-6.728599	38.94616	126.424	0.5687851	11.95487	0.09	3	99	0	6546	9.53536	4.117941	-23.49905	
08:28:45	-6.728599	38.94616	126.424	0.5697304	11.39956	0.09	3	99	0	6546	9.55476	4.173401	-23.51877	
08:28:46	-6.728598	38.94616	126.334	0.551577	9.890678	0.03	3	99	0	6546	9.49367	4.235693	-23.54508	
08:28:46	-6.728598	38.94616	126.334	0.5284699	7.619547	0.03	3	99	0	6546	9.516402	4.253199	-23.54878	
08:28:46	-6.728598	38.94616	126.335	0.5073429	5.881438	0.03	3	99	0	6546	9.507655	4.29335	-23.57656	
08:28:46	-6.728598	38.94616	126.338	0.4959601	4.909163	0.06	3	99	0	6546	9.529888	4.253189	-23.52252	
08:28:46	-6.728598	38.94616	126.338	0.4932609	4.329613	0.06	3	99	0	6545	9.508302	4.335429	-23.51359	
08:28:47	-6.728598	38.94616	126.309	0.4875903	3.783098	0.04	3	99	0	6546	9.538227	4.307764	-23.45932	
08:28:47	-6.728598	38.94616	126.285	0.4803329	2.946488	0.01	3	99	0	6546	9.501473	4.269378	-23.48519	
08:28:47	-6.728598	38.94616	126.285	0.4776351	2.811237	0.01	3	99	0	6545	9.517089	4.313756	-23.49666	
08:28:47	-6.728598	38.94616	126.281	0.4793023	3.085876	0.02	3	99	0	6546	9.560497	4.316359	-23.43614	
08:28:47	-6.728598	38.94616	126.266	0.4933129	3.714638	0.01	3	99	0	6546	9.537458	4.310634	-23.41394	
08:28:48	-6.728598	38.94616	126.253	0.5263368	5.255278	0.04	3	99	0	6546	9.542343	4.290455	-23.40199	
08:28:48	-6.728598	38.94616	126.249	0.5569599	6.802124	0.01	3	99	0	6546	9.579219	4.310291	-23.41206	
08:28:48	-6.728598	38.94616	126.216	0.5866508	8.008634	0.04	3	99	0	6546	9.554893	4.324992	-23.4291	
08:28:48	-6.728598	38.94616	126.184	0.579859	6.713768	0.07	3	99	0	6546	9.486149	4.321922	-23.46812	
08:28:48	-6.728598	38.94616	126.161	0.5517383	4.740725	0.07	3	99	0	6546	9.472963	4.391366	-23.4591	
08:28:48	-6.728598	38.94616	126.145	0.5214149	2.96809	0.04	3	99	0	6546	9.475227	4.423245	-23.50033	
08:28:49	-6.728598	38.94616	126.137	0.4903037	0.9557834	0.02	3	99	0	6546	9.466674	4.35161	-23.50504	
08:28:49	-6.728598	38.94616	126.141	0.4562111	-0.8937836	0.03	3	99	0	6546	9.516305	4.38344	-23.51402	
08:28:49	-6.728598	38.94616	126.134	0.4205601	-2.857946	0.04	3	99	0	6546	9.539827	4.324731	-23.52827	
08:28:49	-6.728598	38.94616	126.124	0.3769202	-4.727672	0.08	3	99	0	6546	9.539854	4.350246	-23.5545	
08:28:50	-6.728598	38.94615	126.127	0.3269051	-6.834263	0.04	3	99	0	6546	9.576801	4.335319	-23.56157	
08:28:50	-6.728599	38.94615	126.154	0.2824451	-8.258634	0.14	3	99	0	6546	9.483779	4.315569	-23.60508	
08:28:50	-6.728599	38.94615	126.156	0.2265411	-10.11382	0.03	3	99	0	6546	9.344872	4.36504	-23.66992	
08:28:50	-6.728599	38.94615	126.151	0.1777588	-11.67049	0.06	3	99	0	6546	9.461029	4.396435	-23.5982	
08:28:50	-6.728599	38.94615	126.154	0.155723	-10.92908	0.01	3	99	0	6546	9.551648	4.33691	-23.57259	
08:28:51	-6.728599	38.94615	126.134	0.1390958	-10.32683	0.03	3	99	0	6546	9.494541	4.351338	-23.62707	
08:28:51	-6.728599	38.94615	126.164	0.1391377	-8.92391	0.06	3	99	0	6546	9.45348	4.355084	-23.59153	
08:28:51	-6.728599	38.94615	126.173	0.1418087	-7.439635	0.06	3	99	0	6546	9.507861	4.290808	-23.57691	
08:28:51	-6.728599	38.94615	126.175	0.1256659	-7.380684	0.04	3	99	0	6546	9.434124	4.35612	-23.58577	
08:28:51	-6.728599	38.94615	126.175	0.1126973	-7.10456	0.04	3	99	0	6546	9.497517	4.312972	-23.60616	
08:28:52	-6.728599	38.94615	126.166	0.1514781	-4.758465	0.03	3	99	0	6546	9.461598	4.379263	-23.62644	
08:28:52	-6.728599	38.94615	126.155	0.1885572	-2.080087	0.04	3	99	0	6546	9.54711	4.322821	-23.59525	
08:28:52	-6.728599	38.94615	126.137	0.2146268	-0.6149174	0.04	3	99	0	6546	9.583243	4.261575	-23.55746	
08:28:52	-6.728599	38.94615	126.152	0.2388656	1.052178	0.09	3	99	0	6546	9.511702	4.283197	-23.51229	
08:28:52	-6.728599	38.94615	126.168	0.299628	4.343063	0.02	3	99	0	6546	9.444259	4.285511	-23.52127	
08:28:53	-6.728599	38.94615	126.173	0.3542288	6.963541	0.06	3	99	0	6546	9.520139	4.303823	-23.46428	
08:28:53	-6.728599	38.94615	126.146	0.4117205	9.274845	0.09	3	99	0	6546	9.586493	4.306633	-23.52706	
08:28:53	-6.728599	38.94615	126.166	0.4621864	10.92943	0.04	3	99	0	6546	9.622385	4.310587	-23.59592	
08:28:53	-6.728599	38.94615	126.186	0.3922704	6.606848	0.01	3	99	0	6546	9.508781	4.290431	-23.59352	
08:28:53	-6.728599	38.94615	126.16	0.3133557	1.811844	0.01	3	99	0	6546	9.51081	4.301592	-23.58663	
08:28:54	-6.728599	38.94615	126.147	0.2704289	-0.8318128	0.02	3	99	0	6546	9.513802	4.289921	-23.62314	
08:28:54	-6.728599	38.94615	126.162	0.2224252	-3.112384	0.03	3	99	0	6546	9.537686	4.316131	-23.64083	
08:28:54	-6.728599	38.94615	126.153	0.2042291	-3.905333	0.04	3	99	0	6545	9.511271	4.307189	-23.61457	
08:28:54	-6.7286	38.94615	126.173	0.1881413	-4.426543	0.01	3	99	0	6546	9.536844	4.316063	-23.64059	
08:28:54	-6.7286	38.94615	126.194	0.2031725	-3.26057	0.03	3	99	0	6546	9.508848	4.337088	-23.58992	
08:28:55	-6.7286	38.94615	126.21	0.2171056	-2.042593	0.01	3	99	0	6546	9.519157	4.311003	-23.59916	
08:28:55	-6.7286	38.94615	126.19	0.2306361	-0.5807588	0.04	3	99	0	6546	9.483951	4.287776	-23.58257	
08:28:55	-6.7286	38.94615	126.203	0.2432528	0.1818943	0.06	3	99	0	6546	9.508705	4.243111	-23.56584	
08:28:55	-6.7286	38.94615	126.189	0.2474206	0.8098665	0.06	3	99	0	6546	9.453629	4.266009	-23.55526	
08:28:56	-6.7286	38.94615	126.16	0.2447157	0.1531521	0.08	3	99	0	6546	9.429677	4.304905	-23.52692	
08:28:56	-6.7286	38.94615	126.152	0.2420864	0.6054258	0.01	3	99	0	6546	9.554438	4.286375	-23.48291	
08:28:56	-6.7286	38.94615	126.153	0.2402475	0.4112751	0.03	3	99	0	6546	9.515631	4.294527	-23.50383	
08:28:56	-6.728601	38.94615	126.142	0.2513835	1.535766	0.04	3	99	0	6546	9.474952	4.309429	-23.51164	
08:28:56	-6.728601	38.94615	126.15	0.2689864	2.169696	0.07	3	99	0	6546	9.48484	4.283479	-23.53035	
08:28:56	-6.728601	38.94615	126.175	0.2919274	3.005512	0.02	3	99	0	6546	9.435484	4.326113	-23.5667	
08:28:56	-6.728601	38.94615	126.169	0.3164311	4.005856	0.06	3	99	0	6546	9.511131	4.287112	-23.60941	
08:28:57	-6.728601	38.94615	126.174	0.3279154	3.889472	0.09	3	99	0	6546	9.507261	4.34463	-23.57229	
08:28:57	-6.728601	38.94615	126.153	0.3283508	3.98481	0.04	3	99	0	6546	9.603997	4.292355	-23.54206	
08:28:57	-6.728601	38.94615	126.126	0.3414968	4.27449	0.02	3	99	0	6546	9.510504	4.345093	-23.56542	
08:28:58	-6.728601	38.94615	126.126	0.3658102	5.784867	0.02	3	99	0	6546	9.505017	4.291705	-23.53795	
08:28:58	-6.728601	38.94615	126.137	0.365057	5.476855	0.04	3	99	0	6546	9.530861	4.327762	-23.55743	
08:28:58	-6.728601	38.94615	126.136	0.3496391	4.219293	0.04	3	99	0	6546	9.562331	4.3422	-23.5363	
08:28:58	-6.728601	38.94615	126.164	0.3067963	1.326153	0.02	3	99	0	6546	9.597673	4.310617	-23.53384	
08:28:58	-6.728602	38.94615	126.147	0.2496368	-1.53939	0.04	3	99	0	6546	9.577155	4.306526	-23.52696	
08:28:58	-6.728602	38.94615	126.122	0.2218542	-2.764301	0.04	3	99	0	6546	9.531451	4.301885	-23.60084	
08:28:59	-6.728602	38.94615	126.115	0.2113164	-2.887427	0.06	3	99	0	6546	9.581487	4.297958	-23.60167	
08:28:59	-6.728602	38.94615	126.117	0.1819246	-3.864528	0.02	3	99	0	6548	9.614588	4.359359	-23.65628	
08:28:59	-6.728602	38.94615	126.128	0.1376095	-5.610582	0.09	3	99	0	6545	9.586959	4.350935	-23.65447	
08:28:59	-6.728603	38.94615	126.134	0.1079581	-6.488027	0.04	3	99	0	6546	9.465648	4.380393	-23.63175	
08:28:59	-6.728603	38.94615	126.138	0.08714722	-6.847795	0.04	3	99	0	6546	9.522977	4.372797	-23.67547	
08:29:00	-6.728603	38.94615	126.131	0.06752855	-7.194836	0.07	3	99	0	6546	9.543472	4.297222	-23.7042	
08:29:00	-6.728603	38.94615	126.11	0.1134445	-4.167022	0.08	3	99	0	6546	9.510901	4.38682	-23.67569	
08:29:00	-6.728603	38.94615	126.119	0.1564342	-1.311478	0.01	3	99	0	6546	9.473043	4.39378	-23.6486	
08:29:00	-6.728603	38.94615	126.142	0.2636792	4.372051	0.01	3	99	0	6546	9.562734	4.367964	-23.62713	
08:29:00	-6.728603	38.94615	126.175	0.3734163	10.06332	0.11	3	99	0	6547	9.582865	4.337869	-23.57822	
08:29:01	-6.728604	38.94615	126.188	0.4885537	15.52364	0.09	3	99	0	6546	9.459443	4.299602	-23.65266	
08:29:01	-6.728604	38.94615	126.193	0.5993193	19.29151	0.07	3	99	0	6546	9.447467	4.328917	-23.60545	
08:29:01	-6.728604	38.94615	126.171	0.544455	14.51789	0.12	3	99	0	6546	9.496822	4.376941	-23.59464	
08:29:02	-6.728604	38.94615	126.151	0.496273	10.87178	0.06	3	99	0	6546	9.699556	4.242019	-23.5364	
08:29:02	-6.728604	38.94615	126.135	0.4584871	7.419587	0.09	3	99	0	6546	9.66443	4.285745	-23.5901	
08:29:02	-6.728604	38.94615	126.147	0.421913	4.701684	0.04	3	99	0	6546	9.684875	4.319119	-23.53663	
08:29:02	-6.728604	38.94615	126.123	0.4093991	3.4233	0.06	3	99	0	6546	9.592726	4.33599	-23.57088	
08:29:03	-6.728604	38.94615	126.14	0.396089	2.428221	0.04	3	99	0	6546	9.539078	4.259474	-23.51878	
08:29:03	-6.728605	38.94615	126.165	0.4088286	3.305437	0.04	3	99	0	6546	9.525564	4.335649	-23.54802	
08:29:03	-6.728605	38.94615	126.185	0.4218702	3.544468	0.08	3	99	0	6546	9.597507	4.280706	-23.54862	
08:29:03	-6.728605	38.94615	126.195	0.4293597	3.321473	0.04	3	99	0	6546	9.480349	4.309783	-23.59785	
08:29:03	-6.728605	38.94615	126.181	0.4353941	3.709053	0.06	3	99	0	6546	9.582686	4.29634	-23.57228	
08:29:03	-6.728605	38.94615	126.173	0.4386783	3.395872	0.02	3	99	0	6546	9.644932	4.315165	-23.57528	
08:29:03	-6.728605	38.94615	126.185	0.4410626	3.29859	0.03	3	99	0	6546	9.58276	4.32657	-23.58367	
08:29:04	-6.728605	38.94615	126.173	0.4648566	4.480221	0.02	3	99	0	6546	9.573215	4.326352	-23.56504	
08:29:04	-6.728605	38.94615	126.163	0.4879129	5.18011	0.03	3	99	0	6546	9.563355	4.332153	-23.62454	
08:29:04	-6.728606	38.94615	126.162	0.4175147	1.383444	0.09	3	99	0	6546	9.603899	4.321229	-23.61593	
08:29:04	-6.728606	38.94615	126.172	0.3461403	-2.07097	0.01	3	99	0	6546	9.476734	4.321053	-23.5974	
08:29:05	-6.728606	38.94615	126.162	0.2885954	-4.842524	0.08	3	99	0	6546	9.557225	4.287283	-23.60108	
08:29:05	-6.728606	38.94615	126.161	0.2371464	-7.416702	0.14	3	99	0	6546	9.486025	4.280754	-23.60163	
08:29:05	-6.728606	38.94615	126.168	0.1942857	-9.563002	0.04	3	99	0	6546	9.418632	4.352171	-23.55153	
08:29:05	-6.728606	38.94615	126.147	0.1615563	-10.53848	0.06	3	99	0	6546	9.511995	4.336817	-23.52894	
08:29:05	-6.728606	38.94615	126.11	0.1557992	-9.835449	0.04	3	99	0	6546	9.508165	4.299925	-23.52519	
08:29:06	-6.728606	38.94615	126.096	0.183313	-7.315958	0.08	3	99	0	6546	9.568266	4.343277	-23.54809	
08:29:06	-6.728606	38.94615	126.082	0.2151314	-4.641948	0.04	3	99	0	6546	9.458648	4.238856	-23.55333	
08:29:06	-6.728606	38.94615	126.074	0.2447967	-2.641862	0.03	3	99	0	6546	9.546608	4.328123	-23.5779	
08:29:06	-6.728606	38.94615	126.039	0.2280483	-3.547515	0.07	3	99	0	6546	9.557584	4.289342	-23.56788	
08:29:06	-6.728606	38.94615	126.025	0.1837697	-5.908	0.04	3	99	0	6546	9.528632	4.332455	-23.56294	
08:29:06	-6.728606	38.94615	126.018	0.1670371	-6.584201	0.06	3	99	0	6546	9.566383	4.235769	-23.53069	
08:29:07	-6.728607	38.94615	125.989	0.1668984	-6.035907	0.11	3	99	0	6546	9.49922	4.291326	-23.55639	
08:29:07	-6.728607	38.94615	125.978	0.1457568	-6.579743	0.06	3	99	0	6546	9.376678	4.226783	-23.61503	
08:29:07	-6.728607	38.94615	125.944	0.1066016	-7.797635	0.04	3	99	0	6546	9.448491	4.197144	-23.60006	
08:29:07	-6.728607	38.94615	125.92	0.06797751	-8.928999	0.07	3	99	0	6546	9.518206	4.224564	-23.56272	
08:29:08	-6.728607	38.94615	125.888	0.03409243	-10.07451	0.07	3	99	0	6546	9.523093	4.198455	-23.54898	
08:29:08	-6.728607	38.94615	125.86	0.01699532	-9.791319	0.04	3	99	0	6546	9.528309	4.172703	-23.52675	
08:29:08	-6.728607	38.94615	125.849	0.01779709	-9.289835	0.02	3	99	0	6546	9.522215	4.29016	-23.55932	
08:29:08	-6.728607	38.94615	125.847	0.07649337	-5.299884	0.06	3	99	0	6546	9.466482	4.295807	-23.60144	
08:29:08	-6.728607	38.94615	125.837	0.1683752	0.491122	0.07	3	99	0	6546	9.427599	4.31969	-23.66407	
08:29:08	-6.728607	38.94615	125.829	0.2548496	5.054293	0.03	3	99	0	6546	9.414139	4.327803	-23.67036	
08:29:08	-6.728607	38.94615	125.821	0.3361332	9.045497	0.04	3	99	0	6546	9.488173	4.23051	-23.63394	
08:29:09	-6.728607	38.94615	125.807	0.3587141	9.295087	0.04	3	99	0	6546	9.540409	4.274162	-23.61731	
08:29:09	-6.728607	38.94615	125.798	0.3321191	6.94468	0.04	3	99	0	6546	9.472784	4.244339	-23.5881	
08:29:09	-6.728607	38.94615	125.801	0.2812263	3.797858	0.04	3	99	0	6546	9.479281	4.308749	-23.60321	
08:29:10	-6.728607	38.94615	125.775	0.1956983	-0.833446	0.02	3	99	0	6546	9.529005	4.231802	-23.56879	
08:29:10	-6.728607	38.94615	125.742	0.1243242	-4.544063	0	3	99	0	6546	9.500938	4.244066	-23.51957	
08:29:10	-6.728607	38.94615	125.731	0.03488895	-8.783463	0.04	3	99	0	6546	9.491228	4.245669	-23.49981	
08:29:10	-6.728607	38.94615	125.714	-0.06259777	-13.46927	0.04	3	99	0	6546	9.530166	4.263949	-23.53441	
08:29:10	-6.728607	38.94615	125.703	-0.1625207	-17.72463	0.04	3	99	0	6546	9.438475	4.277962	-23.55806	
08:29:10	-6.728607	38.94615	125.666	-0.2417966	-20.9007	0.03	3	99	0	6546	9.516452	4.302541	-23.49789	
08:29:11	-6.728607	38.94615	125.637	-0.28961	-21.17151	0.07	3	99	0	6546	9.453692	4.255491	-23.45567	
08:29:11	-6.728607	38.94615	125.604	-0.3288126	-20.98908	0.03	3	99	0	6546	9.550085	4.232962	-23.42968	
08:29:11	-6.728607	38.94615	125.591	-0.3159159	-18.0044	0.04	3	99	0	6546	9.433323	4.25113	-23.44463	
08:29:12	-6.728608	38.94615	125.577	-0.2993607	-14.99765	0.06	3	99	0	6546	9.420506	4.241871	-23.39134	
08:29:12	-6.728608	38.94615	125.536	-0.2310514	-10.19336	0.01	3	99	0	6547	9.43437	4.192125	-23.41853	
08:29:12	-6.728608	38.94615	125.512	-0.1722657	-6.181852	0.12	3	99	0	6546	9.483553	4.208956	-23.38567	
08:29:12	-6.728608	38.94615	125.496	-0.1644047	-4.983155	0.03	3	99	0	6546	9.390382	4.254189	-23.37169	
08:29:12	-6.728608	38.94615	125.513	-0.1555495	-3.862732	0.01	3	99	0	6546	9.514437	4.161602	-23.38189	
08:29:12	-6.728608	38.94615	125.514	-0.1277185	-2.425009	0.02	3	99	0	6546	9.490012	4.187619	-23.4185	
08:29:13	-6.728608	38.94615	125.517	-0.1045834	-1.03654	0.02	3	99	0	6546	9.475762	4.188527	-23.41605	
08:29:13	-6.728608	38.94615	125.527	-0.0342805	2.582384	0.09	3	99	0	6546	9.493081	4.18069	-23.41062	
08:29:13	-6.728608	38.94615	125.532	0.02810387	5.740354	0.08	3	99	0	6546	9.423036	4.196941	-23.45599	
08:29:13	-6.728608	38.94615	125.526	0.01709292	4.666976	0.04	3	99	0	6546	9.465348	4.257528	-23.41396	
08:29:13	-6.728608	38.94615	125.514	0.005812984	3.37004	0.02	3	99	0	6546	9.500705	4.256862	-23.41738	
08:29:14	-6.728608	38.94615	125.512	0.03402543	5.092979	0.07	3	99	0	6546	9.494938	4.278344	-23.46261	
08:29:14	-6.728608	38.94614	125.515	0.05706872	5.841886	0.07	3	99	0	6546	9.441556	4.26638	-23.46187	
08:29:14	-6.728608	38.94614	125.533	0.1038825	7.740494	0.03	3	99	0	6546	9.453566	4.296627	-23.42327	
08:29:14	-6.728608	38.94614	125.526	0.1456244	9.356817	0.04	3	99	0	6546	9.512724	4.256814	-23.42031	
08:29:14	-6.728608	38.94614	125.526	0.193379	11.75484	0.02	3	99	0	6546	9.455154	4.264231	-23.38638	
08:29:15	-6.728608	38.94614	125.519	0.2347027	12.69848	0.03	3	99	0	6546	9.47049	4.25051	-23.40525	
08:29:15	-6.728608	38.94614	125.517	0.2556984	12.50348	0.03	3	99	0	6546	9.462931	4.294886	-23.37771	
08:29:15	-6.728608	38.94614	125.506	0.260034	11.57577	0.06	3	99	0	6546	9.496754	4.266475	-23.39928	
08:29:15	-6.728608	38.94614	125.479	0.2301865	8.602581	0.01	3	99	0	6546	9.424449	4.208394	-23.3864	
08:29:15	-6.728608	38.94614	125.475	0.1549029	4.026298	0.04	3	99	0	6546	9.443136	4.249517	-23.38602	
08:29:16	-6.728608	38.94614	125.46	0.09329306	-0.2680182	0.06	3	99	0	6546	9.426534	4.243538	-23.39489	
08:29:16	-6.728608	38.94614	125.433	0.05221427	-2.106428	0.04	3	99	0	6546	9.504315	4.275427	-23.39068	
08:29:16	-6.728609	38.94614	125.425	-0.004783531	-5.737824	0.03	3	99	0	6546	9.465722	4.250074	-23.38077	
08:29:16	-6.728609	38.94614	125.423	-0.06958482	-8.347012	0.08	3	99	0	6546	9.372407	4.2722	-23.3725	
08:29:17	-6.728609	38.94614	125.382	-0.07736991	-8.073647	0.06	3	99	0	6546	9.334524	4.289044	-23.43249	
08:29:17	-6.728609	38.94614	125.372	-0.05201489	-6.414129	0.04	3	99	0	6546	9.394921	4.317647	-23.43507	
08:29:17	-6.728609	38.94614	125.367	-0.04321142	-5.083978	0.02	3	99	0	6546	9.458801	4.240857	-23.40157	
08:29:17	-6.728609	38.94614	125.348	-0.04990865	-4.504755	0.06	3	99	0	6546	9.4554	4.235009	-23.34372	
08:29:17	-6.728609	38.94614	125.334	-0.02674069	-2.927896	0.04	3	99	0	6546	9.498854	4.281222	-23.35889	
08:29:17	-6.728609	38.94614	125.334	0.02296917	0.5011656	0.03	3	99	0	6546	9.494127	4.276805	-23.31386	
08:29:18	-6.728609	38.94614	125.34	0.09153324	4.151157	0.03	3	99	0	6546	9.463558	4.297284	-23.36789	
08:29:18	-6.728609	38.94614	125.347	0.1668597	7.638093	0.07	3	99	0	6546	9.417794	4.286171	-23.34695	
08:29:18	-6.728609	38.94614	125.335	0.2378076	10.7891	0.02	3	99	0	6546	9.349281	4.273702	-23.38182	
08:29:18	-6.728609	38.94614	125.327	0.3039197	13.68604	0.03	3	99	0	6546	9.412251	4.257567	-23.38647	
08:29:18	-6.728609	38.94614	125.304	0.3533497	15.19865	0.02	3	99	0	6546	9.443882	4.284118	-23.37499	
08:29:19	-6.728609	38.94614	125.311	0.3991663	16.34195	0.02	3	99	0	6546	9.40986	4.281989	-23.3494	
08:29:19	-6.728609	38.94614	125.314	0.4261542	15.64038	0.06	3	99	0	6546	9.389024	4.278259	-23.34741	
08:29:19	-6.728609	38.94614	125.301	0.4314683	14.45901	0.03	3	99	0	6546	9.375918	4.262063	-23.35181	
08:29:19	-6.728609	38.94614	125.294	0.4514615	14.15891	0.04	3	99	0	6546	9.39709	4.303154	-23.3721	
08:29:19	-6.728609	38.94614	125.293	0.4975521	15.6922	0.09	3	99	0	6546	9.384131	4.323881	-23.3764	
08:29:19	-6.728609	38.94614	125.312	0.5335693	16.52706	0.03	3	99	0	6546	9.349264	4.385042	-23.33203	
08:29:20	-6.728609	38.94614	125.317	0.5207388	14.4988	0.03	3	99	0	6546	9.441616	4.36181	-23.36964	
08:29:20	-6.728609	38.94614	125.313	0.5065643	12.57294	0.04	3	99	0	6546	9.410439	4.359173	-23.3721	
08:29:20	-6.728609	38.94614	125.293	0.4105945	6.53878	0.04	3	99	0	6546	9.451606	4.319805	-23.33594	
08:29:20	-6.728609	38.94614	125.285	0.3304153	1.991839	0.13	3	99	0	6546	9.531385	4.324568	-23.28027	
08:29:20	-6.728609	38.94614	125.294	0.2712407	-1.303846	0.03	3	99	0	6546	9.584394	4.315045	-23.35526	
08:29:20	-6.728609	38.94614	125.318	0.2169423	-4.849955	0.09	3	99	0	6546	9.50103	4.379027	-23.35528	
08:29:21	-6.728609	38.94614	125.327	0.2215294	-3.7072	0.09	3	99	0	6546	9.50036	4.379366	-23.40536	
08:29:21	-6.728609	38.94614	125.321	0.2272007	-2.810268	0.14	3	99	0	6546	9.312677	4.37409	-23.38775	
08:29:21	-6.72861	38.94614	125.323	0.2485241	-0.9994625	0.07	3	99	0	6546	9.382915	4.390255	-23.34216	
08:29:21	-6.72861	38.94614	125.324	0.2667061	0.09348409	0.06	3	99	0	6547	9.542701	4.352282	-23.32156	
08:29:21	-6.72861	38.94614	125.319	0.2973521	1.85175	0.03	3	99	0	6546	9.436016	4.348386	-23.38935	
08:29:22	-6.72861	38.94614	125.3	0.3249716	2.951492	0.07	3	99	0	6546	9.490784	4.336362	-23.35521	
08:29:22	-6.72861	38.94614	125.31	0.414057	7.416832	0.04	3	99	0	6546	9.443074	4.407341	-23.42134	
08:29:22	-6.72861	38.94614	125.304	0.4871075	10.83796	0.02	3	99	0	6545	9.518434	4.412101	-23.42082	
08:29:22	-6.72861	38.94614	125.339	0.5481797	13.06155	0.06	3	99	0	6546	9.504515	4.382717	-23.39078	
08:29:23	-6.72861	38.94614	125.32	0.6017382	14.32322	0.01	3	99	0	6546	9.505333	4.445711	-23.40537	
08:29:23	-6.72861	38.94614	125.332	0.5563064	10.87267	0.01	3	99	0	6546	9.540218	4.410039	-23.38607	
08:29:23	-6.72861	38.94614	125.349	0.508943	7.633129	0.02	3	99	0	6546	9.526849	4.418812	-23.38426	
08:29:23	-6.72861	38.94614	125.35	0.4973006	6.574767	0.02	3	99	0	6546	9.539844	4.424833	-23.39385	
08:29:23	-6.72861	38.94614	125.341	0.4850197	4.962937	0.09	3	99	0	6546	9.559552	4.432385	-23.39568	
08:29:23	-6.72861	38.94614	125.34	0.4527655	2.390784	0.04	3	99	0	6546	9.63403	4.423437	-23.38405	
08:29:24	-6.72861	38.94614	125.323	0.4217975	-0.006684684	0.01	3	99	0	6546	9.58631	4.427649	-23.41722	
08:29:24	-6.72861	38.94614	125.304	0.373259	-2.573561	0.06	3	99	0	6546	9.557627	4.44243	-23.38	
08:29:24	-6.72861	38.94614	125.315	0.3341434	-4.327052	0	3	99	0	6546	9.546548	4.401559	-23.37226	
08:29:24	-6.72861	38.94614	125.317	0.3022934	-5.689609	0.07	3	99	0	6546	9.574205	4.463038	-23.31544	
08:29:25	-6.72861	38.94614	125.289	0.2864833	-5.54915	0.02	3	99	0	6546	9.593444	4.477931	-23.36742	
08:29:25	-6.72861	38.94614	125.254	0.2733375	-5.365644	0.04	3	99	0	6546	9.577019	4.460923	-23.35907	
08:29:25	-6.72861	38.94614	125.202	0.2616425	-4.906385	0.04	3	99	0	6546	9.57678	4.457318	-23.40326	
08:29:25	-6.72861	38.94614	125.172	0.2404128	-4.972816	0.03	3	99	0	6546	9.550006	4.460306	-23.41962	
08:29:25	-6.72861	38.94614	125.17	0.2090999	-6.045484	0.06	3	99	0	6546	9.52708	4.490247	-23.45625	
08:29:25	-6.72861	38.94614	125.148	0.1536351	-8.599894	0.02	3	99	0	6546	9.513834	4.46834	-23.49696	
08:29:26	-6.72861	38.94614	125.116	0.08455951	-11.44256	0.03	3	99	0	6546	9.539706	4.482136	-23.48624	
08:29:26	-6.72861	38.94614	125.101	0.02721851	-13.47415	0.09	3	99	0	6546	9.556168	4.476025	-23.52468	
08:29:26	-6.72861	38.94614	125.085	-0.01629364	-14.65256	0.04	3	99	0	6546	9.564073	4.483294	-23.53016	
08:29:26	-6.72861	38.94614	125.067	-0.04236947	-14.49673	0.03	3	99	0	6546	9.451706	4.523869	-23.59838	
08:29:26	-6.72861	38.94614	125.054	-0.04606234	-12.73291	0.04	3	99	0	6546	9.471303	4.504565	-23.54225	
08:29:27	-6.72861	38.94614	125.024	-0.06045717	-12.26511	0.04	3	99	0	6546	9.453069	4.470292	-23.57989	
08:29:27	-6.72861	38.94614	125.017	-0.08652572	-12.08404	0.08	3	99	0	6546	9.460699	4.502674	-23.53219	
08:29:27	-6.72861	38.94614	125.001	-0.1068091	-12.77139	0.03	3	99	0	6546	9.496558	4.479402	-23.54577	
08:29:28	-6.72861	38.94614	124.994	-0.1244875	-12.64682	0.09	3	99	0	6545	9.485655	4.413544	-23.51942	
08:29:28	-6.72861	38.94614	124.994	-0.1497876	-12.948	0.04	3	99	0	6546	9.474429	4.410937	-23.47582	
08:29:28	-6.72861	38.94614	124.981	-0.1783795	-13.00927	0.04	3	99	0	6546	9.531707	4.438908	-23.49659	
08:29:28	-6.72861	38.94614	124.971	-0.1986222	-13.05405	0.03	3	99	0	6546	9.488289	4.476508	-23.5157	
08:29:28	-6.72861	38.94614	124.947	-0.2116318	-12.75446	0.03	3	99	0	6546	9.506875	4.461758	-23.50823	
08:29:28	-6.72861	38.94614	124.952	-0.2451776	-13.16158	0.01	3	99	0	6546	9.511242	4.435188	-23.51402	
08:29:29	-6.72861	38.94614	124.942	-0.2952821	-15.02999	0.03	3	99	0	6546	9.54691	4.432526	-23.53806	
08:29:29	-6.72861	38.94614	124.94	-0.3415447	-15.61429	0.02	3	99	0	6546	9.547535	4.439802	-23.57015	
08:29:29	-6.72861	38.94614	124.922	-0.3870565	-16.40857	0.04	3	99	0	6546	9.504842	4.439401	-23.61251	
08:29:29	-6.72861	38.94614	124.92	-0.4213542	-16.85936	0.02	3	99	0	6545	9.488336	4.458271	-23.5798	
08:29:29	-6.72861	38.94614	124.885	-0.4459963	-16.50568	0.04	3	99	0	6546	9.504519	4.469411	-23.58708	
08:29:30	-6.728611	38.94614	124.86	-0.465173	-16.13975	0.12	3	99	0	6546	9.431318	4.453586	-23.56565	
08:29:30	-6.728611	38.94614	124.87	-0.4235901	-12.29016	0.04	3	99	0	6546	9.441702	4.456263	-23.573	
08:29:30	-6.728611	38.94614	124.842	-0.3871446	-9.043629	0.07	3	99	0	6546	9.525804	4.494941	-23.59389	
08:29:30	-6.728611	38.94614	124.835	-0.3465679	-5.90608	0.04	3	99	0	6546	9.502655	4.534101	-23.62929	
08:29:30	-6.728611	38.94614	124.81	-0.3087137	-3.300356	0.04	3	99	0	6546	9.528812	4.495809	-23.6318	
08:29:30	-6.728611	38.94614	124.779	-0.2997454	-2.348122	0.04	3	99	0	6546	9.504333	4.493752	-23.63538	
08:29:31	-6.728611	38.94614	124.767	-0.2912346	-1.680322	0.04	3	99	0	6546	9.468828	4.487636	-23.62035	
08:29:31	-6.728611	38.94614	124.77	-0.2994717	-1.396058	0.01	3	99	0	6546	9.48479	4.451668	-23.58074	
08:29:31	-6.728611	38.94614	124.785	-0.3059265	-2.013091	0.09	3	99	0	6546	9.467014	4.450212	-23.58255	
08:29:32	-6.728611	38.94614	124.78	-0.2834589	-0.3255922	0.01	3	99	0	6546	9.465713	4.433618	-23.54321	
08:29:32	-6.728611	38.94614	124.798	-0.2627831	0.5425239	0.03	3	99	0	6546	9.536432	4.404576	-23.51097	
08:29:32	-6.728611	38.94614	124.783	-0.2069503	3.560578	0.09	3	99	0	6546	9.59415	4.381708	-23.49177	
08:29:32	-6.728611	38.94614	124.791	-0.1616309	5.613662	0.04	3	99	0	6546	9.611074	4.378559	-23.48791	
08:29:32	-6.728611	38.94614	124.794	-0.1176906	7.573675	0.03	3	99	0	6546	9.536601	4.390326	-23.48745	
08:29:33	-6.728611	38.94614	124.805	-0.0790839	8.891908	0.08	3	99	0	6546	9.467375	4.413823	-23.48914	
08:29:33	-6.728611	38.94614	124.811	-0.08266401	7.650691	0.03	3	99	0	6546	9.493066	4.433626	-23.49336	
08:29:33	-6.728611	38.94614	124.825	-0.08676067	7.226559	0.01	3	99	0	6546	9.526855	4.447949	-23.53015	
08:29:33	-6.728611	38.94614	124.791	-0.03990492	8.674245	0.04	3	99	0	6546	9.505347	4.412906	-23.52453	
08:29:33	-6.728611	38.94614	124.747	-0.003009457	9.879845	0.03	3	99	0	6546	9.487108	4.428473	-23.55918	
08:29:33	-6.728611	38.94614	124.73	0.05950397	11.82963	0.06	3	99	0	6546	9.460034	4.428425	-23.5509	
08:29:33	-6.728611	38.94614	124.736	0.1128913	13.0933	0.02	3	99	0	6546	9.477321	4.415635	-23.54253	
08:29:34	-6.728611	38.94614	124.731	0.1847757	15.81255	0.06	3	99	0	6546	9.505151	4.391207	-23.58755	
08:29:34	-6.728611	38.94614	124.737	0.2467168	17.38179	0.04	3	99	0	6546	9.469274	4.384611	-23.61814	
08:29:34	-6.728611	38.94614	124.721	0.2791952	17.56309	0.01	3	99	0	6546	9.481043	4.425537	-23.60995	
08:29:34	-6.728611	38.94614	124.725	0.2868676	16.13489	0.02	3	99	0	6546	9.523348	4.421357	-23.65754	
08:29:35	-6.728611	38.94614	124.713	0.2736663	14.34296	0.08	3	99	0	6545	9.520985	4.455612	-23.64206	
08:29:35	-6.728611	38.94614	124.692	0.2332975	10.90016	0.07	3	99	0	6546	9.505485	4.487267	-23.6021	
08:29:35	-6.728612	38.94614	124.696	0.2187606	8.997239	0.04	3	99	0	6546	9.503265	4.45395	-23.61557	
08:29:35	-6.728612	38.94614	124.678	0.2344642	9.319447	0.02	3	99	0	6546	9.527145	4.419757	-23.60191	
08:29:35	-6.728612	38.94614	124.657	0.240347	8.956491	0.03	3	99	0	6546	9.555659	4.413974	-23.61114	
08:29:35	-6.728612	38.94614	124.646	0.2395274	8.239676	0.04	3	99	0	6546	9.508217	4.401581	-23.70153	
08:29:36	-6.728612	38.94614	124.632	0.2295621	6.734203	0.03	3	99	0	6546	9.496996	4.407406	-23.72263	
08:29:36	-6.728612	38.94614	124.607	0.2159582	5.433035	0.04	3	99	0	6546	9.50141	4.435139	-23.7035	
08:29:36	-6.728612	38.94614	124.581	0.2061882	4.074321	0.08	3	99	0	6546	9.495914	4.363504	-23.6663	
08:29:36	-6.728612	38.94614	124.564	0.2041044	3.459086	0.02	3	99	0	6546	9.509755	4.325964	-23.60887	
08:29:37	-6.728612	38.94614	124.559	0.1997839	2.430256	0.09	3	99	0	6546	9.473096	4.359714	-23.60937	
08:29:37	-6.728612	38.94614	124.534	0.1938705	1.70219	0.04	3	99	0	6546	9.502386	4.358125	-23.62795	
08:29:37	-6.728612	38.94614	124.514	0.1908636	1.327752	0.08	3	99	0	6546	9.593654	4.327111	-23.63471	
08:29:37	-6.728612	38.94614	124.504	0.1890186	0.7560682	0.04	3	99	0	6546	9.619057	4.3743	-23.62022	
08:29:37	-6.728612	38.94614	124.511	0.1682304	-0.5606169	0.06	3	99	0	6546	9.570701	4.353338	-23.65843	
08:29:38	-6.728612	38.94614	124.499	0.1375129	-1.764062	0	3	99	0	6546	9.555687	4.351106	-23.63684	
08:29:38	-6.728612	38.94614	124.469	0.1201817	-2.43024	0.04	3	99	0	6546	9.604569	4.404937	-23.63165	
08:29:38	-6.728612	38.94614	124.444	0.1074471	-3.502987	0.08	3	99	0	6546	9.561285	4.448192	-23.6838	
08:29:38	-6.728612	38.94614	124.431	0.1036783	-3.610284	0.04	3	99	0	6546	9.523904	4.417942	-23.65222	
08:29:38	-6.728612	38.94614	124.415	0.1071374	-3.650816	0.09	3	99	0	6546	9.491046	4.371198	-23.6422	
08:29:39	-6.728612	38.94614	124.412	0.1032358	-3.812706	0.08	3	99	0	6546	9.529423	4.306346	-23.65567	
08:29:39	-6.728612	38.94614	124.429	0.08979337	-3.822681	0.06	3	99	0	6546	9.595532	4.341283	-23.68311	
08:29:39	-6.728612	38.94614	124.43	0.07960137	-4.203838	0.08	3	99	0	6546	9.574346	4.318365	-23.69524	
08:29:39	-6.728612	38.94614	124.44	0.07783471	-3.91267	0.09	3	99	0	6546	9.55788	4.386523	-23.71571	
08:29:39	-6.728612	38.94614	124.451	0.07739525	-3.292904	0.04	3	99	0	6546	9.588876	4.401658	-23.67695	
08:29:40	-6.728612	38.94614	124.456	0.05650226	-4.06363	0.09	3	99	0	6546	9.640598	4.355707	-23.72518	
08:29:40	-6.728612	38.94614	124.414	0.0403255	-4.344238	0.04	3	99	0	6546	9.619928	4.40152	-23.72425	
08:29:40	-6.728612	38.94614	124.441	0.03688733	-4.590406	0.09	3	99	0	6546	9.54313	4.466483	-23.74897	
08:29:40	-6.728612	38.94614	124.441	0.03434022	-4.343412	0.09	3	99	0	6545	9.529604	4.483712	-23.78799	
08:29:40	-6.728613	38.94614	124.389	0.0753127	-2.095155	0.03	3	99	0	6546	9.613792	4.398517	-23.72954	
08:29:41	-6.728612	38.94614	124.398	0.1155245	-0.4423545	0.03	3	99	0	6546	9.638531	4.33446	-23.72249	
08:29:41	-6.728612	38.94614	124.432	0.1070939	-0.432054	0.07	3	99	0	6546	9.273706	4.311571	-23.81177	
08:29:41	-6.728612	38.94614	124.462	0.1002039	-0.7112306	0.19	3	99	0	6546	9.522208	4.220049	-23.8127	
08:29:41	-6.728611	38.94614	124.448	0.09733242	-0.2513098	0.18	3	99	0	6546	8.319125	4.878943	-24.06861	
08:29:41	-6.728611	38.94614	124.499	0.1089698	19.2195	0.02	3	99	0	6546	8.470738	7.81383	-23.84892	
08:29:42	-6.728611	38.94614	124.524	0.1430723	21.85017	0.04	3	99	0	6546	5.668945	5.352751	-24.15549	
08:29:42	-6.728611	38.94614	124.561	0.1945355	49.84056	0.07	3	99	0	6546	2.367024	0.01539878	-25.75506	
08:29:42	-6.728611	38.94614	124.637	0.291901	93.11272	0.09	3	99	0	6546	0.7901188	2.355676	-24.9648	
08:29:42	-6.728611	38.94614	124.815	0.4288906	106.8992	0.18	3	99	0	6546	0.5413607	3.624972	-17.73615	
08:29:42	-6.728611	38.94614	125.048	0.614199	95.69071	0.22	3	99	0	6546	1.59146	1.919012	-3.827683	
08:29:43	-6.728611	38.94614	125.335	0.6927397	25.81535	0.48	3	99	0	6546	-5.313408	0.5404308	9.523677	
08:29:43	-6.728611	38.94614	125.572	0.7251141	-5.904454	0.77	3	99	0	6546	-10.24349	1.624148	21.04951	
08:29:43	-6.728611	38.94614	125.688	0.7609298	14.35695	1.15	3	99	0	6547	-10.05009	2.438797	29.94431	
08:29:43	-6.728611	38.94614	125.844	0.9274435	38.7872	1.58	3	99	0	6546	-8.108501	1.851255	34.88331	
08:29:43	-6.728611	38.94614	125.882	1.099163	50.46076	1.02	3	99	0	6546	-6.991719	2.215013	38.91304	
08:29:43	-6.728611	38.94614	125.962	1.296669	37.02083	0.51	3	99	0	6546	-6.333035	-0.8745159	42.62385	
08:29:44	-6.728611	38.94614	126.114	1.431542	46.63413	0.31	3	99	0	6546	-5.720939	3.234891	46.18903	
08:29:44	-6.728612	38.94614	126.228	1.572987	49.02008	0.39	3	99	0	6546	-6.67262	0.5971609	51.40774	
08:29:44	-6.728613	38.94614	126.402	1.655986	25.23269	0.53	3	99	0	6546	-6.502815	-3.035321	57.171	
08:29:44	-6.728613	38.94613	126.605	1.67803	9.872334	0.45	3	99	0	6546	-4.832296	-5.425517	62.46994	
08:29:45	-6.728614	38.94613	126.729	1.683513	7.936542	0.22	3	99	0	6546	-3.69078	-8.65162	65.95839	
08:29:45	-6.728614	38.94613	126.882	1.707286	0.9587114	0.42	3	99	0	6546	-3.365018	-11.5942	64.53365	
08:29:45	-6.728615	38.94613	127.093	1.734047	0.5920999	0.7	3	99	0	6546	-2.789463	-11.09638	57.16429	
08:29:45	-6.728616	38.94613	127.186	1.762276	-7.309749	0.65	3	99	0	6546	-2.10786	-14.08045	48.21242	
08:29:45	-6.728617	38.94613	127.249	1.796702	3.234066	0.63	3	99	0	6546	-1.029549	-15.74838	39.79331	
08:29:46	-6.728618	38.94613	127.322	1.839567	1.726765	0.68	3	99	0	6546	-0.007064729	-16.15075	32.02449	
08:29:46	-6.728619	38.94613	127.423	1.868181	-1.634127	0.52	3	99	0	6546	1.317934	-15.8643	23.70381	
08:29:46	-6.728619	38.94613	127.559	1.903201	2.766217	0.57	3	99	0	6546	2.403268	-15.96346	15.14029	
08:29:46	-6.72862	38.94613	127.634	1.947602	-8.503449	0.45	3	99	0	6546	3.134658	-15.064	8.920543	
08:29:46	-6.728621	38.94613	127.701	1.990358	6.497804	0.22	3	99	0	6546	2.46018	-13.80181	6.557809	
08:29:47	-6.728621	38.94613	127.74	2.06855	7.959372	0.03	3	99	0	6546	1.64955	-11.81989	6.121695	
08:29:47	-6.728621	38.94613	127.837	2.11448	12.80925	0.11	3	99	0	6546	0.8868636	-9.449318	7.108786	
08:29:47	-6.728621	38.94613	127.962	2.137506	3.857009	0.12	3	99	0	6546	-0.3387461	-9.221201	8.273495	
08:29:47	-6.728621	38.94613	127.962	2.111427	-5.708331	0.12	3	99	0	6545	-1.202091	-8.399197	9.312799	
08:29:47	-6.728621	38.94613	128.033	2.061034	-5.249312	0.07	3	99	0	6546	-0.6536341	-6.833956	8.721384	
08:29:48	-6.728621	38.94613	128.091	2.048678	-3.966302	0.01	3	99	0	6546	0.5353783	-5.29908	6.860005	
08:29:48	-6.72862	38.94613	128.12	2.059323	-4.063283	0.06	3	99	0	6546	1.123659	-5.450284	4.177067	
08:29:48	-6.72862	38.94613	128.137	2.076352	-10.78043	0.16	3	99	0	6546	0.9296193	-7.258772	2.031022	
08:29:48	-6.72862	38.94613	128.201	2.099745	-5.833694	0.07	3	99	0	6546	0.07628424	-6.329996	0.5989779	
08:29:48	-6.728619	38.94613	128.25	2.121792	-11.67577	0.17	3	99	0	6546	-0.9063292	-4.328163	-1.087074	
08:29:49	-6.728619	38.94613	128.341	2.155125	-3.346323	0.16	3	99	0	6546	-0.569369	-2.017419	-2.950425	
08:29:49	-6.728619	38.94613	128.341	2.187114	-2.299108	0.16	3	99	0	6546	-0.4814705	-0.7372229	-4.225469	
08:29:49	-6.728619	38.94613	128.394	2.219673	4.029118	0.21	3	99	0	6546	-0.8118383	-1.741142	-5.587219	
08:29:49	-6.728619	38.94613	128.416	2.248286	2.30077	0.11	3	99	0	6546	-2.028947	-3.309447	-6.999465	
08:29:49	-6.728619	38.94613	128.461	2.281098	2.833656	0.07	3	99	0	6546	-2.7932	-3.752889	-7.093743	
08:29:50	-6.728619	38.94613	128.536	2.309595	3.364221	0.08	3	99	0	6546	-3.033539	-3.389604	-6.898688	
08:29:50	-6.728619	38.94613	128.536	2.34248	3.8337	0.08	3	99	0	6546	-3.305477	-3.130403	-7.308644	
08:29:50	-6.728619	38.94613	128.577	2.366673	3.119514	0.07	3	99	0	6546	-3.923261	-3.411488	-7.656488	
08:29:50	-6.728619	38.94613	128.683	2.349627	0.1550345	0.03	3	99	0	6546	-4.217717	-3.337226	-7.719597	
08:29:50	-6.728619	38.94613	128.744	2.329656	-2.496315	0.04	3	99	0	6546	-4.447119	-3.789567	-7.403325	
08:29:51	-6.728619	38.94613	128.798	2.333623	-3.591049	0.04	3	99	0	6546	-4.687531	-4.297744	-6.143988	
