Date	Latitude(deg) 	Longitude(deg)	hamsl(m)	hafl(m)	climbrate(cm/s)	GroundSpeed(m/s)	Airspeed(m/s)	Mav_Link(%)	Rssi_Link(%)	Throttle	Roll(deg)	Pitch(deg)	Yaw(deg)
11:15:46	-6.728683	38.94615	128.81	0	0	0.04	0	100	0	0	-1.111495	4.299425	-20.70332	
11:15:46	-6.728683	38.94615	128.806	0	0	0.01	0	100	0	0	-1.06829	4.2615	-20.75537	
11:15:46	-6.728683	38.94615	128.011	0	0	0.09	0	100	0	0	-1.023223	4.273451	-20.84573	
11:15:46	-6.728683	38.94615	128.003	0	0	0.03	0	100	0	0	-1.052667	4.238639	-20.97155	
11:15:47	-6.728683	38.94615	127.963	0	0	0.09	0	100	0	0	-1.017832	4.243241	-21.01578	
11:15:47	-6.728683	38.94615	127.975	-0.2055653	-17.03858	0.04	3	100	0	6546	-1.019013	4.244537	-21.12396	
11:15:47	-6.728683	38.94615	127.968	-0.2055653	-17.03858	0.04	3	100	0	6546	-1.056079	4.229221	-21.17911	
11:15:47	-6.728683	38.94615	127.952	-0.2055653	-17.03858	0.06	3	100	0	6546	-1.114401	4.215605	-21.2724	
11:15:47	-6.728683	38.94615	127.93	-0.2055653	-17.03858	0.07	3	100	0	6546	-1.120917	4.297632	-21.2578	
11:15:48	-6.728683	38.94615	127.868	-0.2055653	-17.03858	0.04	3	100	0	6546	-1.088118	4.31819	-21.40275	
11:15:48	-6.728683	38.94615	127.862	0.3313802	2.135574	0.04	3	100	0	6546	-1.069668	4.336717	-21.40067	
11:15:48	-6.728683	38.94615	127.839	0.3313802	2.135574	0.04	3	100	0	6546	-1.115419	4.300148	-21.52728	
11:15:48	-6.728683	38.94615	127.84	0.3313802	2.135574	0.04	3	100	0	6546	-1.102042	4.299804	-21.51188	
11:15:48	-6.728683	38.94615	127.829	0.3313802	2.135574	0.09	3	100	0	6546	-1.15892	4.362345	-21.65536	
11:15:49	-6.728683	38.94615	127.829	0.3313802	2.135574	0.04	3	100	0	6546	-1.168355	4.33935	-21.63267	
11:15:49	-6.728683	38.94615	127.814	0.2561395	-10.32316	0.04	3	100	0	6546	-1.10684	4.342681	-21.67567	
11:15:49	-6.728684	38.94615	127.813	0.2561395	-10.32316	0.02	3	100	0	6546	-1.090381	4.339262	-21.65245	
11:15:49	-6.728684	38.94615	127.846	0.2561395	-10.32316	0.03	3	100	0	6546	-1.11694	4.312109	-21.73946	
11:15:50	-6.728684	38.94615	127.836	0.2561395	-10.32316	0.02	3	100	0	6546	-1.117687	4.290287	-21.76088	
11:15:50	-6.728684	38.94615	127.823	0.2561395	-10.32316	0.06	3	100	0	6546	-1.124076	4.250791	-21.72686	
11:15:50	-6.728684	38.94615	127.849	0.1630427	-18.87078	0.06	3	100	0	6546	-1.131269	4.239077	-21.76059	
11:15:50	-6.728684	38.94615	127.855	0.1630427	-18.87078	0.04	3	100	0	6546	-1.055286	4.242924	-21.76846	
11:15:50	-6.728684	38.94615	127.868	0.1630427	-18.87078	0.03	3	100	0	6546	-1.017489	4.229025	-21.76976	
11:15:51	-6.728684	38.94615	127.856	0.1630427	-18.87078	0.09	3	100	0	6546	-1.08252	4.158842	-21.85732	
11:15:51	-6.728684	38.94615	127.853	0.1630427	-18.87078	0.07	3	100	0	6546	-1.10655	4.15564	-21.89786	
11:15:51	-6.728684	38.94616	127.847	0.04182086	-23.74467	0.04	3	100	0	6546	-1.073013	4.25453	-21.94427	
11:15:51	-6.728684	38.94616	127.821	0.04182086	-23.74467	0.04	3	100	0	6546	-1.095182	4.21297	-22.03952	
11:15:51	-6.728684	38.94616	127.82	0.04182086	-23.74467	0.03	3	100	0	6546	-1.119627	4.192527	-22.10262	
11:15:51	-6.728685	38.94616	127.812	0.04182086	-23.74467	0.11	3	100	0	6546	-1.168258	4.259243	-22.17355	
11:15:52	-6.728685	38.94616	127.819	0.04182086	-23.74467	0.04	3	100	0	6546	-1.105018	4.264427	-22.16225	
11:15:52	-6.728685	38.94616	127.82	-0.03555161	-25.18068	0.12	3	100	0	6546	-1.055534	4.310557	-22.16023	
11:15:52	-6.728685	38.94616	127.828	-0.03555161	-25.18068	0.04	3	100	0	6546	-1.123782	4.237067	-22.2992	
11:15:52	-6.728685	38.94616	127.806	-0.03555161	-25.18068	0.04	3	100	0	6546	-1.182113	4.198744	-22.33343	
11:15:52	-6.728685	38.94616	127.782	-0.03555161	-25.18068	0.07	3	100	0	6546	-1.181442	4.122107	-22.33341	
11:15:53	-6.728685	38.94616	127.728	-0.03555161	-25.18068	0.04	3	100	0	6546	-1.180374	4.11593	-22.33987	
11:15:53	-6.728685	38.94616	127.696	-0.04037066	-23.29028	0.03	3	100	0	6546	-1.168339	4.180611	-22.37291	
11:15:53	-6.728685	38.94616	127.666	-0.04037066	-23.29028	0.09	3	100	0	6546	-1.234132	4.216254	-22.39554	
11:15:53	-6.728685	38.94616	127.68	-0.04037066	-23.29028	0.06	3	100	0	6546	-1.17225	4.268234	-22.40802	
11:15:54	-6.728686	38.94616	127.663	-0.04037066	-23.29028	0.03	3	100	0	6546	-1.157935	4.19269	-22.42201	
11:15:54	-6.728686	38.94616	127.64	-0.04037066	-23.29028	0.06	3	100	0	6546	-1.151515	4.10624	-22.36856	
11:15:54	-6.728686	38.94616	127.634	-0.1211921	-22.86154	0.18	3	100	0	6546	-1.036483	4.214131	-22.2954	
11:15:54	-6.728686	38.94616	127.627	-0.1211921	-22.86154	0.16	3	100	0	6546	-1.243728	4.15269	-22.37007	
11:15:54	-6.728686	38.94616	127.589	-0.1211921	-22.86154	0.03	3	100	0	6546	-1.21114	4.122572	-22.41945	
11:15:54	-6.728686	38.94616	127.523	-0.1211921	-22.86154	0.04	3	100	0	6546	-1.219586	4.152633	-22.48803	
11:15:55	-6.728686	38.94616	127.5	-0.1211921	-22.86154	0.09	3	100	0	6546	-1.20737	4.208064	-22.5403	
11:15:55	-6.728686	38.94616	127.466	0.02942322	-13.81294	0.06	3	100	0	6546	-1.27255	4.179297	-22.48382	
11:15:55	-6.728686	38.94616	127.456	0.02942322	-13.81294	0.03	3	100	0	6546	-1.253738	4.14731	-22.56295	
11:15:55	-6.728686	38.94616	127.413	0.02942322	-13.81294	0.06	3	100	0	6546	-1.240677	4.189613	-22.59075	
11:15:55	-6.728686	38.94616	127.338	0.02942322	-13.81294	0.07	3	100	0	6546	-1.196492	4.169971	-22.56389	
11:15:56	-6.728686	38.94616	127.299	0.02942322	-13.81294	0.02	3	100	0	6546	-1.179616	4.178596	-22.56576	
11:15:56	-6.728686	38.94616	127.279	0.1067135	-11.01647	0.04	3	100	0	6546	-1.163379	4.212616	-22.57337	
11:15:56	-6.728686	38.94616	127.275	0.1067135	-11.01647	0.11	3	100	0	6546	-1.216241	4.227368	-22.56705	
11:15:56	-6.728686	38.94616	127.263	0.1067135	-11.01647	0.04	3	100	0	6546	-1.299485	4.273475	-22.59752	
11:15:57	-6.728686	38.94616	127.254	0.1067135	-11.01647	0.02	3	100	0	6546	-1.159531	4.274476	-22.4967	
11:15:57	-6.728686	38.94616	127.227	0.1067135	-11.01647	0.07	3	100	0	6546	-1.160942	4.257319	-22.51901	
11:15:57	-6.728686	38.94616	127.24	-0.00267588	-16.94226	0.07	3	100	0	6546	-1.233069	4.227034	-22.5742	
11:15:57	-6.728686	38.94616	127.24	-0.00267588	-16.94226	0.07	3	100	0	6546	-1.232442	4.293374	-22.615	
11:15:57	-6.728685	38.94616	127.264	-0.00267588	-16.94226	0.02	3	100	0	6546	-1.141618	4.326112	-22.67252	
11:15:57	-6.728685	38.94616	127.215	-0.00267588	-16.94226	0.02	3	100	0	6546	-1.182356	4.315868	-22.61738	
11:15:58	-6.728685	38.94616	127.232	-0.00267588	-16.94226	0.09	3	100	0	6546	-1.180249	4.267063	-22.68187	
11:15:58	-6.728685	38.94616	127.213	0.009109291	-14.59482	0.07	3	100	0	6546	-1.261046	4.282039	-22.63436	
11:15:58	-6.728685	38.94616	127.214	0.009109291	-14.59482	0.09	3	100	0	6546	-1.252651	4.280621	-22.65037	
11:15:58	-6.728685	38.94616	127.226	0.009109291	-14.59482	0.04	3	100	0	6546	-1.234906	4.344489	-22.68749	
11:15:58	-6.728685	38.94616	127.189	0.009109291	-14.59482	0.02	3	100	0	6546	-1.118551	4.239682	-22.71213	
11:15:59	-6.728685	38.94616	127.192	0.009109291	-14.59482	0.04	3	100	0	6546	-1.132161	4.178661	-22.66006	
11:15:59	-6.728685	38.94616	127.169	-0.07056492	-17.54485	0.04	3	100	0	6546	-1.176392	4.227232	-22.7019	
11:15:59	-6.728685	38.94616	127.165	-0.07056492	-17.54485	0.04	3	100	0	6546	-1.234399	4.322648	-22.70594	
11:15:59	-6.728685	38.94616	127.134	-0.07056492	-17.54485	0.01	3	100	0	6546	-1.177263	4.228463	-22.71997	
11:16:00	-6.728685	38.94616	127.164	-0.07056492	-17.54485	0.06	3	100	0	6546	-1.157103	4.264524	-22.6996	
11:16:00	-6.728685	38.94616	127.184	-0.07056492	-17.54485	0.02	3	100	0	6546	-1.120472	4.311311	-22.81571	
11:16:00	-6.728685	38.94616	127.225	-0.1386967	-16.63779	0.07	3	100	0	6546	-1.144845	4.317377	-22.84154	
11:16:00	-6.728685	38.94616	127.239	-0.1386967	-16.63779	0.04	3	100	0	6546	-1.174706	4.290266	-22.87912	
11:16:00	-6.728685	38.94616	127.251	-0.1386967	-16.63779	0.13	3	100	0	6546	-1.181907	4.17488	-22.87432	
11:16:00	-6.728685	38.94616	127.235	-0.1386967	-16.63779	0.12	3	100	0	6546	-1.2579	4.354357	-22.91854	
11:16:01	-6.728685	38.94616	127.237	-0.1386967	-16.63779	0.04	3	100	0	6546	-1.280349	4.416362	-22.95212	
11:16:01	-6.728685	38.94616	127.229	-0.1926409	-17.47901	0.02	3	100	0	6546	-1.226042	4.328653	-22.94486	
11:16:01	-6.728685	38.94616	127.258	-0.1926409	-17.47901	0.02	3	100	0	6546	-1.23771	4.309482	-22.96813	
11:16:01	-6.728685	38.94616	127.224	-0.1926409	-17.47901	0.03	3	100	0	6546	-1.223463	4.329145	-23.02867	
11:16:01	-6.728685	38.94616	127.228	-0.1926409	-17.47901	0.12	3	100	0	6546	-1.201565	4.200158	-23.09217	
11:16:02	-6.728685	38.94616	127.237	-0.1926409	-17.47901	0.02	3	100	0	6546	-1.327216	4.130636	-23.08712	
11:16:02	-6.728685	38.94616	127.225	-0.3623011	-20.60193	0.04	3	100	0	6546	-1.265211	4.298966	-23.12661	
11:16:02	-6.728685	38.94616	127.246	-0.3623011	-20.60193	0.04	3	100	0	6546	-1.228993	4.242575	-23.10485	
11:16:03	-6.728685	38.94616	127.275	-0.3623011	-20.60193	0.06	3	100	0	6546	-1.294852	4.260203	-23.1635	
11:16:03	-6.728685	38.94616	127.287	-0.3623011	-20.60193	0.03	3	100	0	6546	-1.324448	4.215866	-23.06981	
11:16:03	-6.728685	38.94616	127.286	-0.3623011	-20.60193	0.04	3	100	0	6546	-1.232512	4.250951	-23.06837	
11:16:03	-6.728685	38.94616	127.308	-0.4183588	-17.85177	0.07	3	100	0	6546	-1.343333	4.271887	-23.15146	
11:16:03	-6.728685	38.94616	127.308	-0.4183588	-17.85177	0.07	3	100	0	6546	-1.21148	4.233673	-23.37127	
11:16:03	-6.728685	38.94616	127.361	-0.4183588	-17.85177	0.04	3	100	0	6546	-1.223508	4.223489	-23.47852	
11:16:04	-6.728685	38.94616	127.379	-0.4183588	-17.85177	0.08	3	100	0	6546	-1.368751	4.157476	-23.60776	
11:16:04	-6.728685	38.94616	127.416	-0.4183588	-17.85177	0.02	3	100	0	6546	-1.433443	4.184627	-23.87952	
11:16:04	-6.728685	38.94616	127.423	-0.2165244	-4.387172	0.03	3	100	0	6546	-1.395682	4.331491	-24.05144	
11:16:04	-6.728685	38.94616	127.404	-0.2165244	-4.387172	0.09	3	100	0	6546	-1.399566	4.335238	-24.12527	
11:16:04	-6.728685	38.94616	127.4	-0.2165244	-4.387172	0.03	3	100	0	6546	-1.425198	4.170982	-24.10386	
11:16:04	-6.728685	38.94616	127.386	-0.2165244	-4.387172	0.03	3	100	0	6546	-1.349058	4.197639	-24.0978	
11:16:05	-6.728685	38.94616	127.38	-0.2165244	-4.387172	0.02	3	100	0	6546	-1.391897	4.198881	-24.06657	
11:16:05	-6.728685	38.94616	127.413	-0.2729153	-8.238153	0.01	3	100	0	6546	-1.369059	4.269813	-24.07786	
11:16:05	-6.728685	38.94616	127.412	-0.2729153	-8.238153	0.07	3	100	0	6546	-1.367108	4.270382	-24.09904	
11:16:05	-6.728685	38.94616	127.435	-0.2729153	-8.238153	0.04	3	100	0	6546	-1.304544	4.297691	-24.07678	
11:16:05	-6.728685	38.94616	127.43	-0.2729153	-8.238153	0.02	3	100	0	6546	-1.41301	4.22786	-24.03188	
11:16:06	-6.728685	38.94616	127.407	-0.2729153	-8.238153	0.04	3	100	0	6546	-1.442637	4.298592	-24.05307	
11:16:06	-6.728685	38.94616	127.423	-0.4632372	-17.45181	0.03	3	100	0	6546	-1.442337	4.25985	-24.07064	
11:16:06	-6.728685	38.94616	127.428	-0.4632372	-17.45181	0.03	3	100	0	6546	-1.453182	4.275826	-24.01418	
11:16:06	-6.728685	38.94616	127.438	-0.4632372	-17.45181	0.07	3	100	0	6546	-1.423782	4.276351	-23.99486	
11:16:07	-6.728685	38.94616	127.463	-0.4632372	-17.45181	0.09	3	100	0	6546	-1.359695	4.23196	-23.92892	
11:16:07	-6.728685	38.94616	127.493	-0.4632372	-17.45181	0.09	3	100	0	6546	-1.404617	4.333871	-23.87516	
11:16:07	-6.728685	38.94616	127.526	-0.4302357	-11.78862	0.02	3	100	0	6546	-1.453555	4.174261	-23.80932	
11:16:07	-6.728685	38.94616	127.555	-0.4302357	-11.78862	0.12	3	100	0	6546	-1.48772	4.290092	-23.84992	
11:16:08	-6.728685	38.94616	127.594	-0.4302357	-11.78862	0.09	3	100	0	6546	-1.420359	4.331261	-23.74275	
11:16:08	-6.728685	38.94616	127.605	-0.4302357	-11.78862	0.09	3	100	0	6546	-1.558434	4.215317	-23.78626	
11:16:08	-6.728685	38.94616	127.616	-0.4302357	-11.78862	0.04	3	100	0	6546	-1.545553	4.197247	-23.69744	
11:16:08	-6.728685	38.94616	127.6	-0.5632946	-15.50006	0.04	3	100	0	6546	-1.483696	4.228658	-23.69887	
11:16:08	-6.728685	38.94616	127.604	-0.5632946	-15.50006	0.09	3	100	0	6546	-1.435851	4.218419	-23.64727	
11:16:09	-6.728685	38.94616	127.593	-0.5632946	-15.50006	0.08	3	100	0	6546	-1.345069	4.234275	-23.55346	
11:16:09	-6.728685	38.94616	127.593	-0.5632946	-15.50006	0.04	3	100	0	6546	-1.39406	4.376097	-23.46589	
11:16:09	-6.728685	38.94616	127.608	-0.5632946	-15.50006	0.02	3	100	0	6546	-1.451262	4.314662	-23.36619	
11:16:09	-6.728685	38.94616	127.615	-0.3863696	-4.325442	0.04	3	100	0	6546	-1.45612	4.23831	-23.33308	
11:16:09	-6.728685	38.94616	127.637	-0.3863696	-4.325442	0.03	3	100	0	6546	-1.455517	4.153791	-23.30332	
11:16:09	-6.728685	38.94616	127.696	-0.3863696	-4.325442	0.04	3	100	0	6546	-1.450961	4.205809	-23.32158	
11:16:10	-6.728685	38.94616	127.721	-0.3863696	-4.325442	0.01	3	100	0	6546	-1.410063	4.26705	-23.31658	
11:16:10	-6.728685	38.94616	127.733	-0.3863696	-4.325442	0.04	3	100	0	6546	-1.437846	4.244655	-23.38884	
11:16:10	-6.728685	38.94616	127.771	-0.1774734	4.367393	0.06	3	100	0	6546	-1.495868	4.188632	-23.43584	
11:16:10	-6.728685	38.94616	127.829	-0.1774734	4.367393	0.09	3	100	0	6546	-1.413615	4.190036	-23.42671	
11:16:10	-6.728685	38.94616	127.858	-0.1774734	4.367393	0.06	3	100	0	6546	-1.56942	4.23843	-23.34151	
11:16:10	-6.728685	38.94616	127.89	-0.1774734	4.367393	0.13	3	100	0	6546	-1.558203	4.205776	-23.39167	
11:16:11	-6.728685	38.94616	127.918	-0.1774734	4.367393	0.04	3	100	0	6546	-1.36406	4.203126	-23.36357	
11:16:11	-6.728685	38.94616	127.984	-0.3351237	-6.448699	0.04	3	100	0	6546	-1.524744	4.269409	-23.35952	
11:16:11	-6.728685	38.94616	128.053	-0.3351237	-6.448699	0.02	3	100	0	6546	-1.533353	4.215515	-23.39852	
11:16:11	-6.728685	38.94616	128.133	-0.3351237	-6.448699	0.11	3	100	0	6546	-1.517524	4.201547	-23.38597	
11:16:11	-6.728685	38.94616	128.178	-0.3351237	-6.448699	0.04	3	100	0	6546	-1.461953	4.120978	-23.33501	
11:16:12	-6.728685	38.94616	128.215	-0.3351237	-6.448699	0.03	3	100	0	6546	-1.499295	4.231652	-23.40098	
11:16:12	-6.728685	38.94616	128.202	-0.1629667	1.072389	0.04	3	100	0	6546	-1.529599	4.201777	-23.39022	
11:16:12	-6.728685	38.94616	128.245	-0.1629667	1.072389	0.03	3	100	0	6546	-1.586041	4.185005	-23.35475	
11:16:13	-6.728685	38.94616	128.304	-0.1629667	1.072389	0.03	3	100	0	6546	-1.578125	4.266809	-23.3457	
11:16:13	-6.728685	38.94616	128.34	-0.1629667	1.072389	0.06	3	100	0	6546	-1.525693	4.218787	-23.31207	
11:16:13	-6.728685	38.94616	128.393	-0.1629667	1.072389	0.03	3	100	0	6546	-1.441588	4.270288	-23.29262	
11:16:13	-6.728685	38.94616	128.433	-0.06049636	1.784567	0.08	3	100	0	6545	-1.502818	4.195319	-23.27399	
11:16:14	-6.728685	38.94616	128.442	-0.06049636	1.784567	0.04	3	100	0	6545	-1.527223	4.125336	-23.28057	
11:16:14	-6.728685	38.94616	128.501	-0.06049636	1.784567	0.04	3	100	0	6545	-1.48115	4.110742	-23.26412	
11:16:14	-6.728685	38.94616	128.518	-0.06049636	1.784567	0.06	3	100	0	6545	-1.44346	4.199607	-23.21748	
11:16:14	-6.728685	38.94616	128.526	-0.06049636	1.784567	0.01	3	100	0	6545	-1.49699	4.112757	-23.23622	
11:16:14	-6.728685	38.94616	128.582	0.08179154	5.748358	0.03	3	100	0	6547	-1.43119	4.152833	-23.21495	
11:16:14	-6.728685	38.94616	128.626	0.08179154	5.748358	0.02	3	100	0	6547	-1.481353	4.285796	-23.26756	
11:16:15	-6.728685	38.94616	128.679	0.08179154	5.748358	0.04	3	100	0	6547	-1.518502	4.157069	-23.30467	
11:16:15	-6.728685	38.94616	128.681	0.08179154	5.748358	0.06	3	100	0	6547	-1.470748	4.130871	-23.32443	
11:16:15	-6.728685	38.94616	128.732	0.08179154	5.748358	0.03	3	100	0	6547	-1.475336	4.184081	-23.27019	
11:16:15	-6.728685	38.94616	128.781	0.1824396	5.530285	0.12	3	100	0	6546	-1.584991	4.159883	-23.33757	
11:16:15	-6.728685	38.94616	128.758	0.1824396	5.530285	0.02	3	100	0	6546	-1.610583	4.113178	-23.27509	
11:16:16	-6.728685	38.94616	128.808	0.1824396	5.530285	0.07	3	100	0	6546	-1.525764	4.140335	-23.31317	
11:16:16	-6.728685	38.94616	128.846	0.1824396	5.530285	0.03	3	100	0	6546	-1.494411	4.17786	-23.34586	
11:16:16	-6.728685	38.94616	128.857	0.1824396	5.530285	0.06	3	100	0	6546	-1.514486	3.992228	-23.34424	
11:16:16	-6.728685	38.94616	128.896	0.3387467	9.223873	0.07	3	100	0	6546	-1.607745	4.017529	-23.38895	
11:16:16	-6.728685	38.94616	128.968	0.3387467	9.223873	0.03	3	100	0	6546	-1.658668	4.007623	-23.57122	
11:16:16	-6.728685	38.94616	129.007	0.3387467	9.223873	0.06	3	100	0	6546	-1.630333	4.190147	-23.6465	
11:16:17	-6.728685	38.94616	129.053	0.3387467	9.223873	0.01	3	100	0	6546	-1.678677	4.141201	-23.7779	
11:16:17	-6.728685	38.94616	129.102	0.3387467	9.223873	0.09	3	100	0	6546	-1.650642	4.134783	-23.7713	
11:16:17	-6.728685	38.94616	129.159	0.3719943	6.498317	0.03	3	100	0	6546	-1.749854	4.252289	-23.78825	
11:16:17	-6.728685	38.94616	129.175	0.3719943	6.498317	0.06	3	100	0	6546	-1.643879	4.057087	-23.87715	
11:16:17	-6.728685	38.94616	129.212	0.3719943	6.498317	0.01	3	100	0	6546	-1.641221	4.23092	-23.91576	
11:16:17	-6.728685	38.94616	129.229	0.3719943	6.498317	0.08	3	100	0	6546	-1.665527	4.269169	-24.10272	
11:16:18	-6.728685	38.94616	129.252	0.3719943	6.498317	0.09	3	100	0	6546	-1.772587	4.25145	-24.24572	
11:16:18	-6.728685	38.94616	129.314	0.2402344	-3.649133	0.06	3	100	0	6546	-1.752562	4.009852	-24.41912	
11:16:18	-6.728685	38.94616	129.409	0.2402344	-3.649133	0.12	3	100	0	6546	-1.689736	3.811901	-24.57359	
11:16:19	-6.728685	38.94616	129.333	0.2402344	-3.649133	0.09	3	100	0	6546	-1.778589	3.875096	-24.56419	
11:16:19	-6.728685	38.94616	129.337	0.2402344	-3.649133	0.09	3	100	0	6546	-1.748555	3.916074	-24.49386	
11:16:19	-6.728685	38.94616	129.299	0.2402344	-3.649133	0.02	3	100	0	6546	-1.595113	3.985154	-24.50519	
11:16:19	-6.728685	38.94616	129.222	-0.009244363	-13.94679	0.12	3	100	0	6545	-1.657495	4.060744	-24.5248	
11:16:19	-6.728685	38.94616	129.187	-0.009244363	-13.94679	0.09	3	100	0	6545	-1.596804	3.92326	-24.52491	
11:16:19	-6.728685	38.94616	129.147	-0.009244363	-13.94679	0.04	3	100	0	6545	-1.68281	3.927839	-24.60853	
11:16:20	-6.728685	38.94616	129.152	-0.009244363	-13.94679	0.07	3	100	0	6545	-1.75221	4.09006	-24.57366	
11:16:20	-6.728685	38.94616	129.153	-0.009244363	-13.94679	0.13	3	100	0	6545	-1.658487	4.064069	-24.52724	
11:16:20	-6.728685	38.94616	129.129	-0.1424311	-15.85384	0.09	3	100	0	6546	-1.770108	3.907446	-24.53789	
11:16:20	-6.728685	38.94616	129.102	-0.1424311	-15.85384	0.06	3	100	0	6546	-1.685918	3.84896	-24.51708	
11:16:20	-6.728685	38.94616	129.105	-0.1424311	-15.85384	0.13	3	100	0	6546	-1.614829	3.992704	-24.48299	
11:16:20	-6.728685	38.94616	129.125	-0.1424311	-15.85384	0.04	3	100	0	6546	-1.508351	3.928336	-24.48385	
11:16:21	-6.728685	38.94616	129.159	-0.1424311	-15.85384	0.04	3	100	0	6546	-1.59282	3.911438	-24.46048	
11:16:21	-6.728685	38.94616	129.149	-0.2834288	-17.2454	0.12	3	100	0	6546	-1.569286	3.94603	-24.41982	
11:16:21	-6.728685	38.94616	129.156	-0.2834288	-17.2454	0.09	3	100	0	6546	-1.569787	3.778684	-24.43388	
11:16:21	-6.728685	38.94616	129.13	-0.2834288	-17.2454	0.01	3	100	0	6546	-1.68619	3.793992	-24.47511	
11:16:22	-6.728685	38.94616	129.128	-0.2834288	-17.2454	0.11	3	100	0	6546	-1.658198	3.90579	-24.37595	
11:16:22	-6.728685	38.94616	129.088	-0.2834288	-17.2454	0.03	3	100	0	6546	-1.778076	3.979921	-24.39866	
11:16:22	-6.728685	38.94616	129.102	-0.3988479	-17.22427	0.09	3	100	0	6546	-1.628687	3.975552	-24.36406	
11:16:22	-6.728685	38.94616	129.094	-0.3988479	-17.22427	0.07	3	100	0	6546	-1.605549	3.899597	-24.39104	
11:16:22	-6.728685	38.94616	129.112	-0.3988479	-17.22427	0.04	3	100	0	6546	-1.609546	4.046599	-24.41569	
11:16:22	-6.728685	38.94616	129.13	-0.3988479	-17.22427	0.01	3	100	0	6546	-1.645014	4.008386	-24.37365	
11:16:23	-6.728685	38.94616	129.122	-0.3988479	-17.22427	0.04	3	100	0	6546	-1.643412	3.948194	-24.42285	
11:16:23	-6.728685	38.94616	129.113	-0.2604949	-7.713445	0.04	3	100	0	6546	-1.668082	3.931479	-24.40416	
11:16:23	-6.728686	38.94616	129.091	-0.2604949	-7.713445	0.08	3	100	0	6546	-1.634329	3.987899	-24.40531	
11:16:23	-6.728686	38.94616	129.097	-0.2604949	-7.713445	0.08	3	100	0	6546	-1.560965	3.930775	-24.35655	
11:16:24	-6.728686	38.94616	129.096	-0.2604949	-7.713445	0.07	3	100	0	6546	-1.676404	3.928231	-24.37634	
11:16:24	-6.728686	38.94616	129.114	-0.2604949	-7.713445	0.06	3	100	0	6546	-1.569825	3.953464	-24.35246	
11:16:24	-6.728686	38.94616	129.112	-0.2521346	-4.315723	0.09	3	100	0	6546	-1.585989	4.044567	-24.329	
11:16:24	-6.728685	38.94616	129.093	-0.2521346	-4.315723	0.04	3	100	0	6546	-1.575523	3.944869	-24.30484	
11:16:24	-6.728686	38.94616	129.113	-0.2521346	-4.315723	0.04	3	100	0	6546	-1.638933	4.061174	-24.30557	
11:16:24	-6.728686	38.94616	129.121	-0.2521346	-4.315723	0.02	3	100	0	6546	-1.633605	4.018612	-24.3125	
11:16:25	-6.728685	38.94616	129.13	-0.2521346	-4.315723	0.09	3	100	0	6546	-1.646577	3.978178	-24.31388	
11:16:25	-6.728685	38.94616	129.109	-0.3016907	-5.765628	0.06	3	100	0	6546	-1.692734	3.920839	-24.30871	
11:16:25	-6.728685	38.94616	129.142	-0.3016907	-5.765628	0.03	3	100	0	6546	-1.639233	4.027379	-24.292	
11:16:25	-6.728685	38.94616	129.157	-0.3016907	-5.765628	0.03	3	100	0	6546	-1.623129	4.025636	-24.29699	
11:16:26	-6.728685	38.94616	129.142	-0.3016907	-5.765628	0.03	3	100	0	6546	-1.639802	4.093715	-24.24136	
11:16:26	-6.728685	38.94616	129.136	-0.3016907	-5.765628	0.06	3	100	0	6546	-1.654306	4.025331	-24.22765	
11:16:26	-6.728685	38.94616	129.14	-0.4363243	-10.21422	0.04	3	100	0	6546	-1.573614	3.960788	-24.27954	
11:16:26	-6.728685	38.94616	129.191	-0.4363243	-10.21422	0.09	3	100	0	6546	-1.581267	4.011529	-24.25948	
11:16:26	-6.728685	38.94616	129.183	-0.4363243	-10.21422	0.06	3	100	0	6546	-1.54739	4.093517	-24.24667	
11:16:26	-6.728685	38.94616	129.199	-0.4363243	-10.21422	0.08	3	100	0	6546	-1.581224	4.035315	-24.34028	
11:16:27	-6.728685	38.94616	129.209	-0.4363243	-10.21422	0.03	3	100	0	6546	-1.606168	4.04597	-24.3101	
11:16:27	-6.728685	38.94616	129.235	-0.6460578	-15.05604	0.03	3	100	0	6546	-1.694176	4.042271	-24.39328	
11:16:27	-6.728685	38.94616	129.266	-0.6460578	-15.05604	0.04	3	100	0	6546	-1.690671	4.027496	-24.34521	
11:16:27	-6.728685	38.94616	129.265	-0.6460578	-15.05604	0.04	3	100	0	6546	-1.67329	3.981453	-24.36307	
11:16:28	-6.728685	38.94616	129.268	-0.6460578	-15.05604	0.03	3	100	0	6546	-1.669043	3.981648	-24.33164	
11:16:28	-6.728685	38.94616	129.277	-0.6460578	-15.05604	0.04	3	100	0	6546	-1.657394	4.000782	-24.24393	
11:16:28	-6.728685	38.94616	129.281	-0.5371079	-5.00922	0.08	3	100	0	6546	-1.657899	4.031019	-24.18062	
11:16:28	-6.728685	38.94616	129.297	-0.5371079	-5.00922	0.06	3	100	0	6546	-1.71013	3.995162	-24.17014	
11:16:28	-6.728685	38.94616	129.321	-0.5371079	-5.00922	0.01	3	100	0	6546	-1.629904	3.989356	-24.18844	
11:16:28	-6.728685	38.94615	129.348	-0.5371079	-5.00922	0.03	3	100	0	6546	-1.640447	3.977391	-24.14055	
11:16:29	-6.728685	38.94615	129.367	-0.5371079	-5.00922	0.13	3	100	0	6546	-1.6466	3.936898	-24.084	
11:16:29	-6.728685	38.94615	129.393	-0.243208	6.940934	0.02	3	100	0	6546	-1.653971	3.907861	-24.04073	
11:16:29	-6.728685	38.94615	129.41	-0.243208	6.940934	0.09	3	100	0	6546	-1.588666	4.05317	-24.03739	
11:16:29	-6.728685	38.94615	129.431	-0.243208	6.940934	0.07	3	100	0	6546	-1.614708	4.06537	-24.03782	
11:16:30	-6.728685	38.94615	129.433	-0.243208	6.940934	0.02	3	100	0	6546	-1.727992	4.032812	-24.06922	
11:16:30	-6.728685	38.94615	129.449	-0.243208	6.940934	0.04	3	100	0	6546	-1.67173	4.065525	-23.95492	
11:16:30	-6.728685	38.94615	129.504	-0.4337052	-5.524376	0.07	3	100	0	6546	-1.618304	4.059322	-24.01733	
11:16:30	-6.728685	38.94615	129.518	-0.4337052	-5.524376	0.02	3	100	0	6546	-1.603706	4.001342	-24.0717	
11:16:30	-6.728685	38.94615	129.538	-0.4337052	-5.524376	0.07	3	100	0	6546	-1.632664	4.084723	-24.0555	
11:16:30	-6.728685	38.94615	129.601	-0.4337052	-5.524376	0.09	3	100	0	6546	-1.603246	4.04384	-24.06033	
11:16:31	-6.728685	38.94615	129.64	-0.4337052	-5.524376	0.09	3	100	0	6546	-1.566462	3.940678	-24.0764	
11:16:31	-6.728685	38.94615	129.655	-0.4260267	-3.297552	0.02	3	100	0	6546	-1.570654	3.987936	-24.05285	
11:16:31	-6.728685	38.94615	129.657	-0.4260267	-3.297552	0.03	3	100	0	6546	-1.606824	4.006364	-24.00186	
11:16:31	-6.728685	38.94615	129.708	-0.4260267	-3.297552	0.11	3	100	0	6546	-1.605471	3.943127	-24.04852	
11:16:32	-6.728685	38.94615	129.721	-0.4260267	-3.297552	0.04	3	100	0	6546	-1.620132	3.932692	-24.12014	
11:16:32	-6.728685	38.94615	129.734	-0.4260267	-3.297552	0.04	3	100	0	6546	-1.646639	4.063699	-24.1244	
11:16:32	-6.728685	38.94615	129.74	-0.3769349	-0.2783642	0.14	3	100	0	6546	-1.686058	4.013741	-24.11407	
11:16:32	-6.728685	38.94615	129.773	-0.3769349	-0.2783642	0.08	3	100	0	6546	-1.688462	3.974629	-24.14335	
11:16:33	-6.728685	38.94615	129.806	-0.3769349	-0.2783642	0.04	3	100	0	6546	-1.597309	4.055872	-24.06923	
11:16:33	-6.728685	38.94615	129.79	-0.3769349	-0.2783642	0.04	3	100	0	6546	-1.632732	4.028127	-24.06359	
11:16:33	-6.728685	38.94615	129.779	-0.3769349	-0.2783642	0.04	3	100	0	6546	-1.692462	4.034511	-24.04166	
11:16:33	-6.728685	38.94615	129.8	-0.2321204	5.804861	0.01	3	100	0	6546	-1.687816	4.026227	-23.97458	
11:16:33	-6.728685	38.94615	129.813	-0.2321204	5.804861	0.01	3	100	0	6546	-1.649495	3.987267	-23.89384	
11:16:33	-6.728685	38.94615	129.772	-0.2321204	5.804861	0.08	3	100	0	6546	-1.613217	3.982773	-23.90927	
11:16:34	-6.728685	38.94615	129.771	-0.2321204	5.804861	0.04	3	100	0	6546	-1.605783	3.97247	-23.88512	
11:16:34	-6.728685	38.94615	129.779	-0.2321204	5.804861	0.06	3	100	0	6546	-1.674774	4.025882	-23.89936	
11:16:34	-6.728685	38.94615	129.82	-0.150241	5.737372	0.07	3	100	0	6546	-1.620851	4.022912	-23.87018	
11:16:34	-6.728685	38.94615	129.844	-0.150241	5.737372	0.04	3	100	0	6546	-1.631834	3.985442	-23.81942	
11:16:34	-6.728685	38.94615	129.869	-0.150241	5.737372	0.08	3	100	0	6546	-1.630703	4.022401	-23.78826	
11:16:35	-6.728685	38.94615	129.923	-0.150241	5.737372	0.06	3	100	0	6546	-1.546019	4.004525	-23.72197	
11:16:35	-6.728685	38.94615	129.989	-0.150241	5.737372	0.04	3	100	0	6546	-1.556273	4.09157	-23.71409	
11:16:35	-6.728685	38.94615	130.002	-0.2623911	-3.100161	0.04	3	100	0	6546	-1.564836	4.065627	-23.7454	
11:16:35	-6.728685	38.94615	130.03	-0.2623911	-3.100161	0.04	3	100	0	6546	-1.559784	4.013554	-23.78634	
11:16:35	-6.728685	38.94615	130.043	-0.2623911	-3.100161	0.03	3	100	0	6546	-1.592067	4.018903	-23.81672	
11:16:36	-6.728685	38.94615	130.055	-0.2623911	-3.100161	0.04	3	100	0	6546	-1.600994	4.037003	-23.87183	
11:16:36	-6.728685	38.94615	130.048	-0.2623911	-3.100161	0.04	3	100	0	6546	-1.587975	4.035591	-23.80171	
11:16:36	-6.728685	38.94615	130.059	-0.2091754	1.469714	0.08	3	100	0	6546	-1.580263	4.012975	-23.84359	
11:16:36	-6.728685	38.94615	130.095	-0.2091754	1.469714	0.01	3	100	0	6546	-1.560515	3.951615	-23.81549	
11:16:36	-6.728685	38.94615	130.115	-0.2091754	1.469714	0.06	3	100	0	6546	-1.591703	4.022952	-23.82897	
11:16:37	-6.728685	38.94615	130.132	-0.2091754	1.469714	0.09	3	100	0	6546	-1.595084	4.080398	-23.86761	
11:16:37	-6.728685	38.94615	130.123	-0.2091754	1.469714	0.03	3	100	0	6546	-1.584849	4.033481	-23.92473	
11:16:37	-6.728685	38.94615	130.15	0.04380986	11.62184	0.04	3	100	0	6546	-1.586516	3.944315	-23.92526	
11:16:37	-6.728685	38.94615	130.117	0.04380986	11.62184	0.06	3	100	0	6546	-1.639987	3.94191	-23.85794	
11:16:37	-6.728685	38.94615	130.151	0.04380986	11.62184	0.06	3	100	0	6546	-1.648958	3.935479	-23.89146	
11:16:38	-6.728685	38.94615	130.186	0.04380986	11.62184	0.04	3	100	0	6546	-1.635917	3.968224	-23.94391	
11:16:38	-6.728685	38.94615	130.209	0.04380986	11.62184	0.09	3	100	0	6546	-1.586504	3.969051	-23.97981	
11:16:38	-6.728685	38.94615	130.209	0.2895605	16.03709	0.04	3	100	0	6546	-1.582041	3.958948	-23.89683	
11:16:39	-6.728685	38.94615	130.238	0.2895605	16.03709	0.04	3	100	0	6546	-1.618544	3.997026	-23.86944	
11:16:39	-6.728685	38.94615	130.242	0.2895605	16.03709	0.07	3	100	0	6546	-1.561143	4.034801	-23.88712	
11:16:39	-6.728685	38.94615	130.299	0.2895605	16.03709	0.12	3	100	0	6546	-1.512556	4.107581	-23.89838	
11:16:39	-6.728685	38.94615	130.312	0.2895605	16.03709	0.06	3	100	0	6546	-1.55266	4.06473	-23.84379	
11:16:39	-6.728685	38.94615	130.323	0.4285415	15.16947	0.07	3	100	0	6546	-1.567643	3.992562	-23.82935	
11:16:39	-6.728685	38.94615	130.351	0.4285415	15.16947	0.09	3	100	0	6546	-1.580938	4.058884	-23.80302	
11:16:40	-6.728685	38.94615	130.336	0.4285415	15.16947	0.03	3	100	0	6546	-1.625	4.100759	-23.76607	
11:16:40	-6.728685	38.94615	130.338	0.4285415	15.16947	0.06	3	100	0	6546	-1.592962	4.084821	-23.81677	
11:16:40	-6.728685	38.94615	130.331	0.4285415	15.16947	0.08	3	100	0	6546	-1.538319	4.101421	-23.81863	
11:16:40	-6.728685	38.94615	130.347	0.3691005	6.13909	0.04	3	100	0	6546	-1.524227	4.066476	-23.79786	
11:16:40	-6.728685	38.94615	130.371	0.3691005	6.13909	0.04	3	100	0	6546	-1.542972	4.026996	-23.85807	
11:16:41	-6.728685	38.94615	130.414	0.3691005	6.13909	0.08	3	100	0	6546	-1.546913	4.034335	-23.86502	
11:16:41	-6.728685	38.94615	130.432	0.3691005	6.13909	0.04	3	100	0	6546	-1.574527	4.048391	-23.84934	
11:16:41	-6.728684	38.94615	130.467	0.3691005	6.13909	0.03	3	100	0	6546	-1.601011	3.968599	-23.8498	
11:16:41	-6.728684	38.94615	130.463	0.290037	0.3343682	0.04	3	100	0	6546	-1.587134	3.982856	-23.8161	
11:16:41	-6.728684	38.94615	130.487	0.290037	0.3343682	0.07	3	100	0	6546	-1.525977	4.001339	-23.74458	
11:16:42	-6.728684	38.94615	130.527	0.290037	0.3343682	0.01	3	100	0	6546	-1.542355	3.973652	-23.79811	
11:16:42	-6.728684	38.94615	130.583	0.290037	0.3343682	0.04	3	100	0	6546	-1.598595	3.987336	-23.84943	
11:16:42	-6.728684	38.94615	130.579	0.290037	0.3343682	0.08	3	100	0	6546	-1.57436	4.013472	-23.81354	
11:16:42	-6.728684	38.94615	130.573	-0.01529064	-13.83544	0.08	3	100	0	6546	-1.592132	4.050098	-23.87015	
11:16:42	-6.728684	38.94615	130.539	-0.01529064	-13.83544	0.13	3	100	0	6546	-1.683528	3.974467	-23.8693	
11:16:42	-6.728684	38.94615	130.541	-0.01529064	-13.83544	0.03	3	100	0	6546	-1.642615	3.979664	-23.95316	
11:16:43	-6.728684	38.94615	130.55	-0.01529064	-13.83544	0.04	3	100	0	6546	-1.550821	4.005224	-23.93162	
11:16:43	-6.728684	38.94615	130.571	-0.01529064	-13.83544	0.04	3	100	0	6546	-1.556123	3.988308	-23.93713	
11:16:43	-6.728684	38.94615	130.568	-0.09515424	-13.28538	0.03	3	100	0	6546	-1.616225	3.981433	-23.93412	
11:16:43	-6.728684	38.94615	130.556	-0.09515424	-13.28538	0.09	3	100	0	6546	-1.575934	3.966539	-23.91256	
11:16:43	-6.728683	38.94615	130.57	-0.09515424	-13.28538	0.14	3	100	0	6546	-1.501315	3.946184	-23.9268	
11:16:44	-6.728683	38.94615	130.579	-0.09515424	-13.28538	0.02	3	100	0	6546	-1.569734	3.983405	-23.92972	
11:16:44	-6.728683	38.94615	130.597	-0.09515424	-13.28538	0.08	3	100	0	6546	-1.607215	4.04286	-23.9297	
11:16:44	-6.728683	38.94615	130.629	-0.02644319	-5.041616	0.04	3	100	0	6546	-1.614292	4.066369	-23.92259	
11:16:44	-6.728683	38.94615	130.633	-0.02644319	-5.041616	0.13	3	100	0	6546	-1.569854	4.105621	-23.98354	
11:16:44	-6.728683	38.94615	130.648	-0.02644319	-5.041616	0.08	3	100	0	6546	-1.69059	4.00955	-24.02029	
11:16:45	-6.728683	38.94615	130.642	-0.02644319	-5.041616	0.06	3	100	0	6546	-1.721723	4.009298	-24.00848	
11:16:45	-6.728683	38.94615	130.623	-0.02644319	-5.041616	0.12	3	100	0	6546	-1.758448	4.056303	-23.98619	
11:16:45	-6.728683	38.94615	130.596	0.2623536	8.920474	0.01	3	100	0	6546	-1.718864	3.961125	-24.00842	
11:16:45	-6.728683	38.94615	130.574	0.2623536	8.920474	0.19	3	100	0	6546	-1.594015	4.000037	-23.90678	
11:16:45	-6.728683	38.94615	130.579	0.2623536	8.920474	0.04	3	100	0	6546	-1.723242	3.882629	-24.00555	
11:16:46	-6.728683	38.94615	130.614	0.2623536	8.920474	0.01	3	100	0	6546	-1.75923	3.812946	-24.02822	
11:16:46	-6.728683	38.94615	130.631	0.2623536	8.920474	0.09	3	100	0	6546	-1.678544	3.851602	-24.02224	
11:16:46	-6.728683	38.94615	130.642	0.4925425	13.31637	0.03	3	100	0	6546	-1.675536	3.814085	-24.01605	
11:16:46	-6.728683	38.94615	130.657	0.4925425	13.31637	0.09	3	100	0	6546	-1.769417	3.772105	-23.97708	
11:16:46	-6.728683	38.94615	130.658	0.4925425	13.31637	0.07	3	100	0	6546	-1.821872	3.844108	-23.9784	
11:16:47	-6.728683	38.94615	130.679	0.4925425	13.31637	0.12	3	100	0	6546	-1.843776	3.901049	-24.0101	
11:16:47	-6.728683	38.94615	130.689	0.4925425	13.31637	0.01	3	100	0	6546	-1.750197	3.873718	-23.99993	
11:16:47	-6.728683	38.94615	130.714	0.3849993	1.986157	0.02	3	100	0	6546	-1.712144	3.855038	-23.98028	
11:16:47	-6.728683	38.94615	130.738	0.3849993	1.986157	0.09	3	100	0	6546	-1.783357	3.845283	-23.98456	
11:16:48	-6.728683	38.94615	130.797	0.3849993	1.986157	0.11	3	100	0	6546	-1.691975	3.836469	-23.94683	
11:16:48	-6.728683	38.94615	130.832	0.3849993	1.986157	0.04	3	100	0	6546	-1.672635	3.941847	-23.92952	
11:16:48	-6.728683	38.94615	130.82	0.3849993	1.986157	0.08	3	100	0	6546	-1.757429	3.918441	-23.97183	
11:16:48	-6.728683	38.94615	130.813	0.3012611	-3.238954	0.06	3	100	0	6546	-1.697631	3.945717	-24.01501	
11:16:48	-6.728683	38.94615	130.767	0.3012611	-3.238954	0.04	3	100	0	6546	-1.676156	4.004467	-23.98237	
11:16:48	-6.728683	38.94615	130.777	0.3012611	-3.238954	0.06	3	100	0	6546	-1.70214	4.038549	-23.9436	
11:16:49	-6.728683	38.94615	130.768	0.3012611	-3.238954	0.04	3	100	0	6546	-1.710178	3.990009	-23.93285	
11:16:49	-6.728683	38.94615	130.768	0.3012611	-3.238954	0.04	3	100	0	6546	-1.667747	3.990995	-24.00185	
11:16:49	-6.728683	38.94616	130.731	0.1951687	-7.665834	0.09	3	100	0	6546	-1.631791	3.897998	-24.01366	
11:16:49	-6.728683	38.94616	130.62	0.1951687	-7.665834	0.13	3	100	0	6546	-1.655318	3.97848	-23.99895	
11:16:49	-6.728683	38.94616	130.569	0.1951687	-7.665834	0.11	3	100	0	6546	-1.542662	3.937291	-24.0183	
11:16:50	-6.728683	38.94616	130.569	0.1951687	-7.665834	0.11	3	100	0	6546	-1.597338	3.813056	-23.96414	
11:16:50	-6.728683	38.94616	130.447	0.1951687	-7.665834	0.12	3	100	0	6546	-1.638738	3.830614	-24.02149	
11:16:50	-6.728683	38.94616	130.447	-0.09108293	-18.21287	0.12	3	100	0	6546	-1.766312	3.808945	-23.97393	
11:16:50	-6.728683	38.94616	130.34	-0.09108293	-18.21287	0.14	3	100	0	6546	-1.801225	3.869412	-24.03756	
11:16:50	-6.728683	38.94616	130.3	-0.09108293	-18.21287	0.06	3	100	0	6546	-1.734908	4.000755	-24.00364	
11:16:51	-6.728683	38.94616	130.244	-0.09108293	-18.21287	0.04	3	100	0	6546	-1.750185	3.905221	-23.9046	
11:16:51	-6.728683	38.94616	130.194	-0.09108293	-18.21287	0.12	3	100	0	6546	-1.673149	3.884786	-23.84805	
11:16:51	-6.728683	38.94616	130.194	-0.1821147	-15.35333	0.12	3	100	0	6546	-1.771417	3.878625	-23.90152	
11:16:51	-6.728683	38.94616	130.064	-0.1821147	-15.35333	0.04	3	100	0	6546	-1.755717	3.873171	-23.86979	
11:16:51	-6.728683	38.94616	130.014	-0.1821147	-15.35333	0.11	3	100	0	6546	-1.664839	3.838163	-23.87181	
11:16:52	-6.728683	38.94616	129.938	-0.1821147	-15.35333	0.04	3	100	0	6546	-1.65507	3.975183	-23.85216	
11:16:52	-6.728683	38.94616	129.888	-0.1821147	-15.35333	0.04	3	100	0	6546	-1.740001	3.927799	-23.92393	
11:16:52	-6.728683	38.94616	129.851	-0.1446769	-8.229242	0.04	3	100	0	6546	-1.723503	3.974394	-23.94314	
11:16:52	-6.728683	38.94616	129.808	-0.1446769	-8.229242	0.04	3	100	0	6546	-1.756019	3.947473	-23.90699	
11:16:52	-6.728683	38.94616	129.778	-0.1446769	-8.229242	0.06	3	100	0	6546	-1.691035	3.942273	-23.91533	
11:16:53	-6.728683	38.94616	129.711	-0.1446769	-8.229242	0.09	3	100	0	6546	-1.756764	3.911942	-23.97852	
11:16:53	-6.728683	38.94616	129.661	-0.1446769	-8.229242	0.04	3	100	0	6546	-1.775698	3.850032	-23.9563	
11:16:53	-6.728683	38.94616	129.638	-0.1643284	-4.870192	0.14	3	100	0	6546	-1.687119	3.892791	-23.9223	
11:16:53	-6.728683	38.94616	129.603	-0.1643284	-4.870192	0.08	3	100	0	6546	-1.816792	3.907437	-23.95193	
11:16:53	-6.728682	38.94616	129.59	-0.1643284	-4.870192	0.09	3	100	0	6546	-1.767415	3.894373	-23.94303	
11:16:54	-6.728682	38.94616	129.557	-0.1643284	-4.870192	0.08	3	100	0	6546	-1.634158	3.970954	-23.97016	
11:16:54	-6.728682	38.94616	129.527	-0.1643284	-4.870192	0.08	3	100	0	6546	-1.619865	3.904873	-23.94827	
11:16:54	-6.728682	38.94616	129.509	-0.1845416	-3.426039	0.04	3	100	0	6546	-1.738046	3.979535	-23.9526	
11:16:54	-6.728682	38.94616	129.461	-0.1845416	-3.426039	0.09	3	100	0	6546	-1.763533	3.968015	-24.0505	
11:16:54	-6.728682	38.94616	129.426	-0.1845416	-3.426039	0.04	3	100	0	6546	-1.69825	3.8525	-24.09861	
11:16:55	-6.728682	38.94616	129.386	-0.1845416	-3.426039	0.06	3	100	0	6546	-1.747468	3.913282	-24.08689	
11:16:55	-6.728682	38.94616	129.346	-0.1845416	-3.426039	0.02	3	100	0	6546	-1.667749	3.962131	-24.06126	
11:16:55	-6.728682	38.94616	129.283	-0.1553232	-0.05903254	0.13	3	100	0	6546	-1.710772	3.994261	-24.09084	
11:16:55	-6.728682	38.94616	129.229	-0.1553232	-0.05903254	0.09	3	100	0	6546	-1.851454	3.985647	-24.11288	
11:16:55	-6.728682	38.94616	129.164	-0.1553232	-0.05903254	0.03	3	100	0	6546	-1.749057	3.93679	-24.08325	
11:16:56	-6.728683	38.94616	129.101	-0.1553232	-0.05903254	0.04	3	100	0	6546	-1.672157	3.982558	-24.10305	
11:16:56	-6.728683	38.94616	129.069	-0.1553232	-0.05903254	0.03	3	100	0	6546	-1.668271	4.076751	-24.08878	
11:16:56	-6.728683	38.94616	129.011	-0.2818083	-5.543614	0.04	3	100	0	6545	-1.718447	4.018867	-24.06228	
11:16:56	-6.728683	38.94616	128.983	-0.2818083	-5.543614	0.04	3	100	0	6545	-1.759966	4.000505	-24.05049	
11:16:56	-6.728683	38.94616	128.943	-0.2818083	-5.543614	0.17	3	100	0	6545	-1.694553	4.040412	-24.01339	
11:16:57	-6.728683	38.94616	128.92	-0.2818083	-5.543614	0.03	3	100	0	6545	-1.614078	4.151315	-23.99726	
11:16:57	-6.728683	38.94616	128.882	-0.2818083	-5.543614	0.07	3	100	0	6545	-1.688949	4.007984	-24.03605	
11:16:57	-6.728683	38.94616	128.845	-0.3979727	-9.293768	0.08	3	100	0	6546	-1.758286	3.973197	-24.03989	
11:16:57	-6.728683	38.94616	128.862	-0.3979727	-9.293768	0.04	3	100	0	6546	-1.783356	4.00789	-24.07483	
11:16:57	-6.728683	38.94616	128.823	-0.3979727	-9.293768	0.07	3	100	0	6546	-1.713151	3.982106	-24.01533	
11:16:58	-6.728683	38.94616	128.808	-0.3979727	-9.293768	0.03	3	100	0	6546	-1.73521	4.020888	-24.04551	
11:16:58	-6.728683	38.94616	128.771	-0.3979727	-9.293768	0.02	3	100	0	6546	-1.675386	4.007129	-23.97234	
11:16:58	-6.728683	38.94616	128.726	-0.2891136	-0.7341539	0.04	3	100	0	6546	-1.633785	3.980817	-24.01024	
11:16:58	-6.728683	38.94616	128.732	-0.2891136	-0.7341539	0.04	3	100	0	6546	-1.631298	4.038784	-23.96333	
11:16:58	-6.728683	38.94616	128.729	-0.2891136	-0.7341539	0.06	3	100	0	6546	-1.670822	4.008726	-24.00185	
11:16:59	-6.728683	38.94616	128.707	-0.2891136	-0.7341539	0.06	3	100	0	6546	-1.615325	4.064203	-24.02091	
11:16:59	-6.728683	38.94616	128.714	-0.2891136	-0.7341539	0.03	3	100	0	6546	-1.675915	3.948704	-24.02595	
11:16:59	-6.728683	38.94616	128.696	-0.1400343	6.27446	0.06	3	100	0	6546	-1.681795	3.963393	-24.03107	
11:16:59	-6.728683	38.94616	128.684	-0.1400343	6.27446	0.09	3	100	0	6546	-1.674987	4.043322	-24.00114	
11:16:59	-6.728683	38.94616	128.665	-0.1400343	6.27446	0.09	3	100	0	6546	-1.619692	3.92287	-24.01037	
11:17:00	-6.728683	38.94616	128.676	-0.1400343	6.27446	0.12	3	100	0	6546	-1.652957	3.896318	-23.97719	
11:17:00	-6.728683	38.94616	128.674	-0.1400343	6.27446	0.09	3	100	0	6546	-1.772637	4.019065	-24.01735	
11:17:00	-6.728683	38.94616	128.645	-0.2308706	0.04197011	0.08	3	100	0	6546	-1.617651	4.081381	-24.01789	
11:17:00	-6.728682	38.94616	128.602	-0.2308706	0.04197011	0.07	3	100	0	6546	-1.729978	3.97289	-24.01856	
11:17:00	-6.728682	38.94616	128.561	-0.2308706	0.04197011	0.03	3	100	0	6546	-1.590133	3.989594	-24.06416	
11:17:01	-6.728682	38.94616	128.528	-0.2308706	0.04197011	0.08	3	100	0	6546	-1.683207	4.061993	-24.10642	
11:17:01	-6.728682	38.94616	128.49	-0.2308706	0.04197011	0.04	3	100	0	6546	-1.715385	4.024899	-24.08036	
11:17:01	-6.728682	38.94616	128.473	-0.03348807	9.976394	0.02	3	100	0	6546	-1.650722	4.06003	-24.09532	
11:17:01	-6.728682	38.94616	128.439	-0.03348807	9.976394	0.03	3	100	0	6546	-1.647465	4.067309	-24.0434	
11:17:02	-6.728682	38.94616	128.437	-0.03348807	9.976394	0.07	3	100	0	6546	-1.696273	4.033215	-24.0753	
11:17:02	-6.728682	38.94616	128.425	-0.03348807	9.976394	0.03	3	100	0	6546	-1.600371	4.089325	-24.01066	
11:17:02	-6.728682	38.94616	128.415	-0.03348807	9.976394	0.01	3	100	0	6546	-1.687649	4.080332	-23.98778	
11:17:02	-6.728682	38.94616	128.393	0.003411556	7.979734	0.07	3	100	0	6546	-1.648973	4.093864	-23.95823	
11:17:02	-6.728682	38.94616	128.353	0.003411556	7.979734	0.09	3	100	0	6546	-1.627693	3.995219	-23.99497	
11:17:03	-6.728682	38.94616	128.314	0.003411556	7.979734	0.09	3	100	0	6546	-1.618125	3.998722	-24.0345	
11:17:03	-6.728682	38.94616	128.315	0.003411556	7.979734	0.04	3	100	0	6546	-1.645617	4.207982	-24.06017	
11:17:03	-6.728682	38.94616	128.289	0.003411556	7.979734	0.06	3	100	0	6546	-1.640287	4.058825	-23.99635	
11:17:03	-6.728682	38.94616	128.274	-0.2386795	-5.910985	0.01	3	100	0	6546	-1.741753	4.050798	-24.00133	
11:17:03	-6.728681	38.94616	128.261	-0.2386795	-5.910985	0.06	3	100	0	6546	-1.742778	4.094339	-24.07181	
11:17:03	-6.728681	38.94616	128.249	-0.2386795	-5.910985	0.03	3	100	0	6546	-1.745108	3.993616	-24.04238	
11:17:04	-6.728681	38.94616	128.233	-0.2386795	-5.910985	0.07	3	100	0	6546	-1.773415	4.045587	-24.0817	
11:17:04	-6.728681	38.94616	128.215	-0.2386795	-5.910985	0.09	3	100	0	6546	-1.673296	4.054219	-24.02378	
11:17:04	-6.728681	38.94616	128.242	-0.2522099	-3.803025	0.04	3	100	0	6546	-1.784638	3.93888	-24.09429	
11:17:04	-6.728681	38.94616	128.254	-0.2522099	-3.803025	0.08	3	100	0	6546	-1.77975	4.046393	-24.07817	
11:17:05	-6.728681	38.94616	128.273	-0.2522099	-3.803025	0.06	3	100	0	6546	-1.794242	3.954106	-24.06094	
11:17:05	-6.728681	38.94616	128.253	-0.2522099	-3.803025	0.07	3	100	0	6546	-1.732482	4.106058	-24.04734	
11:17:05	-6.728681	38.94616	128.268	-0.2522099	-3.803025	0.02	3	100	0	6546	-1.651078	4.022336	-24.08479	
11:17:05	-6.728681	38.94616	128.255	-0.2522099	-3.803025	0.09	3	100	0	6546	-1.718492	4.070828	-24.07071	
11:17:05	-6.728681	38.94616	128.198	-0.2522099	-3.803025	0.14	3	100	0	6546	-1.837533	4.117807	-24.1814	
11:17:06	-6.728681	38.94616	128.156	-0.2522099	-3.803025	0.03	3	100	0	6546	-1.80961	3.909118	-24.11086	
11:17:06	-6.728681	38.94616	128.098	-0.2522099	-3.803025	0.02	3	100	0	6546	-1.712678	4.097639	-24.12683	
11:17:06	-6.728681	38.94616	128.085	-0.2522099	-3.803025	0.03	3	100	0	6546	-1.707719	4.154592	-24.10671	
11:17:06	-6.728681	38.94616	128.043	-0.06237588	4.368053	0.03	3	100	0	6546	-1.769618	4.150559	-24.16705	
11:17:06	-6.728681	38.94616	128.006	-0.06237588	4.368053	0.04	3	100	0	6546	-1.742162	4.148978	-24.18162	
11:17:07	-6.728682	38.94616	127.977	-0.06237588	4.368053	0.04	3	100	0	6546	-1.688896	4.158981	-24.12639	
11:17:07	-6.728682	38.94616	127.942	-0.06237588	4.368053	0.04	3	100	0	6546	-1.662682	4.10989	-24.06416	
11:17:07	-6.728682	38.94616	127.923	-0.06237588	4.368053	0.03	3	100	0	6546	-1.744305	4.004114	-24.15312	
11:17:07	-6.728682	38.94616	127.912	0.07838512	10.06536	0.09	3	100	0	6546	-1.676896	4.05718	-24.13975	
11:17:07	-6.728682	38.94616	127.886	0.07838512	10.06536	0.04	3	100	0	6546	-1.756138	4.110613	-24.1332	
11:17:08	-6.728682	38.94616	127.864	0.07838512	10.06536	0.06	3	100	0	6546	-1.673812	4.094178	-24.15737	
11:17:08	-6.728682	38.94616	127.849	0.07838512	10.06536	0.06	3	100	0	6546	-1.752917	4.107759	-24.16541	
11:17:08	-6.728682	38.94616	127.866	0.07838512	10.06536	0.08	3	100	0	6546	-1.765152	4.053329	-24.1196	
11:17:08	-6.728682	38.94616	127.872	0.225508	11.47056	0.02	3	100	0	6546	-1.642401	4.103251	-24.08628	
11:17:08	-6.728682	38.94616	127.892	0.225508	11.47056	0.04	3	100	0	6546	-1.696661	4.043616	-24.12079	
11:17:08	-6.728682	38.94616	127.912	0.225508	11.47056	0.06	3	100	0	6546	-1.694694	4.062672	-24.10522	
11:17:09	-6.728682	38.94616	127.928	0.225508	11.47056	0.06	3	100	0	6546	-1.779491	4.170163	-24.1244	
11:17:09	-6.728682	38.94616	127.957	0.225508	11.47056	0.03	3	100	0	6546	-1.728867	4.178627	-24.16932	
11:17:09	-6.728682	38.94616	127.963	0.2626579	7.797267	0.06	3	100	0	6546	-1.760565	4.110709	-24.17595	
11:17:09	-6.728682	38.94616	127.968	0.2626579	7.797267	0.04	3	100	0	6546	-1.721447	4.170449	-24.23067	
11:17:09	-6.728682	38.94616	127.978	0.2626579	7.797267	0.03	3	100	0	6546	-1.81148	4.130663	-24.22253	
11:17:10	-6.728682	38.94616	127.999	0.2626579	7.797267	0.02	3	100	0	6546	-1.788754	4.197561	-24.20366	
11:17:10	-6.728682	38.94616	128.018	0.2626579	7.797267	0.09	3	100	0	6546	-1.731222	4.173458	-24.28838	
11:17:10	-6.728682	38.94616	128.047	0.243035	3.633335	0.09	3	100	0	6546	-1.724754	4.164604	-24.29142	
11:17:10	-6.728682	38.94616	128	0.243035	3.633335	0.04	3	100	0	6546	-1.692679	4.220131	-24.20845	
11:17:11	-6.728682	38.94616	128	0.243035	3.633335	0.04	3	100	0	6546	-1.731554	4.227849	-24.19805	
11:17:11	-6.728682	38.94616	128	0.243035	3.633335	0.03	3	100	0	6546	-1.754084	4.093959	-24.15061	
11:17:11	-6.728682	38.94616	128	0.243035	3.633335	0.04	3	100	0	6546	-1.731848	4.159364	-24.07538	
11:17:11	-6.728682	38.94616	128.001	-0.1769366	-14.98203	0.02	3	100	0	6546	-1.719063	4.187449	-24.05047	
11:17:11	-6.728682	38.94616	128.002	-0.1769366	-14.98203	0.06	3	100	0	6546	-1.672415	4.209453	-24.01305	
11:17:11	-6.728682	38.94616	127.992	-0.1769366	-14.98203	0.04	3	100	0	6546	-1.590266	4.104665	-24.04783	
11:17:12	-6.728682	38.94616	127.972	-0.1769366	-14.98203	0	3	100	0	6546	-1.705667	4.172642	-24.10268	
11:17:12	-6.728682	38.94616	127.969	-0.1769366	-14.98203	0.09	3	100	0	6546	-1.652215	4.210365	-24.17273	
11:17:12	-6.728682	38.94616	127.95	-0.1712536	-9.685412	0.04	3	100	0	6546	-1.667422	4.247722	-24.13377	
11:17:12	-6.728682	38.94616	127.954	-0.1712536	-9.685412	0.04	3	100	0	6546	-1.697973	4.145394	-24.13864	
11:17:13	-6.728682	38.94616	128.015	-0.1712536	-9.685412	0.03	3	100	0	6546	-1.628046	4.071638	-24.0544	
11:17:13	-6.728683	38.94616	127.998	-0.1712536	-9.685412	0.09	3	100	0	6546	-1.635829	4.123578	-24.04393	
11:17:13	-6.728683	38.94616	127.97	-0.1712536	-9.685412	0.09	3	100	0	6546	-1.62402	4.190146	-23.98834	
11:17:13	-6.728683	38.94616	127.972	-0.3015672	-10.92213	0.13	3	100	0	6546	-1.601739	4.170348	-23.99552	
11:17:13	-6.728683	38.94616	127.949	-0.3015672	-10.92213	0.03	3	100	0	6546	-1.714654	4.216531	-23.99508	
11:17:14	-6.728683	38.94616	127.943	-0.3015672	-10.92213	0.01	3	100	0	6546	-1.647006	4.041419	-24.03337	
11:17:14	-6.728683	38.94616	127.989	-0.3015672	-10.92213	0.02	3	100	0	6546	-1.630891	4.010078	-23.95809	
11:17:14	-6.728683	38.94616	127.973	-0.3015672	-10.92213	0.08	3	100	0	6546	-1.594701	3.984919	-24.06976	
11:17:14	-6.728683	38.94616	127.933	-0.5040606	-15.00752	0.06	3	100	0	6546	-1.494546	3.912822	-24.1015	
11:17:14	-6.728683	38.94616	127.936	-0.5040606	-15.00752	0.04	3	100	0	6546	-1.569898	3.869696	-24.13419	
11:17:15	-6.728683	38.94616	127.924	-0.5040606	-15.00752	0.08	3	100	0	6546	-1.524998	3.870193	-24.09725	
11:17:15	-6.728683	38.94616	127.937	-0.5040606	-15.00752	0.04	3	100	0	6546	-1.55914	3.946253	-24.04934	
11:17:15	-6.728683	38.94616	127.928	-0.5040606	-15.00752	0.11	3	100	0	6546	-1.581179	4.076581	-24.0232	
11:17:15	-6.728683	38.94616	127.938	-0.6887232	-16.70507	0.04	3	100	0	6546	-1.581274	4.320432	-23.98573	
11:17:15	-6.728683	38.94616	127.998	-0.6887232	-16.70507	0.06	3	100	0	6546	-1.550975	4.123714	-23.9873	
11:17:16	-6.728683	38.94616	127.998	-0.6887232	-16.70507	0.04	3	100	0	6546	-1.645707	4.046869	-24.04478	
11:17:16	-6.728683	38.94616	128.02	-0.6887232	-16.70507	0.07	3	100	0	6546	-1.638452	4.03002	-24.06189	
11:17:16	-6.728683	38.94616	128.025	-0.6887232	-16.70507	0.09	3	100	0	6546	-1.656857	4.009063	-24.05229	
11:17:16	-6.728683	38.94616	128.006	-0.6962115	-11.03076	0.07	3	100	0	6546	-1.625455	4.110875	-24.08606	
11:17:16	-6.728683	38.94616	128.022	-0.6962115	-11.03076	0.09	3	100	0	6546	-1.498405	4.050171	-24.0921	
11:17:16	-6.728683	38.94616	128.013	-0.6962115	-11.03076	0.02	3	100	0	6546	-1.5346	4.196276	-24.11711	
11:17:17	-6.728683	38.94616	128.038	-0.6962115	-11.03076	0.09	3	100	0	6546	-1.607979	4.085845	-24.16157	
11:17:17	-6.728683	38.94616	128.07	-0.6962115	-11.03076	0.07	3	100	0	6546	-1.660007	4.078261	-24.15108	
11:17:17	-6.728683	38.94616	128.101	-0.5067183	2.416391	0.03	3	100	0	6546	-1.556221	4.030351	-24.07891	
11:17:17	-6.728683	38.94616	128.115	-0.5067183	2.416391	0.09	3	100	0	6546	-1.576117	4.052593	-24.10118	
11:17:17	-6.728683	38.94616	128.139	-0.5067183	2.416391	0.06	3	100	0	6546	-1.535435	4.006123	-24.12218	
11:17:18	-6.728683	38.94616	128.153	-0.5067183	2.416391	0.04	3	100	0	6546	-1.550357	3.997929	-24.12945	
11:17:18	-6.728683	38.94616	128.178	-0.5067183	2.416391	0.04	3	100	0	6546	-1.582885	4.124782	-24.0503	
11:17:18	-6.728683	38.94616	128.213	-0.2994776	10.62623	0.04	3	100	0	6546	-1.603643	4.117769	-24.04558	
11:17:18	-6.728683	38.94616	128.254	-0.2994776	10.62623	0.07	3	100	0	6546	-1.603703	4.131489	-24.0562	
11:17:19	-6.728683	38.94616	128.288	-0.2994776	10.62623	0.08	3	100	0	6546	-1.651902	4.09896	-24.05364	
11:17:19	-6.728683	38.94616	128.301	-0.2994776	10.62623	0.09	3	100	0	6546	-1.647181	3.941854	-24.05857	
11:17:19	-6.728683	38.94616	128.326	-0.2994776	10.62623	0.09	3	100	0	6546	-1.638755	4.098245	-23.99008	
11:17:19	-6.728683	38.94616	128.377	-0.06866063	17.28315	0.02	3	100	0	6546	-1.710672	4.060889	-24.00628	
11:17:20	-6.728683	38.94616	128.387	-0.06866063	17.28315	0.08	3	100	0	6546	-1.620174	3.992571	-23.96634	
11:17:20	-6.728683	38.94616	128.418	-0.06866063	17.28315	0.04	3	100	0	6546	-1.531195	4.007213	-23.91165	
11:17:20	-6.728683	38.94616	128.47	-0.06866063	17.28315	0.04	3	100	0	6546	-1.557954	3.971086	-23.93477	
11:17:20	-6.728683	38.94616	128.445	-0.06866063	17.28315	0.04	3	100	0	6546	-1.590602	3.969374	-23.97724	
11:17:20	-6.728683	38.94616	128.483	0.1029481	16.9562	0.06	3	100	0	6546	-1.623064	4.018918	-24.07449	
11:17:20	-6.728683	38.94616	128.475	0.1029481	16.9562	0.07	3	100	0	6546	-1.637177	3.919456	-24.09337	
11:17:21	-6.728683	38.94616	128.504	0.1029481	16.9562	0.06	3	100	0	6546	-1.607156	3.944234	-24.07061	
11:17:21	-6.728684	38.94616	128.507	0.1029481	16.9562	0.07	3	100	0	6546	-1.69738	4.074813	-24.11006	
11:17:21	-6.728684	38.94616	128.512	0.1029481	16.9562	0.04	3	100	0	6546	-1.718504	3.999326	-24.15536	
11:17:21	-6.728684	38.94616	128.516	0.06353838	8.240707	0.03	3	100	0	6546	-1.671235	4.043615	-24.12018	
11:17:21	-6.728684	38.94616	128.512	0.06353838	8.240707	0.01	3	100	0	6546	-1.680824	4.030749	-24.13983	
11:17:21	-6.728684	38.94616	128.518	0.06353838	8.240707	0.03	3	100	0	6546	-1.64357	3.98494	-24.1489	
11:17:22	-6.728684	38.94616	128.531	0.06353838	8.240707	0.03	3	100	0	6546	-1.659187	3.957014	-24.17965	
11:17:22	-6.728684	38.94616	128.562	0.06353838	8.240707	0.07	3	100	0	6546	-1.683737	3.952933	-24.17095	
11:17:22	-6.728685	38.94616	128.595	0.007567392	2.247639	0.14	3	100	0	6546	-1.626887	3.95009	-24.16667	
11:17:22	-6.728684	38.94616	128.64	0.007567392	2.247639	0.11	3	100	0	6546	-1.559832	3.99459	-24.16744	
11:17:23	-6.728684	38.94616	128.7	0.007567392	2.247639	0.06	3	100	0	6546	-1.673059	3.892613	-24.15314	
11:17:23	-6.728685	38.94616	128.729	0.007567392	2.247639	0.06	3	100	0	6546	-1.615238	3.96552	-24.12471	
11:17:23	-6.728685	38.94616	128.788	0.007567392	2.247639	0.11	3	100	0	6546	-1.6873	4.020087	-24.09399	
11:17:23	-6.728684	38.94616	128.844	0.01122413	1.827587	0.07	3	100	0	6546	-1.72151	3.931174	-24.15045	
11:17:24	-6.728684	38.94616	128.886	0.01122413	1.827587	0.04	3	100	0	6546	-1.633599	3.953846	-24.06322	
11:17:24	-6.728684	38.94616	128.921	0.01122413	1.827587	0.07	3	100	0	6546	-1.613225	3.971588	-24.07673	
11:17:24	-6.728684	38.94616	128.979	0.01122413	1.827587	0.07	3	100	0	6546	-1.641247	3.979971	-24.04973	
11:17:24	-6.728684	38.94616	129.017	0.01122413	1.827587	0.04	3	100	0	6546	-1.688475	4.0365	-24.05518	
11:17:24	-6.728685	38.94616	129.066	-0.1355985	-7.634293	0.04	3	100	0	6546	-1.611378	4.016251	-24.02431	
11:17:24	-6.728685	38.94616	129.089	-0.1355985	-7.634293	0.03	3	100	0	6546	-1.639167	3.950631	-24.03852	
11:17:25	-6.728685	38.94616	129.105	-0.1355985	-7.634293	0.03	3	100	0	6546	-1.650916	3.969931	-24.01288	
11:17:25	-6.728685	38.94616	129.122	-0.1355985	-7.634293	0.04	3	100	0	6546	-1.612541	3.991104	-24.00333	
11:17:25	-6.728685	38.94616	129.112	-0.1355985	-7.634293	0.02	3	100	0	6546	-1.627962	3.969173	-24.02773	
11:17:25	-6.728685	38.94616	129.112	-0.3862918	-15.41184	0.04	3	100	0	6546	-1.65668	3.965549	-24.04941	
11:17:25	-6.728685	38.94616	129.134	-0.3862918	-15.41184	0.02	3	100	0	6546	-1.651325	3.993968	-24.01921	
11:17:26	-6.728685	38.94616	129.135	-0.3862918	-15.41184	0.04	3	100	0	6546	-1.690781	3.966767	-24.0191	
11:17:26	-6.728685	38.94616	129.14	-0.3862918	-15.41184	0.04	3	100	0	6546	-1.70143	3.983575	-23.98782	
11:17:26	-6.728685	38.94616	129.175	-0.3862918	-15.41184	0.02	3	100	0	6546	-1.703462	4.027951	-24.06456	
11:17:26	-6.728685	38.94616	129.186	-0.3574785	-7.340887	0.01	3	100	0	6546	-1.699194	4.014275	-24.05781	
11:17:26	-6.728685	38.94616	129.151	-0.3574785	-7.340887	0.06	3	100	0	6546	-1.716811	3.981936	-24.09997	
11:17:27	-6.728685	38.94616	129.109	-0.3574785	-7.340887	0.06	3	100	0	6546	-1.739741	3.976719	-24.15287	
11:17:27	-6.728685	38.94616	129.108	-0.3574785	-7.340887	0.09	3	100	0	6546	-1.733701	3.94486	-24.10284	
11:17:27	-6.728685	38.94616	129.098	-0.3574785	-7.340887	0.09	3	100	0	6546	-1.699477	3.952384	-24.09916	
11:17:27	-6.728685	38.94616	129.094	-0.00371447	11.12442	0.04	3	100	0	6546	-1.605576	3.968647	-24.04676	
11:17:27	-6.728685	38.94616	129.095	-0.00371447	11.12442	0.07	3	100	0	6546	-1.65059	4.042714	-24.07899	
11:17:28	-6.728685	38.94616	129.092	-0.00371447	11.12442	0.03	3	100	0	6546	-1.686225	4.056034	-24.06228	
11:17:28	-6.728685	38.94616	129.094	-0.00371447	11.12442	0.04	3	100	0	6546	-1.6514	4.003642	-24.03233	
11:17:28	-6.728685	38.94616	129.119	-0.00371447	11.12442	0.04	3	100	0	6546	-1.656577	3.946898	-24.01232	
11:17:28	-6.728685	38.94616	129.133	0.05801145	8.250904	0.02	3	100	0	6546	-1.681619	3.975646	-24.07817	
11:17:29	-6.728685	38.94616	129.135	0.05801145	8.250904	0.04	3	100	0	6546	-1.668482	4.017809	-24.08605	
11:17:29	-6.728685	38.94616	129.148	0.05801145	8.250904	0.13	3	100	0	6546	-1.582548	4.035062	-24.01316	
11:17:29	-6.728685	38.94616	129.182	0.05801145	8.250904	0.09	3	100	0	6546	-1.5342	4.017222	-23.94667	
11:17:29	-6.728685	38.94616	129.172	0.05801145	8.250904	0.06	3	100	0	6546	-1.644139	3.964886	-24.03657	
11:17:29	-6.728685	38.94616	129.166	-0.09870872	-0.1740636	0.04	3	100	0	6546	-1.719718	4.040358	-23.98446	
11:17:29	-6.728686	38.94616	129.175	-0.09870872	-0.1740636	0.08	3	100	0	6546	-1.701113	4.00778	-23.9889	
11:17:30	-6.728686	38.94616	129.161	-0.09870872	-0.1740636	0.04	3	100	0	6546	-1.691527	3.934232	-24.00772	
11:17:30	-6.728686	38.94616	129.162	-0.09870872	-0.1740636	0.06	3	100	0	6546	-1.66498	3.948542	-23.98003	
11:17:30	-6.728686	38.94616	129.153	-0.09870872	-0.1740636	0.07	3	100	0	6546	-1.726679	3.912379	-24.0107	
11:17:30	-6.728686	38.94616	129.125	-0.09870872	-0.1740636	0.06	3	100	0	6546	-1.747489	3.93701	-23.99342	
11:17:30	-6.728686	38.94616	129.091	-0.09870872	-0.1740636	0.07	3	100	0	6546	-1.723637	3.988852	-24.01162	
11:17:31	-6.728686	38.94616	129.044	-0.09870872	-0.1740636	0.07	3	100	0	6546	-1.737708	3.962931	-23.96658	
11:17:31	-6.728686	38.94616	129.022	-0.09870872	-0.1740636	0.04	3	100	0	6546	-1.69745	3.945412	-23.9218	
11:17:31	-6.728687	38.94616	128.963	-0.09870872	-0.1740636	0.04	3	100	0	6546	-1.684487	3.94221	-23.98353	
11:17:31	-6.728687	38.94616	128.922	-0.3915328	-9.080338	0.04	3	100	0	6546	-1.735373	3.931346	-24.0364	
11:17:31	-6.728687	38.94616	128.878	-0.3915328	-9.080338	0.08	3	100	0	6546	-1.673722	4.002204	-24.13458	
11:17:32	-6.728687	38.94616	128.846	-0.3915328	-9.080338	0.09	3	100	0	6546	-1.65266	3.975558	-24.18081	
11:17:32	-6.728687	38.94616	128.784	-0.3915328	-9.080338	0.07	3	100	0	6546	-1.641555	3.931841	-24.20726	
11:17:32	-6.728687	38.94616	128.726	-0.3915328	-9.080338	0.04	3	100	0	6546	-1.563394	3.935745	-24.22294	
11:17:32	-6.728687	38.94616	128.687	-0.5049931	-12.44107	0.03	3	100	0	6546	-1.610522	3.9222	-24.23497	
11:17:32	-6.728687	38.94616	128.622	-0.5049931	-12.44107	0.04	3	100	0	6546	-1.671164	3.920047	-24.25615	
11:17:33	-6.728687	38.94616	128.571	-0.5049931	-12.44107	0.16	3	100	0	6546	-1.766923	3.934988	-24.3354	
11:17:33	-6.728687	38.94616	128.524	-0.5049931	-12.44107	0.04	3	100	0	6546	-1.698527	3.933199	-24.3038	
11:17:33	-6.728687	38.94616	128.489	-0.5049931	-12.44107	0.04	3	100	0	6546	-1.633597	3.939652	-24.27897	
11:17:33	-6.728687	38.94616	128.423	-0.5945404	-11.24576	0.04	3	100	0	6546	-1.688683	3.935527	-24.25725	
11:17:33	-6.728687	38.94616	128.364	-0.5945404	-11.24576	0.03	3	100	0	6546	-1.66442	3.987225	-24.2126	
11:17:34	-6.728687	38.94616	128.311	-0.5945404	-11.24576	0.03	3	100	0	6546	-1.668581	3.999041	-24.27709	
11:17:34	-6.728688	38.94616	128.29	-0.5945404	-11.24576	0.04	3	100	0	6546	-1.681675	3.981824	-24.26378	
11:17:34	-6.728688	38.94616	128.257	-0.5945404	-11.24576	0.04	3	100	0	6546	-1.632387	3.995265	-24.24502	
11:17:34	-6.728688	38.94616	128.233	-0.5934728	-6.515336	0.08	3	100	0	6546	-1.591224	4.02481	-24.16839	
11:17:34	-6.728688	38.94616	128.278	-0.5934728	-6.515336	0.28	3	100	0	6546	-1.560167	4.231545	-24.20217	
11:17:35	-6.728688	38.94616	128.199	-0.5934728	-6.515336	0.18	3	100	0	6546	-1.51177	4.370687	-24.24475	
11:17:35	-6.728688	38.94616	128.088	-0.5934728	-6.515336	0.06	3	100	0	6546	-1.502798	4.221538	-24.23562	
11:17:35	-6.728688	38.94616	128.042	-0.5934728	-6.515336	0.14	3	100	0	6546	-1.629509	4.099778	-24.28513	
11:17:35	-6.728688	38.94616	128.002	-0.5460793	-1.266306	0.06	3	100	0	6546	-1.673413	4.075275	-24.27154	
11:17:35	-6.728688	38.94616	127.988	-0.5460793	-1.266306	0.09	3	100	0	6546	-1.533714	4.054122	-24.2629	
11:17:36	-6.728688	38.94616	127.967	-0.5460793	-1.266306	0.08	3	100	0	6546	-1.495658	4.117022	-24.25966	
11:17:36	-6.728688	38.94616	127.967	-0.5460793	-1.266306	0.03	3	100	0	6546	-1.557993	4.132764	-24.26834	
11:17:36	-6.728688	38.94616	128.023	-0.5460793	-1.266306	0.03	3	100	0	6546	-1.582747	4.089442	-24.28962	
11:17:36	-6.728688	38.94616	128.083	-0.5927293	-4.338952	0.09	3	100	0	6546	-1.585153	4.154289	-24.26132	
11:17:36	-6.728688	38.94616	128.059	-0.5927293	-4.338952	0.09	3	100	0	6546	-1.553742	4.196591	-24.25679	
11:17:36	-6.728689	38.94616	128.011	-0.5927293	-4.338952	0.04	3	100	0	6546	-1.592385	4.135451	-24.3077	
11:17:37	-6.728689	38.94616	127.943	-0.5927293	-4.338952	0.06	3	100	0	6546	-1.601678	4.029815	-24.31525	
11:17:37	-6.728689	38.94616	127.93	-0.5927293	-4.338952	0.07	3	100	0	6546	-1.603981	3.990898	-24.24583	
11:17:37	-6.728689	38.94616	127.928	-0.5652278	-0.2897261	0.12	3	100	0	6546	-1.614324	3.933756	-24.20817	
11:17:37	-6.728689	38.94616	127.879	-0.5652278	-0.2897261	0.13	3	100	0	6546	-1.642331	3.932513	-24.16534	
11:17:38	-6.728689	38.94616	127.887	-0.5652278	-0.2897261	0.06	3	100	0	6546	-1.588241	4.027102	-24.18953	
11:17:38	-6.728689	38.94616	127.865	-0.5652278	-0.2897261	0.04	3	100	0	6546	-1.553599	4.090735	-24.23702	
11:17:38	-6.728689	38.94616	127.882	-0.5652278	-0.2897261	0.14	3	100	0	6546	-1.541393	4.260372	-24.21422	
11:17:38	-6.728689	38.94616	127.816	-0.5221859	0.07648829	0.06	3	100	0	6546	-1.598523	4.282432	-24.21617	
11:17:38	-6.728689	38.94616	127.793	-0.5221859	0.07648829	0.09	3	100	0	6546	-1.652219	4.179956	-24.27494	
11:17:39	-6.728689	38.94616	127.794	-0.5221859	0.07648829	0.13	3	100	0	6546	-1.66081	4.094641	-24.32287	
11:17:39	-6.728689	38.94616	127.81	-0.5221859	0.07648829	0.08	3	100	0	6546	-1.630582	4.097568	-24.32391	
11:17:39	-6.728689	38.94616	127.813	-0.5221859	0.07648829	0.17	3	100	0	6546	-1.627982	4.068971	-24.30891	
11:17:39	-6.728689	38.94616	127.774	-0.3218929	8.571957	0.19	3	100	0	6546	-1.608424	3.991234	-24.27652	
11:17:39	-6.728689	38.94616	127.82	-0.3218929	8.571957	0.14	3	100	0	6546	-1.527362	4.051067	-24.21937	
11:17:40	-6.728688	38.94616	127.867	-0.3218929	8.571957	0.09	3	100	0	6546	-1.55197	4.096131	-24.23122	
11:17:40	-6.728688	38.94616	127.861	-0.3218929	8.571957	0.06	3	100	0	6546	-1.669362	4.129595	-24.22553	
11:17:40	-6.728688	38.94616	127.861	-0.3218929	8.571957	0.09	3	100	0	6546	-1.689983	4.110528	-24.21143	
11:17:40	-6.728688	38.94616	127.846	-0.1929554	11.546	0.04	3	100	0	6546	-1.665964	4.176854	-24.14883	
11:17:40	-6.728688	38.94616	127.864	-0.1929554	11.546	0.08	3	100	0	6546	-1.609828	4.265626	-24.17976	
11:17:41	-6.728688	38.94616	127.887	-0.1929554	11.546	0.09	3	100	0	6546	-1.575824	4.204906	-24.19689	
11:17:41	-6.728688	38.94616	127.896	-0.1929554	11.546	0.09	3	100	0	6546	-1.596075	4.130165	-24.27348	
11:17:41	-6.728688	38.94616	127.891	-0.1929554	11.546	0.02	3	100	0	6546	-1.620721	4.166242	-24.25279	
