Date	Latitude(deg) 	Longitude(deg)	hamsl(m)	hafl(m)	climbrate(cm/s)	GroundSpeed(m/s)	Airspeed(m/s)	Mav_Link(%)	Rssi_Link(%)	Throttle	Roll(deg)	Pitch(deg)	Yaw(deg)
15:46:33	-6.728691	38.94617	134.874	0	0	0.04	0	100	0	0	0	0	0	
15:46:33	-6.728691	38.94617	134.896	0	0	0.04	0	100	0	0	-0.2650799	3.600596	-21.7377	
15:46:33	-6.728693	38.94617	136.291	0.02912608	-0.4625258	0.04	3	100	0	6546	-0.2495807	3.605397	-21.80346	
15:46:34	-6.728693	38.94617	136.319	0.02912608	-0.4625258	0.02	3	100	0	6546	-0.2466238	3.59324	-21.90341	
15:46:34	-6.728693	38.94617	136.345	0.02912608	-0.4625258	0.03	3	100	0	6546	-0.2939187	3.623884	-21.97136	
15:46:34	-6.728693	38.94617	136.378	0.02912608	-0.4625258	0.03	3	100	0	6546	-0.2846412	3.588543	-22.03304	
15:46:34	-6.728693	38.94617	136.397	0.02912608	-0.4625258	0	3	100	0	6546	-0.2734131	3.589941	-22.1069	
15:46:35	-6.728693	38.94617	136.428	0.5578114	30.62873	0.04	3	100	0	6546	-0.275894	3.611117	-22.09227	
15:46:35	-6.728693	38.94617	136.467	0.5578114	30.62873	0.04	3	100	0	6546	-0.2438161	3.63327	-22.07028	
15:46:35	-6.728693	38.94617	136.472	0.5578114	30.62873	0.03	3	100	0	6546	-0.2199109	3.600564	-22.09867	
15:46:35	-6.728693	38.94617	136.48	0.5578114	30.62873	0	3	100	0	6546	-0.2395825	3.545536	-22.19705	
15:46:35	-6.728693	38.94617	136.489	0.5578114	30.62873	0.01	3	100	0	6546	-0.2753504	3.547634	-22.24069	
15:46:36	-6.728693	38.94617	136.52	1.558925	62.13552	0.01	3	100	0	6546	-0.2686839	3.521237	-22.34114	
15:46:36	-6.728693	38.94617	136.554	1.558925	62.13552	0.04	3	100	0	6546	-0.2796056	3.485584	-22.3709	
15:46:36	-6.728693	38.94617	136.577	1.558925	62.13552	0.07	3	100	0	6546	-0.293681	3.540755	-22.40092	
15:46:36	-6.728693	38.94617	136.624	1.558925	62.13552	0.03	3	100	0	6546	-0.2870951	3.537002	-22.44399	
15:46:36	-6.728693	38.94617	136.645	1.558925	62.13552	0.02	3	100	0	6546	-0.2890866	3.481903	-22.55355	
15:46:36	-6.728693	38.94617	136.657	1.691951	46.38571	0.04	3	100	0	6546	-0.2417555	3.490412	-22.58359	
15:46:37	-6.728693	38.94617	136.666	1.691951	46.38571	0.02	3	100	0	6546	-0.2338597	3.481609	-22.66658	
15:46:37	-6.728693	38.94617	136.679	1.691951	46.38571	0.01	3	100	0	6546	-0.2545263	3.485831	-22.68972	
15:46:37	-6.728693	38.94617	136.702	1.691951	46.38571	0.03	3	100	0	6546	-0.2367529	3.478703	-22.73908	
15:46:37	-6.728693	38.94617	136.717	1.691951	46.38571	0.04	3	100	0	6546	-0.2563084	3.487556	-22.76368	
15:46:37	-6.728693	38.94617	136.722	1.416907	17.71222	0.01	3	100	0	6546	-0.2826158	3.492639	-22.76066	
15:46:38	-6.728693	38.94617	136.732	1.416907	17.71222	0.08	3	100	0	6546	-0.2324925	3.529349	-22.81967	
15:46:38	-6.728693	38.94617	136.745	1.416907	17.71222	0.07	3	100	0	6546	-0.1850939	3.554093	-22.86856	
15:46:38	-6.728693	38.94617	136.768	1.416907	17.71222	0.04	3	100	0	6546	-0.2108568	3.501508	-22.97049	
15:46:38	-6.728693	38.94617	136.778	1.416907	17.71222	0.03	3	100	0	6546	-0.2530708	3.480489	-23.05309	
15:46:38	-6.728693	38.94617	136.778	0.9639428	-6.792059	0.04	3	100	0	6546	-0.2790709	3.463261	-23.1849	
15:46:39	-6.728693	38.94617	136.792	0.9639428	-6.792059	0.04	3	100	0	6546	-0.2839287	3.488756	-23.23471	
15:46:39	-6.728693	38.94617	136.777	0.9639428	-6.792059	0.02	3	100	0	6546	-0.2805111	3.500887	-23.15955	
15:46:39	-6.728693	38.94617	136.791	0.9639428	-6.792059	0.06	3	100	0	6546	-0.2943726	3.499508	-23.20299	
15:46:39	-6.728693	38.94617	136.787	0.9639428	-6.792059	0.04	3	100	0	6546	-0.3044793	3.475609	-23.21429	
15:46:39	-6.728693	38.94617	136.8	0.6612664	-12.83427	0.01	3	100	0	6546	-0.2976904	3.444058	-23.25625	
15:46:40	-6.728693	38.94617	136.788	0.6612664	-12.83427	0.03	3	100	0	6546	-0.2887981	3.459378	-23.25651	
15:46:40	-6.728693	38.94617	136.816	0.6612664	-12.83427	0.02	3	100	0	6546	-0.2864961	3.465637	-23.32349	
15:46:40	-6.728693	38.94617	136.815	0.6612664	-12.83427	0.02	3	100	0	6546	-0.2612031	3.509843	-23.3341	
15:46:40	-6.728693	38.94617	136.827	0.6612664	-12.83427	0.02	3	100	0	6546	-0.2540128	3.484022	-23.31838	
15:46:41	-6.728693	38.94617	136.86	0.5711811	-9.124603	0.02	3	100	0	6546	-0.2531514	3.471705	-23.30072	
15:46:41	-6.728693	38.94617	136.857	0.5711811	-9.124603	0.04	3	100	0	6546	-0.2702751	3.508439	-23.24518	
15:46:41	-6.728693	38.94617	136.879	0.5711811	-9.124603	0.04	3	100	0	6546	-0.2904814	3.530937	-23.20852	
15:46:41	-6.728693	38.94617	136.909	0.5711811	-9.124603	0.03	3	100	0	6546	-0.281891	3.509779	-23.2468	
15:46:41	-6.728693	38.94617	136.924	0.5711811	-9.124603	0.04	3	100	0	6546	-0.2718534	3.496643	-23.26981	
15:46:41	-6.728693	38.94617	136.95	0.6511256	0.7024173	0.02	3	100	0	6546	-0.2747844	3.450695	-23.29622	
15:46:42	-6.728693	38.94617	136.956	0.6511256	0.7024173	0.04	3	100	0	6546	-0.2772349	3.442464	-23.29503	
15:46:42	-6.728693	38.94617	136.977	0.6511256	0.7024173	0.08	3	100	0	6546	-0.3209572	3.442981	-23.29823	
15:46:42	-6.728693	38.94617	136.994	0.6511256	0.7024173	0.02	3	100	0	6546	-0.2957452	3.433233	-23.38876	
15:46:42	-6.728693	38.94617	137.007	0.6511256	0.7024173	0.03	3	100	0	6546	-0.2868276	3.424075	-23.41187	
15:46:42	-6.728693	38.94617	137.032	0.7959793	9.658109	0.08	3	100	0	6546	-0.3149813	3.364972	-23.43855	
15:46:43	-6.728693	38.94617	137.044	0.7959793	9.658109	0.04	3	100	0	6546	-0.3147905	3.383975	-23.47336	
15:46:43	-6.728693	38.94617	137.093	0.7959793	9.658109	0.03	3	100	0	6546	-0.3018546	3.459521	-23.47509	
15:46:43	-6.728693	38.94617	137.123	0.7959793	9.658109	0.02	3	100	0	6546	-0.2767185	3.436543	-23.49541	
15:46:43	-6.728693	38.94617	137.136	0.7959793	9.658109	0.04	3	100	0	6546	-0.2420608	3.409759	-23.53655	
15:46:44	-6.728693	38.94617	137.131	0.8022444	7.801888	0.04	3	100	0	6548	-0.2544736	3.438128	-23.54322	
15:46:44	-6.728693	38.94617	137.147	0.8022444	7.801888	0.02	3	100	0	6548	-0.2699198	3.43542	-23.58164	
15:46:44	-6.728693	38.94617	137.157	0.8022444	7.801888	0.02	3	100	0	6548	-0.2584634	3.42823	-23.53987	
15:46:44	-6.728693	38.94617	137.164	0.8022444	7.801888	0.02	3	100	0	6548	-0.2642187	3.440436	-23.56286	
15:46:44	-6.728693	38.94617	137.182	0.8022444	7.801888	0.04	3	100	0	6548	-0.2781603	3.399474	-23.61656	
15:46:44	-6.728693	38.94617	137.19	0.7442932	4.497257	0.03	3	100	0	6546	-0.2523494	3.427596	-23.60965	
15:46:45	-6.728693	38.94617	137.212	0.7442932	4.497257	0.04	3	100	0	6546	-0.2258009	3.447062	-23.62493	
15:46:45	-6.728693	38.94617	137.223	0.7442932	4.497257	0.01	3	100	0	6546	-0.2351132	3.449203	-23.62575	
15:46:45	-6.728693	38.94617	137.246	0.7442932	4.497257	0.04	3	100	0	6546	-0.235728	3.471478	-23.60501	
15:46:45	-6.728693	38.94617	137.262	0.7442932	4.497257	0.04	3	100	0	6546	-0.2061144	3.447585	-23.61849	
15:46:45	-6.728693	38.94617	137.292	0.4705119	-7.568664	0.06	3	100	0	6546	-0.1973734	3.455925	-23.61953	
15:46:46	-6.728693	38.94617	137.308	0.4705119	-7.568664	0.03	3	100	0	6546	-0.2224538	3.477177	-23.63657	
15:46:46	-6.728693	38.94617	137.349	0.4705119	-7.568664	0.04	3	100	0	6546	-0.2281601	3.457802	-23.62574	
15:46:46	-6.728693	38.94617	137.361	0.4705119	-7.568664	0.04	3	100	0	6546	-0.2433064	3.430716	-23.68047	
15:46:46	-6.728693	38.94617	137.412	0.4705119	-7.568664	0.03	3	100	0	6546	-0.2792945	3.46797	-23.69617	
15:46:46	-6.728693	38.94617	137.424	0.5690889	3.08275	0.01	3	100	0	6546	-0.2799875	3.485851	-23.71427	
15:46:47	-6.728693	38.94617	137.45	0.5690889	3.08275	0.04	3	100	0	6546	-0.2866338	3.454139	-23.76982	
15:46:47	-6.728693	38.94617	137.484	0.5690889	3.08275	0.09	3	100	0	6546	-0.2018268	3.43984	-23.77452	
15:46:47	-6.728693	38.94617	137.518	0.5690889	3.08275	0.03	3	100	0	6546	-0.1755626	3.458141	-23.74985	
15:46:47	-6.728693	38.94617	137.548	0.5690889	3.08275	0.04	3	100	0	6546	-0.2149269	3.472723	-23.76519	
15:46:47	-6.728693	38.94617	137.587	0.7457256	12.34142	0.04	3	100	0	6546	-0.2217881	3.458862	-23.82244	
15:46:48	-6.728693	38.94617	137.634	0.7457256	12.34142	0.03	3	100	0	6546	-0.2437744	3.504082	-23.86085	
15:46:48	-6.728693	38.94617	137.652	0.7457256	12.34142	0.04	3	100	0	6546	-0.2321746	3.521802	-23.82444	
15:46:48	-6.728693	38.94617	137.67	0.7457256	12.34142	0.03	3	100	0	6546	-0.2754063	3.50012	-23.78469	
15:46:48	-6.728693	38.94617	137.697	0.7457256	12.34142	0.02	3	100	0	6546	-0.2813582	3.497153	-23.70603	
15:46:49	-6.728693	38.94617	137.716	0.7721614	9.863838	0.04	3	100	0	6546	-0.3055173	3.508839	-23.73254	
15:46:49	-6.728694	38.94617	137.757	0.7721614	9.863838	0.02	3	100	0	6546	-0.2851571	3.504478	-23.73014	
15:46:49	-6.728694	38.94617	137.799	0.7721614	9.863838	0.03	3	100	0	6546	-0.269036	3.502966	-23.67963	
15:46:49	-6.728694	38.94617	137.822	0.7721614	9.863838	0.04	3	100	0	6546	-0.2604038	3.527336	-23.63533	
15:46:50	-6.728694	38.94617	137.863	0.7721614	9.863838	0.03	3	100	0	6546	-0.2388012	3.527607	-23.63584	
15:46:50	-6.728694	38.94617	137.878	0.6044392	-0.2507507	0.04	3	100	0	6546	-0.1817553	3.479284	-23.58859	
15:46:50	-6.728694	38.94617	137.885	0.6044392	-0.2507507	0.01	3	100	0	6546	-0.1712056	3.512313	-23.66188	
15:46:50	-6.728693	38.94617	137.932	0.6044392	-0.2507507	0.04	3	100	0	6546	-0.13636	3.518451	-23.59594	
15:46:50	-6.728693	38.94617	137.955	0.6044392	-0.2507507	0.04	3	100	0	6546	-0.1328637	3.466949	-23.65094	
15:46:50	-6.728693	38.94617	137.976	0.6044392	-0.2507507	0.01	3	100	0	6546	-0.192548	3.46974	-23.65676	
15:46:51	-6.728693	38.94617	138.005	0.6457366	4.268122	0.03	3	100	0	6546	-0.210065	3.481302	-23.7568	
15:46:51	-6.728693	38.94617	138.017	0.6457366	4.268122	0.04	3	100	0	6546	-0.2394314	3.46876	-23.8038	
15:46:51	-6.728693	38.94617	138.021	0.6457366	4.268122	0.03	3	100	0	6546	-0.2545893	3.458219	-23.7979	
15:46:51	-6.728693	38.94617	138.053	0.6457366	4.268122	0.02	3	100	0	6546	-0.2296341	3.403849	-23.74402	
15:46:51	-6.728693	38.94617	138.062	0.6457366	4.268122	0.01	3	100	0	6546	-0.2312082	3.404051	-23.71192	
15:46:51	-6.728693	38.94617	138.081	0.7437961	9.482603	0.03	3	100	0	6546	-0.2624345	3.446216	-23.73158	
15:46:52	-6.728693	38.94617	138.105	0.7437961	9.482603	0.04	3	100	0	6546	-0.2800472	3.465358	-23.75989	
15:46:52	-6.728693	38.94617	138.113	0.7437961	9.482603	0.04	3	100	0	6546	-0.2219365	3.444021	-23.75323	
15:46:52	-6.728693	38.94617	138.131	0.7437961	9.482603	0.02	3	100	0	6546	-0.2084608	3.389872	-23.67651	
15:46:52	-6.728693	38.94617	138.156	0.7437961	9.482603	0.09	3	100	0	6546	-0.2036971	3.306352	-23.65236	
15:46:53	-6.728693	38.94617	138.157	0.9250929	14.84691	0.02	3	100	0	6546	-0.2088198	3.375185	-23.65438	
15:46:53	-6.728693	38.94617	138.17	0.9250929	14.84691	0.02	3	100	0	6546	-0.2345293	3.363644	-23.68566	
15:46:53	-6.728693	38.94617	138.189	0.9250929	14.84691	0.03	3	100	0	6546	-0.2669617	3.34604	-23.74743	
15:46:53	-6.728693	38.94617	138.195	0.9250929	14.84691	0.02	3	100	0	6546	-0.2523329	3.328949	-23.79854	
15:46:53	-6.728693	38.94617	138.199	0.9250929	14.84691	0.04	3	100	0	6546	-0.2423552	3.359583	-23.74723	
15:46:53	-6.728693	38.94617	138.214	0.7989369	5.084692	0.01	3	100	0	6546	-0.2408317	3.360305	-23.72589	
15:46:54	-6.728693	38.94617	138.193	0.7989369	5.084692	0.03	3	100	0	6546	-0.2670144	3.356328	-23.78636	
15:46:54	-6.728693	38.94617	138.175	0.7989369	5.084692	0.02	3	100	0	6546	-0.2779256	3.361737	-23.79215	
15:46:54	-6.728693	38.94617	138.189	0.7989369	5.084692	0.04	3	100	0	6546	-0.2294236	3.361026	-23.80622	
15:46:54	-6.728693	38.94617	138.202	0.7989369	5.084692	0.04	3	100	0	6546	-0.214228	3.359351	-23.81098	
15:46:54	-6.728693	38.94617	138.222	0.5656297	-5.742879	0.07	3	100	0	6546	-0.226204	3.388397	-23.80339	
15:46:55	-6.728693	38.94617	138.222	0.5656297	-5.742879	0.07	3	100	0	6546	-0.2555318	3.310806	-23.78307	
15:46:55	-6.728693	38.94617	138.274	0.5656297	-5.742879	0.04	3	100	0	6546	-0.2544701	3.380229	-23.79241	
15:46:55	-6.728693	38.94617	138.274	0.5656297	-5.742879	0.04	3	100	0	6546	-0.2051537	3.338826	-23.83375	
15:46:55	-6.728693	38.94617	138.317	0.5656297	-5.742879	0.04	3	100	0	6546	-0.2126474	3.340136	-23.85739	
15:46:56	-6.728693	38.94617	138.317	0.5541748	-1.614895	0.08	3	100	0	6546	-0.1801452	3.339962	-23.8456	
15:46:56	-6.728693	38.94617	138.371	0.5541748	-1.614895	0.04	3	100	0	6546	-0.1568512	3.294038	-23.82838	
15:46:56	-6.728693	38.94617	138.396	0.5541748	-1.614895	0.04	3	100	0	6546	-0.2307204	3.340662	-23.7489	
15:46:56	-6.728693	38.94617	138.408	0.5541748	-1.614895	0.03	3	100	0	6546	-0.1741558	3.340347	-23.79152	
15:46:56	-6.728693	38.94617	138.424	0.5541748	-1.614895	0.02	3	100	0	6546	-0.1841629	3.37213	-23.77871	
15:46:57	-6.728693	38.94617	138.455	0.6633977	4.244513	0.02	3	100	0	6546	-0.204688	3.370965	-23.80359	
15:46:57	-6.728693	38.94617	138.488	0.6633977	4.244513	0.06	3	100	0	6546	-0.1958856	3.372282	-23.82335	
15:46:57	-6.728693	38.94617	138.503	0.6633977	4.244513	0.03	3	100	0	6546	-0.1815928	3.402268	-23.80993	
15:46:57	-6.728693	38.94617	138.527	0.6633977	4.244513	0.04	3	100	0	6546	-0.2301726	3.359434	-23.82066	
15:46:57	-6.728693	38.94617	138.55	0.6633977	4.244513	0.02	3	100	0	6546	-0.2567798	3.328468	-23.86157	
15:46:58	-6.728693	38.94617	138.565	0.3732006	-9.811641	0.02	3	100	0	6546	-0.2207505	3.361762	-23.79053	
15:46:58	-6.728693	38.94617	138.606	0.3732006	-9.811641	0.02	3	100	0	6546	-0.1901612	3.395228	-23.71951	
15:46:58	-6.728693	38.94617	138.617	0.3732006	-9.811641	0.04	3	100	0	6546	-0.2299947	3.392576	-23.73355	
15:46:58	-6.728693	38.94617	138.628	0.3732006	-9.811641	0.03	3	100	0	6546	-0.2726221	3.396574	-23.68871	
15:46:59	-6.728694	38.94617	138.619	0.3732006	-9.811641	0.06	3	100	0	6546	-0.2389781	3.434794	-23.62337	
15:46:59	-6.728694	38.94617	138.618	0.1898899	-14.14622	0.04	3	100	0	6546	-0.2530746	3.394734	-23.56673	
15:46:59	-6.728694	38.94617	138.593	0.1898899	-14.14622	0.04	3	100	0	6546	-0.2213979	3.376185	-23.55814	
15:46:59	-6.728694	38.94617	138.568	0.1898899	-14.14622	0.04	3	100	0	6546	-0.171417	3.448013	-23.52177	
15:46:59	-6.728694	38.94617	138.542	0.1898899	-14.14622	0.08	3	100	0	6546	-0.1565783	3.39172	-23.56182	
15:47:00	-6.728694	38.94617	138.545	0.1898899	-14.14622	0.03	3	100	0	6546	-0.1105198	3.42073	-23.56207	
15:47:00	-6.728694	38.94617	138.555	-0.04816446	-18.00247	0.09	3	100	0	6546	-0.1562398	3.432393	-23.63459	
15:47:00	-6.728694	38.94617	138.561	-0.04816446	-18.00247	0.02	3	100	0	6546	-0.2642885	3.442749	-23.62134	
15:47:00	-6.728694	38.94617	138.548	-0.04816446	-18.00247	0.06	3	100	0	6546	-0.2122782	3.4375	-23.64429	
15:47:00	-6.728694	38.94617	138.541	-0.04816446	-18.00247	0.02	3	100	0	6546	-0.2456134	3.458176	-23.62062	
15:47:01	-6.728694	38.94617	138.52	-0.04816446	-18.00247	0.06	3	100	0	6546	-0.2176598	3.444592	-23.54963	
15:47:01	-6.728694	38.94617	138.506	0.2309761	1.316049	0.09	3	100	0	6546	-0.1778171	3.41223	-23.47823	
15:47:01	-6.728694	38.94617	138.492	0.2309761	1.316049	0.09	3	100	0	6546	-0.09222473	3.462781	-23.51216	
15:47:01	-6.728694	38.94617	138.475	0.2309761	1.316049	0.04	3	100	0	6546	-0.287409	3.454271	-23.54762	
15:47:01	-6.728694	38.94617	138.481	0.2309761	1.316049	0.04	3	100	0	6546	-0.2817519	3.453145	-23.56612	
15:47:01	-6.728695	38.94617	138.488	0.2309761	1.316049	0.09	3	100	0	6546	-0.2195117	3.521479	-23.56448	
15:47:02	-6.728695	38.94617	138.449	0.462565	13.15902	0.06	3	100	0	6546	-0.2909714	3.514394	-23.62984	
15:47:02	-6.728695	38.94617	138.454	0.462565	13.15902	0.03	3	100	0	6546	-0.149674	3.442476	-23.6377	
15:47:02	-6.728695	38.94617	138.462	0.462565	13.15902	0.07	3	100	0	6546	-0.1678077	3.499661	-23.6703	
15:47:02	-6.728695	38.94617	138.457	0.462565	13.15902	0.03	3	100	0	6546	-0.2277571	3.464764	-23.677	
15:47:02	-6.728695	38.94617	138.439	0.462565	13.15902	0.07	3	100	0	6546	-0.1533013	3.47285	-23.66612	
15:47:02	-6.728695	38.94617	138.463	0.6462498	15.74479	0.02	3	100	0	6546	-0.2374507	3.461023	-23.7131	
15:47:03	-6.728695	38.94617	138.454	0.6462498	15.74479	0.03	3	100	0	6546	-0.185287	3.49061	-23.74492	
15:47:03	-6.728695	38.94617	138.453	0.6462498	15.74479	0.02	3	100	0	6546	-0.1463841	3.500177	-23.775	
15:47:03	-6.728695	38.94617	138.455	0.6462498	15.74479	0.06	3	100	0	6546	-0.1852198	3.450145	-23.7633	
15:47:03	-6.728695	38.94617	138.445	0.6462498	15.74479	0.04	3	100	0	6546	-0.1382671	3.49624	-23.79035	
15:47:04	-6.728695	38.94617	138.448	0.6642823	11.64237	0.04	3	100	0	6546	-0.1342022	3.482031	-23.79419	
15:47:04	-6.728695	38.94617	138.436	0.6642823	11.64237	0.02	3	100	0	6546	-0.2193478	3.49305	-23.86249	
15:47:04	-6.728695	38.94617	138.431	0.6642823	11.64237	0.02	3	100	0	6546	-0.1656886	3.447284	-23.96652	
15:47:04	-6.728695	38.94617	138.416	0.6642823	11.64237	0.04	3	100	0	6546	-0.2071143	3.416628	-23.95473	
15:47:04	-6.728695	38.94617	138.4	0.6642823	11.64237	0.03	3	100	0	6546	-0.1818796	3.340464	-23.95877	
15:47:05	-6.728695	38.94617	138.374	0.7170231	9.21405	0.02	3	100	0	6546	-0.1849016	3.442915	-24.00137	
15:47:05	-6.728695	38.94617	138.372	0.7170231	9.21405	0.09	3	100	0	6546	-0.1591357	3.42702	-24.02984	
15:47:05	-6.728695	38.94617	138.348	0.7170231	9.21405	0.04	3	100	0	6546	-0.1707731	3.518888	-23.9718	
15:47:05	-6.728696	38.94617	138.328	0.7170231	9.21405	0.04	3	100	0	6546	-0.208325	3.492605	-23.99264	
15:47:05	-6.728696	38.94617	138.305	0.7170231	9.21405	0.04	3	100	0	6546	-0.2058078	3.464668	-23.96425	
15:47:06	-6.728696	38.94617	138.282	0.3131208	-10.87439	0.04	3	100	0	6546	-0.1399574	3.452237	-23.95065	
15:47:06	-6.728696	38.94617	138.25	0.3131208	-10.87439	0.01	3	100	0	6546	-0.2202894	3.421102	-23.89492	
15:47:06	-6.728696	38.94617	138.233	0.3131208	-10.87439	0.02	3	100	0	6546	-0.1648908	3.397827	-23.85806	
15:47:06	-6.728696	38.94617	138.235	0.3131208	-10.87439	0	3	100	0	6546	-0.1751912	3.399736	-23.80091	
15:47:06	-6.728696	38.94617	138.221	0.3131208	-10.87439	0.08	3	100	0	6546	-0.1753092	3.433272	-23.78035	
15:47:07	-6.728696	38.94617	138.203	0.3048875	-5.658772	0.04	3	100	0	6546	-0.116413	3.535672	-23.84266	
15:47:07	-6.728696	38.94617	138.174	0.3048875	-5.658772	0.03	3	100	0	6546	-0.1971252	3.422798	-23.82363	
15:47:07	-6.728696	38.94617	138.158	0.3048875	-5.658772	0.01	3	100	0	6546	-0.2076602	3.498806	-23.86923	
15:47:07	-6.728696	38.94617	138.122	0.3048875	-5.658772	0.03	3	100	0	6546	-0.1702122	3.482421	-23.86914	
15:47:07	-6.728696	38.94617	138.114	0.3048875	-5.658772	0.04	3	100	0	6546	-0.2124294	3.454508	-23.88643	
15:47:08	-6.728696	38.94617	138.116	0.5453197	8.287682	0.04	3	100	0	6546	-0.2245504	3.425008	-23.90084	
15:47:08	-6.728696	38.94617	138.097	0.5453197	8.287682	0.04	3	100	0	6546	-0.1721824	3.382589	-23.94141	
15:47:08	-6.728696	38.94617	138.08	0.5453197	8.287682	0.04	3	100	0	6546	-0.2140664	3.419671	-23.89896	
15:47:08	-6.728696	38.94617	138.076	0.5453197	8.287682	0.04	3	100	0	6546	-0.2228322	3.437836	-23.88937	
15:47:08	-6.728696	38.94617	138.06	0.5453197	8.287682	0.04	3	100	0	6546	-0.1624104	3.377442	-23.7896	
15:47:09	-6.728696	38.94617	138.036	0.626267	8.809081	0.03	3	100	0	6546	-0.1708505	3.377718	-23.73517	
15:47:09	-6.728696	38.94617	137.998	0.626267	8.809081	0.04	3	100	0	6546	-0.1444247	3.409197	-23.70519	
15:47:09	-6.728696	38.94617	138.004	0.626267	8.809081	0.02	3	100	0	6546	-0.2363991	3.437774	-23.77772	
15:47:09	-6.728696	38.94617	137.984	0.626267	8.809081	0.02	3	100	0	6546	-0.1835501	3.453049	-23.75919	
15:47:09	-6.728696	38.94617	137.952	0.626267	8.809081	0.07	3	100	0	6546	-0.1525099	3.445619	-23.79569	
15:47:10	-6.728696	38.94617	137.901	0.8354263	13.63522	0.04	3	100	0	6546	-0.09768381	3.376556	-23.76572	
15:47:10	-6.728696	38.94617	137.852	0.8354263	13.63522	0.02	3	100	0	6546	-0.1119975	3.40177	-23.72343	
15:47:10	-6.728696	38.94617	137.852	0.8354263	13.63522	0.04	3	100	0	6546	-0.1866846	3.422355	-23.81642	
15:47:10	-6.728697	38.94617	137.849	0.8354263	13.63522	0.04	3	100	0	6546	-0.1976328	3.45653	-23.83417	
15:47:10	-6.728697	38.94617	137.824	0.8354263	13.63522	0.03	3	100	0	6546	-0.2017119	3.451911	-23.81767	
15:47:11	-6.728697	38.94617	137.84	0.8652668	8.067412	0.01	3	100	0	6546	-0.2017182	3.428995	-23.76766	
15:47:11	-6.728697	38.94617	137.828	0.8652668	8.067412	0.04	3	100	0	6546	-0.1555742	3.38699	-23.73076	
15:47:11	-6.728697	38.94617	137.813	0.8652668	8.067412	0.02	3	100	0	6546	-0.1870506	3.438975	-23.70572	
15:47:11	-6.728697	38.94617	137.819	0.8652668	8.067412	0.06	3	100	0	6546	-0.1528694	3.37331	-23.69012	
15:47:11	-6.728697	38.94617	137.809	0.8652668	8.067412	0.04	3	100	0	6546	-0.1234332	3.361284	-23.68774	
15:47:12	-6.728698	38.94617	137.806	0.9370282	6.832793	0.06	3	100	0	6546	-0.2359602	3.415382	-23.71665	
15:47:12	-6.728698	38.94617	137.794	0.9370282	6.832793	0.02	3	100	0	6546	-0.2655594	3.374279	-23.68652	
15:47:12	-6.728698	38.94617	137.805	0.9370282	6.832793	0.02	3	100	0	6546	-0.1913299	3.39156	-23.67858	
15:47:12	-6.728698	38.94617	137.804	0.9370282	6.832793	0.06	3	100	0	6546	-0.2056759	3.359104	-23.69444	
15:47:12	-6.728698	38.94617	137.822	0.9370282	6.832793	0.01	3	100	0	6546	-0.23332	3.382023	-23.69751	
15:47:12	-6.728698	38.94617	137.793	0.8377017	0.436817	0.02	3	100	0	6546	-0.1717535	3.347845	-23.68338	
15:47:13	-6.728698	38.94617	137.787	0.8377017	0.436817	0.02	3	100	0	6546	-0.2017726	3.348119	-23.77369	
15:47:13	-6.728698	38.94617	137.769	0.8377017	0.436817	0.01	3	100	0	6546	-0.1688269	3.34362	-23.72669	
15:47:13	-6.728698	38.94617	137.807	0.8377017	0.436817	0.02	3	100	0	6546	-0.193635	3.324389	-23.69758	
15:47:13	-6.728698	38.94617	137.811	0.8377017	0.436817	0.04	3	100	0	6546	-0.1633036	3.339179	-23.69028	
15:47:14	-6.728698	38.94617	137.8	0.9038487	3.868006	0.02	3	100	0	6546	-0.1415962	3.352865	-23.66496	
15:47:14	-6.728698	38.94617	137.78	0.9038487	3.868006	0.03	3	100	0	6546	-0.1763018	3.362303	-23.63163	
15:47:14	-6.728698	38.94617	137.796	0.9038487	3.868006	0.04	3	100	0	6546	-0.210225	3.410569	-23.59696	
15:47:14	-6.728698	38.94617	137.779	0.9038487	3.868006	0.02	3	100	0	6546	-0.2155023	3.400326	-23.58455	
15:47:14	-6.728698	38.94617	137.797	0.9038487	3.868006	0.03	3	100	0	6546	-0.1834465	3.326984	-23.56248	
15:47:15	-6.728698	38.94617	137.812	0.8724698	1.420183	0.09	3	100	0	6546	-0.1875149	3.316963	-23.63897	
15:47:15	-6.728698	38.94617	137.812	0.8724698	1.420183	0.06	3	100	0	6546	-0.1699657	3.265018	-23.61289	
15:47:15	-6.728698	38.94617	137.818	0.8724698	1.420183	0.03	3	100	0	6546	-0.2455582	3.293731	-23.53944	
15:47:15	-6.728698	38.94617	137.796	0.8724698	1.420183	0.04	3	100	0	6546	-0.1881669	3.329257	-23.54193	
15:47:15	-6.728698	38.94617	137.769	0.8724698	1.420183	0.03	3	100	0	6546	-0.2590694	3.35447	-23.49916	
15:47:15	-6.728698	38.94617	137.768	0.8555178	-0.2124062	0.08	3	100	0	6546	-0.189592	3.405143	-23.50409	
15:47:16	-6.728698	38.94617	137.756	0.8555178	-0.2124062	0.03	3	100	0	6546	-0.1855166	3.430181	-23.60469	
15:47:16	-6.728698	38.94617	137.752	0.8555178	-0.2124062	0.04	3	100	0	6546	-0.2436556	3.323501	-23.66409	
15:47:16	-6.728698	38.94617	137.761	0.8555178	-0.2124062	0.06	3	100	0	6546	-0.284964	3.357902	-23.6255	
15:47:16	-6.728698	38.94617	137.763	0.8555178	-0.2124062	0.03	3	100	0	6546	-0.2963682	3.387884	-23.59932	
15:47:17	-6.728698	38.94617	137.755	0.7812322	-2.754252	0.04	3	100	0	6546	-0.2198569	3.408087	-23.54926	
15:47:17	-6.728698	38.94617	137.767	0.7812322	-2.754252	0.02	3	100	0	6546	-0.1977889	3.344353	-23.53309	
15:47:17	-6.728698	38.94617	137.777	0.7812322	-2.754252	0.04	3	100	0	6546	-0.2527396	3.38088	-23.51152	
15:47:17	-6.728698	38.94617	137.768	0.7812322	-2.754252	0.03	3	100	0	6546	-0.1967998	3.354811	-23.50239	
15:47:17	-6.728698	38.94617	137.783	0.7812322	-2.754252	0	3	100	0	6546	-0.2140942	3.381051	-23.53526	
15:47:18	-6.728698	38.94617	137.805	0.6807302	-4.889428	0.04	3	100	0	6546	-0.2446717	3.393015	-23.57122	
15:47:18	-6.728698	38.94616	137.805	0.6807302	-4.889428	0.07	3	100	0	6546	-0.2760214	3.416168	-23.56502	
15:47:18	-6.728698	38.94616	137.817	0.6807302	-4.889428	0.04	3	100	0	6546	-0.2925868	3.408663	-23.56885	
15:47:18	-6.728698	38.94616	137.822	0.6807302	-4.889428	0.04	3	100	0	6546	-0.2296911	3.320011	-23.66116	
15:47:18	-6.728698	38.94616	137.84	0.6807302	-4.889428	0.01	3	100	0	6546	-0.1859347	3.355938	-23.63084	
15:47:19	-6.728698	38.94616	137.837	0.5824109	-6.586525	0.04	3	100	0	6546	-0.2303852	3.373322	-23.69624	
15:47:19	-6.728698	38.94616	137.849	0.5824109	-6.586525	0.01	3	100	0	6546	-0.2631105	3.38935	-23.72481	
15:47:19	-6.728698	38.94616	137.861	0.5824109	-6.586525	0.01	3	100	0	6546	-0.2285485	3.400456	-23.6791	
15:47:19	-6.728698	38.94616	137.88	0.5824109	-6.586525	0.03	3	100	0	6546	-0.2111665	3.399231	-23.61295	
15:47:19	-6.728698	38.94616	137.898	0.5824109	-6.586525	0.04	3	100	0	6546	-0.1909799	3.403899	-23.61435	
15:47:20	-6.728698	38.94616	137.912	0.6866956	0.6117508	0.03	3	100	0	6546	-0.1897834	3.414446	-23.58511	
15:47:20	-6.728698	38.94616	137.906	0.6866956	0.6117508	0.04	3	100	0	6546	-0.1989804	3.395406	-23.58696	
15:47:20	-6.728698	38.94616	137.899	0.6866956	0.6117508	0.07	3	100	0	6546	-0.2172874	3.31899	-23.64964	
15:47:20	-6.728698	38.94616	137.9	0.6866956	0.6117508	0.03	3	100	0	6546	-0.1494141	3.317476	-23.59822	
15:47:20	-6.728698	38.94616	137.892	0.6866956	0.6117508	0.06	3	100	0	6546	-0.1943012	3.340324	-23.59407	
15:47:21	-6.728698	38.94616	137.903	0.628289	-3.083344	0.04	3	100	0	6546	-0.2686597	3.309685	-23.67807	
15:47:21	-6.728698	38.94616	137.903	0.628289	-3.083344	0.02	3	100	0	6546	-0.2298651	3.357576	-23.64524	
15:47:21	-6.728698	38.94616	137.905	0.628289	-3.083344	0.01	3	100	0	6546	-0.2516143	3.319132	-23.63764	
15:47:21	-6.728698	38.94616	137.907	0.628289	-3.083344	0.02	3	100	0	6546	-0.2621931	3.302251	-23.61511	
15:47:22	-6.728698	38.94616	137.898	0.628289	-3.083344	0.09	3	100	0	6546	-0.3029823	3.278504	-23.61189	
15:47:22	-6.728698	38.94616	137.882	0.4467635	-9.438416	0.04	3	100	0	6546	-0.350234	3.262072	-23.5538	
15:47:22	-6.728698	38.94616	137.879	0.4467635	-9.438416	0.01	3	100	0	6546	-0.2931875	3.274476	-23.5367	
15:47:22	-6.728698	38.94616	137.881	0.4467635	-9.438416	0.04	3	100	0	6546	-0.262817	3.263996	-23.60281	
15:47:22	-6.728698	38.94616	137.887	0.4467635	-9.438416	0.03	3	100	0	6546	-0.2787263	3.304894	-23.58465	
15:47:22	-6.728698	38.94616	137.903	0.4467635	-9.438416	0.02	3	100	0	6546	-0.261865	3.306813	-23.51869	
15:47:23	-6.728698	38.94616	137.892	0.4919092	-2.500435	0.02	3	100	0	6546	-0.2939793	3.25678	-23.53122	
15:47:23	-6.728698	38.94616	137.906	0.4919092	-2.500435	0.01	3	100	0	6546	-0.2814761	3.264885	-23.45588	
15:47:23	-6.728698	38.94616	137.897	0.4919092	-2.500435	0.03	3	100	0	6546	-0.2889996	3.262223	-23.53011	
15:47:23	-6.728698	38.94616	137.914	0.4919092	-2.500435	0.02	3	100	0	6546	-0.3037715	3.269575	-23.5259	
15:47:23	-6.728697	38.94616	137.926	0.4919092	-2.500435	0.03	3	100	0	6546	-0.3059972	3.231582	-23.52887	
15:47:24	-6.728697	38.94616	137.959	0.7292418	8.893366	0.04	3	100	0	6546	-0.3003714	3.263208	-23.49146	
15:47:24	-6.728697	38.94616	137.968	0.7292418	8.893366	0.03	3	100	0	6546	-0.3071964	3.296529	-23.53875	
15:47:24	-6.728697	38.94616	137.958	0.7292418	8.893366	0.04	3	100	0	6546	-0.2735688	3.263637	-23.58666	
15:47:24	-6.728697	38.94616	137.937	0.7292418	8.893366	0.01	3	100	0	6546	-0.2916907	3.185971	-23.60238	
15:47:24	-6.728697	38.94616	137.96	0.7292418	8.893366	0.02	3	100	0	6546	-0.2651496	3.236869	-23.52131	
15:47:25	-6.728697	38.94616	137.963	0.8850684	12.41168	0.03	3	100	0	6546	-0.2620167	3.219073	-23.56091	
15:47:25	-6.728697	38.94616	137.949	0.8850684	12.41168	0.02	3	100	0	6546	-0.2748313	3.255269	-23.54542	
15:47:25	-6.728696	38.94616	137.949	0.8850684	12.41168	0.06	3	100	0	6546	-0.2783533	3.232978	-23.51132	
15:47:25	-6.728696	38.94616	137.952	0.8850684	12.41168	0.06	3	100	0	6546	-0.3383801	3.250772	-23.53596	
15:47:26	-6.728696	38.94616	137.952	0.8850684	12.41168	0.06	3	100	0	6546	-0.261059	3.272837	-23.50812	
15:47:26	-6.728696	38.94616	137.951	0.9148797	7.081486	0.04	3	100	0	6546	-0.2736818	3.253375	-23.4958	
15:47:26	-6.728696	38.94616	137.937	0.9148797	7.081486	0.04	3	100	0	6546	-0.3229881	3.208282	-23.41298	
15:47:26	-6.728696	38.94616	137.937	0.9148797	7.081486	0.04	3	100	0	6546	-0.3427317	3.231442	-23.42119	
15:47:26	-6.728696	38.94616	137.958	0.9148797	7.081486	0.02	3	100	0	6546	-0.3433101	3.249307	-23.40121	
15:47:26	-6.728696	38.94616	138.003	0.9148797	7.081486	0.06	3	100	0	6546	-0.3126858	3.232507	-23.37457	
15:47:27	-6.728695	38.94616	137.985	0.7643322	-2.375879	0.03	3	100	0	6546	-0.2990428	3.230515	-23.35898	
15:47:27	-6.728695	38.94616	137.983	0.7643322	-2.375879	0.04	3	100	0	6546	-0.3236589	3.246526	-23.35878	
15:47:27	-6.728695	38.94616	137.994	0.7643322	-2.375879	0.03	3	100	0	6546	-0.3182368	3.224433	-23.33149	
15:47:27	-6.728695	38.94616	137.985	0.7643322	-2.375879	0.06	3	100	0	6546	-0.3003239	3.279593	-23.38809	
15:47:27	-6.728695	38.94616	137.997	0.7643322	-2.375879	0.01	3	100	0	6546	-0.2690381	3.316086	-23.36015	
15:47:28	-6.728695	38.94616	138.019	0.9127195	6.731245	0.04	3	100	0	6546	-0.3054186	3.265119	-23.37158	
15:47:28	-6.728695	38.94616	138.007	0.9127195	6.731245	0.03	3	100	0	6546	-0.3266228	3.262019	-23.35141	
15:47:28	-6.728695	38.94616	138.003	0.9127195	6.731245	0.02	3	100	0	6546	-0.3488089	3.279698	-23.28156	
15:47:28	-6.728694	38.94616	138.005	0.9127195	6.731245	0.03	3	100	0	6546	-0.3350548	3.307027	-23.2717	
15:47:28	-6.728694	38.94616	138.009	0.9127195	6.731245	0.03	3	100	0	6546	-0.3425182	3.311968	-23.31568	
15:47:29	-6.728694	38.94616	138.019	1.013455	9.054008	0.06	3	100	0	6546	-0.3208658	3.293993	-23.32375	
15:47:29	-6.728694	38.94616	138.032	1.013455	9.054008	0.03	3	100	0	6546	-0.3364141	3.274796	-23.28556	
15:47:29	-6.728694	38.94616	138.042	1.013455	9.054008	0.09	3	100	0	6546	-0.3000513	3.365225	-23.2727	
15:47:29	-6.728694	38.94616	138.069	1.013455	9.054008	0.03	3	100	0	6546	-0.2884816	3.369815	-23.27144	
15:47:29	-6.728694	38.94616	138.063	1.013455	9.054008	0.01	3	100	0	6546	-0.3564337	3.352558	-23.2858	
15:47:30	-6.728694	38.94616	138.074	0.9522516	2.142955	0.04	3	100	0	6546	-0.3823576	3.335483	-23.30445	
15:47:30	-6.728694	38.94616	138.084	0.9522516	2.142955	0.02	3	100	0	6546	-0.3850142	3.33259	-23.30191	
15:47:30	-6.728694	38.94616	138.097	0.9522516	2.142955	0.04	3	100	0	6546	-0.3757207	3.318881	-23.27223	
15:47:30	-6.728694	38.94616	138.159	0.9522516	2.142955	0.04	3	100	0	6546	-0.3533852	3.353643	-23.21269	
15:47:30	-6.728694	38.94616	138.158	0.9522516	2.142955	0.06	3	100	0	6546	-0.2841287	3.377026	-23.17044	
15:47:31	-6.728694	38.94616	138.175	0.7674401	-6.610059	0.06	3	100	0	6546	-0.305713	3.379237	-23.17733	
15:47:31	-6.728694	38.94616	138.191	0.7674401	-6.610059	0.02	3	100	0	6546	-0.3133866	3.354914	-23.18876	
15:47:31	-6.728694	38.94616	138.208	0.7674401	-6.610059	0.03	3	100	0	6546	-0.2914894	3.301799	-23.14777	
15:47:31	-6.728694	38.94616	138.201	0.7674401	-6.610059	0.09	3	100	0	6546	-0.269109	3.318847	-23.14778	
15:47:31	-6.728694	38.94616	138.203	0.7674401	-6.610059	0.02	3	100	0	6546	-0.279314	3.316285	-23.18523	
15:47:32	-6.728694	38.94616	138.21	0.7896078	-2.791704	0.02	3	100	0	6546	-0.34997	3.31403	-23.21779	
15:47:32	-6.728694	38.94616	138.207	0.7896078	-2.791704	0.04	3	100	0	6546	-0.3666024	3.290795	-23.28583	
15:47:32	-6.728694	38.94616	138.193	0.7896078	-2.791704	0.02	3	100	0	6546	-0.3567449	3.305313	-23.2854	
15:47:32	-6.728694	38.94616	138.192	0.7896078	-2.791704	0.03	3	100	0	6546	-0.3155566	3.334878	-23.29911	
15:47:32	-6.728694	38.94616	138.166	0.7896078	-2.791704	0.02	3	100	0	6546	-0.3092612	3.343674	-23.32276	
15:47:33	-6.728694	38.94617	138.176	0.9960764	7.839256	0.01	3	100	0	6546	-0.3060296	3.36666	-23.30771	
15:47:33	-6.728694	38.94617	138.178	0.9960764	7.839256	0.01	3	100	0	6546	-0.2985593	3.396954	-23.30277	
15:47:33	-6.728694	38.94617	138.163	0.9960764	7.839256	0.03	3	100	0	6546	-0.3004169	3.395886	-23.29958	
15:47:33	-6.728694	38.94617	138.181	0.9960764	7.839256	0.06	3	100	0	6546	-0.2944345	3.430975	-23.39807	
15:47:33	-6.728694	38.94617	138.179	0.9960764	7.839256	0.04	3	100	0	6546	-0.261775	3.425619	-23.43351	
15:47:34	-6.728694	38.94617	138.164	0.8737676	-1.162167	0.06	3	100	0	6547	-0.2736188	3.344602	-23.41317	
15:47:34	-6.728694	38.94617	138.159	0.8737676	-1.162167	0.06	3	100	0	6547	-0.2549787	3.385482	-23.41811	
15:47:34	-6.728694	38.94617	138.128	0.8737676	-1.162167	0.01	3	100	0	6547	-0.2219534	3.426404	-23.33829	
15:47:35	-6.728694	38.94617	138.094	0.8737676	-1.162167	0.03	3	100	0	6547	-0.2412188	3.437114	-23.34312	
15:47:35	-6.728694	38.94617	138.08	0.8737676	-1.162167	0.09	3	100	0	6547	-0.1877379	3.449456	-23.26225	
15:47:35	-6.728694	38.94617	138.066	0.8099228	-3.157122	0.11	3	100	0	6546	-0.2534804	3.468913	-23.22775	
15:47:35	-6.728694	38.94617	138.036	0.8099228	-3.157122	0.03	3	100	0	6546	-0.2907086	3.408702	-23.14124	
15:47:36	-6.728694	38.94617	138.003	0.8099228	-3.157122	0.08	3	100	0	6546	-0.2581007	3.420983	-23.13515	
15:47:36	-6.728694	38.94617	138.004	0.8099228	-3.157122	0.03	3	100	0	6546	-0.2704921	3.444115	-23.0634	
15:47:36	-6.728694	38.94617	137.984	0.8099228	-3.157122	0.06	3	100	0	6546	-0.2535397	3.461494	-23.12799	
15:47:36	-6.728694	38.94617	137.952	0.7702503	-2.969573	0.02	3	100	0	6546	-0.252957	3.455148	-23.13769	
15:47:36	-6.728694	38.94617	137.916	0.7702503	-2.969573	0.04	3	100	0	6546	-0.218463	3.40837	-23.08871	
15:47:36	-6.728694	38.94617	137.915	0.7702503	-2.969573	0.04	3	100	0	6546	-0.1874106	3.428206	-23.08532	
15:47:37	-6.728694	38.94617	137.909	0.7702503	-2.969573	0.03	3	100	0	6546	-0.203631	3.445466	-23.14796	
15:47:37	-6.728694	38.94617	137.895	0.7702503	-2.969573	0.02	3	100	0	6546	-0.232127	3.438924	-23.20005	
15:47:37	-6.728694	38.94617	137.882	0.4577387	-16.1647	0.06	3	100	0	6546	-0.229689	3.451818	-23.17282	
15:47:37	-6.728694	38.94617	137.873	0.4577387	-16.1647	0.04	3	100	0	6546	-0.2327068	3.467603	-23.14365	
15:47:37	-6.728694	38.94617	137.887	0.4577387	-16.1647	0.06	3	100	0	6546	-0.2396578	3.489312	-23.10874	
15:47:38	-6.728695	38.94617	137.871	0.4577387	-16.1647	0.03	3	100	0	6546	-0.2305458	3.465302	-23.10026	
15:47:38	-6.728695	38.94617	137.849	0.4577387	-16.1647	0.06	3	100	0	6546	-0.2551263	3.401918	-23.094	
15:47:38	-6.728695	38.94617	137.803	0.318897	-15.32288	0.02	3	100	0	6546	-0.2233067	3.407724	-23.14462	
15:47:38	-6.728695	38.94617	137.787	0.318897	-15.32288	0.02	3	100	0	6546	-0.2064258	3.432743	-23.13636	
15:47:39	-6.728695	38.94617	137.766	0.318897	-15.32288	0.09	3	100	0	6546	-0.1527774	3.463209	-23.1107	
15:47:39	-6.728695	38.94617	137.761	0.318897	-15.32288	0.07	3	100	0	6546	-0.2010911	3.470874	-23.11874	
15:47:39	-6.728695	38.94617	137.775	0.318897	-15.32288	0.07	3	100	0	6546	-0.2012425	3.454614	-23.15767	
15:47:39	-6.728695	38.94616	137.761	0.3888758	-5.941152	0.01	3	100	0	6546	-0.1838995	3.42783	-23.08019	
15:47:39	-6.728695	38.94616	137.722	0.3888758	-5.941152	0.04	3	100	0	6546	-0.2419319	3.418185	-23.05263	
15:47:40	-6.728696	38.94616	137.689	0.3888758	-5.941152	0.03	3	100	0	6546	-0.2519366	3.432208	-23.06506	
15:47:40	-6.728696	38.94616	137.658	0.3888758	-5.941152	0.04	3	100	0	6546	-0.2497951	3.448097	-23.10209	
15:47:40	-6.728696	38.94616	137.654	0.3888758	-5.941152	0.02	3	100	0	6546	-0.2491099	3.433303	-23.0867	
15:47:40	-6.728696	38.94616	137.624	0.6597446	9.417402	0.03	3	100	0	6546	-0.233817	3.436949	-23.14728	
15:47:40	-6.728696	38.94616	137.581	0.6597446	9.417402	0.04	3	100	0	6546	-0.2212119	3.44258	-23.19355	
15:47:40	-6.728696	38.94616	137.523	0.6597446	9.417402	0.03	3	100	0	6546	-0.2396889	3.405711	-23.2099	
15:47:41	-6.728696	38.94616	137.511	0.6597446	9.417402	0.04	3	100	0	6546	-0.2318475	3.444879	-23.29201	
15:47:41	-6.728696	38.94616	137.508	0.6597446	9.417402	0.04	3	100	0	6546	-0.2362679	3.469469	-23.2518	
15:47:41	-6.728697	38.94616	137.497	0.8746784	15.90429	0.01	3	100	0	6546	-0.2099786	3.481514	-23.26113	
15:47:41	-6.728697	38.94616	137.471	0.8746784	15.90429	0.07	3	100	0	6546	-0.1324734	3.496519	-23.2798	
15:47:41	-6.728697	38.94616	137.437	0.8746784	15.90429	0.06	3	100	0	6546	-0.1525553	3.520289	-23.27765	
15:47:41	-6.728697	38.94616	137.376	0.8746784	15.90429	0.02	3	100	0	6546	-0.162859	3.50587	-23.28792	
15:47:42	-6.728697	38.94616	137.307	0.8746784	15.90429	0.06	3	100	0	6546	-0.1206951	3.543524	-23.36567	
15:47:42	-6.728697	38.94616	137.244	0.9497936	14.19449	0.04	3	100	0	6546	-0.09126927	3.543061	-23.38912	
15:47:42	-6.728697	38.94616	137.159	0.9497936	14.19449	0.04	3	100	0	6546	-0.1385303	3.495643	-23.42286	
15:47:42	-6.728697	38.94616	137.1	0.9497936	14.19449	0.04	3	100	0	6546	-0.1397169	3.453544	-23.39294	
15:47:42	-6.728697	38.94616	137.064	0.9497936	14.19449	0.01	3	100	0	6546	-0.150252	3.462186	-23.4843	
15:47:43	-6.728698	38.94616	137.002	0.9497936	14.19449	0.03	3	100	0	6546	-0.1879456	3.458541	-23.47927	
15:47:43	-6.728698	38.94616	136.927	0.8592908	3.469781	0.01	3	100	0	6546	-0.1753319	3.437001	-23.44749	
15:47:43	-6.728698	38.94616	136.883	0.8592908	3.469781	0.04	3	100	0	6546	-0.1599743	3.420175	-23.4021	
15:47:43	-6.728698	38.94616	136.835	0.8592908	3.469781	0.01	3	100	0	6546	-0.1849481	3.411008	-23.46963	
15:47:43	-6.728698	38.94616	136.791	0.8592908	3.469781	0.03	3	100	0	6546	-0.224333	3.433346	-23.4447	
15:47:43	-6.728698	38.94616	136.779	0.8592908	3.469781	0.07	3	100	0	6546	-0.2731707	3.492751	-23.45262	
15:47:44	-6.728698	38.94616	136.761	0.8295843	1.82066	0.06	3	100	0	6546	-0.2773803	3.487398	-23.46561	
15:47:44	-6.728698	38.94616	136.717	0.8295843	1.82066	0.03	3	100	0	6546	-0.2288013	3.483503	-23.4337	
15:47:44	-6.728698	38.94616	136.702	0.8295843	1.82066	0.04	3	100	0	6546	-0.1758671	3.501326	-23.47581	
15:47:44	-6.728698	38.94616	136.673	0.8295843	1.82066	0.04	3	100	0	6546	-0.1811157	3.44265	-23.42245	
15:47:45	-6.728698	38.94616	136.639	0.8295843	1.82066	0.02	3	100	0	6546	-0.2252104	3.420501	-23.4576	
15:47:45	-6.728698	38.94616	136.624	0.7300453	-3.285219	0.03	3	100	0	6546	-0.2136154	3.471605	-23.3799	
15:47:45	-6.728698	38.94616	136.571	0.7300453	-3.285219	0.02	3	100	0	6546	-0.2323989	3.470501	-23.42201	
15:47:45	-6.728698	38.94616	136.53	0.7300453	-3.285219	0.01	3	100	0	6546	-0.2227304	3.441756	-23.36312	
15:47:45	-6.728698	38.94616	136.54	0.7300453	-3.285219	0.04	3	100	0	6546	-0.2150881	3.477488	-23.39425	
15:47:45	-6.728699	38.94616	136.512	0.7300453	-3.285219	0.03	3	100	0	6546	-0.2215015	3.460139	-23.4346	
15:47:46	-6.728699	38.94616	136.496	0.99487	9.841105	0.02	3	100	0	6546	-0.2317275	3.446599	-23.4371	
15:47:46	-6.728699	38.94616	136.47	0.99487	9.841105	0.04	3	100	0	6546	-0.2285105	3.454931	-23.42803	
15:47:46	-6.728699	38.94616	136.464	0.99487	9.841105	0.04	3	100	0	6546	-0.2694896	3.477333	-23.39037	
15:47:46	-6.728699	38.94616	136.468	0.99487	9.841105	0.02	3	100	0	6546	-0.2743286	3.45715	-23.43217	
15:47:47	-6.728699	38.94616	136.463	0.99487	9.841105	0.04	3	100	0	6546	-0.2672513	3.49904	-23.46236	
15:47:47	-6.728699	38.94616	136.445	0.7690886	-4.024251	0.02	3	100	0	6546	-0.287989	3.479162	-23.47351	
15:47:47	-6.728699	38.94616	136.423	0.7690886	-4.024251	0.04	3	100	0	6546	-0.3003811	3.472696	-23.41005	
15:47:47	-6.7287	38.94616	136.373	0.7690886	-4.024251	0.04	3	100	0	6546	-0.2631561	3.473717	-23.43105	
15:47:48	-6.7287	38.94616	136.334	0.7690886	-4.024251	0.02	3	100	0	6546	-0.2608364	3.497905	-23.51096	
15:47:48	-6.7287	38.94616	136.321	0.7690886	-4.024251	0.02	3	100	0	6546	-0.2512259	3.49809	-23.50425	
15:47:48	-6.7287	38.94616	136.317	0.3608578	-19.14026	0.04	3	100	0	6546	-0.237506	3.46971	-23.40888	
15:47:48	-6.7287	38.94616	136.3	0.3608578	-19.14026	0.03	3	100	0	6546	-0.2444194	3.486833	-23.43516	
15:47:48	-6.7287	38.94616	136.247	0.3608578	-19.14026	0.11	3	100	0	6546	-0.3084209	3.453567	-23.3702	
15:47:48	-6.7287	38.94616	136.214	0.3608578	-19.14026	0.02	3	100	0	6546	-0.2412619	3.510348	-23.32698	
15:47:49	-6.7287	38.94616	136.189	0.3608578	-19.14026	0.07	3	100	0	6546	-0.2582725	3.49849	-23.3449	
15:47:49	-6.7287	38.94616	136.141	0.1609089	-19.2727	0.03	3	100	0	6546	-0.2587707	3.525275	-23.37956	
15:47:49	-6.7287	38.94616	136.101	0.1609089	-19.2727	0.04	3	100	0	6546	-0.1975979	3.549532	-23.37965	
15:47:49	-6.7287	38.94616	136.12	0.1609089	-19.2727	0.03	3	100	0	6546	-0.1780908	3.561786	-23.32273	
15:47:49	-6.7287	38.94616	136.103	0.1609089	-19.2727	0.01	3	100	0	6546	-0.1983194	3.574236	-23.34937	
15:47:50	-6.728701	38.94616	136.079	0.1609089	-19.2727	0.03	3	100	0	6546	-0.2390043	3.559748	-23.32669	
15:47:50	-6.728701	38.94616	136.073	0.5995221	7.823177	0.06	3	100	0	6546	-0.2093806	3.601015	-23.31062	
15:47:50	-6.728701	38.94616	136.029	0.5995221	7.823177	0.06	3	100	0	6546	-0.1623631	3.606571	-23.35081	
15:47:50	-6.728701	38.94616	135.991	0.5995221	7.823177	0.04	3	100	0	6546	-0.2239314	3.565848	-23.36126	
15:47:50	-6.728701	38.94616	135.928	0.5995221	7.823177	0.04	3	100	0	6546	-0.2248603	3.53219	-23.36654	
15:47:51	-6.728701	38.94616	135.928	0.5995221	7.823177	0.04	3	100	0	6546	-0.2250553	3.50905	-23.41722	
15:47:51	-6.728701	38.94616	135.938	0.6844351	7.134466	0.03	3	100	0	6546	-0.2360214	3.539431	-23.33106	
15:47:51	-6.728701	38.94616	135.867	0.6844351	7.134466	0.06	3	100	0	6546	-0.2734077	3.510031	-23.3824	
15:47:51	-6.728701	38.94616	135.867	0.6844351	7.134466	0.06	3	100	0	6546	-0.1761304	3.530244	-23.31616	
15:47:51	-6.728701	38.94616	135.856	0.6844351	7.134466	0.08	3	100	0	6546	-0.1670173	3.512233	-23.30066	
15:47:51	-6.728701	38.94616	135.835	0.6844351	7.134466	0.02	3	100	0	6546	-0.2715937	3.528632	-23.31376	
15:47:52	-6.728701	38.94616	135.835	0.7359297	5.988944	0.02	3	100	0	6546	-0.231319	3.538577	-23.41804	
15:47:52	-6.728701	38.94616	135.813	0.7359297	5.988944	0.07	3	100	0	6546	-0.1832016	3.56011	-23.38953	
15:47:52	-6.728701	38.94616	135.818	0.7359297	5.988944	0.04	3	100	0	6546	-0.2340005	3.479906	-23.46207	
15:47:52	-6.728701	38.94616	135.808	0.7359297	5.988944	0.02	3	100	0	6546	-0.1965326	3.536246	-23.40886	
15:47:53	-6.728701	38.94616	135.818	0.7359297	5.988944	0.04	3	100	0	6546	-0.2012931	3.542091	-23.4068	
15:47:53	-6.728701	38.94616	135.812	0.4224113	-10.52299	0.02	3	100	0	6546	-0.1918233	3.519629	-23.41184	
15:47:53	-6.728701	38.94616	135.812	0.4224113	-10.52299	0.02	3	100	0	6546	-0.2138914	3.51856	-23.41946	
15:47:53	-6.728702	38.94616	135.827	0.4224113	-10.52299	0.01	3	100	0	6546	-0.2197064	3.530908	-23.39712	
15:47:53	-6.728702	38.94616	135.83	0.4224113	-10.52299	0.04	3	100	0	6546	-0.2329479	3.519389	-23.34054	
15:47:54	-6.728702	38.94616	135.799	0.4224113	-10.52299	0.03	3	100	0	6546	-0.2538361	3.548151	-23.37366	
15:47:54	-6.728702	38.94616	135.814	0.6439157	3.83025	0.01	3	100	0	6546	-0.2626596	3.478283	-23.42739	
15:47:54	-6.728702	38.94616	135.847	0.6439157	3.83025	0.06	3	100	0	6546	-0.2287648	3.454936	-23.40208	
15:47:54	-6.728702	38.94616	135.884	0.6439157	3.83025	0.03	3	100	0	6546	-0.245198	3.493618	-23.42357	
15:47:54	-6.728702	38.94616	135.9	0.6439157	3.83025	0.06	3	100	0	6546	-0.2067007	3.476771	-23.40923	
15:47:55	-6.728702	38.94616	135.918	0.6439157	3.83025	0.03	3	100	0	6546	-0.1689743	3.468633	-23.44681	
15:47:55	-6.728703	38.94616	135.913	0.7596056	6.990657	0.06	3	100	0	6546	-0.1674978	3.427762	-23.38471	
15:47:55	-6.728703	38.94616	135.932	0.7596056	6.990657	0.03	3	100	0	6546	-0.2653002	3.427762	-23.33995	
15:47:55	-6.728703	38.94616	135.926	0.7596056	6.990657	0.04	3	100	0	6546	-0.2656081	3.395835	-23.32301	
15:47:56	-6.728703	38.94616	135.933	0.7596056	6.990657	0.06	3	100	0	6546	-0.2101352	3.437769	-23.30075	
15:47:56	-6.728703	38.94616	135.934	0.7596056	6.990657	0.02	3	100	0	6546	-0.1670269	3.411078	-23.27026	
15:47:56	-6.728703	38.94616	135.921	0.70644	1.930722	0.04	3	100	0	6546	-0.2177013	3.376549	-23.39248	
15:47:56	-6.728703	38.94616	135.909	0.70644	1.930722	0.01	3	100	0	6546	-0.2586143	3.455237	-23.37347	
15:47:56	-6.728703	38.94616	135.91	0.70644	1.930722	0.04	3	100	0	6546	-0.2381349	3.446969	-23.33369	
15:47:57	-6.728703	38.94616	135.914	0.70644	1.930722	0	3	100	0	6546	-0.1935103	3.473464	-23.29271	
15:47:57	-6.728703	38.94616	135.922	0.70644	1.930722	0.04	3	100	0	6546	-0.2165104	3.434864	-23.30581	
15:47:57	-6.728703	38.94616	135.935	0.6351131	-3.240149	0.04	3	100	0	6546	-0.271852	3.409321	-23.35973	
15:47:57	-6.728703	38.94616	135.909	0.6351131	-3.240149	0.03	3	100	0	6546	-0.2638073	3.377787	-23.30287	
15:47:57	-6.728703	38.94616	135.895	0.6351131	-3.240149	0.04	3	100	0	6546	-0.2421196	3.396224	-23.27741	
15:47:57	-6.728703	38.94616	135.882	0.6351131	-3.240149	0.04	3	100	0	6546	-0.2566021	3.398851	-23.25892	
15:47:58	-6.728703	38.94616	135.833	0.6351131	-3.240149	0.03	3	100	0	6546	-0.1926779	3.387681	-23.27842	
15:47:58	-6.728703	38.94616	135.806	0.5292616	-5.646992	0.06	3	100	0	6546	-0.2006841	3.408503	-23.27427	
15:47:58	-6.728703	38.94616	135.804	0.5292616	-5.646992	0.02	3	100	0	6546	-0.2045916	3.499285	-23.35744	
15:47:58	-6.728703	38.94616	135.758	0.5292616	-5.646992	0.06	3	100	0	6546	-0.2118216	3.486568	-23.35106	
15:47:58	-6.728703	38.94616	135.753	0.5292616	-5.646992	0.09	3	100	0	6546	-0.2793793	3.453858	-23.40959	
15:47:59	-6.728703	38.94616	135.739	0.5292616	-5.646992	0.04	3	100	0	6546	-0.3062738	3.387115	-23.36331	
15:47:59	-6.728703	38.94616	135.721	0.7319853	4.144933	0.04	3	100	0	6546	-0.2511002	3.476726	-23.35306	
15:47:59	-6.728703	38.94616	135.709	0.7319853	4.144933	0	3	100	0	6546	-0.1872386	3.413125	-23.30107	
15:47:59	-6.728703	38.94616	135.742	0.7319853	4.144933	0.04	3	100	0	6546	-0.2041187	3.386248	-23.31318	
15:47:59	-6.728704	38.94616	135.737	0.7319853	4.144933	0.11	3	100	0	6546	-0.2100722	3.342676	-23.26205	
15:47:59	-6.728704	38.94616	135.771	0.7319853	4.144933	0.09	3	100	0	6546	-0.3366036	3.453559	-23.33861	
15:48:00	-6.728704	38.94616	135.757	0.7259038	2.661971	0.09	3	100	0	6546	-0.1924103	3.517463	-23.32916	
15:48:00	-6.728704	38.94616	135.759	0.7259038	2.661971	0.19	3	100	0	6546	-0.1789133	3.558035	-23.30609	
15:48:00	-6.728704	38.94616	135.746	0.7259038	2.661971	0.12	3	100	0	6546	-0.4059496	3.520512	-23.32458	
15:48:00	-6.728704	38.94616	135.751	0.7259038	2.661971	0.04	3	100	0	6546	-0.103421	3.427884	-23.34346	
15:48:00	-6.728704	38.94616	135.745	0.7259038	2.661971	0.11	3	100	0	6546	-0.137743	3.462808	-23.38949	
15:48:01	-6.728704	38.94616	135.764	0.5148773	-7.694629	0.08	3	100	0	6546	-0.1001742	3.51059	-23.44512	
15:48:01	-6.728705	38.94616	135.792	0.5148773	-7.694629	0.12	3	100	0	6546	-0.09966465	3.434821	-23.48113	
15:48:01	-6.728705	38.94616	135.78	0.5148773	-7.694629	0.06	3	100	0	6546	-0.2554917	3.486814	-23.47064	
15:48:01	-6.728705	38.94616	135.793	0.5148773	-7.694629	0.03	3	100	0	6546	-0.1003432	3.399598	-23.43073	
15:48:01	-6.728705	38.94616	135.83	0.5148773	-7.694629	0.18	3	100	0	6546	-0.1689912	3.3504	-23.42702	
15:48:02	-6.728705	38.94616	135.795	0.4366404	-6.359209	0.08	3	100	0	6546	-0.3277538	3.324412	-23.49703	
15:48:02	-6.728705	38.94616	135.774	0.4366404	-6.359209	0.09	3	100	0	6546	-0.2408155	3.341332	-23.43784	
15:48:02	-6.728705	38.94616	135.786	0.4366404	-6.359209	0.04	3	100	0	6546	-0.2185299	3.307832	-23.44015	
15:48:02	-6.728705	38.94616	135.812	0.4366404	-6.359209	0.06	3	100	0	6546	-0.09948128	3.387393	-23.35242	
15:48:02	-6.728705	38.94616	135.841	0.4366404	-6.359209	0.11	3	100	0	6546	-0.2098912	3.342051	-23.4197	
15:48:03	-6.728705	38.94616	135.843	0.5569702	0.6136435	0.13	3	100	0	6546	-0.2397277	3.50021	-23.41244	
15:48:03	-6.728705	38.94616	135.841	0.5569702	0.6136435	0.11	3	100	0	6546	-0.05437337	3.412658	-23.40409	
15:48:03	-6.728705	38.94616	135.856	0.5569702	0.6136435	0.07	3	100	0	6546	-0.242022	3.370271	-23.45582	
15:48:03	-6.728705	38.94616	135.87	0.5569702	0.6136435	0.04	3	100	0	6546	-0.1035459	3.398875	-23.51339	
15:48:04	-6.728705	38.94616	135.871	0.5569702	0.6136435	0.07	3	100	0	6546	-0.1302938	3.415081	-23.52333	
15:48:04	-6.728705	38.94616	135.867	0.626415	4.254869	0.06	3	100	0	6546	-0.1086461	3.381663	-23.46921	
15:48:04	-6.728705	38.94616	135.854	0.626415	4.254869	0.03	3	100	0	6546	-0.2050248	3.420219	-23.53843	
15:48:04	-6.728705	38.94616	135.841	0.626415	4.254869	0.01	3	100	0	6546	-0.1128176	3.404304	-23.5075	
15:48:04	-6.728705	38.94616	135.889	0.626415	4.254869	0.07	3	100	0	6546	-0.1029876	3.431492	-23.42441	
15:48:04	-6.728705	38.94616	135.898	0.626415	4.254869	0.14	3	100	0	6546	-0.1317659	3.522452	-23.41984	
15:48:05	-6.728705	38.94616	135.881	0.7560641	8.14168	0.04	3	100	0	6546	-0.01622116	3.569701	-23.47907	
15:48:05	-6.728705	38.94616	135.884	0.7560641	8.14168	0.04	3	100	0	6546	-0.1876825	3.408144	-23.4794	
15:48:05	-6.728705	38.94616	135.884	0.7560641	8.14168	0.08	3	100	0	6546	-0.1507939	3.43081	-23.45261	
15:48:05	-6.728705	38.94616	135.885	0.7560641	8.14168	0.04	3	100	0	6546	-0.1283554	3.337619	-23.43955	
15:48:06	-6.728705	38.94616	135.895	0.7560641	8.14168	0.04	3	100	0	6546	-0.1335771	3.376333	-23.43614	
15:48:06	-6.728705	38.94616	135.868	0.6220572	0.3938748	0.04	3	100	0	6546	-0.1898381	3.446916	-23.40862	
15:48:06	-6.728705	38.94616	135.873	0.6220572	0.3938748	0.04	3	100	0	6546	-0.1755168	3.352551	-23.36653	
15:48:06	-6.728705	38.94616	135.878	0.6220572	0.3938748	0.11	3	100	0	6546	-0.2038626	3.498889	-23.39834	
15:48:06	-6.728705	38.94616	135.914	0.6220572	0.3938748	0.02	3	100	0	6546	-0.07848901	3.381847	-23.39676	
15:48:07	-6.728705	38.94616	135.859	0.6220572	0.3938748	0.04	3	100	0	6546	-0.1821012	3.447726	-23.44641	
15:48:07	-6.728705	38.94616	135.826	0.642508	-0.1648918	0.04	3	100	0	6546	-0.1334854	3.414965	-23.36032	
15:48:07	-6.728705	38.94616	135.799	0.642508	-0.1648918	0.02	3	100	0	6546	-0.2199111	3.454636	-23.41555	
15:48:07	-6.728705	38.94616	135.773	0.642508	-0.1648918	0.04	3	100	0	6546	-0.1381578	3.452023	-23.34597	
15:48:07	-6.728705	38.94616	135.795	0.642508	-0.1648918	0.02	3	100	0	6546	-0.2020501	3.496221	-23.36148	
15:48:07	-6.728705	38.94616	135.774	0.642508	-0.1648918	0.04	3	100	0	6546	-0.157569	3.449543	-23.37178	
15:48:08	-6.728705	38.94616	135.773	0.6359018	-1.373963	0.02	3	100	0	6546	-0.136312	3.42464	-23.44773	
15:48:08	-6.728705	38.94616	135.801	0.6359018	-1.373963	0.04	3	100	0	6546	-0.1968245	3.397573	-23.38631	
15:48:08	-6.728705	38.94616	135.821	0.6359018	-1.373963	0.04	3	100	0	6546	-0.2128136	3.343821	-23.46874	
15:48:08	-6.728705	38.94616	135.802	0.6359018	-1.373963	0.04	3	100	0	6546	-0.2545386	3.413145	-23.50878	
15:48:09	-6.728705	38.94616	135.792	0.6359018	-1.373963	0.04	3	100	0	6546	-0.1579124	3.410489	-23.45375	
15:48:09	-6.728705	38.94616	135.771	0.4765225	-8.059977	0.08	3	100	0	6546	-0.1970174	3.482222	-23.43544	
15:48:09	-6.728705	38.94616	135.737	0.4765225	-8.059977	0.06	3	100	0	6546	-0.263312	3.369927	-23.42344	
15:48:09	-6.728705	38.94616	135.687	0.4765225	-8.059977	0.03	3	100	0	6546	-0.2169729	3.350415	-23.43271	
15:48:09	-6.728705	38.94616	135.692	0.4765225	-8.059977	0.02	3	100	0	6546	-0.2233938	3.42135	-23.46939	
15:48:10	-6.728705	38.94616	135.69	0.4765225	-8.059977	0.13	3	100	0	6546	-0.1955827	3.40376	-23.51764	
15:48:10	-6.728705	38.94616	135.642	0.4754125	-6.154831	0.12	3	100	0	6546	-0.03313862	3.436445	-23.45597	
15:48:10	-6.728705	38.94616	135.655	0.4754125	-6.154831	0.09	3	100	0	6546	-0.07925224	3.505432	-23.49649	
15:48:10	-6.728705	38.94616	135.657	0.4754125	-6.154831	0.09	3	100	0	6546	-0.1707727	3.51407	-23.47261	
15:48:10	-6.728705	38.94616	135.675	0.4754125	-6.154831	0.09	3	100	0	6546	-0.2293879	3.382601	-23.41558	
15:48:11	-6.728705	38.94616	135.647	0.4754125	-6.154831	0.03	3	100	0	6546	-0.2345387	3.38117	-23.47306	
15:48:11	-6.728705	38.94616	135.649	0.4305871	-4.596643	0.07	3	100	0	6546	-0.1433817	3.456692	-23.54747	
15:48:11	-6.728705	38.94616	135.691	0.4305871	-4.596643	0.08	3	100	0	6546	-0.1651358	3.536116	-23.57879	
15:48:11	-6.728705	38.94616	135.695	0.4305871	-4.596643	0.07	3	100	0	6546	-0.1274752	3.551394	-23.59712	
15:48:11	-6.728705	38.94616	135.706	0.4305871	-4.596643	0.06	3	100	0	6546	-0.2104149	3.441292	-23.57578	
15:48:12	-6.728705	38.94616	135.722	0.4305871	-4.596643	0.06	3	100	0	6546	-0.1577963	3.537927	-23.60664	
15:48:12	-6.728705	38.94616	135.738	0.6259888	5.079456	0.09	3	100	0	17	-0.1334337	3.40887	-23.61928	
15:48:12	-6.728705	38.94616	135.809	0.6259888	5.079456	0.07	3	100	0	17	-0.2732601	3.425984	-23.64275	
15:48:12	-6.728705	38.94616	135.81	0.6259888	5.079456	0.02	3	100	0	17	-0.1327794	3.315964	-23.7077	
15:48:12	-6.728705	38.94616	135.816	0.6259888	5.079456	0.03	3	100	0	17	-0.149682	3.385967	-23.74625	
15:48:13	-6.728705	38.94616	135.797	0.6259888	5.079456	0.06	3	100	0	17	-0.166732	3.361219	-23.80462	
15:48:13	-6.728704	38.94616	135.79	0.6981381	2.998495	0.02	3	100	0	17	-0.126375	3.336475	-23.80368	
15:48:13	-6.728704	38.94616	135.779	0.6981381	2.998495	0.01	3	100	0	17	-0.1077414	3.414636	-23.79313	
15:48:13	-6.728704	38.94616	135.771	0.6981381	2.998495	0.07	3	100	0	17	-0.1077339	3.439823	-23.80516	
15:48:13	-6.728704	38.94616	135.755	0.6981381	2.998495	0.03	3	100	0	17	-0.1349576	3.482674	-23.81225	
15:48:14	-6.728704	38.94616	135.746	0.6981381	2.998495	0.01	3	100	0	17	-0.1666522	3.488603	-23.79978	
15:48:14	-6.728704	38.94616	135.687	0.8628396	11.44236	0.01	3	100	0	4	-0.187078	3.503857	-23.8616	
15:48:14	-6.728704	38.94616	135.655	0.8628396	11.44236	0.09	3	100	0	4	-0.2113199	3.543155	-23.80593	
15:48:14	-6.728704	38.94616	135.642	0.8628396	11.44236	0.08	3	100	0	4	-0.0974746	3.61445	-23.77528	
15:48:14	-6.728704	38.94616	135.631	0.8628396	11.44236	0.02	3	100	0	4	-0.08569784	3.54526	-23.75662	
15:48:15	-6.728704	38.94616	135.617	0.8628396	11.44236	0.03	3	100	0	4	-0.231267	3.555096	-23.70397	
15:48:15	-6.728704	38.94616	135.603	0.9536875	13.06343	0.04	3	100	0	6546	-0.1908445	3.601031	-23.71785	
15:48:15	-6.728703	38.94616	135.574	0.9536875	13.06343	0.07	3	100	0	6546	-0.1696553	3.499141	-23.66116	
15:48:15	-6.728703	38.94616	135.526	0.9536875	13.06343	0.09	3	100	0	6546	-0.1612765	3.544244	-23.6342	
15:48:15	-6.728703	38.94616	135.476	0.9536875	13.06343	0.07	3	100	0	6546	-0.3908392	3.57593	-23.72853	
15:48:16	-6.728703	38.94616	135.483	0.9536875	13.06343	0.03	3	100	0	6546	-0.3362268	3.551569	-23.72484	
15:48:16	-6.728703	38.94616	135.437	0.8150329	1.077563	0.06	3	100	0	6546	-0.2255027	3.535638	-23.6238	
15:48:16	-6.728703	38.94616	135.421	0.8150329	1.077563	0.07	3	100	0	6546	-0.2100535	3.544486	-23.59513	
15:48:16	-6.728703	38.94616	135.394	0.8150329	1.077563	0.06	3	100	0	6546	-0.3149334	3.435877	-23.61106	
15:48:16	-6.728703	38.94616	135.372	0.8150329	1.077563	0.07	3	100	0	6546	-0.3055324	3.515663	-23.574	
15:48:17	-6.728703	38.94616	135.352	0.8150329	1.077563	0.04	3	100	0	6546	-0.2001131	3.437135	-23.62111	
15:48:17	-6.728703	38.94616	135.34	0.528721	-13.39056	0.09	3	100	0	6546	-0.2379452	3.441866	-23.60208	
15:48:17	-6.728703	38.94616	135.347	0.528721	-13.39056	0.04	3	100	0	6546	-0.2338161	3.336522	-23.64585	
15:48:17	-6.728703	38.94616	135.357	0.528721	-13.39056	0.04	3	100	0	6546	-0.3079633	3.407596	-23.62417	
15:48:17	-6.728703	38.94616	135.346	0.528721	-13.39056	0.09	3	100	0	6546	-0.3091195	3.379813	-23.63409	
15:48:18	-6.728703	38.94617	135.338	0.528721	-13.39056	0.07	3	100	0	6546	-0.1725877	3.398421	-23.58851	
15:48:18	-6.728702	38.94617	135.302	0.4363453	-12.66308	0.01	3	100	0	6546	-0.3221382	3.416608	-23.61249	
15:48:18	-6.728702	38.94617	135.307	0.4363453	-12.66308	0.02	3	100	0	6546	-0.2466258	3.379178	-23.5126	
15:48:18	-6.728702	38.94617	135.288	0.4363453	-12.66308	0.03	3	100	0	6546	-0.2639132	3.388611	-23.45697	
15:48:18	-6.728702	38.94617	135.256	0.4363453	-12.66308	0.01	3	100	0	6546	-0.2651399	3.383658	-23.39278	
15:48:19	-6.728702	38.94617	135.202	0.4363453	-12.66308	0.04	3	100	0	6546	-0.2606054	3.423092	-23.47307	
15:48:19	-6.728702	38.94617	135.18	0.6258456	0.5176855	0.12	3	100	0	6546	-0.285751	3.474438	-23.43532	
15:48:19	-6.728702	38.94617	135.154	0.6258456	0.5176855	0.04	3	100	0	6546	-0.3522866	3.371051	-23.41898	
15:48:19	-6.728701	38.94617	135.14	0.6258456	0.5176855	0.04	3	100	0	6546	-0.2512767	3.407884	-23.41139	
15:48:19	-6.728701	38.94617	135.133	0.6258456	0.5176855	0.01	3	100	0	6546	-0.2890281	3.437296	-23.47997	
15:48:20	-6.728701	38.94617	135.12	0.6258456	0.5176855	0.02	3	100	0	6546	-0.2518292	3.456439	-23.45686	
15:48:20	-6.728701	38.94617	135.136	0.540994	-4.359551	0.09	3	100	0	6546	-0.2318972	3.452907	-23.46226	
15:48:20	-6.728701	38.94617	135.113	0.540994	-4.359551	0.03	3	100	0	6546	-0.1476265	3.470944	-23.48871	
15:48:20	-6.728701	38.94617	135.098	0.540994	-4.359551	0.02	3	100	0	6546	-0.2161566	3.490049	-23.41864	
15:48:20	-6.7287	38.94617	135.078	0.540994	-4.359551	0.04	3	100	0	6546	-0.2489295	3.471982	-23.48612	
15:48:21	-6.7287	38.94617	135.082	0.540994	-4.359551	0.04	3	100	0	6546	-0.2057565	3.516399	-23.42341	
15:48:21	-6.7287	38.94617	135.087	0.6687678	3.159185	0.03	3	100	0	6546	-0.2621042	3.467452	-23.50982	
15:48:21	-6.7287	38.94617	135.092	0.6687678	3.159185	0.06	3	100	0	6546	-0.2590813	3.538981	-23.57273	
15:48:21	-6.7287	38.94617	135.074	0.6687678	3.159185	0.04	3	100	0	6546	-0.2079537	3.607005	-23.61056	
15:48:21	-6.7287	38.94617	135.03	0.6687678	3.159185	0.06	3	100	0	6546	-0.1671963	3.571339	-23.56071	
15:48:22	-6.7287	38.94617	135.029	0.6687678	3.159185	0.04	3	100	0	6546	-0.1846602	3.606495	-23.62279	
15:48:22	-6.7287	38.94617	135.024	0.5951455	-2.926979	0.08	3	100	0	6546	-0.2215872	3.63498	-23.56195	
15:48:22	-6.7287	38.94617	134.982	0.5951455	-2.926979	0.03	3	100	0	6546	-0.296963	3.598667	-23.6238	
15:48:22	-6.7287	38.94617	134.998	0.5951455	-2.926979	0.07	3	100	0	6546	-0.2097251	3.489279	-23.54372	
15:48:23	-6.728699	38.94617	134.984	0.5951455	-2.926979	0.04	3	100	0	6546	-0.2139323	3.424285	-23.51383	
15:48:23	-6.728699	38.94617	134.975	0.5951455	-2.926979	0.03	3	100	0	6546	-0.2015378	3.48588	-23.53024	
15:48:23	-6.728699	38.94617	134.938	0.6175132	-1.990114	0.04	3	100	0	6546	-0.1943318	3.542246	-23.52578	
15:48:23	-6.728699	38.94617	134.944	0.6175132	-1.990114	0.04	3	100	0	6546	-0.1766013	3.550879	-23.58939	
15:48:23	-6.728699	38.94617	134.941	0.6175132	-1.990114	0.02	3	100	0	6546	-0.194154	3.501248	-23.53523	
15:48:23	-6.728699	38.94617	134.944	0.6175132	-1.990114	0.07	3	100	0	6546	-0.2730832	3.536855	-23.46292	
15:48:24	-6.728699	38.94617	134.904	0.6175132	-1.990114	0.04	3	100	0	6546	-0.283058	3.480472	-23.50033	
15:48:24	-6.728699	38.94617	134.916	0.5472635	-3.728534	0.04	3	100	0	6546	-0.2054332	3.516577	-23.52107	
15:48:24	-6.728698	38.94617	134.892	0.5472635	-3.728534	0.04	3	100	0	6546	-0.1961082	3.575745	-23.49768	
15:48:24	-6.728698	38.94617	134.889	0.5472635	-3.728534	0.03	3	100	0	6546	-0.2056702	3.56798	-23.49448	
15:48:24	-6.728698	38.94617	134.914	0.5472635	-3.728534	0.14	3	100	0	6546	-0.2552166	3.510561	-23.46891	
15:48:25	-6.728698	38.94617	134.853	0.5472635	-3.728534	0.04	3	100	0	6546	-0.3622389	3.531816	-23.49718	
15:48:25	-6.728698	38.94617	134.854	0.7240922	6.097085	0.08	3	100	0	6546	-0.1721845	3.522512	-23.48223	
15:48:25	-6.728698	38.94617	134.846	0.7240922	6.097085	0.04	3	100	0	6546	-0.1703555	3.573795	-23.48632	
15:48:25	-6.728698	38.94617	134.816	0.7240922	6.097085	0.06	3	100	0	6546	-0.2219387	3.569866	-23.45144	
15:48:25	-6.728698	38.94617	134.799	0.7240922	6.097085	0.04	3	100	0	6546	-0.2969658	3.576295	-23.44209	
15:48:26	-6.728698	38.94617	134.795	0.7240922	6.097085	0.04	3	100	0	6546	-0.2708254	3.556435	-23.42432	
15:48:26	-6.728698	38.94617	134.826	0.8919226	10.519	0.04	3	100	0	6546	-0.2388655	3.574001	-23.41448	
15:48:26	-6.728698	38.94617	134.83	0.8919226	10.519	0.09	3	100	0	6546	-0.2901001	3.515347	-23.42662	
15:48:26	-6.728698	38.94617	134.865	0.8919226	10.519	0.08	3	100	0	6546	-0.3181011	3.589582	-23.41234	
15:48:26	-6.728698	38.94617	134.887	0.8919226	10.519	0.13	3	100	0	6546	-0.3212189	3.520644	-23.37675	
15:48:27	-6.728698	38.94617	134.898	0.8919226	10.519	0.13	3	100	0	6546	-0.3593313	3.485647	-23.33952	
15:48:27	-6.728698	38.94617	134.911	0.7680548	1.275578	0.01	3	100	0	6546	-0.3390642	3.5471	-23.35812	
15:48:27	-6.728698	38.94617	134.91	0.7680548	1.275578	0.14	3	100	0	6546	-0.18347	3.564734	-23.2922	
15:48:27	-6.728698	38.94617	135.01	0.7680548	1.275578	0.13	3	100	0	6546	-0.05909781	3.620604	-23.3224	
15:48:28	-6.728698	38.94617	135.043	0.7680548	1.275578	0.04	3	100	0	6546	-0.1617759	3.622402	-23.28944	
15:48:28	-6.728698	38.94617	135.042	0.7680548	1.275578	0.09	3	100	0	6546	-0.2716819	3.505894	-23.26746	
15:48:28	-6.728698	38.94617	135.092	0.6755028	-2.671458	0.12	3	100	0	6546	-0.2293318	3.471084	-23.23136	
15:48:28	-6.728698	38.94617	135.133	0.6755028	-2.671458	0.08	3	100	0	6546	-0.1352827	3.535038	-23.23664	
15:48:28	-6.728698	38.94617	135.177	0.6755028	-2.671458	0.02	3	100	0	6546	-0.2136331	3.553587	-23.23328	
15:48:28	-6.728698	38.94617	135.261	0.6755028	-2.671458	0.09	3	100	0	6546	-0.2517268	3.495313	-23.22517	
15:48:29	-6.728698	38.94617	135.327	0.6755028	-2.671458	0.06	3	100	0	6546	-0.2675595	3.499818	-23.16457	
