Date	Latitude(deg) 	Longitude(deg)	hamsl(m)	hafl(m)	climbrate(cm/s)	GroundSpeed(m/s)	Airspeed(m/s)	Mav_Link(%)	Rssi_Link(%)	Throttle	Roll(deg)	Pitch(deg)	Yaw(deg)
11:28:27	0	0	0	0	0	0	0	100	0	0	-0.6340103	-0.2477378	-145.5164	
11:28:27	0	0	0	0.3767693	-1.219991	0	3	100	0	4	-0.6345454	-0.2545567	-145.5283	
11:28:27	0	0	0	0.3767693	-1.219991	0	3	100	0	4	-0.626772	-0.254106	-145.5265	
11:28:27	0	0	0	0.3767693	-1.219991	0	3	100	0	4	-0.6201693	-0.2399189	-145.5241	
11:28:27	0	0	0	0.3767693	-1.219991	0	3	100	0	4	-0.6155536	-0.2390026	-145.5383	
11:28:28	0	0	0	0.3767693	-1.219991	0	3	100	0	4	-0.6199371	-0.2333698	-145.5367	
11:28:28	0	0	0	1.136233	30.70967	0	3	100	0	4	-0.6256722	-0.2602694	-145.5253	
11:28:28	0	0	0	1.136233	30.70967	0	3	100	0	4	-0.6240527	-0.2613006	-145.5114	
11:28:28	0	0	0	1.136233	30.70967	0	3	100	0	4	-0.6227341	-0.2584601	-145.522	
11:28:28	0	0	0	1.136233	30.70967	0	3	100	0	4	-0.6185336	-0.2547551	-145.516	
11:28:29	0	0	0	1.136233	30.70967	0	3	100	0	4	-0.6141236	-0.2467421	-145.5169	
11:28:29	0	0	0	1.137858	10.15944	0	3	100	0	4	-0.6135058	-0.2347734	-145.5231	
11:28:29	0	0	0	1.137858	10.15944	0	3	100	0	4	-0.6123196	-0.2287962	-145.5118	
11:28:29	0	0	0	1.137858	10.15944	0	3	100	0	4	-0.5953517	-0.2428499	-145.5067	
11:28:29	0	0	0	1.137858	10.15944	0	3	100	0	4	-0.600066	-0.2582639	-145.4944	
11:28:30	0	0	0	1.137858	10.15944	0	3	100	0	4	-0.5934539	-0.2501705	-145.494	
11:28:30	0	0	0	0.5683425	-23.94985	0	3	100	0	4	-0.5974182	-0.2542133	-145.4793	
11:28:30	0	0	0	0.5683425	-23.94985	0	3	100	0	4	-0.6078863	-0.2635643	-145.4778	
11:28:30	0	0	0	0.5683425	-23.94985	0	3	100	0	4	-0.6147118	-0.2739254	-145.4754	
11:28:30	0	0	0	0.5683425	-23.94985	0	3	100	0	4	-0.6154898	-0.2656659	-145.4866	
11:28:31	0	0	0	0.5683425	-23.94985	0	3	100	0	4	-0.6249108	-0.2759837	-145.4911	
11:28:31	0	0	0	0.05601984	-41.01562	0	3	100	0	4	-0.616214	-0.2753004	-145.4915	
11:28:31	0	0	0	0.05601984	-41.01562	0	3	100	0	4	-0.6206741	-0.2761783	-145.4883	
11:28:31	0	0	0	0.05601984	-41.01562	0	3	100	0	4	-0.625014	-0.2620569	-145.4956	
11:28:31	0	0	0	0.05601984	-41.01562	0	3	100	0	4	-0.6170952	-0.2630088	-145.4734	
11:28:32	0	0	0	0.05601984	-41.01562	0	3	100	0	4	-0.6116072	-0.2423092	-145.4796	
11:28:32	0	0	0	-0.1672845	-40.22183	0	3	100	0	4	-0.6112162	-0.2512629	-145.4769	
11:28:32	0	0	0	-0.1672845	-40.22183	0	3	100	0	4	-0.6044286	-0.2438094	-145.4916	
11:28:32	0	0	0	-0.1672845	-40.22183	0	3	100	0	4	-0.6007872	-0.2412022	-145.5025	
11:28:32	0	0	0	-0.1672845	-40.22183	0	3	100	0	4	-0.6015956	-0.2431819	-145.5048	
11:28:33	0	0	0	-0.1672845	-40.22183	0	3	100	0	4	-0.6058172	-0.2442311	-145.5101	
11:28:33	0	0	0	-0.225994	-31.5723	0	3	100	0	4	-0.6076742	-0.243425	-145.5086	
11:28:33	0	0	0	-0.225994	-31.5723	0	3	100	0	4	-0.6108166	-0.229754	-145.4989	
11:28:33	0	0	0	-0.225994	-31.5723	0	3	100	0	4	-0.6191626	-0.2239267	-145.4987	
11:28:33	0	0	0	-0.225994	-31.5723	0	3	100	0	4	-0.6243221	-0.214433	-145.4997	
11:28:34	0	0	0	-0.225994	-31.5723	0	3	100	0	4	-0.6241487	-0.208997	-145.4864	
11:28:34	0	0	0	-0.1507881	-18.5672	0	3	100	0	4	-0.6218671	-0.1938442	-145.4871	
11:28:34	0	0	0	-0.1507881	-18.5672	0	3	100	0	4	-0.6217	-0.1963922	-145.4806	
11:28:34	0	0	0	-0.1507881	-18.5672	0	3	100	0	4	-0.6282169	-0.2062766	-145.4883	
11:28:34	0	0	0	-0.1507881	-18.5672	0	3	100	0	4	-0.6172001	-0.2196374	-145.4897	
11:28:35	0	0	0	-0.1507881	-18.5672	0	3	100	0	4	-0.6132849	-0.2024473	-145.4946	
11:28:35	0	0	0	0.1652584	-1.814672	0	3	100	0	4	-0.6044063	-0.1958652	-145.5046	
11:28:35	0	0	0	0.1652584	-1.814672	0	3	100	0	4	-0.6046858	-0.1954791	-145.5161	
11:28:35	0	0	0	0.1652584	-1.814672	0	3	100	0	4	-0.6123037	-0.188337	-145.535	
11:28:35	0	0	0	0.1652584	-1.814672	0	3	100	0	4	-0.6163164	-0.1934047	-145.545	
11:28:36	0	0	0	0.1652584	-1.814672	0	3	100	0	4	-0.6109409	-0.2060909	-145.544	
11:28:36	0	0	0	0.3026129	1.090397	0	3	100	0	4	-0.6018857	-0.2098354	-145.5489	
11:28:36	0	0	0	0.3026129	1.090397	0	3	100	0	4	-0.5966173	-0.210499	-145.5377	
11:28:36	0	0	0	0.3026129	1.090397	0	3	100	0	4	-0.5944999	-0.226877	-145.5322	
11:28:36	0	0	0	0.3026129	1.090397	0	3	100	0	4	-0.5923843	-0.250594	-145.5144	
11:28:37	0	0	0	0.3026129	1.090397	0	3	100	0	4	-0.5997314	-0.2461479	-145.5101	
11:28:37	0	0	0	0.2529446	-5.970333	0	3	100	0	4	-0.5892166	-0.221619	-145.5038	
11:28:37	0	0	0	0.2529446	-5.970333	0	3	100	0	4	-0.593018	-0.2464858	-145.4961	
11:28:37	0	0	0	0.2529446	-5.970333	0	3	100	0	4	-0.5875473	-0.2533173	-145.4794	
11:28:37	0	0	0	0.2529446	-5.970333	0	3	100	0	4	-0.5880794	-0.2418001	-145.4633	
11:28:38	0	0	0	0.2529446	-5.970333	0	3	100	0	4	-0.5953142	-0.2451044	-145.4646	
11:28:38	0	0	0	0.2572562	-4.877911	0	3	100	0	4	-0.6104811	-0.2454575	-145.4633	
11:28:38	0	0	0	0.2572562	-4.877911	0	3	100	0	4	-0.5983807	-0.2470191	-145.4497	
11:28:38	0	0	0	0.2572562	-4.877911	0	3	100	0	4	-0.6137289	-0.237722	-145.4558	
11:28:38	0	0	0	0.2572562	-4.877911	0	3	100	0	4	-0.6144772	-0.2414656	-145.4668	
11:28:39	0	0	0	0.2572562	-4.877911	0	3	100	0	4	-0.6147417	-0.2441233	-145.4776	
11:28:39	0	0	0	0.2018087	-8.317459	0	3	100	0	4	-0.6301906	-0.2412574	-145.4838	
11:28:39	0	0	0	0.2018087	-8.317459	0	3	100	0	4	-0.6377878	-0.227455	-145.4836	
11:28:39	0	0	0	0.2018087	-8.317459	0	3	100	0	4	-0.6345148	-0.2279572	-145.4887	
11:28:39	0	0	0	0.2018087	-8.317459	0	3	100	0	4	-0.6248703	-0.2155293	-145.476	
11:28:40	0	0	0	0.2018087	-8.317459	0	3	100	0	4	-0.6160492	-0.2247332	-145.4777	
11:28:40	0	0	0	0.0698909	-13.88747	0	3	100	0	4	-0.6057357	-0.2480961	-145.4755	
11:28:40	0	0	0	0.0698909	-13.88747	0	3	100	0	4	-0.5847913	-0.2262571	-145.4605	
11:28:40	0	0	0	0.0698909	-13.88747	0	3	100	0	4	-0.5768673	-0.2288774	-145.4474	
11:28:40	0	0	0	0.0698909	-13.88747	0	3	100	0	4	-0.5774916	-0.2455881	-145.4434	
11:28:41	0	0	0	0.0698909	-13.88747	0	3	100	0	4	-0.5831514	-0.2282935	-145.4393	
11:28:41	0	0	0	0.1774157	-4.685427	0	3	100	0	4	-0.5741333	-0.2081564	-145.4454	
11:28:41	0	0	0	0.1774157	-4.685427	0	3	100	0	4	-0.5753124	-0.2081134	-145.4544	
11:28:41	0	0	0	0.1774157	-4.685427	0	3	100	0	4	-0.5612338	-0.2227493	-145.4635	
11:28:41	0	0	0	0.1774157	-4.685427	0	3	100	0	4	-0.5665461	-0.2361723	-145.4652	
11:28:42	0	0	0	0.1774157	-4.685427	0	3	100	0	4	-0.5564417	-0.2237406	-145.459	
11:28:42	0	0	0	0.1341864	-6.977095	0	3	100	0	4	-0.5531746	-0.230905	-145.4489	
11:28:42	0	0	0	0.1341864	-6.977095	0	3	100	0	4	-0.548906	-0.2085103	-145.4335	
11:28:42	0	0	0	0.1341864	-6.977095	0	3	100	0	4	-0.5418367	-0.2047481	-145.4208	
11:28:42	0	0	0	0.1341864	-6.977095	0	3	100	0	4	-0.5422353	-0.2042905	-145.4242	
11:28:43	0	0	0	0.1341864	-6.977095	0	3	100	0	4	-0.5439975	-0.2036495	-145.4165	
11:28:43	0	0	0	0.274393	0.447189	0	3	100	0	5	-0.5514523	-0.216078	-145.4011	
11:28:43	0	0	0	0.274393	0.447189	0	3	100	0	5	-0.5522605	-0.2166525	-145.4163	
11:28:43	0	0	0	0.274393	0.447189	0	3	100	0	5	-0.554377	-0.217469	-145.4159	
11:28:44	0	0	0	0.274393	0.447189	0	3	100	0	5	-0.5569399	-0.2101695	-145.3982	
11:28:44	0	0	0	0.274393	0.447189	0	3	100	0	5	-0.5498595	-0.2066912	-145.4025	
11:28:44	0	0	0	0.4449784	5.62114	0	3	100	0	4	-0.5452122	-0.1923773	-145.4004	
11:28:44	0	0	0	0.4449784	5.62114	0	3	100	0	4	-0.5430977	-0.1851054	-145.4042	
11:28:44	0	0	0	0.4449784	5.62114	0	3	100	0	4	-0.5419831	-0.1669634	-145.407	
11:28:45	0	0	0	0.4449784	5.62114	0	3	100	0	4	-0.5444529	-0.1594387	-145.405	
11:28:45	0	0	0	0.4449784	5.62114	0	3	100	0	4	-0.5511562	-0.1658665	-145.4048	
11:28:45	0	0	0	0.5326722	5.326893	0	3	100	0	4	-0.5474169	-0.170743	-145.3884	
11:28:45	0	0	0	0.5326722	5.326893	0	3	100	0	4	-0.552717	-0.1831129	-145.3837	
11:28:45	0	0	0	0.5326722	5.326893	0	3	100	0	4	-0.5447376	-0.1720579	-145.391	
11:28:46	0	0	0	0.5326722	5.326893	0	3	100	0	4	-0.5365682	-0.166014	-145.3755	
11:28:46	0	0	0	0.5326722	5.326893	0	3	100	0	4	-0.5284495	-0.1550785	-145.3752	
11:28:46	0	0	0	0.7435495	10.22522	0	3	100	0	4	-0.5278819	-0.1647356	-145.372	
11:28:46	0	0	0	0.7435495	10.22522	0	3	100	0	4	-0.523719	-0.1701133	-145.3764	
11:28:46	0	0	0	0.7435495	10.22522	0	3	100	0	4	-0.5230664	-0.1661787	-145.369	
11:28:47	0	0	0	0.7435495	10.22522	0	3	100	0	4	-0.522064	-0.1439601	-145.3652	
11:28:47	0	0	0	0.7435495	10.22522	0	3	100	0	4	-0.5170671	-0.1484057	-145.3768	
11:28:47	0	0	0	0.8755145	9.704492	0	3	100	0	4	-0.5198057	-0.138687	-145.3748	
11:28:47	0	0	0	0.8755145	9.704492	0	3	100	0	4	-0.5222275	-0.1542203	-145.379	
11:28:47	0	0	0	0.8755145	9.704492	0	3	100	0	4	-0.5216873	-0.1581769	-145.3911	
11:28:48	0	0	0	0.8755145	9.704492	0	3	100	0	4	-0.5305355	-0.1551781	-145.3956	
11:28:48	0	0	0	0.8755145	9.704492	0	3	100	0	4	-0.5220737	-0.1498295	-145.3998	
11:28:48	0	0	0	0.7579407	-0.1006329	0	3	100	0	4	-0.5115737	-0.1441167	-145.4056	
11:28:48	0	0	0	0.7579407	-0.1006329	0	3	100	0	4	-0.5078855	-0.1364804	-145.403	
11:28:48	0	0	0	0.7579407	-0.1006329	0	3	100	0	4	-0.5095512	-0.1351856	-145.4017	
11:28:49	0	0	0	0.7579407	-0.1006329	0	3	100	0	4	-0.516588	-0.1527304	-145.3882	
11:28:49	0	0	0	0.7579407	-0.1006329	0	3	100	0	4	-0.5190622	-0.1655744	-145.3724	
11:28:49	0	0	0	0.3577209	-18.1531	0	3	100	0	4	-0.5147458	-0.1653621	-145.3772	
11:28:49	0	0	0	0.3577209	-18.1531	0	3	100	0	4	-0.5121114	-0.1628531	-145.385	
11:28:49	0	0	0	0.3577209	-18.1531	0	3	100	0	4	-0.5063511	-0.1436448	-145.3841	
11:28:50	0	0	0	0.3577209	-18.1531	0	3	100	0	4	-0.5112469	-0.1636409	-145.376	
11:28:50	0	0	0	0.3577209	-18.1531	0	3	100	0	4	-0.5104158	-0.1621323	-145.3606	
11:28:50	0	0	0	0.02068125	-27.93286	0	3	100	0	4	-0.5108289	-0.1515983	-145.3547	
11:28:50	0	0	0	0.02068125	-27.93286	0	3	100	0	4	-0.5134538	-0.1484424	-145.367	
11:28:50	0	0	0	0.02068125	-27.93286	0	3	100	0	4	-0.5240829	-0.1556631	-145.3746	
11:28:51	0	0	0	0.02068125	-27.93286	0	3	100	0	4	-0.5328903	-0.1385834	-145.3637	
11:28:51	0	0	0	0.02068125	-27.93286	0	3	100	0	4	-0.5446546	-0.1381501	-145.3568	
11:28:51	0	0	0	-0.0363052	-20.55039	0	3	100	0	5	-0.5564655	-0.1372646	-145.3723	
11:28:51	0	0	0	-0.0363052	-20.55039	0	3	100	0	5	-0.5616359	-0.1343722	-145.3652	
11:28:51	0	0	0	-0.0363052	-20.55039	0	3	100	0	5	-0.5620388	-0.1337963	-145.3533	
11:28:52	0	0	0	-0.0363052	-20.55039	0	3	100	0	5	-0.5643054	-0.1412447	-145.3596	
11:28:52	0	0	0	-0.0363052	-20.55039	0	3	100	0	5	-0.5650185	-0.1407876	-145.3732	
11:28:52	0	0	0	0.08126505	-9.373442	0	3	100	0	4	-0.5720268	-0.1229157	-145.3855	
11:28:52	0	0	0	0.08126505	-9.373442	0	3	100	0	4	-0.5693194	-0.1112903	-145.3961	
11:28:52	0	0	0	0.08126505	-9.373442	0	3	100	0	4	-0.5757434	-0.1226805	-145.3876	
11:28:53	0	0	0	0.08126505	-9.373442	0	3	100	0	4	-0.5803783	-0.1193821	-145.3715	
11:28:53	0	0	0	0.08126505	-9.373442	0	3	100	0	4	-0.5780764	-0.1174889	-145.3767	
11:28:53	0	0	0	0.2154846	-0.4987743	0	3	100	0	4	-0.5498361	-0.1090858	-145.3848	
11:28:53	0	0	0	0.2154846	-0.4987743	0	3	100	0	4	-0.5491471	-0.1135774	-145.3845	
11:28:53	0	0	0	0.2154846	-0.4987743	0	3	100	0	4	-0.5548518	-0.1195923	-145.3799	
11:28:54	0	0	0	0.2154846	-0.4987743	0	3	100	0	4	-0.5671657	-0.1368482	-145.3759	
11:28:54	0	0	0	0.2154846	-0.4987743	0	3	100	0	4	-0.5773571	-0.1450422	-145.3784	
11:28:54	0	0	0	0.5841514	14.55339	0	3	100	0	4	-0.5845883	-0.1605425	-145.3783	
11:28:54	0	0	0	0.5841514	14.55339	0	3	100	0	4	-0.5906587	-0.1491364	-145.3833	
11:28:54	0	0	0	0.5841514	14.55339	0	3	100	0	4	-0.5856519	-0.1436696	-145.3783	
11:28:55	0	0	0	0.5841514	14.55339	0	3	100	0	4	-0.5888278	-0.1336107	-145.3962	
11:28:55	0	0	0	0.5841514	14.55339	0	3	100	0	4	-0.5811837	-0.1585999	-145.3942	
11:28:55	0	0	0	0.6655821	10.04518	0	3	100	0	5	-0.5891851	-0.1859369	-145.394	
11:28:55	0	0	0	0.6655821	10.04518	0	3	100	0	5	-0.5893147	-0.1900073	-145.4033	
11:28:55	0	0	0	0.6655821	10.04518	0	3	100	0	5	-0.6024039	-0.2040124	-145.4026	
11:28:56	0	0	0	0.6655821	10.04518	0	3	100	0	5	-0.6064306	-0.1988239	-145.3948	
11:28:56	0	0	0	0.6655821	10.04518	0	3	100	0	5	-0.596712	-0.2071496	-145.4104	
11:28:56	0	0	0	0.4801598	-1.493439	0	3	100	0	4	-0.6057312	-0.2125036	-145.4329	
11:28:56	0	0	0	0.4801598	-1.493439	0	3	100	0	4	-0.6018745	-0.2289709	-145.4449	
11:28:56	0	0	0	0.4801598	-1.493439	0	3	100	0	4	-0.6033962	-0.2354437	-145.4542	
11:28:57	0	0	0	0.4801598	-1.493439	0	3	100	0	4	-0.6072649	-0.2414302	-145.4511	
11:28:57	0	0	0	0.4801598	-1.493439	0	3	100	0	4	-0.6213289	-0.2504244	-145.4509	
11:28:57	0	0	0	0.4411802	-3.438655	0	3	100	0	4	-0.6271165	-0.2478507	-145.454	
11:28:57	0	0	0	0.4411802	-3.438655	0	3	100	0	4	-0.6298847	-0.2482464	-145.4632	
11:28:57	0	0	0	0.4411802	-3.438655	0	3	100	0	4	-0.6440735	-0.2329249	-145.4596	
11:28:58	0	0	0	0.4411802	-3.438655	0	3	100	0	4	-0.6545192	-0.2347004	-145.4651	
11:28:58	0	0	0	0.4411802	-3.438655	0	3	100	0	4	-0.659529	-0.2173536	-145.463	
11:28:58	0	0	0	0.5335017	1.400719	0	3	100	0	4	-0.6599038	-0.2110815	-145.4681	
11:28:58	0	0	0	0.5335017	1.400719	0	3	100	0	4	-0.6618456	-0.2114238	-145.4664	
11:28:58	0	0	0	0.5335017	1.400719	0	3	100	0	4	-0.6569034	-0.1966866	-145.4781	
11:28:59	0	0	0	0.5335017	1.400719	0	3	100	0	4	-0.6654097	-0.1921681	-145.4883	
11:28:59	0	0	0	0.5335017	1.400719	0	3	100	0	4	-0.6584762	-0.2095335	-145.5054	
11:28:59	0	0	0	0.4511583	-3.831051	0	3	100	0	4	-0.6596785	-0.2286887	-145.5001	
11:28:59	0	0	0	0.4511583	-3.831051	0	3	100	0	4	-0.6623758	-0.2539782	-145.4982	
11:28:59	0	0	0	0.4511583	-3.831051	0	3	100	0	4	-0.6675254	-0.2489887	-145.5153	
11:29:00	0	0	0	0.4511583	-3.831051	0	3	100	0	4	-0.6589037	-0.2593111	-145.5197	
11:29:00	0	0	0	0.4511583	-3.831051	0	3	100	0	4	-0.6512535	-0.2574616	-145.5276	
11:29:00	0	0	0	0.4875786	-0.4689232	0	3	100	0	4	-0.6465153	-0.2502669	-145.5317	
11:29:00	0	0	0	0.4875786	-0.4689232	0	3	100	0	4	-0.6450768	-0.2634844	-145.5409	
11:29:00	0	0	0	0.4875786	-0.4689232	0	3	100	0	4	-0.6463857	-0.2641838	-145.538	
11:29:01	0	0	0	0.4875786	-0.4689232	0	3	100	0	4	-0.645024	-0.2481238	-145.5236	
11:29:01	0	0	0	0.4875786	-0.4689232	0	3	100	0	4	-0.6385409	-0.2407366	-145.5105	
11:29:01	0	0	0	0.5939031	3.731851	0	3	100	0	4	-0.6424598	-0.239421	-145.5128	
11:29:01	0	0	0	0.5939031	3.731851	0	3	100	0	4	-0.6481304	-0.2332627	-145.5085	
11:29:01	0	0	0	0.5939031	3.731851	0	3	100	0	4	-0.6551847	-0.2485796	-145.5185	
11:29:02	0	0	0	0.5939031	3.731851	0	3	100	0	4	-0.6553869	-0.2556767	-145.5203	
11:29:02	0	0	0	0.5939031	3.731851	0	3	100	0	4	-0.6624538	-0.2548021	-145.5124	
11:29:02	0	0	0	0.6618175	6.698845	0	3	100	0	4	-0.6644251	-0.2785028	-145.5033	
11:29:02	0	0	0	0.6618175	6.698845	0	3	100	0	4	-0.6696286	-0.2940989	-145.5112	
11:29:02	0	0	0	0.6618175	6.698845	0	3	100	0	4	-0.6698135	-0.3065686	-145.4927	
11:29:03	0	0	0	0.6618175	6.698845	0	3	100	0	4	-0.6698906	-0.3286526	-145.4917	
11:29:03	0	0	0	0.6618175	6.698845	0	3	100	0	4	-0.6682773	-0.3273743	-145.4889	
11:29:03	0	0	0	0.5734106	-0.1340005	0	3	100	0	4	-0.6517078	-0.3097058	-145.496	
11:29:03	0	0	0	0.5734106	-0.1340005	0	3	100	0	4	-0.6537123	-0.2962784	-145.4883	
11:29:03	0	0	0	0.5734106	-0.1340005	0	3	100	0	4	-0.6476206	-0.2907875	-145.4858	
11:29:04	0	0	0	0.5734106	-0.1340005	0	3	100	0	4	-0.6457174	-0.2367696	-145.472	
11:29:04	0	0	0	0.5734106	-0.1340005	0	3	100	0	4	-0.6731048	-0.1920769	-145.4743	
11:29:04	0	0	0	0.7783667	20.14546	0	3	100	0	4	-0.6726099	-0.1967156	-145.4762	
11:29:04	0	0	0	0.7783667	20.14546	0	3	100	0	4	-0.665478	-0.1817018	-145.4848	
11:29:04	0	0	0	0.7783667	20.14546	0	3	100	0	4	-0.6651861	-0.1791139	-145.4861	
11:29:05	0	0	0	0.7783667	20.14546	0	3	100	0	4	-0.65925	-0.1611011	-145.4684	
11:29:05	0	0	0	0.7783667	20.14546	0	3	100	0	4	-0.6563603	-0.1510074	-145.4733	
11:29:05	0	0	0	0.7288927	7.183009	0	3	100	0	4	-0.6533408	-0.1478953	-145.471	
11:29:05	0	0	0	0.7288927	7.183009	0	3	100	0	4	-0.6537191	-0.159002	-145.4813	
11:29:05	0	0	0	0.7288927	7.183009	0	3	100	0	4	-0.6521051	-0.1752273	-145.4718	
11:29:06	0	0	0	0.7288927	7.183009	0	3	100	0	4	-0.6559376	-0.1862663	-145.495	
11:29:06	0	0	0	0.7288927	7.183009	0	3	100	0	4	-0.6654201	-0.2301136	-145.4898	
11:29:06	0	0	0	0.5792978	-3.142908	0	3	100	0	4	-0.6579295	-0.2180846	-145.4957	
11:29:06	0	0	0	0.5792978	-3.142908	0	3	100	0	4	-0.6683739	-0.2439824	-145.4963	
11:29:06	0	0	0	0.5792978	-3.142908	0	3	100	0	4	-0.6559894	-0.2532587	-145.5182	
11:29:07	0	0	0	0.5792978	-3.142908	0	3	100	0	4	-0.647515	-0.2680787	-145.5116	
11:29:07	0	0	0	0.5792978	-3.142908	0	3	100	0	4	-0.6408741	-0.2698833	-145.5002	
11:29:07	0	0	0	0.4591373	-8.474609	0	3	100	0	4	-0.630762	-0.2718563	-145.4944	
11:29:07	0	0	0	0.4591373	-8.474609	0	3	100	0	4	-0.6302043	-0.2619756	-145.5011	
11:29:07	0	0	0	0.4591373	-8.474609	0	3	100	0	4	-0.6297837	-0.2585082	-145.4936	
11:29:08	0	0	0	0.4591373	-8.474609	0	3	100	0	4	-0.6361334	-0.2646175	-145.4994	
11:29:08	0	0	0	0.4591373	-8.474609	0	3	100	0	4	-0.6441309	-0.2579735	-145.5107	
11:29:08	0	0	0	0.3009967	-10.20979	0	3	100	0	4	-0.6423615	-0.2627906	-145.5258	
11:29:08	0	0	0	0.3009967	-10.20979	0	3	100	0	4	-0.6475069	-0.2522265	-145.5276	
11:29:08	0	0	0	0.3009967	-10.20979	0	3	100	0	4	-0.6427616	-0.2506443	-145.5242	
11:29:09	0	0	0	0.3009967	-10.20979	0	3	100	0	4	-0.6376876	-0.2449058	-145.5191	
11:29:09	0	0	0	0.3009967	-10.20979	0	3	100	0	4	-0.625259	-0.2394962	-145.5264	
11:29:09	0	0	0	0.2359021	-10.81133	0	3	100	0	4	-0.6199335	-0.2327492	-145.5502	
11:29:09	0	0	0	0.2359021	-10.81133	0	3	100	0	4	-0.634074	-0.2262674	-145.5764	
11:29:09	0	0	0	0.2359021	-10.81133	0	3	100	0	4	-0.6507649	-0.2414581	-145.603	
11:29:10	0	0	0	0.2359021	-10.81133	0	3	100	0	4	-0.6642906	-0.230391	-145.6157	
11:29:10	0	0	0	0.2359021	-10.81133	0	3	100	0	4	-0.6627185	-0.2268984	-145.6352	
11:29:10	0	0	0	0.188004	-11.68216	0	3	100	0	4	-0.6563496	-0.2250464	-145.654	
11:29:10	0	0	0	0.188004	-11.68216	0	3	100	0	4	-0.656109	-0.2336689	-145.6649	
11:29:10	0	0	0	0.188004	-11.68216	0	3	100	0	4	-0.6478682	-0.2398342	-145.681	
11:29:11	0	0	0	0.188004	-11.68216	0	3	100	0	4	-0.6582071	-0.2382512	-145.6919	
11:29:11	0	0	0	0.188004	-11.68216	0	3	100	0	4	-0.6036055	-0.237591	-145.8295	
11:29:11	0	0	0	0.1277666	-9.012318	0	3	100	0	4	-0.6084862	-0.2608985	-145.7778	
11:29:11	0	0	0	0.1277666	-9.012318	0	3	100	0	4	-0.614944	-0.2668741	-145.7862	
11:29:11	0	0	0	0.1277666	-9.012318	0	3	100	0	4	-0.6045603	-0.2907702	-145.837	
11:29:12	0	0	0	0.1277666	-9.012318	0	3	100	0	4	-0.5198839	-0.31972	-146.0536	
11:29:12	0	0	0	0.1277666	-9.012318	0	3	100	0	4	-0.5383428	-0.316211	-146.0215	
11:29:12	0	0	0	0.3456705	3.055556	0	3	100	0	4	-0.6020999	-0.284842	-145.8895	
11:29:12	0	0	0	0.3456705	3.055556	0	3	100	0	4	-0.6155666	-0.2682768	-145.8643	
11:29:13	0	0	0	0.3456705	3.055556	0	3	100	0	4	-0.6157467	-0.2650858	-145.8488	
11:29:13	0	0	0	0.3456705	3.055556	0	3	100	0	4	-0.6160331	-0.270193	-145.8574	
11:29:13	0	0	0	0.3456705	3.055556	0	3	100	0	4	-0.623567	-0.2603055	-145.8569	
11:29:13	0	0	0	0.4782746	4.748044	0	3	100	0	4	-0.6379956	-0.2605744	-145.8555	
11:29:13	0	0	0	0.4782746	4.748044	0	3	100	0	4	-0.6385794	-0.2453474	-145.8681	
11:29:14	0	0	0	0.4782746	4.748044	0	3	100	0	4	-0.6434647	-0.2472538	-145.8762	
11:29:14	0	0	0	0.4782746	4.748044	0	3	100	0	4	-0.6385092	-0.2420078	-145.8871	
11:29:14	0	0	0	0.4782746	4.748044	0	3	100	0	4	-0.6387485	-0.2528257	-145.891	
11:29:14	0	0	0	0.5343412	4.660592	0	3	100	0	4	-0.6332777	-0.2540907	-145.8988	
11:29:14	0	0	0	0.5343412	4.660592	0	3	100	0	4	-0.6222993	-0.240107	-145.8926	
11:29:15	0	0	0	0.5343412	4.660592	0	3	100	0	4	-0.6151778	-0.2422144	-145.8999	
11:29:15	0	0	0	0.5343412	4.660592	0	3	100	0	4	-0.6311959	-0.259109	-145.8643	
11:29:15	0	0	0	0.5343412	4.660592	0	3	100	0	4	-0.6315975	-0.26372	-145.8707	
11:29:15	0	0	0	0.4047922	-8.234212	0	3	100	0	4	-0.6484208	-0.2514944	-145.8715	
11:29:15	0	0	0	0.4047922	-8.234212	0	3	100	0	4	-0.6531806	-0.2198302	-145.8665	
11:29:16	0	0	0	0.4047922	-8.234212	0	3	100	0	4	-0.70877	-0.2097932	-145.8247	
11:29:16	0	0	0	0.4047922	-8.234212	0	3	100	0	4	-1.02161	-0.1933888	-145.6753	
11:29:16	0	0	0	0.4047922	-8.234212	0	3	100	0	4	-1.722006	-0.1047107	-145.5184	
11:29:16	0	0	0	0.2900555	-10.54681	0	3	100	0	4	-2.615305	0.01027164	-145.4749	
11:29:16	0	0	0	0.2900555	-10.54681	0	3	100	0	4	-2.189739	-0.06608225	-145.5409	
11:29:17	0	0	0	0.2900555	-10.54681	0	3	100	0	4	-1.325499	-0.1783363	-145.9123	
11:29:17	0	0	0	0.2900555	-10.54681	0	3	100	0	4	-1.158147	-0.1811032	-146.0069	
11:29:17	0	0	0	0.2900555	-10.54681	0	3	100	0	4	-1.079063	-0.2141168	-146.0618	
11:29:17	0	0	0	0.2751313	-10.34192	0	3	100	0	4	-1.026033	-0.2262949	-146.108	
11:29:17	0	0	0	0.2751313	-10.34192	0	3	100	0	4	-0.9827436	-0.2279044	-146.1413	
11:29:18	0	0	0	0.2751313	-10.34192	0	3	100	0	4	-0.9582425	-0.2267669	-146.1827	
11:29:18	0	0	0	0.2751313	-10.34192	0	3	100	0	4	-1.230412	-0.1772782	-146.149	
11:29:18	0	0	0	0.2751313	-10.34192	0	3	100	0	4	-2.009207	-0.07126384	-146.012	
11:29:18	0	0	0	0.287838	-6.483999	0	3	100	0	4	-3.205058	0.1319557	-145.9739	
11:29:18	0	0	0	0.287838	-6.483999	0	3	100	0	4	-5.551255	0.4767289	-146.0523	
11:29:19	0	0	0	0.287838	-6.483999	0	3	100	0	4	-23.60976	0.8894079	-148.6533	
11:29:19	0	0	0	0.287838	-6.483999	0	3	100	0	4	-36.85019	-3.900266	-153.1261	
11:29:19	0	0	0	0.287838	-6.483999	0	3	100	0	4	-44.99881	-3.457539	-158.8946	
11:29:19	0	0	0	0.3422983	-7.505196	0	3	100	0	4	-40.38844	-4.450137	-160.1033	
11:29:19	0	0	0	0.3422983	-7.505196	0	3	100	0	4	-33.86242	-4.164091	-162.8721	
11:29:20	0	0	0	0.3422983	-7.505196	0	3	100	0	4	-29.26653	-5.282719	-163.4756	
11:29:20	0	0	0	0.3422983	-7.505196	0	3	100	0	4	-26.0409	-5.909304	-162.6352	
11:29:20	0	0	0	0.3422983	-7.505196	0	3	100	0	4	-29.05086	-7.421263	-160.4811	
11:29:20	0	0	0	0.5095273	0.4829526	0	3	100	0	4	-13.62196	-8.698097	-158.6637	
11:29:20	0	0	0	0.5095273	0.4829526	0	3	100	0	4	2.494832	-10.14213	-155.7039	
11:29:21	0	0	0	0.5095273	0.4829526	0	3	100	0	4	-1.998222	-9.514908	-155.3172	
11:29:21	0	0	0	0.5095273	0.4829526	0	3	100	0	4	-26.0912	-9.943896	-159.3917	
11:29:21	0	0	0	0.5095273	0.4829526	0	3	100	0	4	-34.22154	-10.23143	-160.4376	
11:29:21	0	0	0	0.769572	3.068693	0	3	100	0	4	-33.8892	-8.617677	-159.7476	
11:29:21	0	0	0	0.769572	3.068693	0	3	100	0	4	-33.59303	-8.179057	-160.5036	
11:29:22	0	0	0	0.769572	3.068693	0	3	100	0	4	-26.12564	-7.711261	-162.4336	
11:29:22	0	0	0	0.769572	3.068693	0	3	100	0	4	-18.10393	-7.777797	-168.005	
11:29:22	0	0	0	0.769572	3.068693	0	3	100	0	4	-14.8361	-6.724459	-174.8929	
11:29:22	0	0	0	0.6030412	-15.36259	0	3	100	0	4	-13.57454	-5.857272	-177.2856	
11:29:22	0	0	0	0.6030412	-15.36259	0	3	100	0	4	-20.88947	-7.398564	-179.5407	
11:29:23	0	0	0	0.6030412	-15.36259	0	3	100	0	4	-24.44972	-4.853834	177.3053	
11:29:23	0	0	0	0.6030412	-15.36259	0	3	100	0	4	-5.867156	-4.574184	177.3043	
11:29:23	0	0	0	0.6030412	-15.36259	0	3	100	0	4	3.735334	-4.005106	177.6281	
11:29:23	0	0	0	0.4577458	-20.83047	0	3	100	0	4	17.29178	-6.378412	179.7666	
11:29:23	0	0	0	0.4577458	-20.83047	0	3	100	0	4	27.3329	-11.76069	-176.6105	
11:29:24	0	0	0	0.4577458	-20.83047	0	3	100	0	4	-9.255823	-16.6116	-176.002	
11:29:24	0	0	0	0.4577458	-20.83047	0	3	100	0	4	1.178831	-15.12612	-178.9167	
11:29:24	0	0	0	0.4577458	-20.83047	0	3	100	0	4	-1.229168	-18.21348	-169.9975	
11:29:24	0	0	0	0.5603622	-23.50583	0	3	100	0	4	0.5149974	-13.94396	-175.5827	
11:29:24	0	0	0	0.5603622	-23.50583	0	3	100	0	4	10.31798	-15.71958	-169.8099	
11:29:25	0	0	0	0.5603622	-23.50583	0	3	100	0	4	8.558227	-16.014	-167.3921	
11:29:25	0	0	0	0.5603622	-23.50583	0	3	100	0	4	13.2544	-13.99619	-168.6479	
11:29:25	0	0	0	0.5603622	-23.50583	0	3	100	0	4	12.78795	-12.36092	-170.2715	
11:29:25	0	0	0	0.5762123	5.541603	0	3	100	0	4	12.29513	-9.51776	-172.0597	
11:29:25	0	0	0	0.5762123	5.541603	0	3	100	0	4	10.9867	-8.503415	-171.3814	
11:29:26	0	0	0	0.5762123	5.541603	0	3	100	0	4	10.12614	-7.681804	-170.6854	
11:29:26	0	0	0	0.5762123	5.541603	0	3	100	0	4	7.532968	-10.12564	-169.636	
11:29:26	0	0	0	0.5762123	5.541603	0	3	100	0	4	0.8394614	-11.36428	-166.1803	
11:29:26	0	0	0	0.6976962	13.38896	0	3	100	0	4	-2.15562	-11.51742	-163.2833	
11:29:26	0	0	0	0.6976962	13.38896	0	3	100	0	4	-1.235913	-11.41802	-163.8141	
11:29:27	0	0	0	0.6976962	13.38896	0	3	100	0	4	0.09916419	-11.50647	-163.1575	
11:29:27	0	0	0	0.6976962	13.38896	0	3	100	0	4	0.9867637	-11.39907	-163.2706	
11:29:27	0	0	0	0.6976962	13.38896	0	3	100	0	4	1.370866	-11.33404	-163.7587	
11:29:27	0	0	0	0.5966167	2.862619	0	3	100	0	4	0.3177795	-11.17589	-163.9126	
11:29:27	0	0	0	0.5966167	2.862619	0	3	100	0	4	1.54381	-10.84046	-163.9489	
11:29:28	0	0	0	0.5966167	2.862619	0	3	100	0	4	0.7331895	-10.46158	-164.0306	
11:29:28	0	0	0	0.5966167	2.862619	0	3	100	0	4	2.520259	-10.14852	-164.0018	
11:29:28	0	0	0	0.5966167	2.862619	0	3	100	0	4	3.222781	-9.693769	-164.3109	
11:29:28	0	0	0	0.4804665	0.8680614	0	3	100	0	4	3.626921	-9.474914	-164.6422	
11:29:28	0	0	0	0.4804665	0.8680614	0	3	100	0	4	5.91506	-9.65396	-164.6661	
11:29:29	0	0	0	0.4804665	0.8680614	0	3	100	0	4	6.721184	-10.15156	-165.613	
11:29:29	0	0	0	0.4804665	0.8680614	0	3	100	0	4	8.653224	-10.37919	-165.4976	
11:29:29	0	0	0	0.4804665	0.8680614	0	3	100	0	4	6.867946	-10.45786	-166.444	
11:29:29	0	0	0	0.4813587	4.178912	0	3	100	0	4	6.401945	-10.82041	-166.383	
11:29:29	0	0	0	0.4813587	4.178912	0	3	100	0	4	7.633397	-10.77989	-166.0642	
11:29:30	0	0	0	0.4813587	4.178912	0	3	100	0	4	8.242876	-10.13688	-166.2953	
11:29:30	0	0	0	0.4813587	4.178912	0	3	100	0	4	7.969563	-8.883253	-166.6024	
11:29:30	0	0	0	0.4813587	4.178912	0	3	100	0	4	8.125435	-8.398632	-166.9379	
11:29:30	0	0	0	0.5302655	7.901266	0	3	100	0	4	9.631569	-5.927952	-169.9386	
11:29:30	0	0	0	0.5302655	7.901266	0	3	100	0	4	9.9489	-4.115571	-172.3585	
11:29:31	0	0	0	0.5302655	7.901266	0	3	100	0	4	10.45068	-3.683182	-172.8341	
11:29:31	0	0	0	0.5302655	7.901266	0	3	100	0	4	6.073165	-3.33756	-172.0998	
11:29:31	0	0	0	0.5302655	7.901266	0	3	100	0	4	4.731843	-3.156984	-171.3819	
11:29:31	0	0	0	0.4495203	2.316791	0	3	100	0	4	-1.684203	-2.958637	-171.1344	
11:29:31	0	0	0	0.4495203	2.316791	0	3	100	0	4	5.974372	-2.712676	-171.9611	
11:29:32	0	0	0	0.4495203	2.316791	0	3	100	0	4	0.6340975	-2.610808	-171.3488	
11:29:32	0	0	0	0.4495203	2.316791	0	3	100	0	4	-2.012994	-2.434126	-171.2002	
11:29:32	0	0	0	0.4495203	2.316791	0	3	100	0	4	-1.911208	-2.29934	-171.5565	
11:29:32	0	0	0	0.3053064	-4.145222	0	3	100	0	4	-1.773771	-2.208814	-171.9007	
11:29:32	0	0	0	0.3053064	-4.145222	0	3	100	0	4	-1.717743	-2.104497	-172.2206	
11:29:33	0	0	0	0.3053064	-4.145222	0	3	100	0	4	-1.680081	-2.006529	-172.513	
11:29:33	0	0	0	0.3053064	-4.145222	0	3	100	0	4	-1.662266	-1.901951	-172.8118	
11:29:33	0	0	0	0.3053064	-4.145222	0	3	100	0	4	-1.63552	-1.793659	-173.0741	
11:29:33	0	0	0	0.151695	-8.372668	0	3	100	0	4	-1.61345	-1.690198	-173.3489	
11:29:33	0	0	0	0.151695	-8.372668	0	3	100	0	4	-1.581525	-1.589491	-173.6074	
11:29:34	0	0	0	0.151695	-8.372668	0	3	100	0	4	-1.562582	-1.512555	-173.8502	
11:29:34	0	0	0	0.151695	-8.372668	0	3	100	0	4	-1.534261	-1.427682	-174.0532	
11:29:34	0	0	0	0.151695	-8.372668	0	3	100	0	4	-1.501375	-1.329839	-174.2304	
11:29:34	0	0	0	0.3345952	1.33631	0	3	100	0	4	-1.469688	-1.244799	-174.4017	
11:29:34	0	0	0	0.3345952	1.33631	0	3	100	0	4	-1.438057	-1.136249	-174.5598	
11:29:35	0	0	0	0.3345952	1.33631	0	3	100	0	4	-1.414551	-1.039021	-174.7156	
11:29:35	0	0	0	0.3345952	1.33631	0	3	100	0	4	-1.38842	-0.960287	-174.863	
11:29:35	0	0	0	0.3345952	1.33631	0	3	100	0	4	-1.361507	-0.8775176	-174.9981	
11:29:35	0	0	0	0.2336671	-2.353374	0	3	100	0	4	-1.328871	-0.7965867	-175.1339	
11:29:35	0	0	0	0.2336671	-2.353374	0	3	100	0	4	-1.307612	-0.7220019	-175.2651	
11:29:36	0	0	0	0.2336671	-2.353374	0	3	100	0	4	-1.282151	-0.6444557	-175.3867	
11:29:36	0	0	0	0.2336671	-2.353374	0	3	100	0	4	-1.258558	-0.5703417	-175.5081	
11:29:36	0	0	0	0.2336671	-2.353374	0	3	100	0	4	-1.249485	-0.5091335	-175.6091	
11:29:36	0	0	0	0.07954074	-9.428261	0	3	100	0	4	-1.246206	-0.4586791	-175.7061	
11:29:36	0	0	0	0.07954074	-9.428261	0	3	100	0	4	-1.230417	-0.3928475	-175.7928	
11:29:37	0	0	0	0.07954074	-9.428261	0	3	100	0	4	-1.207002	-0.3165551	-175.8856	
11:29:37	0	0	0	0.07954074	-9.428261	0	3	100	0	4	-1.186408	-0.2577328	-175.9689	
11:29:37	0	0	0	0.07954074	-9.428261	0	3	100	0	4	-1.164695	-0.2037642	-176.043	
11:29:37	0	0	0	0.04565353	-7.020535	0	3	100	0	4	-1.148969	-0.1448351	-176.1016	
11:29:38	0	0	0	0.04565353	-7.020535	0	3	100	0	4	-1.135591	-0.09289697	-176.1681	
11:29:38	0	0	0	0.04565353	-7.020535	0	3	100	0	4	-1.117167	-0.06376211	-176.2227	
11:29:38	0	0	0	0.04565353	-7.020535	0	3	100	0	4	-1.104388	-0.02285804	-176.2751	
11:29:38	0	0	0	0.04565353	-7.020535	0	3	100	0	4	-1.09712	0.03705923	-176.34	
11:29:38	0	0	0	0.2582917	5.192797	0	3	100	0	4	-1.082891	0.0802916	-176.3875	
11:29:39	0	0	0	0.2582917	5.192797	0	3	100	0	4	-0.9315687	0.1078181	-176.4344	
11:29:39	0	0	0	0.2582917	5.192797	0	3	100	0	4	7.9175	0.04619155	-176.5347	
11:29:39	0	0	0	0.2582917	5.192797	0	3	100	0	4	2.671952	0.217437	-176.2363	
11:29:39	0	0	0	0.2582917	5.192797	0	3	100	0	4	1.668829	0.2338974	-176.1583	
11:29:39	0	0	0	0.4359896	10.24224	0	3	100	0	4	6.693029	0.3917383	-175.8056	
11:29:40	0	0	0	0.4359896	10.24224	0	3	100	0	4	-0.9254261	1.352169	-175.9789	
11:29:40	0	0	0	0.4359896	10.24224	0	3	100	0	4	7.56853	0.9268838	-175.9505	
11:29:40	0	0	0	0.4359896	10.24224	0	3	100	0	4	-3.260268	5.347116	-176.9425	
11:29:40	0	0	0	0.4359896	10.24224	0	3	100	0	4	-1.485607	0.4835081	-175.5701	
11:29:40	0	0	0	0.6161007	5.564981	0	3	100	0	4	-1.390599	0.3410915	-175.6312	
11:29:41	0	0	0	0.6161007	5.564981	0	3	100	0	4	-1.34448	0.37127	-175.7982	
11:29:41	0	0	0	0.6161007	5.564981	0	3	100	0	4	-1.305665	0.397543	-175.9643	
11:29:41	0	0	0	0.6161007	5.564981	0	3	100	0	4	-1.282866	0.4310878	-176.1091	
11:29:41	0	0	0	0.6161007	5.564981	0	3	100	0	4	-1.256508	0.464805	-176.2513	
11:29:41	0	0	0	0.4186231	-6.913475	0	3	100	0	4	-1.238098	0.499466	-176.3948	
11:29:42	0	0	0	0.4186231	-6.913475	0	3	100	0	4	-1.21178	0.5505524	-176.5301	
11:29:42	0	0	0	0.4186231	-6.913475	0	3	100	0	4	-1.192187	0.5978674	-176.6592	
11:29:42	0	0	0	0.4186231	-6.913475	0	3	100	0	4	-1.169701	0.6303297	-176.7958	
11:29:42	0	0	0	0.4186231	-6.913475	0	3	100	0	4	-1.155851	0.6782222	-176.9293	
11:29:42	0	0	0	0.2711059	-9.22693	0	3	100	0	4	-1.138177	0.7200571	-177.0381	
11:29:43	0	0	0	0.2711059	-9.22693	0	3	100	0	4	-1.122982	0.7644973	-177.1437	
11:29:43	0	0	0	0.2711059	-9.22693	0	3	100	0	4	-1.109511	0.7951363	-177.2482	
11:29:43	0	0	0	0.2711059	-9.22693	0	3	100	0	4	-1.093499	0.795849	-177.3521	
11:29:43	0	0	0	0.2711059	-9.22693	0	3	100	0	4	-1.094592	0.8181584	-177.4591	
11:29:43	0	0	0	0.310607	-6.44957	0	3	100	0	4	-1.079363	0.8402925	-177.553	
11:29:44	0	0	0	0.310607	-6.44957	0	3	100	0	4	-1.071055	0.8620469	-177.638	
11:29:44	0	0	0	0.310607	-6.44957	0	3	100	0	4	-1.051606	0.8913262	-177.7233	
11:29:44	0	0	0	0.310607	-6.44957	0	3	100	0	4	-1.026731	0.9052864	-177.817	
11:29:44	0	0	0	0.310607	-6.44957	0	3	100	0	4	-1.0236	0.9347397	-177.8917	
11:29:44	0	0	0	0.1617499	-8.636859	0	3	100	0	4	-1.012388	0.960443	-177.9578	
11:29:45	0	0	0	0.1617499	-8.636859	0	3	100	0	4	-0.9923697	0.9755475	-178.0185	
11:29:45	0	0	0	0.1617499	-8.636859	0	3	100	0	4	-0.9791054	0.9935513	-178.0852	
11:29:45	0	0	0	0.1617499	-8.636859	0	3	100	0	4	-0.9705903	0.9977949	-178.1358	
11:29:45	0	0	0	0.1617499	-8.636859	0	3	100	0	4	-0.9513906	1.013084	-178.1826	
11:29:45	0	0	0	0.3833255	3.896873	0	3	100	0	4	-0.9387996	1.018522	-178.2552	
11:29:46	0	0	0	0.3833255	3.896873	0	3	100	0	4	-0.9414462	1.026998	-178.3344	
11:29:46	0	0	0	0.3833255	3.896873	0	3	100	0	4	-0.9404044	1.030347	-178.4072	
11:29:46	0	0	0	0.3833255	3.896873	0	3	100	0	4	-0.9470674	1.026918	-178.4786	
11:29:46	0	0	0	0.3833255	3.896873	0	3	100	0	4	-0.9546718	1.009957	-178.5592	
11:29:46	0	0	0	0.5354694	8.452369	0	3	100	0	4	-0.9454176	1.029739	-178.6212	
11:29:47	0	0	0	0.5354694	8.452369	0	3	100	0	4	-0.9302628	1.04635	-178.6864	
11:29:47	0	0	0	0.5354694	8.452369	0	3	100	0	4	-0.913186	1.076248	-178.7446	
11:29:47	0	0	0	0.5354694	8.452369	0	3	100	0	4	-0.9063842	1.082455	-178.7981	
11:29:47	0	0	0	0.5354694	8.452369	0	3	100	0	4	-0.8991892	1.077816	-178.8445	
11:29:47	0	0	0	0.4373776	-0.1281393	0	3	100	0	4	-0.8905671	1.095097	-178.8872	
11:29:48	0	0	0	0.4373776	-0.1281393	0	3	100	0	4	-0.8890971	1.10527	-178.9276	
11:29:48	0	0	0	0.4373776	-0.1281393	0	3	100	0	4	-0.9012421	1.111278	-178.9738	
11:29:48	0	0	0	0.4373776	-0.1281393	0	3	100	0	4	-0.9096951	1.101263	-179.0225	
11:29:48	0	0	0	0.4373776	-0.1281393	0	3	100	0	4	-0.9154576	1.094771	-179.0752	
11:29:48	0	0	0	0.2101775	-8.205109	0	3	100	0	4	-0.9096296	1.101366	-179.0889	
11:29:49	0	0	0	0.2101775	-8.205109	0	3	100	0	4	-0.9101093	1.125053	-179.1235	
11:29:49	0	0	0	0.2101775	-8.205109	0	3	100	0	4	-0.9152626	1.140764	-179.1569	
11:29:49	0	0	0	0.2101775	-8.205109	0	3	100	0	4	-0.9061846	1.174446	-179.1888	
11:29:49	0	0	0	0.2101775	-8.205109	0	3	100	0	4	-0.8995335	1.178295	-179.2222	
11:29:49	0	0	0	0.3469329	2.215177	0	3	100	0	4	-0.8990168	1.192129	-179.241	
11:29:50	0	0	0	0.3469329	2.215177	0	3	100	0	4	-0.8857905	1.210638	-179.2683	
11:29:50	0	0	0	0.3469329	2.215177	0	3	100	0	4	-0.8802242	1.214336	-179.3066	
11:29:50	0	0	0	0.3469329	2.215177	0	3	100	0	4	-0.8755251	1.208936	-179.3383	
11:29:50	0	0	0	0.3469329	2.215177	0	3	100	0	4	-0.8725406	1.195502	-179.3664	
11:29:50	0	0	0	0.358207	1.796184	0	3	100	0	5	-0.879186	1.189019	-179.3939	
11:29:51	0	0	0	0.358207	1.796184	0	3	100	0	5	-0.8840423	1.167797	-179.4164	
11:29:51	0	0	0	0.358207	1.796184	0	3	100	0	5	-0.8903438	1.151312	-179.4563	
11:29:51	0	0	0	0.358207	1.796184	0	3	100	0	5	-0.8879772	1.143677	-179.4716	
11:29:51	0	0	0	0.358207	1.796184	0	3	100	0	5	-0.8900819	1.145073	-179.509	
11:29:51	0	0	0	0.1937098	-4.617913	0	3	100	0	4	-0.8780139	1.141526	-179.5344	
11:29:52	0	0	0	0.1937098	-4.617913	0	3	100	0	4	-0.8738521	1.114518	-179.5625	
11:29:52	0	0	0	0.1937098	-4.617913	0	3	100	0	4	-0.8733605	1.103611	-179.5771	
11:29:52	0	0	0	0.1937098	-4.617913	0	3	100	0	4	-0.8724152	1.100441	-179.5912	
11:29:52	0	0	0	0.1937098	-4.617913	0	3	100	0	4	-0.8657508	1.094343	-179.6067	
11:29:52	0	0	0	0.05092452	-9.660123	0	3	100	0	4	-0.8767707	1.100174	-179.6285	
11:29:53	0	0	0	0.05092452	-9.660123	0	3	100	0	4	-0.8858057	1.119146	-179.6396	
11:29:53	0	0	0	0.05092452	-9.660123	0	3	100	0	4	-0.8947356	1.141389	-179.6545	
11:29:53	0	0	0	0.05092452	-9.660123	0	3	100	0	4	-0.9100608	1.142575	-179.6724	
11:29:53	0	0	0	0.05092452	-9.660123	0	3	100	0	4	-0.9192454	1.12908	-179.6939	
11:29:53	0	0	0	-0.09350508	-12.24998	0	3	100	0	4	-0.9075252	1.112817	-179.718	
11:29:54	0	0	0	-0.09350508	-12.24998	0	3	100	0	4	-0.9032867	1.114672	-179.7276	
11:29:54	0	0	0	-0.09350508	-12.24998	0	3	100	0	4	-0.8999654	1.132021	-179.7538	
11:29:54	0	0	0	-0.09350508	-12.24998	0	3	100	0	4	-0.9012086	1.146495	-179.7665	
11:29:54	0	0	0	-0.09350508	-12.24998	0	3	100	0	4	-0.9045131	1.133925	-179.7939	
11:29:54	0	0	0	-0.0999914	-7.572444	0	3	100	0	4	-0.9025959	1.126627	-179.8091	
11:29:55	0	0	0	-0.0999914	-7.572444	0	3	100	0	4	-0.8982704	1.116683	-179.8338	
11:29:55	0	0	0	-0.0999914	-7.572444	0	3	100	0	4	-0.9103038	1.113608	-179.8475	
11:29:55	0	0	0	-0.0999914	-7.572444	0	3	100	0	4	-0.9039648	1.11319	-179.8544	
11:29:55	0	0	0	-0.0999914	-7.572444	0	3	100	0	4	-0.9028975	1.106494	-179.8731	
11:29:55	0	0	0	-0.05295683	-1.746876	0	3	100	0	4	-0.9071053	1.104952	-179.8962	
11:29:56	0	0	0	-0.05295683	-1.746876	0	3	100	0	4	-0.9050608	1.080759	-179.8896	
11:29:56	0	0	0	-0.05295683	-1.746876	0	3	100	0	4	-0.9163722	1.06304	-179.9056	
11:29:56	0	0	0	-0.05295683	-1.746876	0	3	100	0	4	-0.9178626	1.04191	-179.9156	
11:29:56	0	0	0	-0.05295683	-1.746876	0	3	100	0	4	-0.925131	1.021863	-179.9256	
11:29:56	0	0	0	0.2300979	9.796751	0	3	100	0	4	-0.9448477	0.9905224	-179.9292	
11:29:57	0	0	0	0.2300979	9.796751	0	3	100	0	4	-0.955546	0.9680536	-179.9058	
11:29:57	0	0	0	0.2300979	9.796751	0	3	100	0	4	-0.9669814	0.9546135	-179.9151	
11:29:57	0	0	0	0.2300979	9.796751	0	3	100	0	4	-0.9711425	0.9515557	-179.9361	
11:29:57	0	0	0	0.2300979	9.796751	0	3	100	0	4	-0.9763924	0.9262298	-179.9551	
11:29:57	0	0	0	0.3589166	11.00256	0	3	100	0	5	-0.9807942	0.9023056	-179.9655	
11:29:58	0	0	0	0.3589166	11.00256	0	3	100	0	5	-0.9886562	0.8849822	-179.9864	
11:29:58	0	0	0	0.3589166	11.00256	0	3	100	0	5	-0.9949081	0.8646355	179.9982	
11:29:58	0	0	0	0.3589166	11.00256	0	3	100	0	5	-1.006979	0.8466979	179.9896	
11:29:58	0	0	0	0.3589166	11.00256	0	3	100	0	5	-1.008553	0.8383039	179.9784	
11:29:58	0	0	0	0.4373595	9.118381	0	3	100	0	4	-1.006442	0.8292957	179.9663	
11:29:59	0	0	0	0.4373595	9.118381	0	3	100	0	4	-1.011159	0.8331236	179.9744	
11:29:59	0	0	0	0.4373595	9.118381	0	3	100	0	4	-1.018182	0.833411	179.9704	
11:29:59	0	0	0	0.4373595	9.118381	0	3	100	0	4	-1.033158	0.837635	179.951	
11:29:59	0	0	0	0.4373595	9.118381	0	3	100	0	4	-1.027371	0.8389862	179.9433	
11:29:59	0	0	0	0.6262261	13.67049	0	3	100	0	4	-1.03038	0.830689	179.9393	
11:30:00	0	0	0	0.6262261	13.67049	0	3	100	0	4	-1.039708	0.8005469	179.93	
11:30:00	0	0	0	0.6262261	13.67049	0	3	100	0	4	-1.049446	0.7929565	179.9184	
11:30:00	0	0	0	0.6262261	13.67049	0	3	100	0	4	-1.041413	0.7763389	179.9005	
11:30:00	0	0	0	0.6262261	13.67049	0	3	100	0	4	-1.040936	0.7840411	179.9034	
11:30:00	0	0	0	0.5201839	3.65487	0	3	100	0	4	-1.045413	0.7901714	179.8942	
11:30:01	0	0	0	0.5201839	3.65487	0	3	100	0	4	-1.038326	0.799324	179.8937	
11:30:01	0	0	0	0.5201839	3.65487	0	3	100	0	4	-1.042893	0.789371	179.896	
11:30:01	0	0	0	0.5201839	3.65487	0	3	100	0	4	-1.044142	0.781959	179.8907	
11:30:01	0	0	0	0.5201839	3.65487	0	3	100	0	4	-1.043458	0.7719629	179.8842	
11:30:01	0	0	0	0.387467	-2.974921	0	3	100	0	4	-1.051102	0.7651865	179.8829	
11:30:02	0	0	0	0.387467	-2.974921	0	3	100	0	4	-1.051897	0.7493431	179.8803	
11:30:02	0	0	0	0.387467	-2.974921	0	3	100	0	4	-1.047195	0.7116419	179.872	
11:30:02	0	0	0	0.387467	-2.974921	0	3	100	0	4	-1.045886	0.7049655	179.8686	
11:30:02	0	0	0	0.387467	-2.974921	0	3	100	0	4	-1.051609	0.6794407	179.8597	
11:30:02	0	0	0	0.2759296	-7.783169	0	3	100	0	4	-1.052892	0.6594991	179.8677	
11:30:03	0	0	0	0.2759296	-7.783169	0	3	100	0	4	-1.06137	0.6468021	179.848	
11:30:03	0	0	0	0.2759296	-7.783169	0	3	100	0	4	-1.060518	0.628648	179.8583	
11:30:03	0	0	0	0.2759296	-7.783169	0	3	100	0	4	-1.071684	0.6437318	179.8373	
11:30:03	0	0	0	0.2759296	-7.783169	0	3	100	0	4	-1.082941	0.6381968	179.8251	
11:30:04	0	0	0	0.03214379	-16.51568	0	3	100	0	4	-1.087642	0.6222762	179.8015	
11:30:04	0	0	0	0.03214379	-16.51568	0	3	100	0	4	-1.086157	0.5813779	179.7823	
11:30:04	0	0	0	0.03214379	-16.51568	0	3	100	0	4	-1.089388	0.5753227	179.7679	
11:30:04	0	0	0	0.03214379	-16.51568	0	3	100	0	4	-1.092155	0.5598774	179.7626	
11:30:04	0	0	0	0.03214379	-16.51568	0	3	100	0	4	-1.094686	0.571685	179.7664	
11:30:05	0	0	0	0.05131316	-7.705694	0	3	100	0	4	-1.091305	0.5606174	179.7734	
11:30:05	0	0	0	0.05131316	-7.705694	0	3	100	0	4	-1.093678	0.5364866	179.7663	
11:30:05	0	0	0	0.05131316	-7.705694	0	3	100	0	4	-1.089468	0.5418912	179.7559	
11:30:05	0	0	0	0.05131316	-7.705694	0	3	100	0	4	-1.092286	0.526822	179.745	
11:30:05	0	0	0	0.05131316	-7.705694	0	3	100	0	4	-1.095092	0.5077612	179.7393	
11:30:06	0	0	0	0.140092	-0.4779725	0	3	100	0	4	-1.104421	0.498168	179.7518	
11:30:06	0	0	0	0.140092	-0.4779725	0	3	100	0	4	-1.128621	0.4810384	179.7442	
11:30:06	0	0	0	0.140092	-0.4779725	0	3	100	0	4	-1.12256	0.4898517	179.7429	
11:30:06	0	0	0	0.140092	-0.4779725	0	3	100	0	4	-1.123129	0.4618745	179.7429	
11:30:06	0	0	0	0.140092	-0.4779725	0	3	100	0	4	-1.114701	0.462096	179.7455	
11:30:07	0	0	0	0.2587082	5.476469	0	3	100	0	4	-1.103291	0.4549512	179.747	
11:30:07	0	0	0	0.2587082	5.476469	0	3	100	0	4	-1.109606	0.4384426	179.7511	
11:30:07	0	0	0	0.2587082	5.476469	0	3	100	0	4	-1.122328	0.434635	179.7429	
11:30:07	0	0	0	0.2587082	5.476469	0	3	100	0	4	-1.120439	0.423549	179.7564	
11:30:07	0	0	0	0.2587082	5.476469	0	3	100	0	4	-1.119918	0.4190974	179.7562	
11:30:08	0	0	0	0.3676382	6.999021	0	3	100	0	4	-1.122115	0.4103178	179.7605	
11:30:08	0	0	0	0.3676382	6.999021	0	3	100	0	4	-1.125493	0.396287	179.7764	
11:30:08	0	0	0	0.3676382	6.999021	0	3	100	0	4	-1.115741	0.3962074	179.7658	
11:30:08	0	0	0	0.3676382	6.999021	0	3	100	0	4	-1.115062	0.4069761	179.7706	
11:30:08	0	0	0	0.3676382	6.999021	0	3	100	0	4	-1.111186	0.4130517	179.7713	
11:30:09	0	0	0	0.4209839	6.576746	0	3	100	0	4	-1.102092	0.4058844	179.7804	
11:30:09	0	0	0	0.4209839	6.576746	0	3	100	0	4	-1.096709	0.4095464	179.7685	
11:30:09	0	0	0	0.4209839	6.576746	0	3	100	0	4	-1.100504	0.413209	179.7676	
11:30:09	0	0	0	0.4209839	6.576746	0	3	100	0	4	-1.100523	0.4091202	179.7689	
11:30:09	0	0	0	0.4209839	6.576746	0	3	100	0	4	-1.110268	0.3991739	179.7731	
11:30:10	0	0	0	0.573752	9.904896	0	3	100	0	4	-1.110038	0.4144815	179.7515	
11:30:10	0	0	0	0.573752	9.904896	0	3	100	0	4	-1.106097	0.3931399	179.7519	
11:30:10	0	0	0	0.573752	9.904896	0	3	100	0	4	-1.105835	0.3785215	179.7547	
11:30:10	0	0	0	0.573752	9.904896	0	3	100	0	4	-1.094321	0.3805749	179.7721	
11:30:10	0	0	0	0.573752	9.904896	0	3	100	0	4	-1.0793	0.3804629	179.7673	
11:30:11	0	0	0	0.2085058	-11.6701	0	3	100	0	4	-1.071429	0.3546799	179.7652	
11:30:11	0	0	0	0.2085058	-11.6701	0	3	100	0	4	-1.068171	0.3389661	179.757	
11:30:11	0	0	0	0.2085058	-11.6701	0	3	100	0	4	-1.066923	0.3187928	179.7651	
11:30:11	0	0	0	0.2085058	-11.6701	0	3	100	0	4	-1.063372	0.3102662	179.7708	
11:30:11	0	0	0	0.2085058	-11.6701	0	3	100	0	4	-1.058593	0.3262334	179.7831	
11:30:12	0	0	0	-0.03743236	-17.81606	0	3	100	0	4	-0.9487986	0.3248119	179.8035	
11:30:12	0	0	0	-0.03743236	-17.81606	0	3	100	0	4	0.6254617	0.135343	179.9006	
11:30:12	0	0	0	-0.03743236	-17.81606	0	3	100	0	4	8.876201	-0.160304	-178.9625	
11:30:12	0	0	0	-0.03743236	-17.81606	0	3	100	0	4	23.59326	-3.546922	-173.8708	
11:30:12	0	0	0	-0.03743236	-17.81606	0	3	100	0	4	30.81714	-5.384053	-166.1706	
11:30:13	0	0	0	0.09666873	34.91775	0	3	100	0	4	46.26792	-6.617816	-162.2958	
11:30:13	0	0	0	0.09666873	34.91775	0	3	100	0	4	65.69389	-10.72014	-161.2351	
11:30:13	0	0	0	0.09666873	34.91775	0	3	100	0	4	72.58392	-10.35059	-160.1993	
11:30:13	0	0	0	0.09666873	34.91775	0	3	100	0	4	77.61282	-10.68923	-157.4167	
11:30:13	0	0	0	0.09666873	34.91775	0	3	100	0	4	83.05805	-11.92976	-156.2454	
11:30:14	0	0	0	0.516311	34.03341	0	3	100	0	4	84.61643	-9.148159	-155.2806	
11:30:14	0	0	0	0.516311	34.03341	0	3	100	0	4	82.18975	-8.000257	-154.8609	
11:30:14	0	0	0	0.516311	34.03341	0	3	100	0	4	81.58909	-7.800639	-154.5191	
11:30:14	0	0	0	0.516311	34.03341	0	3	100	0	4	81.16753	-8.235604	-154.1624	
11:30:14	0	0	0	0.516311	34.03341	0	3	100	0	4	81.1469	-7.27714	-154.3807	
11:30:15	0	0	0	0.5283133	13.28349	0	3	100	0	4	81.98538	-7.553812	-154.3857	
11:30:15	0	0	0	0.5283133	13.28349	0	3	100	0	4	82.89319	-7.846848	-154.4382	
11:30:15	0	0	0	0.5283133	13.28349	0	3	100	0	4	83.36835	-7.93776	-154.5353	
11:30:15	0	0	0	0.5283133	13.28349	0	3	100	0	4	83.71937	-7.966243	-154.6135	
11:30:15	0	0	0	0.5283133	13.28349	0	3	100	0	4	83.92416	-7.94111	-154.6881	
11:30:16	0	0	0	0.288695	-7.668753	0	3	100	0	4	84.43617	-8.037786	-154.7972	
11:30:16	0	0	0	0.288695	-7.668753	0	3	100	0	4	85.22172	-8.229074	-154.9557	
11:30:16	0	0	0	0.288695	-7.668753	0	3	100	0	4	85.71465	-8.290873	-155.0803	
11:30:16	0	0	0	0.288695	-7.668753	0	3	100	0	4	85.8984	-8.214857	-155.2251	
11:30:16	0	0	0	0.288695	-7.668753	0	3	100	0	4	85.80442	-8.078128	-155.217	
11:30:17	0	0	0	0.3023844	-7.526395	0	3	100	0	4	85.73567	-7.958807	-155.286	
11:30:17	0	0	0	0.3023844	-7.526395	0	3	100	0	4	84.79957	-7.478687	-155.1253	
11:30:17	0	0	0	0.3023844	-7.526395	0	3	100	0	4	84.61597	-7.32372	-155.0662	
11:30:17	0	0	0	0.3023844	-7.526395	0	3	100	0	4	83.89781	-6.981745	-154.7996	
11:30:17	0	0	0	0.3023844	-7.526395	0	3	100	0	4	84.52108	-7.165115	-154.8984	
11:30:18	0	0	0	0.3786569	-4.504361	0	3	100	0	4	85.04317	-7.290269	-154.9944	
11:30:18	0	0	0	0.3786569	-4.504361	0	3	100	0	4	85.31772	-7.312255	-154.9967	
11:30:18	0	0	0	0.3786569	-4.504361	0	3	100	0	4	85.83992	-7.422174	-155.0609	
11:30:18	0	0	0	0.3786569	-4.504361	0	3	100	0	4	86.02425	-7.401224	-155.0294	
11:30:18	0	0	0	0.3786569	-4.504361	0	3	100	0	4	85.88553	-7.25661	-154.9276	
11:30:19	0	0	0	0.4160168	-3.019698	0	3	100	0	4	86.15468	-7.268173	-154.8683	
11:30:19	0	0	0	0.4160168	-3.019698	0	3	100	0	4	86.61504	-7.345543	-154.8145	
11:30:19	0	0	0	0.4160168	-3.019698	0	3	100	0	4	86.18309	-7.079985	-154.5586	
11:30:19	0	0	0	0.4160168	-3.019698	0	3	100	0	4	86.0677	-6.956695	-154.6056	
11:30:19	0	0	0	0.4160168	-3.019698	0	3	100	0	4	87.30321	-7.368957	-154.8712	
11:30:20	0	0	0	0.2357084	-13.40723	0	3	100	0	4	87.3623	-7.289577	-154.8286	
11:30:20	0	0	0	0.2357084	-13.40723	0	3	100	0	4	87.83906	-7.371732	-154.9597	
11:30:20	0	0	0	0.2357084	-13.40723	0	3	100	0	4	87.73998	-7.230382	-154.9333	
11:30:20	0	0	0	0.2357084	-13.40723	0	3	100	0	4	88.24852	-7.302695	-155.0682	
11:30:20	0	0	0	0.2357084	-13.40723	0	3	100	0	4	88.25539	-7.19478	-155.0024	
11:30:21	0	0	0	0.1831986	-10.20345	0	3	100	0	4	88.36047	-7.125637	-155.0214	
11:30:21	0	0	0	0.1831986	-10.20345	0	3	100	0	4	88.01936	-6.896313	-154.9064	
11:30:21	0	0	0	0.1831986	-10.20345	0	3	100	0	4	88.13963	-6.854871	-154.917	
11:30:21	0	0	0	0.1831986	-10.20345	0	3	100	0	4	88.23622	-6.793616	-154.8972	
11:30:21	0	0	0	0.1831986	-10.20345	0	3	100	0	4	88.37814	-6.749321	-154.892	
11:30:22	0	0	0	0.2153349	-4.829412	0	3	100	0	4	88.49004	-6.696509	-154.8999	
11:30:22	0	0	0	0.2153349	-4.829412	0	3	100	0	4	88.51517	-6.620977	-154.8935	
11:30:22	0	0	0	0.2153349	-4.829412	0	3	100	0	4	88.55208	-6.534112	-154.8847	
11:30:22	0	0	0	0.2153349	-4.829412	0	3	100	0	4	88.75936	-6.529794	-154.9179	
11:30:22	0	0	0	0.2153349	-4.829412	0	3	100	0	4	88.70405	-6.43062	-154.8884	
11:30:23	0	0	0	0.2158593	-3.062809	0	3	100	0	4	88.35059	-6.215929	-154.8017	
11:30:23	0	0	0	0.2158593	-3.062809	0	3	100	0	4	88.51758	-6.202665	-154.7937	
11:30:23	0	0	0	0.2158593	-3.062809	0	3	100	0	4	88.70584	-6.190838	-154.8062	
11:30:23	0	0	0	0.2158593	-3.062809	0	3	100	0	4	88.57204	-6.070261	-154.763	
11:30:23	0	0	0	0.2158593	-3.062809	0	3	100	0	4	88.62392	-6.01354	-154.7878	
11:30:24	0	0	0	0.2832448	0.2102	0	3	100	0	4	88.78385	-5.998925	-154.8338	
11:30:24	0	0	0	0.2832448	0.2102	0	3	100	0	4	88.70765	-5.894548	-154.7875	
11:30:24	0	0	0	0.2832448	0.2102	0	3	100	0	4	88.88357	-5.881496	-154.7774	
11:30:24	0	0	0	0.2832448	0.2102	0	3	100	0	4	88.92534	-5.82343	-154.7684	
11:30:24	0	0	0	0.2832448	0.2102	0	3	100	0	4	88.45741	-5.563353	-154.683	
11:30:25	0	0	0	0.246499	-1.773453	0	3	100	0	4	84.41614	-4.021624	-154.0222	
11:30:25	0	0	0	0.246499	-1.773453	0	3	100	0	4	70.79679	-5.083881	-150.3905	
11:30:25	0	0	0	0.246499	-1.773453	0	3	100	0	4	44.55363	-14.09333	-147.4211	
11:30:25	0	0	0	0.246499	-1.773453	0	3	100	0	4	21.79351	-16.76902	-148.2744	
11:30:25	0	0	0	0.246499	-1.773453	0	3	100	0	4	5.866465	-18.33785	-152.4236	
11:30:26	0	0	0	0.2814054	0.5086738	0	3	100	0	4	-2.496011	-19.28694	-153.747	
11:30:26	0	0	0	0.2814054	0.5086738	0	3	100	0	4	-7.961759	-17.25573	-159.8593	
11:30:26	0	0	0	0.2814054	0.5086738	0	3	100	0	4	-29.3054	-12.4372	-168.1193	
11:30:26	0	0	0	0.2814054	0.5086738	0	3	100	0	4	-58.01147	-10.08929	-177.1682	
11:30:26	0	0	0	0.2814054	0.5086738	0	3	100	0	4	-75.89057	-9.034663	-178.2893	
11:30:27	0	0	0	0.190312	-7.1278	0	3	100	0	4	-80.93686	-7.788929	-178.6256	
11:30:27	0	0	0	0.190312	-7.1278	0	3	100	0	4	-82.03425	-9.615511	177.381	
11:30:27	0	0	0	0.190312	-7.1278	0	3	100	0	4	-80.23058	-7.996195	175.552	
11:30:27	0	0	0	0.190312	-7.1278	0	3	100	0	4	-79.45189	-8.437854	174.2647	
11:30:27	0	0	0	0.190312	-7.1278	0	3	100	0	4	-77.6329	-8.745593	172.3367	
11:30:28	0	0	0	-0.1167892	-35.5713	0	3	100	0	4	-79.3029	-7.098344	171.0847	
11:30:28	0	0	0	-0.1167892	-35.5713	0	3	100	0	4	-80.92489	-7.199766	172.1111	
11:30:28	0	0	0	-0.1167892	-35.5713	0	3	100	0	4	-80.63255	-7.137147	172.1927	
11:30:28	0	0	0	-0.1167892	-35.5713	0	3	100	0	4	-80.91162	-7.180386	172.256	
11:30:28	0	0	0	-0.1167892	-35.5713	0	3	100	0	4	-80.97615	-7.164113	172.2669	
11:30:29	0	0	0	-0.3227493	-41.74777	0	3	100	0	4	-80.65912	-7.102083	172.3954	
11:30:29	0	0	0	-0.3227493	-41.74777	0	3	100	0	4	-80.58952	-7.124606	172.3597	
11:30:29	0	0	0	-0.3227493	-41.74777	0	3	100	0	4	-81.03839	-7.19954	172.7757	
11:30:29	0	0	0	-0.3227493	-41.74777	0	3	100	0	4	-81.51637	-7.261799	173.1139	
11:30:30	0	0	0	-0.3227493	-41.74777	0	3	100	0	4	-81.77225	-7.289112	173.2658	
11:30:30	0	0	0	-0.1824816	-25.00665	0	3	100	0	4	-81.97454	-7.292522	173.3566	
11:30:30	0	0	0	-0.1824816	-25.00665	0	3	100	0	4	-82.19184	-7.271766	173.4133	
11:30:30	0	0	0	-0.1824816	-25.00665	0	3	100	0	4	-82.5866	-7.298694	173.7976	
11:30:30	0	0	0	-0.1824816	-25.00665	0	3	100	0	4	-82.90617	-7.323797	174.4259	
11:30:31	0	0	0	-0.1824816	-25.00665	0	3	100	0	4	-85.50871	-7.540109	175.5395	
11:30:31	0	0	0	0.2570254	-1.956073	0	3	100	0	4	-88.79797	-7.657539	176.3654	
11:30:31	0	0	0	0.2570254	-1.956073	0	3	100	0	4	-90.12407	-7.364998	176.7938	
11:30:31	0	0	0	0.2570254	-1.956073	0	3	100	0	4	-90.47428	-7.041504	177.0953	
11:30:31	0	0	0	0.2570254	-1.956073	0	3	100	0	4	-92.00594	-6.785066	177.4303	
11:30:32	0	0	0	0.2570254	-1.956073	0	3	100	0	4	-91.33012	-6.497617	177.4637	
11:30:32	0	0	0	0.3090824	-0.220909	0	3	100	0	4	-91.65359	-6.185271	177.5809	
11:30:32	0	0	0	0.3090824	-0.220909	0	3	100	0	4	-91.73664	-5.894554	177.5845	
11:30:32	0	0	0	0.3090824	-0.220909	0	3	100	0	4	-92.38788	-5.674815	177.7173	
11:30:32	0	0	0	0.3090824	-0.220909	0	3	100	0	4	-92.51297	-5.413537	177.7592	
11:30:33	0	0	0	0.3090824	-0.220909	0	3	100	0	4	-92.63772	-5.167709	177.8163	
11:30:33	0	0	0	0.2743002	0.8080859	0	3	100	0	4	-92.96747	-4.87887	177.9067	
11:30:33	0	0	0	0.2743002	0.8080859	0	3	100	0	4	-92.81766	-4.609714	177.8967	
11:30:33	0	0	0	0.2743002	0.8080859	0	3	100	0	4	-92.57601	-4.328763	177.8609	
11:30:33	0	0	0	0.2743002	0.8080859	0	3	100	0	4	-92.46796	-4.088038	177.8604	
11:30:34	0	0	0	0.2743002	0.8080859	0	3	100	0	4	-91.97829	-3.902358	177.8467	
11:30:34	0	0	0	0.4562008	13.49966	0	3	100	0	4	-91.33691	-3.779043	177.879	
11:30:34	0	0	0	0.4562008	13.49966	0	3	100	0	4	-91.56389	-3.63681	177.9164	
11:30:34	0	0	0	0.4562008	13.49966	0	3	100	0	4	-91.35467	-3.483953	177.8456	
11:30:34	0	0	0	0.4562008	13.49966	0	3	100	0	4	-91.19711	-3.297332	177.7886	
11:30:35	0	0	0	0.4562008	13.49966	0	3	100	0	4	-91.17314	-3.169803	177.7586	
11:30:35	0	0	0	0.6501516	20.56138	0	3	100	0	4	-91.25247	-3.052916	177.7487	
11:30:35	0	0	0	0.6501516	20.56138	0	3	100	0	4	-91.29213	-2.931703	177.7313	
11:30:35	0	0	0	0.6501516	20.56138	0	3	100	0	4	-91.52654	-2.808084	177.7454	
11:30:35	0	0	0	0.6501516	20.56138	0	3	100	0	4	-91.42175	-2.675848	177.6975	
11:30:36	0	0	0	0.6501516	20.56138	0	3	100	0	4	-91.69917	-2.531463	177.7872	
11:30:36	0	0	0	0.6912314	17.91085	0	3	100	0	4	-91.8278	-2.41922	177.8951	
11:30:36	0	0	0	0.6912314	17.91085	0	3	100	0	4	-92.22624	-2.210643	177.9268	
11:30:36	0	0	0	0.6912314	17.91085	0	3	100	0	4	-92.15507	-2.024284	177.9107	
11:30:36	0	0	0	0.6912314	17.91085	0	3	100	0	4	-92.17784	-1.817169	177.8902	
11:30:37	0	0	0	0.6912314	17.91085	0	3	100	0	4	-92.2345	-1.680755	177.9129	
11:30:37	0	0	0	0.6452847	13.53841	0	3	100	0	4	-92.16913	-1.535113	177.8902	
11:30:37	0	0	0	0.6452847	13.53841	0	3	100	0	4	-92.32188	-1.323095	177.8648	
11:30:37	0	0	0	0.6452847	13.53841	0	3	100	0	4	-92.53096	-1.148201	177.852	
11:30:37	0	0	0	0.6452847	13.53841	0	3	100	0	4	-92.35126	-0.959328	177.8626	
11:30:38	0	0	0	0.6452847	13.53841	0	3	100	0	4	-92.29559	-0.8577141	177.9075	
11:30:38	0	0	0	0.5885634	9.59311	0	3	100	0	4	-92.44472	-0.6832012	177.8803	
11:30:38	0	0	0	0.5885634	9.59311	0	3	100	0	4	-91.57192	-0.7333304	177.9064	
11:30:38	0	0	0	0.5885634	9.59311	0	3	100	0	4	-89.66281	-0.7290879	177.5638	
11:30:38	0	0	0	0.5885634	9.59311	0	3	100	0	4	-87.6563	-2.634159	176.3744	
11:30:39	0	0	0	0.5885634	9.59311	0	3	100	0	4	-85.73848	-7.259482	175.0509	
11:30:39	0	0	0	0.4300169	3.72799	0	3	100	0	4	-83.51891	-12.16582	172.1483	
11:30:39	0	0	0	0.4300169	3.72799	0	3	100	0	4	-83.80815	-10.12362	171.6737	
11:30:39	0	0	0	0.4300169	3.72799	0	3	100	0	4	-82.97718	-7.831129	168.2003	
11:30:39	0	0	0	0.4300169	3.72799	0	3	100	0	4	-79.9967	-7.121218	169.8848	
11:30:40	0	0	0	0.4300169	3.72799	0	3	100	0	4	-76.63282	-8.463126	166.2097	
11:30:40	0	0	0	0.4332137	0.2628603	0	3	100	0	4	-82.64875	-7.148546	163.0294	
11:30:40	0	0	0	0.4332137	0.2628603	0	3	100	0	4	-83.72786	-10.51514	165.8417	
11:30:40	0	0	0	0.4332137	0.2628603	0	3	100	0	4	-86.30459	-14.81805	166.8427	
11:30:40	0	0	0	0.4332137	0.2628603	0	3	100	0	4	-87.35802	-23.80981	166.8056	
11:30:41	0	0	0	0.4332137	0.2628603	0	3	100	0	4	-86.07874	-32.4984	168.8332	
11:30:41	0	0	0	0.4774328	11.76871	0	3	100	0	4	-84.6405	-40.91729	170.6455	
11:30:41	0	0	0	0.4774328	11.76871	0	3	100	0	4	-83.6899	-48.24334	174.6849	
11:30:41	0	0	0	0.4774328	11.76871	0	3	100	0	4	-86.06694	-53.36546	179.9696	
11:30:41	0	0	0	0.4774328	11.76871	0	3	100	0	4	-93.03083	-54.99608	-174.1568	
11:30:42	0	0	0	0.4774328	11.76871	0	3	100	0	4	-109.1952	-55.38548	-163.4987	
11:30:42	0	0	0	0.6384318	22.23626	0	3	100	0	4	-120.894	-58.81368	-152.4587	
11:30:42	0	0	0	0.6384318	22.23626	0	3	100	0	4	-131.9946	-64.04053	-138.1276	
11:30:42	0	0	0	0.6384318	22.23626	0	3	100	0	4	-132.1973	-66.93977	-136.6612	
11:30:42	0	0	0	0.6384318	22.23626	0	3	100	0	4	-134.9176	-68.39656	-130.3279	
11:30:43	0	0	0	0.6384318	22.23626	0	3	100	0	4	-135.5645	-68.63729	-123.9875	
11:30:43	0	0	0	0.9390163	46.51235	0	3	100	0	4	-138.2682	-71.15138	-110.5537	
11:30:43	0	0	0	0.9390163	46.51235	0	3	100	0	4	-149.3605	-74.46713	-91.18745	
11:30:43	0	0	0	0.9390163	46.51235	0	3	100	0	4	-152.3963	-77.63965	-87.28962	
11:30:43	0	0	0	0.9390163	46.51235	0	3	100	0	4	-165.1543	-78.54988	-75.4872	
11:30:44	0	0	0	0.9390163	46.51235	0	3	100	0	4	176.2251	-81.05614	-54.11592	
11:30:44	0	0	0	0.8506953	42.32829	0	3	100	0	4	170.7598	-81.59608	-46.74176	
11:30:44	0	0	0	0.8506953	42.32829	0	3	100	0	4	166.0593	-82.31313	-44.40469	
11:30:44	0	0	0	0.8506953	42.32829	0	3	100	0	4	155.2411	-83.77717	-36.96649	
11:30:44	0	0	0	0.8506953	42.32829	0	3	100	0	4	161.5789	-85.62699	-45.57412	
11:30:45	0	0	0	0.8506953	42.32829	0	3	100	0	4	165.9579	-85.13361	-52.2896	
11:30:45	0	0	0	0.8248742	35.4825	0	3	100	0	4	161.5426	-88.2091	-43.45559	
11:30:45	0	0	0	0.8248742	35.4825	0	3	100	0	4	121.1143	-89.14499	3.955518	
11:30:45	0	0	0	0.8248742	35.4825	0	3	100	0	4	-170.1502	-87.42625	-64.71366	
11:30:45	0	0	0	0.8248742	35.4825	0	3	100	0	4	177.0269	-88.06205	-55.16416	
11:30:46	0	0	0	0.8248742	35.4825	0	3	100	0	4	173.6227	-87.07551	-51.63049	
11:30:46	0	0	0	0.9048986	35.32981	0	3	100	0	4	114.6829	-89.18338	6.90417	
11:30:46	0	0	0	0.9048986	35.32981	0	3	100	0	4	66.31156	-88.28491	54.10501	
11:30:46	0	0	0	0.9048986	35.32981	0	3	100	0	4	54.44389	-87.49001	65.20713	
11:30:46	0	0	0	0.9048986	35.32981	0	3	100	0	4	60.04109	-87.70757	59.24216	
11:30:47	0	0	0	0.9048986	35.32981	0	3	100	0	4	59.44941	-86.96171	59.40277	
11:30:47	0	0	0	1.005109	31.31594	0	3	100	0	4	49.97702	-86.67775	68.3271	
11:30:47	0	0	0	1.005109	31.31594	0	3	100	0	4	48.51757	-87.20264	69.3057	
11:30:47	0	0	0	1.005109	31.31594	0	3	100	0	4	63.87578	-87.13631	54.14543	
11:30:47	0	0	0	1.005109	31.31594	0	3	100	0	4	74.73213	-87.99787	43.8049	
11:30:48	0	0	0	1.005109	31.31594	0	3	100	0	4	48.69748	-89.3909	70.64784	
11:30:48	0	0	0	0.9743226	25.04091	0	3	100	0	4	162.7288	-88.70095	-43.71433	
11:30:48	0	0	0	0.9743226	25.04091	0	3	100	0	4	-176.504	-87.20768	-65.25199	
11:30:48	0	0	0	0.9743226	25.04091	0	3	100	0	4	-172.9116	-83.68155	-70.01073	
11:30:48	0	0	0	0.9743226	25.04091	0	3	100	0	4	-173.2529	-83.21259	-70.79512	
11:30:49	0	0	0	0.9743226	25.04091	0	3	100	0	4	-179.741	-85.45881	-64.74808	
11:30:49	0	0	0	0.7179928	9.352257	0	3	100	0	4	175.1545	-86.32054	-59.87395	
11:30:49	0	0	0	0.7179928	9.352257	0	3	100	0	4	165.0067	-85.04243	-48.4869	
11:30:49	0	0	0	0.7179928	9.352257	0	3	100	0	4	151.5287	-84.65317	-34.60698	
11:30:49	0	0	0	0.7179928	9.352257	0	3	100	0	4	152.4657	-84.68832	-35.48717	
11:30:50	0	0	0	0.7179928	9.352257	0	3	100	0	4	154.2522	-80.6873	-39.28121	
11:30:50	0	0	0	0.6832371	15.64954	0	3	100	0	4	149.8317	-83.34705	-30.52504	
11:30:50	0	0	0	0.6832371	15.64954	0	3	100	0	4	162.1747	-85.51223	-41.00781	
11:30:50	0	0	0	0.6832371	15.64954	0	3	100	0	4	174.4319	-86.25529	-53.15989	
11:30:50	0	0	0	0.6832371	15.64954	0	3	100	0	4	-160.0439	-87.19125	-77.84713	
11:30:51	0	0	0	0.6832371	15.64954	0	3	100	0	4	-149.3482	-86.32539	-88.1661	
11:30:51	0	0	0	0.811286	21.30083	0	3	100	0	4	-146.6547	-85.67501	-90.88231	
11:30:51	0	0	0	0.811286	21.30083	0	3	100	0	4	-155.7401	-85.85821	-82.13856	
11:30:51	0	0	0	0.811286	21.30083	0	3	100	0	4	-157.6834	-85.75111	-79.55305	
11:30:51	0	0	0	0.811286	21.30083	0	3	100	0	4	-162.2791	-85.6858	-75.09481	
11:30:52	0	0	0	0.811286	21.30083	0	3	100	0	4	-157.0101	-85.15993	-80.22118	
11:30:52	0	0	0	0.891178	22.39718	0	3	100	0	4	-159.333	-85.16844	-77.47276	
11:30:52	0	0	0	0.891178	22.39718	0	3	100	0	4	-168.6353	-85.73474	-68.48187	
11:30:52	0	0	0	0.891178	22.39718	0	3	100	0	4	-164.0359	-86.06876	-72.98811	
11:30:52	0	0	0	0.891178	22.39718	0	3	100	0	4	-165.3292	-86.08879	-71.79986	
11:30:53	0	0	0	0.891178	22.39718	0	3	100	0	4	-166.0425	-86.0937	-71.23853	
11:30:53	0	0	0	0.9017496	19.68219	0	3	100	0	4	-166.9701	-86.02399	-70.08857	
11:30:53	0	0	0	0.9017496	19.68219	0	3	100	0	4	-169.7334	-86.0612	-67.58292	
11:30:53	0	0	0	0.9017496	19.68219	0	3	100	0	4	-171.5097	-86.03099	-66.01966	
11:30:53	0	0	0	0.9017496	19.68219	0	3	100	0	4	-173.6719	-86.11143	-63.93091	
11:30:54	0	0	0	0.9017496	19.68219	0	3	100	0	4	-172.7644	-86.19204	-64.98908	
11:30:54	0	0	0	0.7873377	12.3457	0	3	100	0	4	-170.4452	-86.04919	-67.40327	
11:30:54	0	0	0	0.7873377	12.3457	0	3	100	0	4	-168.7038	-85.84744	-69.00648	
11:30:54	0	0	0	0.7873377	12.3457	0	3	100	0	4	-171.3474	-85.89683	-66.41592	
11:30:54	0	0	0	0.7873377	12.3457	0	3	100	0	4	-169.3729	-85.97124	-68.18071	
11:30:55	0	0	0	0.7873377	12.3457	0	3	100	0	4	-171.1767	-86.01582	-66.56517	
11:30:55	0	0	0	0.6748669	8.08427	0	3	100	0	4	-170.2871	-86.13988	-67.47161	
11:30:55	0	0	0	0.6748669	8.08427	0	3	100	0	4	-170.6421	-86.2727	-67.05309	
11:30:55	0	0	0	0.6748669	8.08427	0	3	100	0	4	-171.947	-86.40462	-65.77946	
11:30:55	0	0	0	0.6748669	8.08427	0	3	100	0	4	-169.3136	-86.15972	-68.3903	
11:30:56	0	0	0	0.6748669	8.08427	0	3	100	0	4	-164.8948	-85.3155	-72.24822	
11:30:56	0	0	0	0.7518465	16.65589	0	3	100	0	4	-138.1669	-83.5456	-95.40747	
11:30:56	0	0	0	0.7518465	16.65589	0	3	100	0	4	-106.618	-80.29441	-120.8776	
11:30:56	0	0	0	0.7518465	16.65589	0	3	100	0	4	-72.14897	-74.22266	-150.4079	
11:30:56	0	0	0	0.7518465	16.65589	0	3	100	0	4	-54.49878	-65.29897	-168.2581	
11:30:57	0	0	0	0.7518465	16.65589	0	3	100	0	4	-32.94896	-53.88891	170.2266	
11:30:57	0	0	0	0.9496403	13.12212	0	3	100	0	4	-27.14887	-40.43906	162.821	
11:30:57	0	0	0	0.9496403	13.12212	0	3	100	0	4	-31.10945	-29.38213	158.8525	
11:30:57	0	0	0	0.9496403	13.12212	0	3	100	0	4	-29.55153	-21.88818	155.7848	
11:30:57	0	0	0	0.9496403	13.12212	0	3	100	0	4	-28.93699	-15.47479	153.9024	
11:30:58	0	0	0	0.9496403	13.12212	0	3	100	0	4	-28.96264	-11.92997	151.2102	
11:30:58	0	0	0	0.8990319	2.637865	0	3	100	0	4	-35.25216	-6.113578	151.4683	
11:30:58	0	0	0	0.8990319	2.637865	0	3	100	0	4	-42.17642	-2.463443	151.1098	
11:30:58	0	0	0	0.8990319	2.637865	0	3	100	0	4	-52.47264	1.93962	150.4703	
11:30:59	0	0	0	0.8990319	2.637865	0	3	100	0	4	-64.5584	4.227301	147.6146	
11:30:59	0	0	0	0.8990319	2.637865	0	3	100	0	4	-80.29715	6.525903	146.1825	
11:30:59	0	0	0	0.7242467	-16.78765	0	3	100	0	4	-85.75224	13.3519	146.8315	
11:30:59	0	0	0	0.7242467	-16.78765	0	3	100	0	4	-82.68555	24.57857	142.075	
11:30:59	0	0	0	0.7242467	-16.78765	0	3	100	0	4	-78.24616	27.99725	141.0618	
11:31:00	0	0	0	0.7242467	-16.78765	0	3	100	0	4	-72.62225	29.73571	140.6035	
11:31:00	0	0	0	0.7242467	-16.78765	0	3	100	0	4	-59.44519	32.56894	138.1297	
11:31:00	0	0	0	0.43692	-39.72951	0	3	100	0	4	-54.55065	34.03637	133.6049	
11:31:00	0	0	0	0.43692	-39.72951	0	3	100	0	4	-47.41883	36.37171	134.8455	
11:31:00	0	0	0	0.43692	-39.72951	0	3	100	0	4	-38.08462	40.22927	136.1127	
11:31:01	0	0	0	0.43692	-39.72951	0	3	100	0	4	-23.87322	44.53861	137.8452	
11:31:01	0	0	0	0.43692	-39.72951	0	3	100	0	4	-12.79081	49.23257	141.4944	
11:31:01	0	0	0	0.04384725	-74.90598	0	3	100	0	4	-3.648971	52.75613	145.1438	
11:31:01	0	0	0	0.04384725	-74.90598	0	3	100	0	4	-3.031425	54.36169	143.901	
11:31:01	0	0	0	0.04384725	-74.90598	0	3	100	0	4	-2.77049	55.59244	142.3115	
11:31:02	0	0	0	0.04384725	-74.90598	0	3	100	0	4	-1.697824	57.33981	142.7651	
11:31:02	0	0	0	0.04384725	-74.90598	0	3	100	0	4	-1.728743	58.39069	143.3691	
11:31:02	0	0	0	-0.1810866	-72.3462	0	3	100	0	4	0.05426409	58.73534	135.8332	
11:31:02	0	0	0	-0.1810866	-72.3462	0	3	100	0	4	1.270932	58.33683	132.0504	
