Date	Latitude(deg) 	Longitude(deg)	hamsl(m)	hafl(m)	climbrate(cm/s)	GroundSpeed(m/s)	Airspeed(m/s)	Mav_Link(%)	Rssi_Link(%)	Throttle	Roll(deg)	Pitch(deg)	Yaw(deg)
12:56:56	0	0	0	0	0	0	0	100	0	0	-1.802787	1.81582	16.35925	
12:56:56	0	0	0	0	0	0	0	100	0	0	-1.813658	2.640379	16.35139	
12:56:56	0	0	0	0	0	0	0	100	0	0	-1.82001	2.065321	16.36506	
12:56:56	0	0	0	0.8100408	-26.08623	0	2.371174	100	0	100	-1.822333	0.8245283	16.37455	
12:56:56	0	0	0	0.8100408	-26.08623	0	2.371174	100	0	100	-1.825569	0.1916244	16.37666	
12:56:57	0	0	0	0.8100408	-26.08623	0	2.371174	100	0	100	-1.822205	0.1899562	16.3391	
12:56:57	0	0	0	0.8100408	-26.08623	0	2.371174	100	0	100	-1.833649	0.9210749	16.35036	
12:56:57	0	0	0	0.8100408	-26.08623	0	2.371174	100	0	100	-1.820821	1.202006	16.41308	
12:56:57	0	0	0	0.4185095	-25.60696	0	2	100	0	100	-1.819921	0.8245974	16.46082	
12:56:57	0	0	0	0.4185095	-25.60696	0	2	100	0	100	-1.819602	1.374681	16.49942	
12:56:58	0	0	0	0.4185095	-25.60696	0	2	100	0	100	-1.837247	1.053046	16.5267	
12:56:58	0	0	0	0.4185095	-25.60696	0	2	100	0	100	-1.838749	1.583968	16.49476	
12:56:58	0	0	0	0.4185095	-25.60696	0	2	100	0	100	-1.831947	0.7782451	16.50591	
12:56:58	0	0	0	1.396099	26.99972	0	2	100	0	100	-1.834052	1.308366	16.50058	
12:56:58	0	0	0	1.396099	26.99972	0	2	100	0	100	-1.84458	1.566436	16.47595	
12:56:59	0	0	0	1.396099	26.99972	0	2	100	0	100	-1.844096	0.354203	16.52126	
12:56:59	0	0	0	1.396099	26.99972	0	2	100	0	100	-1.849471	0.4511376	16.54329	
12:56:59	0	0	0	1.396099	26.99972	0	2	100	0	100	-1.865149	1.521066	16.55007	
12:56:59	0	0	0	2.069977	47.36138	0	2	100	0	100	-1.883064	1.553738	16.57471	
12:56:59	0	0	0	2.069977	47.36138	0	2	100	0	100	-1.886597	0.8656114	16.59646	
12:57:00	0	0	0	2.069977	47.36138	0	2	100	0	100	-1.890773	-0.577316	16.5781	
12:57:00	0	0	0	2.069977	47.36138	0	2	100	0	100	-1.897202	-0.3962471	16.58831	
12:57:00	0	0	0	2.069977	47.36138	0	2	100	0	100	-1.905037	0.283892	16.61389	
12:57:00	0	0	0	2.32969	40.89471	0	2	100	0	100	-1.9035	-0.4619752	16.6541	
12:57:00	0	0	0	2.32969	40.89471	0	2	100	0	100	-1.893387	0.1445783	16.66431	
12:57:01	0	0	0	2.32969	40.89471	0	2	100	0	100	-1.886136	0.4830154	16.67109	
12:57:01	0	0	0	2.32969	40.89471	0	2	100	0	100	-1.884227	-0.6766611	16.67369	
12:57:01	0	0	0	2.32969	40.89471	0	2	100	0	100	-1.883186	-1.231928	16.65011	
12:57:01	0	0	0	2.222357	20.56625	0	2.371174	100	0	100	-1.886987	-0.8149931	16.58538	
12:57:01	0	0	0	2.222357	20.56625	0	2.371174	100	0	100	-1.900957	0.3927611	16.60081	
12:57:02	0	0	0	2.222357	20.56625	0	2.371174	100	0	100	-1.905353	0.7417865	16.60349	
12:57:02	0	0	0	2.222357	20.56625	0	2.371174	100	0	100	-1.908502	-0.4067188	16.62663	
12:57:02	0	0	0	2.222357	20.56625	0	2.371174	100	0	100	-1.906601	-0.5748554	16.66264	
12:57:02	0	0	0	1.848569	-3.437617	0	2.371174	100	0	100	-1.911637	-0.3418339	16.67677	
12:57:02	0	0	0	1.848569	-3.437617	0	2.371174	100	0	100	-1.908757	-0.1503471	16.71708	
12:57:03	0	0	0	1.848569	-3.437617	0	2.371174	100	0	100	-1.899886	0.4365378	16.73168	
12:57:03	0	0	0	1.848569	-3.437617	0	2.371174	100	0	100	-1.903968	-0.7049897	16.71981	
12:57:03	0	0	0	1.848569	-3.437617	0	2.371174	100	0	100	-1.897886	-1.236213	16.74656	
12:57:03	0	0	0	1.713624	-5.915944	0	2	100	0	100	-1.900942	-0.8104951	16.70675	
12:57:03	0	0	0	1.713624	-5.915944	0	2	100	0	100	-1.903326	-0.1353768	16.67409	
12:57:04	0	0	0	1.713624	-5.915944	0	2	100	0	100	-1.890382	-0.06231113	16.65151	
12:57:04	0	0	0	1.713624	-5.915944	0	2	100	0	100	-1.886018	0.01031967	16.63628	
12:57:04	0	0	0	1.713624	-5.915944	0	2	100	0	100	-1.890636	0.5979008	16.63532	
12:57:04	0	0	0	1.532019	-10.76593	0	3.300466	100	0	100	-1.898283	0.9282077	16.67038	
12:57:04	0	0	0	1.532019	-10.76593	0	3.300466	100	0	100	-1.906054	-0.2583183	16.63969	
12:57:05	0	0	0	1.532019	-10.76593	0	3.300466	100	0	100	-1.902165	-0.4338289	16.61887	
12:57:05	0	0	0	1.532019	-10.76593	0	3.300466	100	0	100	-1.896755	0.1805199	16.64505	
12:57:05	0	0	0	1.532019	-10.76593	0	3.300466	100	0	100	-1.90399	0.7903289	16.65043	
12:57:05	0	0	0	1.487214	-7.725286	0	2	100	0	100	-1.904789	1.092872	16.64207	
12:57:05	0	0	0	1.487214	-7.725286	0	2	100	0	100	-1.894389	-0.07570381	16.66041	
12:57:06	0	0	0	1.487214	-7.725286	0	2	100	0	100	-1.900052	0.02764703	16.69594	
12:57:06	0	0	0	1.487214	-7.725286	0	2	100	0	100	-1.892568	0.4141209	16.68632	
12:57:06	0	0	0	1.487214	-7.725286	0	2	100	0	100	-1.904373	-0.1798989	16.6795	
12:57:06	0	0	0	1.55582	-0.04316207	0	2	100	0	100	-1.91093	0.4425828	16.633	
12:57:06	0	0	0	1.55582	-0.04316207	0	2	100	0	100	-1.911572	0.4802032	16.61684	
12:57:07	0	0	0	1.55582	-0.04316207	0	2	100	0	100	-1.907207	-0.1129522	16.57295	
12:57:07	0	0	0	1.55582	-0.04316207	0	2	100	0	100	-1.917338	-1.025852	16.58341	
12:57:07	0	0	0	1.55582	-0.04316207	0	2	100	0	100	-1.928491	-0.212898	16.58732	
12:57:07	0	0	0	1.590496	1.76554	0	2	100	0	100	-1.924479	1.01598	16.57601	
12:57:07	0	0	0	1.590496	1.76554	0	2	100	0	100	-1.912936	1.06812	16.56503	
12:57:08	0	0	0	1.590496	1.76554	0	2	100	0	100	-1.914478	0.3821439	16.62108	
12:57:08	0	0	0	1.590496	1.76554	0	2	100	0	100	-1.917909	-0.6570976	16.59573	
12:57:08	0	0	0	1.590496	1.76554	0	2	100	0	100	-1.917313	0.07815352	16.58983	
12:57:08	0	0	0	1.76352	9.113076	0	3.300495	100	0	100	-1.913652	0.3904834	16.53906	
12:57:08	0	0	0	1.76352	9.113076	0	3.300495	100	0	100	-1.917946	0.05677368	16.54867	
12:57:09	0	0	0	1.76352	9.113076	0	3.300495	100	0	100	-1.92174	0.7441871	16.57541	
12:57:09	0	0	0	1.76352	9.113076	0	3.300495	100	0	100	-1.918029	-0.4296598	16.62036	
12:57:09	0	0	0	1.76352	9.113076	0	3.300495	100	0	100	-1.905079	-0.9991781	16.58793	
12:57:09	0	0	0	1.666267	0.7493808	0	2.371175	100	0	100	-1.89891	-0.9776412	16.56593	
12:57:09	0	0	0	1.666267	0.7493808	0	2.371175	100	0	100	-1.900326	-0.5389861	16.51092	
12:57:10	0	0	0	1.666267	0.7493808	0	2.371175	100	0	100	-1.904549	0.1017375	16.53395	
12:57:10	0	0	0	1.666267	0.7493808	0	2.371175	100	0	100	-1.904816	-0.2409715	16.47498	
12:57:10	0	0	0	1.666267	0.7493808	0	2.371175	100	0	100	-1.898681	-0.7981656	16.47666	
12:57:10	0	0	0	1.686854	2.336213	0	2	100	0	100	-1.898104	-0.3756957	16.42046	
12:57:10	0	0	0	1.686854	2.336213	0	2	100	0	100	-1.895533	0.2483664	16.42878	
12:57:11	0	0	0	1.686854	2.336213	0	2	100	0	100	-1.899624	-0.1048454	16.3393	
12:57:11	0	0	0	1.686854	2.336213	0	2	100	0	100	-1.90343	-0.2871909	16.35979	
12:57:11	0	0	0	1.686854	2.336213	0	2	100	0	100	-1.908637	0.3229047	16.34058	
12:57:11	0	0	0	1.651095	-1.391196	0	2	100	0	100	-1.90138	0.9000719	16.3476	
12:57:11	0	0	0	1.651095	-1.391196	0	2	100	0	100	-1.905564	1.207849	16.36869	
12:57:12	0	0	0	1.651095	-1.391196	0	2	100	0	100	-1.908994	0.02602394	16.38815	
12:57:12	0	0	0	1.651095	-1.391196	0	2	100	0	100	-1.90526	-0.1808912	16.39612	
12:57:12	0	0	0	1.651095	-1.391196	0	2	100	0	100	-1.888814	0.4121076	16.4037	
12:57:12	0	0	0	1.659284	-0.1254039	0	2	100	0	100	-1.881094	1.001705	16.42607	
12:57:12	0	0	0	1.659284	-0.1254039	0	2	100	0	100	-1.88484	1.144825	16.46521	
12:57:13	0	0	0	1.659284	-0.1254039	0	2	100	0	100	-1.880772	0.08615036	16.51492	
12:57:13	0	0	0	1.659284	-0.1254039	0	2	100	0	100	-1.874363	0.7742993	16.48479	
12:57:13	0	0	0	1.659284	-0.1254039	0	2	100	0	100	-1.878831	1.033906	16.48561	
12:57:13	0	0	0	1.667323	1.091217	0	2	100	0	100	-1.874076	0.6668819	16.51296	
12:57:13	0	0	0	1.667323	1.091217	0	2	100	0	100	-1.87207	1.843429	16.57017	
12:57:14	0	0	0	1.667323	1.091217	0	2	100	0	100	-1.865821	1.310395	16.55996	
12:57:14	0	0	0	1.667323	1.091217	0	2	100	0	100	-1.861707	0.4912425	16.58931	
12:57:14	0	0	0	1.667323	1.091217	0	2	100	0	100	-1.87803	0.9823162	16.57586	
12:57:14	0	0	0	1.598346	-1.821175	0	2.371175	100	0	100	-1.894263	1.093386	16.56829	
12:57:14	0	0	0	1.598346	-1.821175	0	2.371175	100	0	100	-1.886369	0.4374022	16.56495	
12:57:15	0	0	0	1.598346	-1.821175	0	2.371175	100	0	100	-1.896071	1.580286	16.55102	
12:57:15	0	0	0	1.598346	-1.821175	0	2.371175	100	0	100	-1.895556	2.388784	16.54226	
12:57:15	0	0	0	1.598346	-1.821175	0	2.371175	100	0	100	-1.892972	2.359234	16.56782	
12:57:15	0	0	0	1.573738	-0.3256314	0	2	100	0	100	-1.902356	1.75977	16.60315	
12:57:15	0	0	0	1.573738	-0.3256314	0	2	100	0	100	-1.903095	0.9046178	16.67863	
12:57:16	0	0	0	1.573738	-0.3256314	0	2	100	0	100	-1.890886	1.406748	16.70935	
12:57:16	0	0	0	1.573738	-0.3256314	0	2	100	0	100	-1.883363	1.689296	16.71008	
12:57:16	0	0	0	1.573738	-0.3256314	0	2	100	0	100	-1.881817	1.421858	16.68703	
12:57:16	0	0	0	1.67861	5.491766	0	2	100	0	100	-1.884147	1.690628	16.73574	
12:57:16	0	0	0	1.67861	5.491766	0	2	100	0	100	-1.879858	0.8700942	16.76587	
12:57:17	0	0	0	1.67861	5.491766	0	2	100	0	100	-1.968589	1.442606	16.78973	
12:57:17	0	0	0	1.67861	5.491766	0	2	100	0	100	-1.941604	2.209386	16.78349	
12:57:17	0	0	0	1.67861	5.491766	0	2	100	0	100	-1.934705	1.670302	16.8555	
12:57:17	0	0	0	1.649504	2.787143	0	2	100	0	100	-1.915988	1.392934	16.86309	
12:57:17	0	0	0	1.649504	2.787143	0	2	100	0	100	-1.912812	1.659626	16.85286	
12:57:18	0	0	0	1.649504	2.787143	0	2	100	0	100	-1.920226	1.395674	16.84496	
12:57:18	0	0	0	1.649504	2.787143	0	2	100	0	100	-1.915626	1.681363	16.9089	
12:57:18	0	0	0	1.649504	2.787143	0	2	100	0	100	-1.930559	0.8660805	16.89536	
12:57:18	0	0	0	1.725042	5.768301	0	4.629854	100	0	6546	-1.911085	1.373136	16.91755	
12:57:18	0	0	0	1.725042	5.768301	0	4.629854	100	0	6546	-1.891611	2.186306	16.93119	
12:57:19	0	0	0	1.725042	5.768301	0	4.629854	100	0	6546	-1.878783	2.156942	16.95265	
12:57:19	0	0	0	1.725042	5.768301	0	4.629854	100	0	6546	-1.878509	1.924644	16.91216	
12:57:19	0	0	0	1.725042	5.768301	0	4.629854	100	0	6546	-1.868052	1.181146	16.93184	
12:57:19	0	0	0	1.554052	-2.969216	0	2	100	0	6546	-1.887615	1.045905	16.90869	
12:57:19	0	0	0	1.554052	-2.969216	0	2	100	0	6546	-1.873006	1.303643	16.92321	
12:57:20	0	0	0	1.554052	-2.969216	0	2	100	0	6546	-1.86789	1.052819	16.87413	
12:57:20	0	0	0	1.554052	-2.969216	0	2	100	0	6546	-1.882061	1.921305	16.89571	
12:57:20	0	0	0	1.554052	-2.969216	0	2	100	0	6546	-1.873344	1.383077	16.92781	
12:57:20	0	0	0	1.547873	-2.258903	0	2	100	0	6546	-1.873248	-0.2691472	16.93475	
12:57:20	0	0	0	1.547873	-2.258903	0	2	100	0	6546	-1.869072	-0.7159848	16.91571	
12:57:21	0	0	0	1.547873	-2.258903	0	2	100	0	6546	-1.862525	0.1652647	16.91876	
12:57:21	0	0	0	1.547873	-2.258903	0	2	100	0	6546	-1.856326	-0.516391	16.93033	
12:57:21	0	0	0	1.547873	-2.258903	0	2	100	0	6546	-1.870113	1.132789	16.90671	
12:57:21	0	0	0	1.559617	-1.444679	0	2.527366	100	0	6546	-1.869497	1.213003	16.92735	
12:57:21	0	0	0	1.559617	-1.444679	0	2.527366	100	0	6546	-1.859929	0.5752982	16.95718	
12:57:22	0	0	0	1.559617	-1.444679	0	2.527366	100	0	6546	-1.864182	1.641882	17.00277	
12:57:22	0	0	0	1.559617	-1.444679	0	2.527366	100	0	6546	-1.861099	3.071287	16.97679	
12:57:22	0	0	0	1.559617	-1.444679	0	2.527366	100	0	6546	-1.855857	1.212417	16.9959	
12:57:22	0	0	0	1.358956	-9.290929	0	5.930361	100	0	6546	-1.869344	1.438107	16.99702	
12:57:22	0	0	0	1.358956	-9.290929	0	5.930361	100	0	6546	-1.870672	3.019141	17.03403	
12:57:23	0	0	0	1.358956	-9.290929	0	5.930361	100	0	6546	-1.873391	4.323955	17.02183	
12:57:23	0	0	0	1.358956	-9.290929	0	5.930361	100	0	6546	-1.871545	2.986588	17.00839	
12:57:23	0	0	0	1.358956	-9.290929	0	5.930361	100	0	6546	-1.874514	4.397366	17.06837	
12:57:23	0	0	0	1.309409	-7.89051	0	2	100	0	6546	-1.868426	3.339522	17.13288	
12:57:23	0	0	0	1.309409	-7.89051	0	2	100	0	6546	-1.857982	5.143641	17.17455	
12:57:24	0	0	0	1.309409	-7.89051	0	2	100	0	6546	-1.851605	3.597153	17.19027	
12:57:24	0	0	0	1.309409	-7.89051	0	2	100	0	6546	-1.85411	3.586917	17.20977	
12:57:24	0	0	0	1.309409	-7.89051	0	2	100	0	6546	-1.840227	5.01274	17.27099	
12:57:24	0	0	0	1.122432	-15.62232	0	2	100	0	6546	-1.847276	4.3745	17.28972	
12:57:24	0	0	0	1.122432	-15.62232	0	2	100	0	6546	-1.847646	4.857008	17.33365	
12:57:25	0	0	0	1.122432	-15.62232	0	2	100	0	6546	-1.835053	3.717355	17.33836	
12:57:25	0	0	0	1.122432	-15.62232	0	2	100	0	6546	-1.81925	4.789946	17.37148	
12:57:25	0	0	0	1.122432	-15.62232	0	2	100	0	6546	-1.816587	4.019298	17.38917	
12:57:25	0	0	0	1.283711	-3.201068	0	2	100	0	6546	-1.805042	4.843278	17.44873	
12:57:25	0	0	0	1.283711	-3.201068	0	2	100	0	6546	-1.809539	3.666403	17.46971	
12:57:26	0	0	0	1.283711	-3.201068	0	2	100	0	6546	-1.803243	4.741498	17.53045	
12:57:26	0	0	0	1.283711	-3.201068	0	2	100	0	6546	-1.801336	5.012779	17.52673	
12:57:26	0	0	0	1.283711	-3.201068	0	2	100	0	6546	-1.808406	3.570595	17.55562	
12:57:26	0	0	0	1.362899	1.046718	0	3.300495	100	0	6546	-1.807422	3.937362	17.53532	
12:57:26	0	0	0	1.362899	1.046718	0	3.300495	100	0	6546	-1.813337	4.084527	17.52635	
12:57:27	0	0	0	1.362899	1.046718	0	3.300495	100	0	6546	-1.812671	2.656713	17.55017	
12:57:27	0	0	0	1.362899	1.046718	0	3.300495	100	0	6546	-1.805701	3.981694	17.5811	
12:57:27	0	0	0	1.362899	1.046718	0	3.300495	100	0	6546	-1.789649	4.348664	17.60014	
12:57:27	0	0	0	1.633492	13.17739	0	3.300495	100	0	6546	-1.781975	4.285922	17.599	
12:57:27	0	0	0	1.633492	13.17739	0	3.300495	100	0	6546	-1.784964	4.195816	17.56193	
12:57:28	0	0	0	1.633492	13.17739	0	3.300495	100	0	6546	-1.780198	3.039697	17.55001	
12:57:28	0	0	0	1.633492	13.17739	0	3.300495	100	0	6546	-1.780554	1.135144	17.50748	
12:57:28	0	0	0	1.633492	13.17739	0	3.300495	100	0	6546	-1.77839	2.498862	17.44781	
12:57:28	0	0	0	1.696955	9.371713	0	2	100	0	6546	-1.784873	2.938678	17.42182	
12:57:28	0	0	0	1.696955	9.371713	0	2	100	0	6546	-1.78619	1.849578	17.36164	
12:57:29	0	0	0	1.696955	9.371713	0	2	100	0	6546	-1.78751	2.690246	17.34612	
12:57:29	0	0	0	1.696955	9.371713	0	2	100	0	6546	-1.796385	1.363834	17.26914	
12:57:29	0	0	0	1.696955	9.371713	0	2	100	0	6546	-1.799661	2.654532	17.24353	
12:57:29	0	0	0	1.597994	0.9442014	0	2	100	0	6546	-1.807281	3.072178	17.23397	
12:57:29	0	0	0	1.597994	0.9442014	0	2	100	0	6546	-1.819571	3.021095	17.24796	
12:57:30	0	0	0	1.597994	0.9442014	0	2	100	0	6546	-1.820917	2.942814	17.28177	
12:57:30	0	0	0	1.597994	0.9442014	0	2	100	0	6546	-1.820362	1.821969	17.30334	
12:57:30	0	0	0	1.597994	0.9442014	0	2	100	0	6546	-1.811769	0.07265472	17.29807	
12:57:30	0	0	0	1.499685	-1.586504	0	4.554021	100	0	6546	-1.810359	1.166595	17.30111	
12:57:30	0	0	0	1.499685	-1.586504	0	4.554021	100	0	6546	-1.820062	0.3935536	17.28625	
12:57:31	0	0	0	1.499685	-1.586504	0	4.554021	100	0	6546	-1.826244	0.8431201	17.30993	
12:57:31	0	0	0	1.499685	-1.586504	0	4.554021	100	0	6546	-1.83252	1.149398	17.30091	
12:57:31	0	0	0	1.499685	-1.586504	0	4.554021	100	0	6546	-1.836498	1.272034	17.30223	
12:57:31	0	0	0	1.52651	-0.1188402	0	2.394783	100	0	6547	-1.839779	1.678242	17.2642	
12:57:31	0	0	0	1.52651	-0.1188402	0	2.394783	100	0	6547	-1.831559	2.580153	17.27885	
12:57:32	0	0	0	1.52651	-0.1188402	0	2.394783	100	0	6547	-1.829355	2.309208	17.26068	
12:57:32	0	0	0	1.52651	-0.1188402	0	2.394783	100	0	6547	-1.823501	0.5071931	17.25944	
12:57:32	0	0	0	1.52651	-0.1188402	0	2.394783	100	0	6547	-1.818703	0.9785121	17.18261	
12:57:32	0	0	0	1.66734	5.958431	0	2	100	0	6546	-1.811466	0.6789764	17.1827	
12:57:32	0	0	0	1.66734	5.958431	0	2	100	0	6546	-1.814869	0.8952181	17.16846	
12:57:33	0	0	0	1.66734	5.958431	0	2	100	0	6546	-1.808717	2.367144	17.20994	
12:57:33	0	0	0	1.66734	5.958431	0	2	100	0	6546	-1.804617	2.133892	17.23449	
12:57:33	0	0	0	1.66734	5.958431	0	2	100	0	6546	-1.802043	1.58913	17.23613	
12:57:33	0	0	0	1.409567	-7.27783	0	2	100	0	6546	-1.812018	1.008248	17.23604	
12:57:33	0	0	0	1.409567	-7.27783	0	2	100	0	6546	-1.806985	0.5829608	17.23753	
12:57:34	0	0	0	1.409567	-7.27783	0	2	100	0	6546	-1.795666	1.597814	17.21038	
12:57:34	0	0	0	1.409567	-7.27783	0	2	100	0	6546	-1.812152	1.643246	17.2008	
12:57:34	0	0	0	1.409567	-7.27783	0	2	100	0	6546	-1.818836	0.2507827	17.17857	
12:57:34	0	0	0	1.147631	-14.24052	0	2	100	0	6546	-1.83429	0.6654325	17.16899	
12:57:34	0	0	0	1.147631	-14.24052	0	2	100	0	6546	-1.840985	1.668467	17.14169	
12:57:35	0	0	0	1.147631	-14.24052	0	2	100	0	6546	-1.836994	1.005287	17.13153	
12:57:35	0	0	0	1.147631	-14.24052	0	2	100	0	6546	-1.841243	0.3711815	17.14448	
12:57:35	0	0	0	1.147631	-14.24052	0	2	100	0	6546	-1.846092	0.9442351	17.14631	
12:57:35	0	0	0	1.318481	-0.3734415	0	2	100	0	6546	-1.862092	0.9163656	17.149	
12:57:36	0	0	0	1.318481	-0.3734415	0	2	100	0	6546	-1.856742	0.5012828	17.16695	
12:57:36	0	0	0	1.318481	-0.3734415	0	2	100	0	6546	-1.860294	0.2424317	17.14581	
12:57:36	0	0	0	1.318481	-0.3734415	0	2	100	0	6546	-1.854337	0.8434147	17.12304	
12:57:36	0	0	0	1.318481	-0.3734415	0	2	100	0	6546	-1.848055	0.1635661	17.11389	
12:57:36	0	0	0	1.621581	13.14328	0	5.412926	100	0	6546	-1.847821	-0.6789916	17.0677	
12:57:37	0	0	0	1.621581	13.14328	0	5.412926	100	0	6546	-1.843629	0.6384075	17.05334	
12:57:37	0	0	0	1.621581	13.14328	0	5.412926	100	0	6546	-1.846004	1.708028	17.0193	
12:57:37	0	0	0	1.621581	13.14328	0	5.412926	100	0	6546	-1.842221	1.266029	17.07827	
12:57:37	0	0	0	1.621581	13.14328	0	5.412926	100	0	6546	-1.847578	2.214953	17.06007	
12:57:37	0	0	0	1.642636	9.592368	0	2.371175	100	0	6545	-1.849053	1.656151	17.07998	
12:57:38	0	0	0	1.642636	9.592368	0	2.371175	100	0	6545	-1.849074	0.7068428	17.00874	
12:57:38	0	0	0	1.642636	9.592368	0	2.371175	100	0	6545	-1.846829	1.38232	17.03086	
12:57:38	0	0	0	1.642636	9.592368	0	2.371175	100	0	6545	-1.84782	1.841525	17.0012	
12:57:38	0	0	0	1.642636	9.592368	0	2.371175	100	0	6545	-1.853158	2.138918	16.99825	
12:57:38	0	0	0	1.694569	8.083424	0	2.371175	100	0	6546	-1.858879	1.034912	16.92396	
12:57:39	0	0	0	1.694569	8.083424	0	2.371175	100	0	6546	-1.859219	2.001155	16.96737	
12:57:39	0	0	0	1.694569	8.083424	0	2.371175	100	0	6546	-1.860115	2.956673	16.94442	
12:57:39	0	0	0	1.694569	8.083424	0	2.371175	100	0	6546	-1.862166	3.654062	16.98819	
12:57:39	0	0	0	1.694569	8.083424	0	2.371175	100	0	6546	-1.857701	2.004837	17.00795	
12:57:39	0	0	0	1.69607	5.37708	0	2.092208	100	0	6546	-1.863535	2.321671	17.06948	
12:57:40	0	0	0	1.69607	5.37708	0	2.092208	100	0	6546	-1.866164	3.930645	17.07614	
12:57:40	0	0	0	1.69607	5.37708	0	2.092208	100	0	6546	-1.864031	2.240412	17.07945	
12:57:40	0	0	0	1.69607	5.37708	0	2.092208	100	0	6546	-1.870394	3.998824	17.04043	
12:57:40	0	0	0	1.69607	5.37708	0	2.092208	100	0	6546	-1.870531	2.407477	17.05099	
12:57:40	0	0	0	1.519681	-4.023111	0	4.995008	100	0	6546	-1.876466	3.627531	17.00715	
12:57:41	0	0	0	1.519681	-4.023111	0	4.995008	100	0	6546	-1.882822	1.920881	17.01929	
12:57:41	0	0	0	1.519681	-4.023111	0	4.995008	100	0	6546	-1.880792	3.045574	16.97018	
12:57:41	0	0	0	1.519681	-4.023111	0	4.995008	100	0	6546	-1.884581	2.027727	16.95061	
12:57:41	0	0	0	1.519681	-4.023111	0	4.995008	100	0	6546	-1.882364	3.87838	16.91219	
12:57:41	0	0	0	1.404708	-6.523038	0	4.995008	100	0	6546	-1.891408	3.712701	16.97231	
12:57:42	0	0	0	1.404708	-6.523038	0	4.995008	100	0	6546	-1.886924	5.026071	17.02861	
12:57:42	0	0	0	1.404708	-6.523038	0	4.995008	100	0	6546	-1.885535	4.717356	17.09638	
12:57:42	0	0	0	1.404708	-6.523038	0	4.995008	100	0	6546	-1.883844	3.006728	17.13939	
12:57:42	0	0	0	1.404708	-6.523038	0	4.995008	100	0	6546	-1.881349	3.551164	17.13785	
12:57:42	0	0	0	1.395293	-5.358592	0	4.085157	100	0	6546	-1.869648	3.123272	17.16344	
12:57:43	0	0	0	1.395293	-5.358592	0	4.085157	100	0	6546	-1.866163	2.045213	17.1413	
12:57:43	0	0	0	1.395293	-5.358592	0	4.085157	100	0	6546	-1.872727	3.616241	17.18864	
12:57:43	0	0	0	1.395293	-5.358592	0	4.085157	100	0	6546	-1.871189	4.963237	17.20299	
12:57:43	0	0	0	1.395293	-5.358592	0	4.085157	100	0	6546	-1.857783	3.723655	17.2938	
12:57:43	0	0	0	1.227246	-11.93252	0	2	100	0	6546	-1.85069	3.55612	17.30482	
12:57:44	0	0	0	1.227246	-11.93252	0	2	100	0	6546	-1.83625	3.54111	17.34859	
12:57:44	0	0	0	1.227246	-11.93252	0	2	100	0	6546	-1.848724	4.695936	17.34076	
12:57:44	0	0	0	1.227246	-11.93252	0	2	100	0	6546	-1.851261	4.585012	17.41826	
12:57:44	0	0	0	1.227246	-11.93252	0	2	100	0	6546	-1.849522	4.436919	17.43473	
12:57:44	0	0	0	1.17292	-9.101091	0	2	100	0	6546	-1.853359	4.096434	17.48649	
12:57:45	0	0	0	1.17292	-9.101091	0	2	100	0	6546	-1.845042	3.920371	17.53362	
12:57:45	0	0	0	1.17292	-9.101091	0	2	100	0	6546	-1.829481	2.657011	17.57224	
12:57:45	0	0	0	1.17292	-9.101091	0	2	100	0	6546	-1.8284	2.485822	17.50127	
12:57:45	0	0	0	1.17292	-9.101091	0	2	100	0	6546	-1.827308	0.8286775	17.4957	
12:57:45	0	0	0	1.350949	2.097371	0	4.020541	100	0	6546	-1.834172	0.1496018	17.4765	
12:57:46	0	0	0	1.350949	2.097371	0	4.020541	100	0	6546	-1.845506	1.608086	17.45831	
12:57:46	0	0	0	1.350949	2.097371	0	4.020541	100	0	6546	-1.844853	2.812656	17.40012	
12:57:46	0	0	0	1.350949	2.097371	0	4.020541	100	0	6546	-1.844218	4.094438	17.41418	
12:57:46	0	0	0	1.350949	2.097371	0	4.020541	100	0	6546	-1.844863	4.066125	17.43235	
12:57:46	0	0	0	1.332133	1.129718	0	2	100	0	6546	-1.846947	3.963511	17.4542	
12:57:47	0	0	0	1.332133	1.129718	0	2	100	0	6546	-1.858814	2.197844	17.42292	
12:57:47	0	0	0	1.332133	1.129718	0	2	100	0	6546	-1.867652	0.5373744	17.45219	
12:57:47	0	0	0	1.332133	1.129718	0	2	100	0	6546	-1.859338	2.062924	17.44654	
12:57:47	0	0	0	1.332133	1.129718	0	2	100	0	6546	-1.863556	3.002711	17.43418	
12:57:47	0	0	0	1.508359	8.432844	0	2	100	0	6546	-1.854768	2.001349	17.38919	
12:57:48	0	0	0	1.508359	8.432844	0	2	100	0	6546	-1.857991	2.482754	17.4187	
12:57:48	0	0	0	1.508359	8.432844	0	2	100	0	6546	-1.858537	4.075418	17.4291	
12:57:48	0	0	0	1.508359	8.432844	0	2	100	0	6546	-1.858478	2.857504	17.47887	
12:57:48	0	0	0	1.508359	8.432844	0	2	100	0	6546	-1.857456	2.374244	17.46867	
12:57:48	0	0	0	1.543765	6.487266	0	2.371174	100	0	6546	-1.852283	2.269444	17.48077	
12:57:49	0	0	0	1.543765	6.487266	0	2.371174	100	0	6546	-1.849253	3.510178	17.5225	
12:57:49	0	0	0	1.543765	6.487266	0	2.371174	100	0	6546	-1.843708	4.891589	17.53659	
12:57:49	0	0	0	1.543765	6.487266	0	2.371174	100	0	6546	-1.835116	4.054997	17.57551	
12:57:49	0	0	0	1.543765	6.487266	0	2.371174	100	0	6546	-1.832002	3.027077	17.66934	
12:57:49	0	0	0	1.400202	-3.874285	0	2	100	0	6546	-1.825826	1.63451	17.64625	
12:57:50	0	0	0	1.400202	-3.874285	0	2	100	0	6546	-1.834729	1.964656	17.58765	
12:57:50	0	0	0	1.400202	-3.874285	0	2	100	0	6546	-1.842729	2.427807	17.59567	
12:57:50	0	0	0	1.400202	-3.874285	0	2	100	0	6546	-1.85023	3.113054	17.57299	
12:57:50	0	0	0	1.400202	-3.874285	0	2	100	0	6546	-1.850579	4.336657	17.56477	
12:57:50	0	0	0	1.217513	-9.508817	0	2	100	0	6546	-1.854468	4.677619	17.5389	
12:57:51	0	0	0	1.217513	-9.508817	0	2	100	0	6546	-1.852442	3.812404	17.55139	
12:57:51	0	0	0	1.217513	-9.508817	0	2	100	0	6546	-1.855972	4.074459	17.58337	
12:57:51	0	0	0	1.217513	-9.508817	0	2	100	0	6546	-1.851284	4.541792	17.64267	
12:57:51	0	0	0	1.217513	-9.508817	0	2	100	0	6546	-1.834109	3.95891	17.66744	
12:57:51	0	0	0	1.014769	-16.53911	0	3.188126	100	0	6546	-1.812206	2.904362	17.71606	
12:57:52	0	0	0	1.014769	-16.53911	0	3.188126	100	0	6546	-1.817279	1.383549	17.69473	
12:57:52	0	0	0	1.014769	-16.53911	0	3.188126	100	0	6546	-1.830645	0.8971916	17.64337	
12:57:52	0	0	0	1.014769	-16.53911	0	3.188126	100	0	6546	-1.838868	2.040524	17.55884	
12:57:52	0	0	0	1.014769	-16.53911	0	3.188126	100	0	6546	-1.835728	2.017342	17.5602	
12:57:52	0	0	0	0.9334658	-11.1385	0	2	100	0	6546	-1.838073	2.053333	17.50617	
12:57:53	0	0	0	0.9334658	-11.1385	0	2	100	0	6546	-1.840977	2.369012	17.47179	
12:57:53	0	0	0	0.9334658	-11.1385	0	2	100	0	6546	-1.837224	2.770983	17.48002	
12:57:53	0	0	0	0.9334658	-11.1385	0	2	100	0	6546	-1.826211	2.578536	17.47306	
12:57:53	0	0	0	0.9334658	-11.1385	0	2	100	0	6546	-1.829735	2.577285	17.43309	
12:57:53	0	0	0	1.060235	-1.559563	0	2.371174	100	0	6546	-1.820349	3.159199	17.44347	
12:57:54	0	0	0	1.060235	-1.559563	0	2.371174	100	0	6546	-1.831726	3.545552	17.47986	
12:57:54	0	0	0	1.060235	-1.559563	0	2.371174	100	0	6546	-1.826807	3.615761	17.48351	
12:57:54	0	0	0	1.060235	-1.559563	0	2.371174	100	0	6546	-1.817925	3.588692	17.46735	
12:57:54	0	0	0	1.060235	-1.559563	0	2.371174	100	0	6546	-1.818529	3.475003	17.45307	
12:57:54	0	0	0	1.199205	3.923755	0	2	100	0	6546	-1.817473	3.452217	17.4809	
12:57:55	0	0	0	1.199205	3.923755	0	2	100	0	6546	-1.816457	3.432594	17.52114	
12:57:55	0	0	0	1.199205	3.923755	0	2	100	0	6546	-1.827412	2.485255	17.51463	
12:57:55	0	0	0	1.199205	3.923755	0	2	100	0	6546	-1.823758	1.913321	17.53474	
12:57:55	0	0	0	1.199205	3.923755	0	2	100	0	6546	-1.825536	2.172909	17.45607	
12:57:55	0	0	0	1.225264	3.84077	0	4.020543	100	0	6546	-1.825922	2.310952	17.41912	
12:57:56	0	0	0	1.225264	3.84077	0	4.020543	100	0	6546	-1.831341	1.969874	17.40729	
12:57:56	0	0	0	1.225264	3.84077	0	4.020543	100	0	6546	-1.834473	3.27294	17.40638	
12:57:56	0	0	0	1.225264	3.84077	0	4.020543	100	0	6546	-1.837014	2.70705	17.42899	
12:57:56	0	0	0	1.225264	3.84077	0	4.020543	100	0	6546	-1.840005	2.404759	17.39505	
12:57:56	0	0	0	1.34017	6.184951	0	2	100	0	6546	-1.85133	2.745058	17.3379	
12:57:57	0	0	0	1.34017	6.184951	0	2	100	0	6546	-1.858843	1.394324	17.27097	
12:57:57	0	0	0	1.34017	6.184951	0	2	100	0	6546	-1.859321	0.08635204	17.2228	
12:57:57	0	0	0	1.34017	6.184951	0	2	100	0	6546	-1.861925	0.4539215	17.15034	
12:57:57	0	0	0	1.34017	6.184951	0	2	100	0	6546	-1.865786	1.684468	17.12132	
12:57:57	0	0	0	1.193644	-1.971626	0	2.371174	100	0	6546	-1.871498	1.699805	17.09981	
12:57:58	0	0	0	1.193644	-1.971626	0	2.371174	100	0	6546	-1.878519	1.147389	17.10448	
12:57:58	0	0	0	1.193644	-1.971626	0	2.371174	100	0	6546	-1.878565	-0.06315798	17.09531	
12:57:58	0	0	0	1.193644	-1.971626	0	2.371174	100	0	6546	-1.886743	0.0241001	17.07566	
12:57:58	0	0	0	1.193644	-1.971626	0	2.371174	100	0	6546	-1.876624	0.5239717	17.02606	
12:57:58	0	0	0	1.101331	-4.018322	0	2	100	0	6546	-1.872245	0.3075345	17.02829	
12:57:59	0	0	0	1.101331	-4.018322	0	2	100	0	6546	-1.882782	0.6177767	17.06741	
12:57:59	0	0	0	1.101331	-4.018322	0	2	100	0	6546	-1.877917	0.3796966	17.10565	
12:57:59	0	0	0	1.101331	-4.018322	0	2	100	0	6546	-1.880591	0.3598597	17.12986	
12:57:59	0	0	0	1.101331	-4.018322	0	2	100	0	6546	-1.878078	-0.1122095	17.14751	
12:57:59	0	0	0	1.114323	-2.568117	0	2.371174	100	0	6546	-1.874885	1.61906	17.13019	
12:58:00	0	0	0	1.114323	-2.568117	0	2.371174	100	0	6546	-1.882477	2.443015	17.1802	
12:58:00	0	0	0	1.114323	-2.568117	0	2.371174	100	0	6546	-1.894299	1.663824	17.16301	
12:58:00	0	0	0	1.114323	-2.568117	0	2.371174	100	0	6546	-1.893715	0.8737896	17.16619	
12:58:00	0	0	0	1.114323	-2.568117	0	2.371174	100	0	6546	-1.901747	1.813124	17.12336	
12:58:00	0	0	0	1.208935	3.508285	0	2	100	0	6546	-1.905193	2.002566	17.13862	
12:58:01	0	0	0	1.208935	3.508285	0	2	100	0	6546	-1.904648	0.63449	17.12714	
12:58:01	0	0	0	1.208935	3.508285	0	2	100	0	6546	-1.902443	0.0537779	17.08904	
12:58:01	0	0	0	1.208935	3.508285	0	2	100	0	6546	-1.9045	1.667988	17.02581	
12:58:01	0	0	0	1.208935	3.508285	0	2	100	0	6546	-1.915703	3.23827	17.02724	
12:58:01	0	0	0	1.3205	7.385664	0	2	100	0	6546	-1.925603	4.167037	16.99998	
12:58:02	0	0	0	1.3205	7.385664	0	2	100	0	6546	-1.924401	3.704333	17.0264	
12:58:02	0	0	0	1.3205	7.385664	0	2	100	0	6546	-1.922551	2.057029	16.99637	
12:58:02	0	0	0	1.3205	7.385664	0	2	100	0	6546	-1.92461	1.199709	16.9869	
12:58:02	0	0	0	1.3205	7.385664	0	2	100	0	6546	-1.929151	2.974076	16.9502	
12:58:02	0	0	0	1.380715	6.006185	0	4.890105	100	0	6546	-1.931744	3.151859	16.97061	
12:58:03	0	0	0	1.380715	6.006185	0	4.890105	100	0	6546	-1.928721	2.291599	16.95868	
12:58:03	0	0	0	1.380715	6.006185	0	4.890105	100	0	6546	-1.921919	4.132406	16.96932	
12:58:03	0	0	0	1.380715	6.006185	0	4.890105	100	0	6546	-1.915142	4.820988	17.03306	
12:58:03	0	0	0	1.380715	6.006185	0	4.890105	100	0	6546	-1.901345	3.477987	17.09172	
12:58:03	0	0	0	1.716869	19.13269	0	2	100	0	6546	-1.891085	2.750095	17.13507	
12:58:04	0	0	0	1.716869	19.13269	0	2	100	0	6546	-1.890284	3.219513	17.17276	
12:58:04	0	0	0	1.716869	19.13269	0	2	100	0	6546	-1.901251	2.156699	17.18887	
12:58:04	0	0	0	1.716869	19.13269	0	2	100	0	6546	-1.894333	1.708263	17.17501	
12:58:04	0	0	0	1.716869	19.13269	0	2	100	0	6546	-1.891735	2.929831	17.20246	
12:58:04	0	0	0	1.759817	11.80747	0	2	100	0	6546	-1.897969	1.877586	17.20351	
12:58:05	0	0	0	1.759817	11.80747	0	2	100	0	6546	-1.891	2.882525	17.2449	
12:58:05	0	0	0	1.759817	11.80747	0	2	100	0	6546	-1.882257	1.06321	17.22881	
12:58:05	0	0	0	1.759817	11.80747	0	2	100	0	6546	-1.875197	0.7473206	17.17247	
12:58:05	0	0	0	1.759817	11.80747	0	2	100	0	6546	-1.878757	2.405279	17.05941	
12:58:05	0	0	0	1.525976	-0.8873419	0	2.371175	100	0	6546	-1.884126	3.073424	17.037	
12:58:06	0	0	0	1.525976	-0.8873419	0	2.371175	100	0	6546	-1.884241	1.42119	17.01202	
12:58:06	0	0	0	1.525976	-0.8873419	0	2.371175	100	0	6546	-1.872988	3.190949	17.07115	
12:58:06	0	0	0	1.525976	-0.8873419	0	2.371175	100	0	6546	-1.884074	3.340109	17.05719	
12:58:06	0	0	0	1.525976	-0.8873419	0	2.371175	100	0	6546	-1.889655	5.079802	17.04853	
12:58:06	0	0	0	1.479781	-3.649766	0	2	100	0	6546	-1.905594	2.92497	17.05412	
12:58:07	0	0	0	1.479781	-3.649766	0	2	100	0	6546	-1.897462	4.790485	17.06151	
12:58:07	0	0	0	1.479781	-3.649766	0	2	100	0	6546	-1.890539	6.230498	17.08122	
12:58:07	0	0	0	1.479781	-3.649766	0	2	100	0	6546	-1.885272	6.116177	17.14111	
12:58:07	0	0	0	1.479781	-3.649766	0	2	100	0	6546	-1.884355	5.890213	17.13647	
12:58:07	0	0	0	1.206776	-17.07835	0	2	100	0	6546	-1.886764	4.918572	17.15647	
12:58:08	0	0	0	1.206776	-17.07835	0	2	100	0	6546	-1.872528	3.085835	17.14692	
12:58:08	0	0	0	1.206776	-17.07835	0	2	100	0	6546	-1.879439	4.553192	17.12411	
12:58:08	0	0	0	1.206776	-17.07835	0	2	100	0	6546	-1.871679	3.407994	17.13197	
12:58:08	0	0	0	1.206776	-17.07835	0	2	100	0	6546	-1.867356	4.857406	17.15746	
12:58:08	0	0	0	1.293682	-7.506693	0	2.092208	100	0	6546	-1.862308	3.665711	17.16426	
12:58:09	0	0	0	1.293682	-7.506693	0	2.092208	100	0	6546	-1.855262	4.860559	17.13407	
12:58:09	0	0	0	1.293682	-7.506693	0	2.092208	100	0	6546	-1.861816	6.244862	17.15764	
12:58:09	0	0	0	1.293682	-7.506693	0	2.092208	100	0	6546	-1.856295	6.380113	17.27003	
12:58:09	0	0	0	1.293682	-7.506693	0	2.092208	100	0	6546	-1.854438	5.167819	17.34442	
12:58:09	0	0	0	1.014317	-17.81377	0	2	100	0	6546	-1.86226	5.72338	17.42364	
12:58:10	0	0	0	1.014317	-17.81377	0	2	100	0	6546	-1.870115	4.519784	17.48319	
12:58:10	0	0	0	1.014317	-17.81377	0	2	100	0	6546	-1.867562	3.977844	17.55797	
12:58:10	0	0	0	1.014317	-17.81377	0	2	100	0	6546	-1.867516	4.636988	17.58627	
12:58:10	0	0	0	1.014317	-17.81377	0	2	100	0	6546	-1.875024	3.178069	17.62594	
12:58:10	0	0	0	0.8798778	-16.83535	0	4.995008	100	0	6546	-1.871276	4.321341	17.61935	
12:58:11	0	0	0	0.8798778	-16.83535	0	4.995008	100	0	6546	-1.865167	3.308186	17.6384	
12:58:11	0	0	0	0.8798778	-16.83535	0	4.995008	100	0	6546	-1.865779	4.266125	17.60731	
12:58:11	0	0	0	0.8798778	-16.83535	0	4.995008	100	0	6546	-1.867658	4.863638	17.57692	
12:58:11	0	0	0	0.8798778	-16.83535	0	4.995008	100	0	6546	-1.869675	3.763891	17.56099	
12:58:11	0	0	0	0.9455492	-5.858644	0	2	100	0	6546	-1.871349	2.181707	17.53605	
12:58:12	0	0	0	0.9455492	-5.858644	0	2	100	0	6546	-1.883735	2.129483	17.51703	
12:58:12	0	0	0	0.9455492	-5.858644	0	2	100	0	6546	-1.890637	2.811021	17.51166	
12:58:12	0	0	0	0.9455492	-5.858644	0	2	100	0	6546	-1.89861	3.689877	17.51594	
12:58:12	0	0	0	0.9455492	-5.858644	0	2	100	0	6546	-1.912416	3.965801	17.5065	
12:58:12	0	0	0	1.068716	2.866974	0	2.405428	100	0	6546	-1.922333	2.47332	17.5229	
12:58:13	0	0	0	1.068716	2.866974	0	2.405428	100	0	6546	-1.919797	2.460902	17.53239	
12:58:13	0	0	0	1.068716	2.866974	0	2.405428	100	0	6546	-1.912038	3.762778	17.57498	
12:58:13	0	0	0	1.068716	2.866974	0	2.405428	100	0	6546	-1.914548	4.740192	17.58122	
12:58:13	0	0	0	1.068716	2.866974	0	2.405428	100	0	6546	-1.918413	4.664436	17.59834	
12:58:13	0	0	0	1.23096	8.150156	0	2	100	0	6545	-1.913975	4.566065	17.6465	
12:58:14	0	0	0	1.23096	8.150156	0	2	100	0	6545	-1.904931	4.696525	17.66189	
12:58:14	0	0	0	1.23096	8.150156	0	2	100	0	6545	-1.885739	5.647316	17.70773	
12:58:14	0	0	0	1.23096	8.150156	0	2	100	0	6545	-1.879997	5.319515	17.73323	
12:58:14	0	0	0	1.23096	8.150156	0	2	100	0	6545	-1.866154	3.669876	17.817	
12:58:14	0	0	0	1.418638	11.41603	0	2	100	0	6546	-1.854495	5.589642	17.87016	
12:58:15	0	0	0	1.418638	11.41603	0	2	100	0	6546	-1.85179	5.295025	17.89058	
12:58:15	0	0	0	1.418638	11.41603	0	2	100	0	6546	-1.854456	3.721087	17.8991	
12:58:15	0	0	0	1.418638	11.41603	0	2	100	0	6546	-1.843875	5.371569	17.93764	
12:58:15	0	0	0	1.418638	11.41603	0	2	100	0	6546	-1.837882	3.99557	17.97458	
12:58:15	0	0	0	1.759536	21.12966	0	2	100	0	6546	-1.850993	2.916781	17.97056	
12:58:16	0	0	0	1.759536	21.12966	0	2	100	0	6546	-1.848279	3.405555	17.97504	
12:58:16	0	0	0	1.759536	21.12966	0	2	100	0	6546	-1.861544	2.72582	17.90964	
12:58:16	0	0	0	1.759536	21.12966	0	2	100	0	6546	-1.879464	3.603589	17.8629	
12:58:16	0	0	0	1.759536	21.12966	0	2	100	0	6546	-1.866966	3.647988	17.84726	
12:58:16	0	0	0	1.911788	18.98792	0	5.497355	100	0	6546	-1.858163	2.018252	17.84913	
12:58:17	0	0	0	1.911788	18.98792	0	5.497355	100	0	6546	-1.859418	0.4815919	17.84789	
12:58:17	0	0	0	1.911788	18.98792	0	5.497355	100	0	6546	-1.860451	2.207752	17.79228	
12:58:17	0	0	0	1.911788	18.98792	0	5.497355	100	0	6546	-1.861798	1.737609	17.7565	
12:58:17	0	0	0	1.911788	18.98792	0	5.497355	100	0	6546	-1.850124	0.1431602	17.71848	
12:58:17	0	0	0	1.990918	15.08453	0	2	100	0	6546	-1.839015	-0.8290849	17.68146	
12:58:18	0	0	0	1.990918	15.08453	0	2	100	0	6546	-1.835405	0.4187134	17.65859	
12:58:18	0	0	0	1.990918	15.08453	0	2	100	0	6546	-1.83178	1.134691	17.62206	
12:58:18	0	0	0	1.990918	15.08453	0	2	100	0	6546	-1.839905	-0.03149835	17.60254	
12:58:18	0	0	0	1.990918	15.08453	0	2	100	0	6546	-1.834762	-0.8424686	17.54211	
12:58:18	0	0	0	1.961115	9.921573	0	2	100	0	6546	-1.850531	0.2418409	17.5011	
12:58:19	0	0	0	1.961115	9.921573	0	2	100	0	6546	-1.856883	1.033497	17.44041	
12:58:19	0	0	0	1.961115	9.921573	0	2	100	0	6546	-1.865128	-0.07498185	17.4328	
12:58:19	0	0	0	1.961115	9.921573	0	2	100	0	6546	-1.863504	0.209396	17.37401	
12:58:19	0	0	0	1.961115	9.921573	0	2	100	0	6546	-1.870723	0.1848423	17.31134	
12:58:19	0	0	0	1.938773	5.989336	0	2	100	0	6546	-1.887289	-0.7108104	17.2201	
12:58:20	0	0	0	1.938773	5.989336	0	2	100	0	6546	-1.891595	-0.1854371	17.2007	
12:58:20	0	0	0	1.938773	5.989336	0	2	100	0	6546	-1.886956	1.186406	17.2005	
12:58:20	0	0	0	1.938773	5.989336	0	2	100	0	6546	-1.879569	2.591741	17.18474	
12:58:20	0	0	0	1.938773	5.989336	0	2	100	0	6546	-1.866605	3.091518	17.21093	
12:58:21	0	0	0	1.953307	5.817713	0	2.361226	100	0	6546	-1.867416	3.703827	17.20302	
12:58:21	0	0	0	1.953307	5.817713	0	2.361226	100	0	6546	-1.872054	3.750727	17.20436	
12:58:21	0	0	0	1.953307	5.817713	0	2.361226	100	0	6546	-1.871224	3.015029	17.19802	
12:58:21	0	0	0	1.953307	5.817713	0	2.361226	100	0	6546	-1.87708	3.477159	17.2104	
12:58:21	0	0	0	1.953307	5.817713	0	2.361226	100	0	6546	-1.882161	3.423427	17.20572	
12:58:22	0	0	0	1.815269	-3.657752	0	2	100	0	6546	-1.875181	3.380472	17.203	
12:58:22	0	0	0	1.815269	-3.657752	0	2	100	0	6546	-1.86819	3.021731	17.24875	
12:58:22	0	0	0	1.815269	-3.657752	0	2	100	0	6546	-1.857118	2.394136	17.3171	
12:58:22	0	0	0	1.815269	-3.657752	0	2	100	0	6546	-1.856122	3.445435	17.26409	
12:58:22	0	0	0	1.815269	-3.657752	0	2	100	0	6546	-1.859723	4.256226	17.2866	
12:58:23	0	0	0	1.798088	-2.970007	0	2	100	0	6546	-1.864989	5.070633	17.24351	
12:58:23	0	0	0	1.798088	-2.970007	0	2	100	0	6546	-1.860211	5.044766	17.29037	
12:58:23	0	0	0	1.798088	-2.970007	0	2	100	0	6546	-1.859454	4.242491	17.34278	
12:58:23	0	0	0	1.798088	-2.970007	0	2	100	0	6546	-1.852789	4.803816	17.38787	
12:58:23	0	0	0	1.798088	-2.970007	0	2	100	0	6546	-1.853858	5.362195	17.41896	
12:58:24	0	0	0	1.756966	-4.972472	0	2	100	0	6547	-1.841549	4.605223	17.44491	
12:58:24	0	0	0	1.756966	-4.972472	0	2	100	0	6547	-1.834038	3.090319	17.39513	
12:58:24	0	0	0	1.756966	-4.972472	0	2	100	0	6547	-1.82934	3.010096	17.40474	
12:58:24	0	0	0	1.756966	-4.972472	0	2	100	0	6547	-1.819916	4.428246	17.3514	
12:58:24	0	0	0	1.756966	-4.972472	0	2	100	0	6547	-1.809783	5.084813	17.3348	
12:58:25	0	0	0	1.77589	-3.920134	0	3.959553	100	0	6546	-1.806511	4.313634	17.30501	
12:58:25	0	0	0	1.77589	-3.920134	0	3.959553	100	0	6546	-1.811793	2.589198	17.30187	
12:58:25	0	0	0	1.77589	-3.920134	0	3.959553	100	0	6546	-1.814609	2.146638	17.24518	
12:58:25	0	0	0	1.77589	-3.920134	0	3.959553	100	0	6546	-1.807177	2.458219	17.2559	
12:58:25	0	0	0	1.77589	-3.920134	0	3.959553	100	0	6546	-1.8095	1.990242	17.24577	
12:58:26	0	0	0	1.997753	8.003311	0	4.83123	100	0	6546	-1.816982	2.793804	17.28015	
12:58:26	0	0	0	1.997753	8.003311	0	4.83123	100	0	6546	-1.821002	3.087561	17.23955	
12:58:26	0	0	0	1.997753	8.003311	0	4.83123	100	0	6546	-1.827791	3.342062	17.24158	
12:58:26	0	0	0	1.997753	8.003311	0	4.83123	100	0	6546	-1.817524	2.056041	17.23437	
12:58:26	0	0	0	1.997753	8.003311	0	4.83123	100	0	6546	-1.813094	2.562777	17.22303	
12:58:27	0	0	0	2.083372	8.151939	0	2	100	0	6546	-1.812431	4.292887	17.19484	
12:58:27	0	0	0	2.083372	8.151939	0	2	100	0	6546	-1.806309	4.34754	17.23117	
12:58:27	0	0	0	2.083372	8.151939	0	2	100	0	6546	-1.814864	3.578108	17.24431	
12:58:27	0	0	0	2.083372	8.151939	0	2	100	0	6546	-1.814005	4.44181	17.21056	
12:58:27	0	0	0	2.083372	8.151939	0	2	100	0	6546	-1.807304	2.797141	17.23072	
12:58:28	0	0	0	2.110087	6.018968	0	2	100	0	6546	-1.803387	2.310788	17.23192	
12:58:28	0	0	0	2.110087	6.018968	0	2	100	0	6546	-1.796712	3.740797	17.28802	
12:58:28	0	0	0	2.110087	6.018968	0	2	100	0	6546	-1.799919	3.278356	17.28651	
12:58:28	0	0	0	2.110087	6.018968	0	2	100	0	6546	-1.801472	2.696527	17.28238	
12:58:28	0	0	0	2.110087	6.018968	0	2	100	0	6546	-1.801622	3.012606	17.29715	
12:58:29	0	0	0	1.96025	-3.698311	0	3.300495	100	0	6546	-1.803885	1.613226	17.31089	
12:58:29	0	0	0	1.96025	-3.698311	0	3.300495	100	0	6546	-1.7959	1.830409	17.30416	
12:58:29	0	0	0	1.96025	-3.698311	0	3.300495	100	0	6546	-1.811953	1.933518	17.25536	
12:58:29	0	0	0	1.96025	-3.698311	0	3.300495	100	0	6546	-1.809952	1.292416	17.28312	
12:58:29	0	0	0	1.96025	-3.698311	0	3.300495	100	0	6546	-1.811874	2.176009	17.25247	
12:58:30	0	0	0	1.874818	-4.738947	0	2	100	0	6546	-1.812984	1.401528	17.27884	
12:58:30	0	0	0	1.874818	-4.738947	0	2	100	0	6546	-1.822609	2.431306	17.24625	
12:58:30	0	0	0	1.874818	-4.738947	0	2	100	0	6546	-1.818334	1.882638	17.2403	
12:58:30	0	0	0	1.874818	-4.738947	0	2	100	0	6546	-1.826974	2.436327	17.2923	
12:58:30	0	0	0	1.874818	-4.738947	0	2	100	0	6546	-1.827402	1.165751	17.26868	
12:58:31	0	0	0	1.850494	-3.721064	0	2	100	0	6546	-1.820238	0.5577257	17.25223	
12:58:31	0	0	0	1.850494	-3.721064	0	2	100	0	6546	-1.81642	1.086485	17.22189	
12:58:31	0	0	0	1.850494	-3.721064	0	2	100	0	6546	-1.813536	0.3135603	17.16616	
12:58:31	0	0	0	1.850494	-3.721064	0	2	100	0	6546	-1.808983	0.501326	17.08891	
12:58:31	0	0	0	1.850494	-3.721064	0	2	100	0	6546	-1.813575	0.9621465	17.08696	
12:58:32	0	0	0	1.773213	-4.593544	0	2	100	0	6546	-1.819452	0.08205091	17.09237	
12:58:32	0	0	0	1.773213	-4.593544	0	2	100	0	6546	-1.833815	1.269948	17.09316	
12:58:32	0	0	0	1.773213	-4.593544	0	2	100	0	6546	-1.830131	-0.3584864	17.10398	
12:58:32	0	0	0	1.773213	-4.593544	0	2	100	0	6546	-1.847025	-1.502087	17.09221	
12:58:32	0	0	0	1.773213	-4.593544	0	2	100	0	6546	-1.857559	0.5109096	17.06384	
12:58:33	0	0	0	1.803908	0.6882458	0	2.371174	100	0	6546	-1.848083	-0.5576651	17.04221	
12:58:33	0	0	0	1.803908	0.6882458	0	2.371174	100	0	6546	-1.84741	-2.420479	17.02426	
12:58:33	0	0	0	1.803908	0.6882458	0	2.371174	100	0	6546	-1.84359	-2.33577	16.98344	
12:58:33	0	0	0	1.803908	0.6882458	0	2.371174	100	0	6546	-1.847407	-0.9663594	16.93367	
12:58:33	0	0	0	1.803908	0.6882458	0	2.371174	100	0	6546	-1.845609	0.06040187	16.88539	
12:58:34	0	0	0	1.719738	-5.317209	0	2	100	0	6546	-1.841411	1.470162	16.8558	
12:58:34	0	0	0	1.719738	-5.317209	0	2	100	0	6546	-1.824265	0.1333917	16.89934	
12:58:34	0	0	0	1.719738	-5.317209	0	2	100	0	6546	-1.830825	0.1098382	16.84202	
12:58:34	0	0	0	1.719738	-5.317209	0	2	100	0	6546	-1.837438	0.08949938	16.8476	
12:58:34	0	0	0	1.719738	-5.317209	0	2	100	0	6546	-1.844532	-1.896981	16.84027	
12:58:35	0	0	0	1.892594	5.483633	0	2	100	0	6546	-1.843886	0.06233311	16.82588	
12:58:35	0	0	0	1.892594	5.483633	0	2	100	0	6546	-1.844962	-1.707763	16.80366	
12:58:35	0	0	0	1.892594	5.483633	0	2	100	0	6546	-1.841566	0.1325035	16.7728	
12:58:35	0	0	0	1.892594	5.483633	0	2	100	0	6546	-1.861084	0.1614408	16.76029	
12:58:35	0	0	0	1.892594	5.483633	0	2	100	0	6546	-1.842417	-1.375616	16.69759	
12:58:36	0	0	0	1.81952	-0.2863079	0	2	100	0	6546	-1.850064	0.2199467	16.65626	
12:58:36	0	0	0	1.81952	-0.2863079	0	2	100	0	6546	-1.856642	1.607351	16.60282	
12:58:36	0	0	0	1.81952	-0.2863079	0	2	100	0	6546	-1.862407	-0.3261116	16.6436	
12:58:36	0	0	0	1.81952	-0.2863079	0	2	100	0	6546	-1.851333	-1.8758	16.62706	
12:58:36	0	0	0	1.81952	-0.2863079	0	2	100	0	6546	-1.852188	-0.7961376	16.60432	
12:58:37	0	0	0	1.884628	3.138883	0	2	100	0	6546	-1.842821	-1.722117	16.57901	
12:58:37	0	0	0	1.884628	3.138883	0	2	100	0	6546	-1.854374	-0.1686498	16.56565	
12:58:37	0	0	0	1.884628	3.138883	0	2	100	0	6546	-1.860125	0.1433623	16.55729	
12:58:37	0	0	0	1.884628	3.138883	0	2	100	0	6546	-1.867642	0.545933	16.57234	
12:58:37	0	0	0	1.884628	3.138883	0	2	100	0	6546	-1.849335	-0.9145693	16.52828	
12:58:38	0	0	0	1.831142	-0.07764746	0	5.668787	100	0	6546	-1.856568	-0.7212105	16.56133	
12:58:38	0	0	0	1.831142	-0.07764746	0	5.668787	100	0	6546	-1.864163	0.9239852	16.55161	
12:58:38	0	0	0	1.831142	-0.07764746	0	5.668787	100	0	6546	-1.873519	1.389863	16.56046	
12:58:38	0	0	0	1.831142	-0.07764746	0	5.668787	100	0	6546	-1.872038	1.4124	16.56692	
12:58:38	0	0	0	1.831142	-0.07764746	0	5.668787	100	0	6546	-1.869441	2.471423	16.61833	
12:58:39	0	0	0	1.908698	3.779073	0	3.028686	100	0	6546	-1.873452	1.637291	16.64676	
12:58:39	0	0	0	1.908698	3.779073	0	3.028686	100	0	6546	-1.859572	2.383921	16.65853	
12:58:39	0	0	0	1.908698	3.779073	0	3.028686	100	0	6546	-1.860357	1.258766	16.6334	
12:58:39	0	0	0	1.908698	3.779073	0	3.028686	100	0	6546	-1.870286	0.8883713	16.61833	
12:58:39	0	0	0	1.908698	3.779073	0	3.028686	100	0	6546	-1.85569	0.7290522	16.56787	
12:58:40	0	0	0	1.916897	1.576051	0	4.283779	100	0	6546	-1.842573	-0.1231457	16.55773	
12:58:40	0	0	0	1.916897	1.576051	0	4.283779	100	0	6546	-1.845277	1.284306	16.51201	
12:58:40	0	0	0	1.916897	1.576051	0	4.283779	100	0	6546	-1.84926	1.678776	16.50923	
12:58:40	0	0	0	1.916897	1.576051	0	4.283779	100	0	6546	-1.853313	0.5774333	16.48467	
12:58:40	0	0	0	1.916897	1.576051	0	4.283779	100	0	6546	-1.860015	1.375132	16.47997	
12:58:41	0	0	0	1.745209	-6.900322	0	2	100	0	6546	-1.854477	0.5697193	16.46593	
12:58:41	0	0	0	1.745209	-6.900322	0	2	100	0	6546	-1.864582	1.40111	16.50809	
12:58:41	0	0	0	1.745209	-6.900322	0	2	100	0	6546	-1.867655	0.6139942	16.50315	
12:58:41	0	0	0	1.745209	-6.900322	0	2	100	0	6546	-1.868757	0.33343	16.47484	
12:58:41	0	0	0	1.745209	-6.900322	0	2	100	0	6546	-1.871759	1.409968	16.45975	
12:58:42	0	0	0	1.653414	-10.01012	0	2.371174	100	0	6546	-1.871752	0.2956484	16.46649	
12:58:42	0	0	0	1.653414	-10.01012	0	2.371174	100	0	6546	-1.865972	0.7186754	16.48777	
12:58:42	0	0	0	1.653414	-10.01012	0	2.371174	100	0	6546	-1.864908	0.118878	16.5355	
12:58:42	0	0	0	1.653414	-10.01012	0	2.371174	100	0	6546	-1.863011	-0.8556809	16.55054	
12:58:42	0	0	0	1.653414	-10.01012	0	2.371174	100	0	6546	-1.868417	-0.2335724	16.51198	
12:58:43	0	0	0	1.40168	-16.2958	0	2.371174	100	0	6546	-1.863111	-0.004670195	16.50414	
12:58:43	0	0	0	1.40168	-16.2958	0	2.371174	100	0	6546	-1.854317	1.440551	16.49146	
12:58:43	0	0	0	1.40168	-16.2958	0	2.371174	100	0	6546	-1.850981	1.825397	16.51974	
12:58:43	0	0	0	1.40168	-16.2958	0	2.371174	100	0	6546	-1.843776	0.7542736	16.53442	
12:58:43	0	0	0	1.40168	-16.2958	0	2.371174	100	0	6546	-1.849968	1.55317	16.53592	
12:58:44	0	0	0	1.181449	-18.57285	0	2.371175	100	0	6546	-1.839478	0.4345608	16.56004	
12:58:44	0	0	0	1.181449	-18.57285	0	2.371175	100	0	6546	-1.846081	-0.09673721	16.54673	
12:58:44	0	0	0	1.181449	-18.57285	0	2.371175	100	0	6546	-1.854287	-0.1141166	16.57111	
12:58:44	0	0	0	1.181449	-18.57285	0	2.371175	100	0	6546	-1.869072	-0.9501356	16.60018	
12:58:44	0	0	0	1.181449	-18.57285	0	2.371175	100	0	6546	-1.860409	-2.480616	16.60012	
12:58:45	0	0	0	1.231431	-7.818736	0	3.296196	100	0	6546	-1.865624	-1.871717	16.60639	
12:58:45	0	0	0	1.231431	-7.818736	0	3.296196	100	0	6546	-1.858025	-1.517606	16.57889	
12:58:45	0	0	0	1.231431	-7.818736	0	3.296196	100	0	6546	-1.866954	-2.700819	16.54981	
12:58:45	0	0	0	1.231431	-7.818736	0	3.296196	100	0	6546	-1.867792	-2.905611	16.45887	
12:58:45	0	0	0	1.231431	-7.818736	0	3.296196	100	0	6546	-1.872309	-2.050693	16.4528	
12:58:46	0	0	0	1.4742	4.372855	0	3.421514	100	0	6546	-1.886396	-1.816391	16.40285	
12:58:46	0	0	0	1.4742	4.372855	0	3.421514	100	0	6546	-1.894052	-1.313862	16.38899	
12:58:46	0	0	0	1.4742	4.372855	0	3.421514	100	0	6546	-1.891033	-1.179561	16.34192	
12:58:46	0	0	0	1.4742	4.372855	0	3.421514	100	0	6546	-1.899343	-1.574602	16.30725	
12:58:46	0	0	0	1.4742	4.372855	0	3.421514	100	0	6546	-1.892792	0.1977539	16.24487	
12:58:47	0	0	0	1.507493	3.74543	0	2.216706	100	0	6546	-1.90292	0.7553753	16.24232	
12:58:47	0	0	0	1.507493	3.74543	0	2.216706	100	0	6546	-1.889976	0.6167214	16.23547	
12:58:47	0	0	0	1.507493	3.74543	0	2.216706	100	0	6546	-1.882203	0.3012276	16.29022	
12:58:47	0	0	0	1.507493	3.74543	0	2.216706	100	0	6546	-1.876709	-0.2351402	16.30997	
12:58:47	0	0	0	1.507493	3.74543	0	2.216706	100	0	6546	-1.861596	0.7966568	16.3174	
12:58:48	0	0	0	1.436448	-1.675537	0	2	100	0	6546	-1.859632	0.7953873	16.28906	
12:58:48	0	0	0	1.436448	-1.675537	0	2	100	0	6546	-1.854366	0.1602544	16.30211	
12:58:48	0	0	0	1.436448	-1.675537	0	2	100	0	6546	-1.851146	-0.1595818	16.31806	
12:58:48	0	0	0	1.436448	-1.675537	0	2	100	0	6546	-1.849024	0.0005318979	16.3323	
12:58:48	0	0	0	1.436448	-1.675537	0	2	100	0	6546	-1.852289	-0.6016876	16.30467	
12:58:49	0	0	0	1.622072	8.817425	0	4.995008	100	0	6546	-1.852848	0.5945011	16.29453	
12:58:49	0	0	0	1.622072	8.817425	0	4.995008	100	0	6546	-1.852113	0.4787348	16.25408	
12:58:49	0	0	0	1.622072	8.817425	0	4.995008	100	0	6546	-1.856729	0.2863229	16.22187	
12:58:49	0	0	0	1.622072	8.817425	0	4.995008	100	0	6546	-1.857987	0.704164	16.21758	
12:58:49	0	0	0	1.622072	8.817425	0	4.995008	100	0	6546	-1.865832	0.2711304	16.25912	
12:58:50	0	0	0	1.561836	2.005327	0	2	100	0	6546	-1.871723	1.030524	16.27264	
12:58:50	0	0	0	1.561836	2.005327	0	2	100	0	6546	-1.874873	-0.1869354	16.30239	
12:58:50	0	0	0	1.561836	2.005327	0	2	100	0	6546	-1.880359	-1.306508	16.32824	
12:58:50	0	0	0	1.561836	2.005327	0	2	100	0	6546	-1.878242	-1.745123	16.30611	
12:58:50	0	0	0	1.561836	2.005327	0	2	100	0	6546	-1.876951	-0.9139526	16.29021	
12:58:51	0	0	0	1.539081	-0.03366217	0	2.666496	100	0	6546	-1.876354	-2.142543	16.30922	
12:58:51	0	0	0	1.539081	-0.03366217	0	2.666496	100	0	6546	-1.874121	-1.858138	16.33177	
12:58:51	0	0	0	1.539081	-0.03366217	0	2.666496	100	0	6546	-1.864047	-1.548174	16.30134	
12:58:51	0	0	0	1.539081	-0.03366217	0	2.666496	100	0	6546	-1.862531	-1.178946	16.29327	
12:58:51	0	0	0	1.539081	-0.03366217	0	2.666496	100	0	6546	-1.863155	-1.029282	16.2696	
12:58:52	0	0	0	1.606342	2.36601	0	2	100	0	6546	-1.86547	-1.730134	16.25491	
12:58:52	0	0	0	1.606342	2.36601	0	2	100	0	6546	-1.862099	-0.5387571	16.22889	
12:58:52	0	0	0	1.606342	2.36601	0	2	100	0	6546	-1.850218	-1.703619	16.26124	
12:58:52	0	0	0	1.606342	2.36601	0	2	100	0	6546	-1.847061	-3.098536	16.20565	
12:58:52	0	0	0	1.606342	2.36601	0	2	100	0	6546	-1.87894	-2.771412	16.13576	
12:58:53	0	0	0	1.906685	13.94727	0	5.95755	100	0	6546	-1.879164	-1.112062	16.09694	
12:58:53	0	0	0	1.906685	13.94727	0	5.95755	100	0	6546	-1.894079	0.3394472	16.13389	
12:58:53	0	0	0	1.906685	13.94727	0	5.95755	100	0	6546	-1.88395	-0.7020614	16.16612	
12:58:53	0	0	0	1.906685	13.94727	0	5.95755	100	0	6546	-1.883758	0.4165832	16.19878	
12:58:53	0	0	0	1.906685	13.94727	0	5.95755	100	0	6546	-1.885276	-0.7995304	16.21384	
12:58:54	0	0	0	2.111208	17.96433	0	2	100	0	6546	-1.878223	-0.7777476	16.19299	
12:58:54	0	0	0	2.111208	17.96433	0	2	100	0	6546	-1.878567	0.3870309	16.13543	
12:58:54	0	0	0	2.111208	17.96433	0	2	100	0	6546	-1.87334	-0.986107	16.13557	
12:58:54	0	0	0	2.111208	17.96433	0	2	100	0	6546	-1.861825	-2.604036	16.09235	
12:58:54	0	0	0	2.111208	17.96433	0	2	100	0	6546	-1.859522	-0.5267562	16.07495	
12:58:55	0	0	0	2.048913	7.362183	0	2	100	0	6546	-1.845874	-2.233828	16.00143	
12:58:55	0	0	0	2.048913	7.362183	0	2	100	0	6546	-1.820639	-3.23505	16.01215	
12:58:55	0	0	0	2.048913	7.362183	0	2	100	0	6546	-1.786592	-1.657388	16.03811	
12:58:55	0	0	0	2.048913	7.362183	0	2	100	0	6546	-1.779903	-2.506558	16.08344	
12:58:55	0	0	0	2.048913	7.362183	0	2	100	0	6546	-1.78512	-4.214542	16.05269	
12:58:56	0	0	0	1.623501	-15.44867	0	3.248283	100	0	6546	-1.768459	-2.434511	16.02871	
12:58:56	0	0	0	1.623501	-15.44867	0	3.248283	100	0	6546	-1.769634	-2.423998	16.02752	
12:58:56	0	0	0	1.623501	-15.44867	0	3.248283	100	0	6546	-1.78148	-1.247409	16.04882	
12:58:56	0	0	0	1.623501	-15.44867	0	3.248283	100	0	6546	-1.771208	-1.119504	16.03526	
12:58:57	0	0	0	1.623501	-15.44867	0	3.248283	100	0	6546	-1.764587	-2.021565	16.05737	
12:58:57	0	0	0	1.418395	-19.60888	0	2	100	0	6546	-1.751904	-3.500321	16.07165	
12:58:57	0	0	0	1.418395	-19.60888	0	2	100	0	6546	-1.704531	-1.992525	16.07799	
12:58:57	0	0	0	1.418395	-19.60888	0	2	100	0	6546	-1.704654	-1.852773	16.07312	
12:58:57	0	0	0	1.418395	-19.60888	0	2	100	0	6546	-1.702788	-0.05028236	16.0968	
12:58:58	0	0	0	1.418395	-19.60888	0	2	100	0	6546	-1.693923	-0.5402962	16.05624	
12:58:58	0	0	0	1.426741	-11.98264	0	2	100	0	5	-1.68868	-2.211501	16.034	
12:58:58	0	0	0	1.426741	-11.98264	0	2	100	0	5	-1.687376	-0.3836405	16.01842	
12:58:58	0	0	0	1.426741	-11.98264	0	2	100	0	5	-1.678256	-0.3218396	16.0384	
12:58:58	0	0	0	1.426741	-11.98264	0	2	100	0	5	-1.677773	-2.014395	16.01381	
12:58:59	0	0	0	1.426741	-11.98264	0	2	100	0	5	-1.674968	-1.27495	15.94835	
12:58:59	0	0	0	1.597607	-0.3173217	0	2	100	0	47	-1.675267	0.4242648	15.96266	
12:58:59	0	0	0	1.597607	-0.3173217	0	2	100	0	47	-1.669911	-0.8992848	15.97331	
12:58:59	0	0	0	1.597607	-0.3173217	0	2	100	0	47	-1.660985	-2.4258	16.02245	
12:58:59	0	0	0	1.597607	-0.3173217	0	2	100	0	47	-1.673455	-1.272882	16.017	
12:59:00	0	0	0	1.597607	-0.3173217	0	2	100	0	47	-1.696984	-2.211328	16.02559	
12:59:00	0	0	0	1.738498	6.242757	0	2	100	0	28	-1.709613	-2.607414	16.00938	
12:59:00	0	0	0	1.738498	6.242757	0	2	100	0	28	-1.711122	-1.199203	15.97746	
12:59:00	0	0	0	1.738498	6.242757	0	2	100	0	28	-1.717596	-0.6336677	15.98388	
12:59:00	0	0	0	1.738498	6.242757	0	2	100	0	28	-1.702239	-2.186344	15.98457	
12:59:01	0	0	0	1.738498	6.242757	0	2	100	0	28	-1.691907	-0.8908446	15.97985	
12:59:01	0	0	0	1.857325	7.882496	0	3.300496	100	0	28	-1.685121	-1.761939	15.992	
12:59:01	0	0	0	1.857325	7.882496	0	3.300496	100	0	28	-1.697948	-1.015064	15.98352	
12:59:01	0	0	0	1.857325	7.882496	0	3.300496	100	0	28	-1.680879	0.852008	16.02945	
12:59:01	0	0	0	1.857325	7.882496	0	3.300496	100	0	28	-1.685192	1.445125	16.04776	
12:59:02	0	0	0	1.857325	7.882496	0	3.300496	100	0	28	-1.69373	0.5293115	16.11998	
12:59:02	0	0	0	1.934963	7.57723	0	2	100	0	28	-1.694648	1.068869	16.17897	
12:59:02	0	0	0	1.934963	7.57723	0	2	100	0	28	-1.692825	0.0445184	16.23458	
12:59:02	0	0	0	1.934963	7.57723	0	2	100	0	28	-1.688614	-1.099066	16.21141	
12:59:02	0	0	0	1.934963	7.57723	0	2	100	0	28	-1.696864	0.1272014	16.1939	
12:59:03	0	0	0	1.934963	7.57723	0	2	100	0	28	-1.707035	-0.656444	16.18792	
12:59:03	0	0	0	1.983773	7.141034	0	4.020541	100	0	28	-1.715424	-0.1788318	16.19431	
12:59:03	0	0	0	1.983773	7.141034	0	4.020541	100	0	28	-1.705612	-1.046795	16.14751	
12:59:03	0	0	0	1.983773	7.141034	0	4.020541	100	0	28	-1.712288	-0.1571835	16.12982	
12:59:03	0	0	0	1.983773	7.141034	0	4.020541	100	0	28	-1.717132	0.4726923	16.08789	
12:59:04	0	0	0	1.983773	7.141034	0	4.020541	100	0	28	-1.712547	-0.91066	16.11988	
12:59:04	0	0	0	1.975474	4.436385	0	2	100	0	28	-1.713875	-0.01361508	16.07824	
12:59:04	0	0	0	1.975474	4.436385	0	2	100	0	28	-1.725134	-0.3098836	16.10981	
12:59:04	0	0	0	1.975474	4.436385	0	2	100	0	28	-1.734339	0.2916019	16.0493	
12:59:04	0	0	0	1.975474	4.436385	0	2	100	0	28	-1.736887	0.7388094	16.08023	
12:59:05	0	0	0	1.975474	4.436385	0	2	100	0	28	-1.742165	-0.7650751	16.06842	
12:59:05	0	0	0	2.066125	6.178758	0	2	100	0	28	-1.740042	-1.40099	16.08248	
12:59:05	0	0	0	2.066125	6.178758	0	2	100	0	28	-1.738427	0.0446294	16.08887	
12:59:05	0	0	0	2.066125	6.178758	0	2	100	0	28	-1.730114	-0.546573	16.1091	
12:59:05	0	0	0	2.066125	6.178758	0	2	100	0	28	-1.741969	-0.4818249	16.0695	
12:59:06	0	0	0	2.066125	6.178758	0	2	100	0	28	-1.748056	-1.408872	16.09417	
12:59:06	0	0	0	2.168835	9.227312	0	2.371174	100	0	28	-1.742787	-0.5148401	16.08574	
12:59:06	0	0	0	2.168835	9.227312	0	2.371174	100	0	28	-1.735752	0.7900659	16.08631	
12:59:06	0	0	0	2.168835	9.227312	0	2.371174	100	0	28	-1.740683	2.066722	16.12186	
12:59:06	0	0	0	2.168835	9.227312	0	2.371174	100	0	28	-1.745094	1.283099	16.17643	
12:59:07	0	0	0	2.168835	9.227312	0	2.371174	100	0	28	-1.751681	2.007489	16.21194	
12:59:07	0	0	0	2.195811	5.475721	0	2	100	0	28	-1.750764	1.590012	16.21066	
12:59:07	0	0	0	2.195811	5.475721	0	2	100	0	28	-1.738113	-0.196392	16.22474	
12:59:07	0	0	0	2.195811	5.475721	0	2	100	0	28	-1.735254	0.5934318	16.20053	
12:59:07	0	0	0	2.195811	5.475721	0	2	100	0	28	-1.738549	1.240094	16.22923	
12:59:08	0	0	0	2.195811	5.475721	0	2	100	0	28	-1.733017	0.05973248	16.23235	
12:59:08	0	0	0	2.354487	10.48422	0	2	100	0	28	-1.730577	-0.7013193	16.24593	
12:59:08	0	0	0	2.354487	10.48422	0	2	100	0	28	-1.722316	-0.244543	16.18872	
12:59:08	0	0	0	2.354487	10.48422	0	2	100	0	28	-1.730867	0.06022427	16.23293	
12:59:08	0	0	0	2.354487	10.48422	0	2	100	0	28	-1.727217	0.8182591	16.25659	
12:59:09	0	0	0	2.354487	10.48422	0	2	100	0	28	-1.718726	2.400033	16.29086	
12:59:09	0	0	0	2.256494	2.573375	0	2	100	0	28	-1.715098	2.969321	16.30842	
12:59:09	0	0	0	2.256494	2.573375	0	2	100	0	28	-1.714247	1.611588	16.33776	
12:59:09	0	0	0	2.256494	2.573375	0	2	100	0	28	-1.715161	-0.2179856	16.34547	
12:59:09	0	0	0	2.256494	2.573375	0	2	100	0	28	-1.708792	0.4863595	16.34097	
12:59:10	0	0	0	2.256494	2.573375	0	2	100	0	28	-1.704906	2.408398	16.36275	
12:59:10	0	0	0	1.974069	-11.68204	0	2.371174	100	0	28	-1.713081	1.616135	16.39405	
12:59:10	0	0	0	1.974069	-11.68204	0	2.371174	100	0	28	-1.720249	2.47548	16.39386	
12:59:10	0	0	0	1.974069	-11.68204	0	2.371174	100	0	28	-1.710796	3.085151	16.43986	
12:59:10	0	0	0	1.974069	-11.68204	0	2.371174	100	0	28	-1.72487	1.843585	16.43985	
12:59:11	0	0	0	1.974069	-11.68204	0	2.371174	100	0	28	-1.72764	0.6395404	16.48765	
12:59:11	0	0	0	1.750269	-17.43456	0	2	100	0	28	-1.719494	1.434803	16.48321	
12:59:11	0	0	0	1.750269	-17.43456	0	2	100	0	28	-1.721433	1.756518	16.49436	
12:59:11	0	0	0	1.750269	-17.43456	0	2	100	0	28	-1.720052	2.588197	16.47771	
12:59:11	0	0	0	1.750269	-17.43456	0	2	100	0	28	-1.712705	1.550029	16.49161	
12:59:12	0	0	0	1.750269	-17.43456	0	2	100	0	28	-1.712046	1.933602	16.47687	
12:59:12	0	0	0	2.140687	8.62077	0	2.371175	100	0	28	-1.719733	2.044872	16.47406	
12:59:12	0	0	0	2.140687	8.62077	0	2.371175	100	0	28	-1.732236	1.001888	16.44096	
12:59:12	0	0	0	2.140687	8.62077	0	2.371175	100	0	28	-1.73852	1.997109	16.42492	
12:59:12	0	0	0	2.140687	8.62077	0	2.371175	100	0	28	-1.732495	1.779442	16.45346	
12:59:13	0	0	0	2.140687	8.62077	0	2.371175	100	0	28	-1.726657	1.990689	16.53176	
12:59:13	0	0	0	2.335535	12.6931	0	3.558954	100	0	28	-1.707343	2.594849	16.56414	
12:59:13	0	0	0	2.335535	12.6931	0	3.558954	100	0	28	-1.708762	2.610407	16.58817	
12:59:13	0	0	0	2.335535	12.6931	0	3.558954	100	0	28	-1.709891	3.639652	16.6217	
12:59:13	0	0	0	2.335535	12.6931	0	3.558954	100	0	28	-1.710437	3.130679	16.64709	
12:59:14	0	0	0	2.335535	12.6931	0	3.558954	100	0	28	-1.705382	2.963398	16.67288	
12:59:14	0	0	0	2.223567	1.835348	0	2.371174	100	0	28	-1.704469	4.505051	16.66743	
12:59:14	0	0	0	2.223567	1.835348	0	2.371174	100	0	28	-1.698154	5.395171	16.70805	
12:59:14	0	0	0	2.223567	1.835348	0	2.371174	100	0	28	-1.716719	4.398507	16.74557	
12:59:14	0	0	0	2.223567	1.835348	0	2.371174	100	0	28	-1.723218	3.881895	16.73248	
12:59:15	0	0	0	2.223567	1.835348	0	2.371174	100	0	28	-1.707073	5.197037	16.732	
12:59:15	0	0	0	2.142496	-4.544214	0	2	100	0	28	-1.728846	6.023018	16.7662	
12:59:15	0	0	0	2.142496	-4.544214	0	2	100	0	28	-1.787534	5.245636	16.8198	
12:59:15	0	0	0	2.142496	-4.544214	0	2	100	0	28	-1.819642	5.214714	16.86409	
12:59:15	0	0	0	2.142496	-4.544214	0	2	100	0	28	-1.818569	5.240821	16.86502	
12:59:16	0	0	0	2.142496	-4.544214	0	2	100	0	28	-1.816668	4.693089	16.86801	
12:59:16	0	0	0	2.216479	-2.105173	0	5.334115	100	0	28	-1.827258	6.176457	16.86578	
12:59:16	0	0	0	2.216479	-2.105173	0	5.334115	100	0	28	-1.818312	6.355508	16.95551	
12:59:16	0	0	0	2.216479	-2.105173	0	5.334115	100	0	28	-1.8116	5.610929	17.03144	
12:59:16	0	0	0	2.216479	-2.105173	0	5.334115	100	0	28	-1.804706	6.342472	17.13119	
12:59:17	0	0	0	2.216479	-2.105173	0	5.334115	100	0	28	-1.809028	7.271991	17.13895	
12:59:17	0	0	0	2.375281	2.012268	0	2	100	0	28	-1.799629	6.614222	17.19144	
12:59:17	0	0	0	2.375281	2.012268	0	2	100	0	28	-1.808929	6.262712	17.22987	
12:59:17	0	0	0	2.375281	2.012268	0	2	100	0	28	-1.805419	6.451086	17.31362	
12:59:17	0	0	0	2.375281	2.012268	0	2	100	0	28	-1.804236	6.116095	17.37809	
12:59:18	0	0	0	2.375281	2.012268	0	2	100	0	28	-1.79946	6.163539	17.40948	
12:59:18	0	0	0	2.132808	-13.32584	0	2.234481	100	0	28	-1.789248	5.660329	17.46536	
12:59:18	0	0	0	2.132808	-13.32584	0	2.234481	100	0	28	-1.77364	6.794545	17.50172	
12:59:18	0	0	0	2.132808	-13.32584	0	2.234481	100	0	28	-1.766018	6.68561	17.52919	
12:59:18	0	0	0	2.132808	-13.32584	0	2.234481	100	0	28	-1.75695	6.051725	17.57258	
12:59:19	0	0	0	2.132808	-13.32584	0	2.234481	100	0	28	-1.756177	6.833331	17.63245	
12:59:19	0	0	0	1.909454	-21.09757	0	4.629856	100	0	28	-1.757376	6.091589	17.67697	
12:59:19	0	0	0	1.909454	-21.09757	0	4.629856	100	0	28	-1.754984	5.170673	17.68869	
12:59:19	0	0	0	1.909454	-21.09757	0	4.629856	100	0	28	-1.752415	5.859057	17.7139	
12:59:19	0	0	0	1.909454	-21.09757	0	4.629856	100	0	28	-1.757978	5.235009	17.75501	
12:59:20	0	0	0	1.909454	-21.09757	0	4.629856	100	0	28	-1.76897	6.137773	17.76527	
12:59:20	0	0	0	1.895175	-14.44457	0	3.300495	100	0	28	-1.779223	5.116079	17.81511	
12:59:20	0	0	0	1.895175	-14.44457	0	3.300495	100	0	28	-1.781219	5.850524	17.78003	
12:59:20	0	0	0	1.895175	-14.44457	0	3.300495	100	0	28	-1.778585	6.514649	17.848	
12:59:20	0	0	0	1.895175	-14.44457	0	3.300495	100	0	28	-1.773834	6.554059	17.87777	
12:59:21	0	0	0	1.895175	-14.44457	0	3.300495	100	0	28	-1.782007	7.463986	17.88736	
12:59:21	0	0	0	1.872492	-13.33565	0	2	100	0	28	-1.772214	8.201885	17.9164	
12:59:21	0	0	0	1.872492	-13.33565	0	2	100	0	28	-1.771049	6.929332	17.98881	
12:59:21	0	0	0	1.872492	-13.33565	0	2	100	0	28	-1.775482	6.399933	17.98906	
12:59:21	0	0	0	1.872492	-13.33565	0	2	100	0	28	-1.777953	7.614295	18.00307	
12:59:22	0	0	0	1.872492	-13.33565	0	2	100	0	28	-1.785042	7.236185	18.04304	
12:59:22	0	0	0	1.823504	-12.91226	0	2.318192	100	0	28	-1.803416	6.129132	18.05491	
12:59:22	0	0	0	1.823504	-12.91226	0	2.318192	100	0	28	-1.798105	6.497344	18.08675	
12:59:22	0	0	0	1.823504	-12.91226	0	2.318192	100	0	28	-1.798582	6.931478	18.12584	
12:59:22	0	0	0	1.823504	-12.91226	0	2.318192	100	0	28	-1.798404	5.472201	18.13967	
12:59:23	0	0	0	1.823504	-12.91226	0	2.318192	100	0	28	-1.778	6.71791	18.16383	
12:59:23	0	0	0	1.841458	-8.791738	0	2.594305	100	0	28	-1.776817	7.904616	18.22211	
12:59:23	0	0	0	1.841458	-8.791738	0	2.594305	100	0	28	-1.770605	7.26163	18.29141	
12:59:23	0	0	0	1.841458	-8.791738	0	2.594305	100	0	28	-1.761422	7.701818	18.35459	
12:59:23	0	0	0	1.841458	-8.791738	0	2.594305	100	0	28	-1.746421	6.421182	18.45294	
12:59:24	0	0	0	1.841458	-8.791738	0	2.594305	100	0	28	-1.745133	5.337971	18.45802	
12:59:24	0	0	0	1.817676	-9.380319	0	3.300496	100	0	28	-1.752627	6.902388	18.49928	
12:59:24	0	0	0	1.817676	-9.380319	0	3.300496	100	0	28	-1.763944	6.460796	18.50196	
12:59:24	0	0	0	1.817676	-9.380319	0	3.300496	100	0	28	-1.760691	5.517863	18.50674	
12:59:24	0	0	0	1.817676	-9.380319	0	3.300496	100	0	28	-1.765381	7.031413	18.48421	
12:59:25	0	0	0	1.817676	-9.380319	0	3.300496	100	0	28	-1.781475	7.759415	18.45891	
12:59:25	0	0	0	1.748067	-10.7018	0	2	100	0	28	-1.790686	6.544088	18.46146	
12:59:25	0	0	0	1.748067	-10.7018	0	2	100	0	28	-1.809238	6.388143	18.40343	
12:59:25	0	0	0	1.748067	-10.7018	0	2	100	0	28	-1.814257	5.116126	18.42817	
