Date	Latitude(deg) 	Longitude(deg)	hamsl(m)	hafl(m)	climbrate(cm/s)	GroundSpeed(m/s)	Airspeed(m/s)	Mav_Link(%)	Rssi_Link(%)	Throttle	Roll(deg)	Pitch(deg)	Yaw(deg)
13:20:13	-6.728682	38.94607	131.406	0	0	0.04	0	100	0	0	-4.609047	-7.274384	66.95518	
13:20:13	-6.728682	38.94607	131.467	-0.266987	-1.392213	0.08	3	100	0	6546	-5.836682	-6.171772	67.04822	
13:20:13	-6.728682	38.94607	131.434	-0.2533122	-3.546653	0.04	3	100	0	6546	-5.783565	-6.163195	67.0649	
13:20:13	-6.728682	38.94607	131.381	-0.4114676	-14.75841	0.12	3	100	0	6546	-5.819439	-6.135087	67.08974	
13:20:14	-6.728682	38.94607	131.428	-0.7967669	-36.13433	0.18	3	100	0	6546	-5.872157	-6.214459	67.17913	
13:20:14	-6.728681	38.94607	131.394	-1.109923	-52.27285	0.09	3	100	0	6546	-5.60192	-6.344113	67.15735	
13:20:14	-6.728681	38.94607	131.359	-1.28592	-59.35381	0.16	3	100	0	6546	-5.75569	-6.155589	67.1916	
13:20:14	-6.728681	38.94607	131.331	-1.317766	-58.44412	0.09	3	100	0	6546	-5.506007	-6.189238	67.21408	
13:20:14	-6.728681	38.94607	131.291	-1.262988	-52.94097	0.19	3	100	0	6546	-5.639994	-6.356813	67.21722	
13:20:15	-6.728681	38.94607	131.313	-1.150703	-44.75277	0.07	3	100	0	6546	-5.373038	-6.516003	67.12991	
13:20:15	-6.728681	38.94607	131.281	-1.007288	-36.10743	0.09	3	100	0	6546	-5.454911	-6.452718	67.16386	
13:20:15	-6.728681	38.94608	131.334	-0.8668204	-28.37864	0.16	3	100	0	6546	-5.310999	-6.483296	67.14725	
13:20:15	-6.728681	38.94608	131.268	-0.7479024	-22.37041	0.09	3	100	0	6546	-5.203191	-6.508163	67.13477	
13:20:15	-6.728681	38.94607	131.284	-0.6602671	-17.91699	0.04	3	100	0	6546	-5.221171	-6.380122	67.15812	
13:20:16	-6.728681	38.94607	131.225	-0.6104935	-15.93378	0.11	3	100	0	6546	-5.234072	-6.448868	67.15894	
13:20:16	-6.72868	38.94607	131.225	-0.5475113	-13.99599	0.09	3	100	0	6546	-5.314091	-6.398684	67.15006	
13:20:16	-6.728681	38.94607	131.122	-0.4816612	-11.4189	0.12	3	100	0	6546	-5.270711	-6.484814	67.09934	
13:20:16	-6.72868	38.94607	131.117	-0.4232976	-9.522163	0.11	3	100	0	6546	-5.097079	-6.400844	67.02575	
13:20:16	-6.72868	38.94607	131.061	-0.3389193	-6.420125	0.19	3	100	0	6546	-4.998286	-6.447528	66.96499	
13:20:17	-6.72868	38.94607	130.993	-0.2653026	-4.242821	0.03	3	100	0	6546	-4.967789	-6.372444	66.92086	
13:20:17	-6.72868	38.94607	130.95	-0.2294669	-3.830358	0.06	3	100	0	6546	-4.967011	-6.520564	66.90221	
13:20:17	-6.72868	38.94607	130.925	-0.1961166	-4.147878	0.12	3	100	0	6546	-4.888082	-6.522692	66.90442	
13:20:17	-6.72868	38.94607	130.884	-0.2169932	-6.988981	0.13	3	100	0	6546	-4.795775	-6.548618	66.88525	
13:20:17	-6.72868	38.94607	130.853	-0.2392462	-9.552	0.14	3	100	0	6546	-4.707171	-6.7223	66.8083	
13:20:18	-6.72868	38.94607	130.856	-0.308353	-14.33142	0.18	3	100	0	6546	-4.672021	-6.740235	66.72317	
13:20:18	-6.72868	38.94607	130.821	-0.3790756	-18.9035	0.04	3	100	0	6546	-4.649913	-6.942736	66.62268	
13:20:18	-6.72868	38.94607	130.79	-0.4115804	-21.40217	0.13	3	100	0	6546	-4.759376	-6.854851	66.62137	
13:20:18	-6.728679	38.94607	130.789	-0.4427161	-23.66097	0.14	3	100	0	6546	-4.62008	-6.867993	66.55025	
13:20:18	-6.728679	38.94607	130.79	-0.4121905	-22.17776	0.19	3	100	0	6546	-4.695654	-6.758094	66.43448	
13:20:19	-6.728679	38.94607	130.782	-0.3841368	-20.579	0.11	3	100	0	6546	-4.415621	-6.859042	66.337	
13:20:19	-6.728679	38.94607	130.717	-0.3685429	-19.91067	0.12	3	100	0	6546	-4.506992	-6.924942	66.25764	
13:20:19	-6.728679	38.94607	130.663	-0.3525151	-18.55332	0.11	3	100	0	6546	-4.623555	-6.79579	66.21384	
13:20:19	-6.728678	38.94607	130.713	-0.3573171	-19.13422	0.04	3	100	0	6546	-4.615294	-6.886662	66.18511	
13:20:19	-6.728678	38.94607	130.699	-0.3625114	-19.84337	0.14	3	100	0	6546	-4.471403	-6.861161	66.08904	
13:20:19	-6.728678	38.94607	130.726	-0.3985525	-21.7464	0.02	3	100	0	6546	-4.544096	-6.765308	66.06744	
13:20:20	-6.728678	38.94607	130.712	-0.4337164	-22.87748	0.11	3	100	0	6546	-4.467484	-6.938869	66.02094	
13:20:20	-6.728678	38.94607	130.675	-0.4007272	-20.86865	0.22	3	100	0	6546	-4.370037	-6.962091	65.93668	
13:20:20	-6.728678	38.94607	130.724	-0.3705477	-19.33474	0.04	3	100	0	6546	-4.399408	-6.717349	65.87944	
13:20:20	-6.728677	38.94607	130.781	-0.3313314	-17.8665	0.19	3	100	0	6546	-4.337282	-6.885544	65.88239	
13:20:21	-6.728677	38.94607	130.788	-0.2960198	-15.94196	0.03	3	100	0	6546	-4.189087	-6.891498	65.82601	
13:20:21	-6.728677	38.94607	130.787	-0.2492749	-13.37211	0.14	3	100	0	6546	-4.382026	-6.975559	65.74905	
13:20:21	-6.728677	38.94607	130.812	-0.2026059	-11.67909	0.21	3	100	0	6546	-4.305601	-6.844322	65.74644	
13:20:22	-6.728677	38.94607	130.871	-0.1929307	-12.20608	0.18	3	100	0	6546	-4.298327	-6.814446	65.701	
13:20:22	-6.728677	38.94607	130.933	-0.229142	-14.9065	0.14	3	100	0	6546	-4.072765	-6.978464	65.62078	
13:20:22	-6.728677	38.94607	130.949	-0.2521094	-16.95269	0.13	3	100	0	6546	-4.117657	-7.088634	65.59253	
13:20:22	-6.728676	38.94607	130.922	-0.2570972	-17.70187	0.06	3	100	0	6546	-4.237301	-7.141013	65.6116	
13:20:22	-6.728676	38.94606	130.968	-0.2922748	-19.12072	0.22	3	100	0	6546	-4.129224	-7.05017	65.50472	
13:20:23	-6.728676	38.94606	130.983	-0.3423591	-21.66602	0.17	3	100	0	6546	-4.042494	-7.11024	65.46926	
13:20:23	-6.728675	38.94606	130.997	-0.3700103	-22.31637	0.09	3	100	0	6546	-4.237961	-6.819988	65.40932	
13:20:23	-6.728675	38.94606	130.967	-0.382055	-22.47477	0.06	3	100	0	6546	-4.229464	-6.879011	65.3702	
13:20:23	-6.728675	38.94606	130.977	-0.3831332	-22.38301	0.08	3	100	0	6546	-4.16756	-6.935502	65.27891	
13:20:23	-6.728675	38.94606	130.971	-0.3723234	-21.0917	0.28	3	100	0	6546	-4.054168	-7.019671	65.25451	
13:20:23	-6.728675	38.94606	131.045	-0.3640281	-20.489	0.09	3	100	0	6546	-4.000088	-7.138936	65.1657	
13:20:24	-6.728675	38.94606	131.012	-0.3615329	-20.71835	0.14	3	100	0	6546	-4.172487	-7.022573	65.14574	
13:20:24	-6.728675	38.94606	131.019	-0.3649598	-20.62612	0.06	3	100	0	6546	-4.091834	-6.926258	65.05872	
13:20:24	-6.728675	38.94606	131.02	-0.3741508	-20.87466	0.08	3	100	0	6546	-4.16045	-6.995583	65.08944	
13:20:24	-6.728674	38.94606	131.012	-0.3899392	-21.46904	0.04	3	100	0	6546	-4.20925	-7.023058	65.01491	
13:20:24	-6.728674	38.94606	131.031	-0.4096273	-22.70035	0.16	3	100	0	6546	-4.135536	-6.915064	64.97507	
13:20:25	-6.728674	38.94606	131.07	-0.4400805	-23.91817	0.13	3	100	0	6546	-3.956644	-6.963119	64.841	
13:20:25	-6.728674	38.94606	131.126	-0.4747246	-25.53108	0.14	3	100	0	6546	-4.030511	-6.957521	64.83018	
13:20:25	-6.728673	38.94606	131.187	-0.4982892	-25.99283	0.14	3	100	0	6546	-3.997674	-6.814154	64.79343	
13:20:25	-6.728673	38.94606	131.199	-0.5144085	-25.6433	0.04	3	100	0	6546	-3.968583	-6.974115	64.71463	
13:20:25	-6.728673	38.94606	131.255	-0.5148636	-24.29408	0.17	3	100	0	6548	-4.01087	-6.811431	64.7301	
13:20:25	-6.728673	38.94606	131.272	-0.4958578	-22.46108	0.08	3	100	0	6546	-3.900361	-6.796334	64.6141	
13:20:26	-6.728673	38.94606	131.303	-0.4660339	-20.1326	0.06	3	100	0	6546	-3.93228	-6.925211	64.63291	
13:20:26	-6.728673	38.94606	131.344	-0.4154124	-16.98078	0.09	3	100	0	6546	-3.931518	-6.926203	64.54774	
13:20:26	-6.728673	38.94606	131.346	-0.3734252	-14.22116	0.19	3	100	0	6546	-3.898978	-6.929567	64.49841	
13:20:26	-6.728673	38.94606	131.379	-0.3619712	-13.34739	0.25	3	100	0	6546	-3.761313	-6.829237	64.44785	
13:20:26	-6.728673	38.94606	131.416	-0.3514314	-12.92629	0.12	3	100	0	6546	-3.736302	-6.963679	64.42091	
13:20:27	-6.728673	38.94606	131.437	-0.3533675	-12.90666	0.18	3	100	0	6546	-3.842684	-6.819558	64.36185	
13:20:27	-6.728673	38.94606	131.464	-0.3550763	-12.97228	0.16	3	100	0	6546	-3.844156	-6.710717	64.28279	
13:20:27	-6.728673	38.94606	131.493	-0.3618345	-13.7366	0.14	3	100	0	6546	-3.768054	-6.764831	64.21919	
13:20:27	-6.728672	38.94606	131.536	-0.3684988	-14.03171	0.09	3	100	0	6546	-3.82796	-6.742352	64.19472	
13:20:27	-6.728672	38.94606	131.521	-0.3518625	-13.1601	0.19	3	100	0	6546	-3.89322	-6.809861	64.25297	
13:20:28	-6.728672	38.94606	131.578	-0.3350466	-11.95445	0.18	3	100	0	6546	-3.738365	-6.985514	64.16417	
13:20:28	-6.728671	38.94606	131.632	-0.3130239	-11.2382	0.07	3	100	0	6546	-3.754132	-6.929305	64.17788	
13:20:28	-6.728671	38.94606	131.634	-0.2937446	-10.25274	0.12	3	100	0	6546	-3.81551	-6.887275	64.14732	
13:20:28	-6.728671	38.94606	131.707	-0.2832474	-9.841335	0.19	3	100	0	6546	-3.787392	-6.953067	64.16254	
13:20:28	-6.728671	38.94606	131.711	-0.2744646	-9.596714	0.16	3	100	0	6546	-3.729835	-6.96131	64.10113	
13:20:29	-6.728671	38.94606	131.764	-0.2646224	-9.039839	0.11	3	100	0	6546	-3.713242	-6.848595	64.0807	
13:20:29	-6.728671	38.94606	131.783	-0.2541771	-8.574426	0.06	3	100	0	6546	-3.745517	-6.772159	64.07746	
13:20:29	-6.728671	38.94606	131.812	-0.2745012	-10.41258	0.16	3	100	0	6546	-3.790854	-6.688124	64.11322	
13:20:29	-6.728671	38.94606	131.791	-0.2947536	-12.33978	0.21	3	100	0	6546	-3.723339	-6.57356	64.11218	
13:20:30	-6.728671	38.94606	131.784	-0.3180422	-13.46548	0.11	3	100	0	6546	-3.600066	-6.63583	64.07528	
13:20:30	-6.728671	38.94606	131.825	-0.3405085	-14.27832	0.18	3	100	0	6546	-3.595073	-6.671665	64.00813	
13:20:30	-6.728671	38.94606	131.85	-0.3972251	-16.45647	0.16	3	100	0	6546	-3.558497	-6.672992	64.04078	
13:20:30	-6.728671	38.94606	131.856	-0.4468777	-18.55284	0.12	3	100	0	6546	-3.577716	-6.667393	63.92338	
13:20:30	-6.72867	38.94606	131.903	-0.5148623	-21.17473	0.22	3	100	0	6546	-3.568351	-6.658618	63.88955	
13:20:30	-6.72867	38.94606	131.962	-0.5744463	-23.66413	0.13	3	100	0	6546	-3.56774	-6.70578	63.93856	
13:20:31	-6.728669	38.94606	132.074	-0.5983681	-23.78598	0.12	3	100	0	6546	-3.630501	-6.681954	63.92743	
13:20:31	-6.728669	38.94606	132.134	-0.620555	-23.6626	0.09	3	100	0	6546	-3.691277	-6.605778	63.89505	
13:20:31	-6.728669	38.94606	132.141	-0.6147822	-22.12341	0.12	3	100	0	6546	-3.713388	-6.50806	63.90299	
13:20:31	-6.728669	38.94606	132.187	-0.5854708	-19.42166	0.22	3	100	0	6546	-3.572171	-6.528567	63.95712	
13:20:32	-6.728668	38.94606	132.226	-0.5444762	-16.74763	0.12	3	100	0	6546	-3.529254	-6.577068	63.95983	
13:20:32	-6.728668	38.94606	132.23	-0.4892733	-12.88426	0.11	3	100	0	6546	-3.611035	-6.618283	63.92832	
13:20:32	-6.728668	38.94606	132.33	-0.4457106	-10.41204	0.13	3	100	0	6546	-3.623017	-6.619212	63.92037	
13:20:32	-6.728668	38.94606	132.337	-0.408394	-8.69094	0.13	3	100	0	6546	-3.661815	-6.515615	63.86562	
13:20:32	-6.728668	38.94606	132.329	-0.3694732	-7.080759	0.17	3	100	0	6546	-3.68741	-6.472048	63.84246	
13:20:33	-6.728668	38.94606	132.346	-0.3314008	-5.781072	0.19	3	100	0	6546	-3.617254	-6.563497	63.87809	
13:20:33	-6.728668	38.94606	132.336	-0.2976778	-4.505504	0.09	3	100	0	6546	-3.731081	-6.633667	63.8814	
13:20:33	-6.728667	38.94606	132.34	-0.2613344	-3.257592	0.16	3	100	0	6546	-3.843518	-6.611291	63.87889	
13:20:33	-6.728667	38.94606	132.336	-0.2225061	-1.840863	0.19	3	100	0	6546	-3.804999	-6.589907	63.88993	
13:20:33	-6.728667	38.94606	132.342	-0.180876	-0.1212748	0.09	3	100	0	6546	-3.831503	-6.438774	63.95839	
13:20:34	-6.728667	38.94606	132.405	-0.1249663	1.804089	0.09	3	100	0	6546	-3.768734	-6.565404	63.95797	
13:20:34	-6.728666	38.94606	132.449	-0.06994057	3.179497	0.14	3	100	0	6546	-3.767902	-6.601096	63.91833	
13:20:34	-6.728666	38.94606	132.459	-0.07839127	1.235469	0.03	3	100	0	6546	-3.706713	-6.561723	63.89437	
13:20:34	-6.728666	38.94606	132.508	-0.1257889	-2.089696	0.09	3	100	0	6546	-3.814924	-6.568295	63.96156	
13:20:34	-6.728666	38.94606	132.537	-0.1570842	-4.147997	0.04	3	100	0	6546	-3.813488	-6.537861	63.92615	
13:20:35	-6.728666	38.94606	132.56	-0.1761695	-5.49789	0.12	3	100	0	6546	-3.761558	-6.420897	63.96251	
13:20:35	-6.728666	38.94606	132.561	-0.1715883	-5.46349	0.06	3	100	0	6546	-3.791684	-6.447645	64.02387	
13:20:35	-6.728666	38.94606	132.597	-0.1507122	-4.758574	0.08	3	100	0	6546	-3.815829	-6.499171	63.96376	
13:20:35	-6.728666	38.94606	132.596	-0.1233977	-3.873696	0.17	3	100	0	6546	-3.688135	-6.523403	63.98403	
13:20:36	-6.728666	38.94606	132.596	-0.08927727	-2.404346	0.11	3	100	0	6546	-3.639799	-6.517602	63.99598	
13:20:36	-6.728666	38.94606	132.606	-0.04429608	-1.007536	0.03	3	100	0	6546	-3.757516	-6.478673	64.08424	
13:20:36	-6.728666	38.94606	132.597	-0.0007051798	0.56003	0.04	3	100	0	6546	-3.838841	-6.497179	64.07771	
13:20:36	-6.728665	38.94606	132.598	0.0381686	2.155135	0.01	3	100	0	6546	-3.812042	-6.497359	64.04408	
13:20:36	-6.728665	38.94606	132.582	-0.005951207	-1.683155	0.14	3	100	0	6546	-3.876621	-6.461665	64.02431	
13:20:37	-6.728665	38.94606	132.579	-0.04805457	-4.920469	0.07	3	100	0	6546	-3.846094	-6.488416	64.00192	
13:20:37	-6.728665	38.94606	132.583	-0.07578575	-6.775403	0.04	3	100	0	6546	-3.780705	-6.478399	63.9589	
13:20:37	-6.728665	38.94606	132.578	-0.1039572	-8.413931	0.12	3	100	0	6546	-3.858444	-6.392939	64.01646	
13:20:37	-6.728664	38.94606	132.597	-0.1156309	-8.805597	0.03	3	100	0	6546	-3.838204	-6.405174	64.05799	
13:20:37	-6.728664	38.94606	132.642	-0.125567	-9.157972	0.09	3	100	0	6546	-3.801775	-6.516682	64.04994	
13:20:37	-6.728664	38.94606	132.651	-0.148633	-10.52638	0.12	3	100	0	6546	-3.750153	-6.485045	64.07715	
13:20:38	-6.728664	38.94606	132.623	-0.1716636	-11.21935	0.02	3	100	0	6546	-3.746408	-6.424541	64.07127	
13:20:38	-6.728664	38.94606	132.622	-0.182588	-11.64178	0.06	3	100	0	6546	-3.816373	-6.453653	64.06447	
13:20:38	-6.728664	38.94606	132.64	-0.191709	-11.76897	0.12	3	100	0	6546	-3.882132	-6.479072	64.11154	
13:20:38	-6.728664	38.94606	132.637	-0.2258138	-13.07099	0.06	3	100	0	6546	-3.865459	-6.483482	64.15986	
13:20:38	-6.728663	38.94606	132.635	-0.2558438	-13.88927	0.04	3	100	0	6546	-3.801461	-6.469318	64.15262	
13:20:39	-6.728663	38.94606	132.641	-0.2643082	-13.53177	0.08	3	100	0	6546	-3.804736	-6.482806	64.20202	
13:20:39	-6.728663	38.94606	132.628	-0.2713026	-13.09426	0.32	3	100	0	6546	-3.719972	-6.625935	64.14777	
13:20:39	-6.728663	38.94606	132.649	-0.2774033	-12.95973	0.07	3	100	0	6546	-3.683278	-6.636237	64.12891	
13:20:39	-6.728663	38.94606	132.658	-0.2817393	-12.41421	0.02	3	100	0	6546	-3.73072	-6.473145	64.11745	
13:20:39	-6.728663	38.94606	132.686	-0.2553054	-10.54779	0.04	3	100	0	6546	-3.732424	-6.471519	64.14365	
13:20:39	-6.728662	38.94606	132.658	-0.2288869	-9.103781	0.11	3	100	0	6546	-3.727775	-6.515326	64.10435	
13:20:40	-6.728662	38.94606	132.623	-0.2401894	-9.89437	0.04	3	100	0	6546	-3.766451	-6.501054	64.08292	
13:20:40	-6.728662	38.94606	132.596	-0.2510228	-10.5943	0.08	3	100	0	6546	-3.746877	-6.45406	64.15983	
13:20:40	-6.728662	38.94606	132.603	-0.3037822	-13.10861	0.14	3	100	0	6546	-3.786391	-6.361527	64.18549	
13:20:40	-6.728662	38.94606	132.559	-0.3507098	-15.15125	0.08	3	100	0	6546	-3.790254	-6.27717	64.23288	
13:20:41	-6.728662	38.94606	132.547	-0.3459489	-14.51242	0.14	3	100	0	6546	-3.681671	-6.373003	64.27118	
13:20:41	-6.728662	38.94606	132.501	-0.3402264	-13.4832	0.09	3	100	0	6546	-3.701109	-6.327439	64.26736	
13:20:41	-6.728662	38.94606	132.478	-0.3536324	-13.65364	0.09	3	100	0	6546	-3.797486	-6.205645	64.26358	
13:20:41	-6.728662	38.94606	132.405	-0.3929878	-15.09093	0.09	3	100	0	6546	-3.818126	-6.291564	64.29499	
13:20:41	-6.728662	38.94606	132.376	-0.4132544	-14.24008	0.14	3	100	0	6546	-3.757101	-6.189623	64.32683	
13:20:41	-6.728662	38.94606	132.411	-0.4098127	-13.08549	0.24	3	100	0	6546	-3.61156	-6.235102	64.35329	
13:20:42	-6.728662	38.94606	132.428	-0.4225633	-13.37661	0.04	3	100	0	6546	-3.603682	-6.281932	64.32224	
13:20:42	-6.728662	38.94606	132.426	-0.4432708	-13.47142	0.19	3	100	0	6546	-3.656007	-6.264752	64.37789	
13:20:42	-6.728662	38.94606	132.425	-0.4887009	-14.87718	0.03	3	100	0	6546	-3.717344	-6.19936	64.47783	
13:20:42	-6.728662	38.94606	132.425	-0.548687	-16.75229	0.11	3	100	0	6546	-3.803117	-6.19529	64.53201	
13:20:43	-6.728662	38.94606	132.431	-0.6005376	-17.76866	0.06	3	100	0	6546	-3.799981	-6.198573	64.57346	
13:20:43	-6.728662	38.94606	132.42	-0.6393291	-18.21728	0.09	3	100	0	6546	-3.761356	-6.076777	64.60387	
13:20:43	-6.728662	38.94606	132.444	-0.6202671	-15.73049	0.13	3	100	0	6546	-3.680244	-6.012265	64.58907	
13:20:43	-6.728662	38.94606	132.491	-0.5302602	-9.566231	0.21	3	100	0	6546	-3.608657	-6.128497	64.57645	
13:20:43	-6.728662	38.94606	132.508	-0.4370804	-4.13299	0.13	3	100	0	6546	-3.640821	-6.18976	64.61033	
13:20:43	-6.728661	38.94606	132.533	-0.3406623	1.125458	0.14	3	100	0	6546	-3.676051	-6.191279	64.66002	
13:20:44	-6.728661	38.94606	132.583	-0.2807172	3.554322	0.09	3	100	0	6546	-3.752691	-6.067712	64.63145	
13:20:44	-6.728661	38.94606	132.613	-0.2445487	4.720576	0.06	3	100	0	6546	-3.846815	-6.049279	64.68858	
13:20:44	-6.728661	38.94606	132.627	-0.212989	5.920722	0.09	3	100	0	6546	-3.81242	-6.131792	64.69398	
13:20:44	-6.728661	38.94606	132.633	-0.1884283	6.231404	0.09	3	100	0	6546	-3.724064	-6.119519	64.67159	
13:20:44	-6.728661	38.94606	132.68	-0.1640682	6.579583	0.17	3	100	0	6546	-3.664675	-6.130567	64.71043	
13:20:45	-6.728661	38.94606	132.682	-0.1492734	5.732351	0.14	3	100	0	6546	-3.645196	-6.066176	64.7144	
13:20:45	-6.728661	38.94606	132.696	-0.1518715	4.328353	0.09	3	100	0	6546	-3.673366	-5.973705	64.71133	
13:20:45	-6.728661	38.94606	132.697	-0.1801244	1.973992	0.19	3	100	0	6546	-3.626682	-5.908304	64.74286	
13:20:45	-6.728661	38.94606	132.688	-0.1923292	0.6144109	0.13	3	100	0	6546	-3.681496	-5.84388	64.77386	
13:20:45	-6.728661	38.94606	132.692	-0.1918315	0.720408	0.14	3	100	0	6546	-3.72724	-5.989212	64.79285	
13:20:46	-6.728661	38.94606	132.747	-0.1916849	0.1156021	0.02	3	100	0	6546	-3.749773	-6.011311	64.81403	
13:20:46	-6.728661	38.94606	132.756	-0.1518503	1.247695	0.04	3	100	0	6546	-3.745306	-5.981976	64.80017	
13:20:46	-6.728661	38.94606	132.817	-0.1172431	2.54633	0.09	3	100	0	6546	-3.707006	-5.92511	64.86659	
13:20:46	-6.728661	38.94606	132.8	-0.08509956	3.568313	0.11	3	100	0	6546	-3.810456	-5.906147	64.91145	
13:20:46	-6.728661	38.94606	132.785	-0.05155824	4.349377	0.02	3	100	0	6546	-3.80974	-5.946526	64.97066	
13:20:47	-6.728661	38.94606	132.815	-0.06807568	2.574317	0.14	3	100	0	6546	-3.844661	-5.93386	65.02905	
13:20:47	-6.728661	38.94606	132.83	-0.08620775	1.30188	0.11	3	100	0	6546	-3.765428	-6.041319	65.10966	
13:20:47	-6.728661	38.94606	132.88	-0.06099671	1.817788	0.22	3	100	0	6546	-3.881447	-6.082477	65.18063	
13:20:48	-6.72866	38.94606	132.876	-0.04170541	1.87311	0.07	3	100	0	6546	-3.880851	-6.01777	65.22423	
13:20:48	-6.72866	38.94606	132.899	-0.05434651	0.3145671	0.04	3	100	0	6547	-3.806385	-5.986515	65.27482	
13:20:48	-6.72866	38.94606	132.941	-0.06760382	-0.9601403	0.14	3	100	0	6546	-3.870491	-5.914615	65.35912	
13:20:48	-6.72866	38.94606	132.929	-0.07306781	-1.554199	0.06	3	100	0	6546	-3.805727	-6.006097	65.35063	
13:20:48	-6.728661	38.94606	132.913	-0.07817844	-1.523776	0.04	3	100	0	6546	-3.759541	-6.038009	65.373	
13:20:49	-6.72866	38.94606	132.953	-0.0864937	-1.905214	0.16	3	100	0	6547	-3.856612	-5.945915	65.45585	
13:20:49	-6.72866	38.94606	132.953	-0.09571187	-2.722535	0.04	3	100	0	6546	-3.855287	-5.941374	65.49072	
13:20:49	-6.72866	38.94606	132.97	-0.108226	-3.589608	0.12	3	100	0	6546	-3.88641	-5.950004	65.50086	
13:20:49	-6.72866	38.94606	132.942	-0.1209844	-4.452709	0.04	3	100	0	6546	-3.845328	-5.904207	65.52547	
13:20:50	-6.72866	38.94606	132.988	-0.1149996	-4.53767	0.13	3	100	0	6546	-3.719904	-5.975339	65.53405	
13:20:50	-6.72866	38.94606	132.996	-0.1097617	-4.501429	0.09	3	100	0	6546	-3.774036	-5.938938	65.54135	
13:20:50	-6.72866	38.94606	133.055	-0.1325096	-5.275615	0.13	3	100	0	6546	-3.837909	-5.808614	65.62186	
13:20:50	-6.728659	38.94606	133.076	-0.1530526	-6.554156	0.09	3	100	0	6546	-3.819085	-5.888252	65.69193	
13:20:50	-6.728659	38.94606	133.137	-0.1790285	-7.442754	0.04	3	100	0	6546	-3.767526	-5.890605	65.6904	
13:20:50	-6.728659	38.94606	133.175	-0.2009589	-8.034179	0.04	3	100	0	6546	-3.70163	-5.896876	65.71519	
13:20:50	-6.728659	38.94606	133.206	-0.2543281	-10.27897	0.07	3	100	0	6546	-3.650283	-5.935638	65.69748	
13:20:51	-6.728659	38.94606	133.247	-0.3076081	-12.39426	0.04	3	100	0	6546	-3.645623	-5.936079	65.67467	
13:20:51	-6.728659	38.94606	133.229	-0.3344361	-12.48153	0.09	3	100	0	6546	-3.726746	-5.993699	65.71133	
13:20:51	-6.728659	38.94606	133.215	-0.3287869	-11.27153	0.11	3	100	0	6546	-3.68426	-5.986035	65.70592	
13:20:51	-6.728659	38.94606	133.229	-0.3198167	-9.676007	0.14	3	100	0	6546	-3.606713	-5.914465	65.67979	
13:20:51	-6.728659	38.94606	133.209	-0.3097588	-8.69682	0.25	3	100	0	6546	-3.490342	-5.891779	65.65346	
13:20:52	-6.728659	38.94606	133.27	-0.316272	-8.342964	0.11	3	100	0	6546	-3.559009	-5.877796	65.69458	
13:20:52	-6.728659	38.94606	133.354	-0.3308637	-8.323472	0.09	3	100	0	6546	-3.656706	-5.844121	65.70116	
13:20:52	-6.728659	38.94606	133.381	-0.3413916	-8.372388	0.09	3	100	0	6546	-3.631956	-5.909614	65.69225	
13:20:52	-6.728658	38.94606	133.377	-0.3486082	-7.667166	0.08	3	100	0	6546	-3.707209	-5.966871	65.76904	
13:20:53	-6.728658	38.94606	133.377	-0.3525736	-7.296695	0.08	3	100	0	6546	-3.702436	-6.001709	65.73517	
13:20:53	-6.728658	38.94606	133.396	-0.3536602	-6.596194	0.12	3	100	0	6546	-3.651189	-6.027061	65.7224	
13:20:53	-6.728658	38.94606	133.536	-0.3519152	-5.556755	0.06	3	100	0	6546	-3.703038	-5.982655	65.73495	
13:20:53	-6.728658	38.94606	133.563	-0.345447	-4.733977	0.04	3	100	0	6546	-3.68241	-5.888149	65.75768	
13:20:54	-6.728658	38.94606	133.599	-0.3264939	-3.208749	0.14	3	100	0	6546	-3.675378	-5.881753	65.77034	
13:20:54	-6.728658	38.94606	133.599	-0.2969601	-1.975252	0.14	3	100	0	6546	-3.610992	-5.95996	65.78985	
13:20:54	-6.728658	38.94606	133.587	-0.2700622	-1.208233	0.26	3	100	0	6546	-3.513619	-6.03746	65.71724	
13:20:54	-6.728658	38.94606	133.626	-0.2451406	-0.154458	0.14	3	100	0	6546	-3.559243	-5.936957	65.7784	
13:20:54	-6.728658	38.94606	133.642	-0.2153815	1.321579	0.09	3	100	0	6546	-3.66824	-5.817612	65.76513	
13:20:54	-6.728657	38.94606	133.692	-0.1879032	2.067293	0.19	3	100	0	6546	-3.627229	-5.78084	65.74245	
13:20:54	-6.728657	38.94606	133.727	-0.1645888	2.981455	0.08	3	100	0	6546	-3.607633	-5.859024	65.75011	
13:20:55	-6.728657	38.94606	133.727	-0.1471873	3.593531	0.08	3	100	0	6546	-3.671896	-5.908079	65.73773	
13:20:55	-6.728657	38.94606	133.742	-0.1024468	5.755263	0.07	3	100	0	6546	-3.690889	-5.897202	65.7161	
13:20:55	-6.728658	38.94606	133.734	-0.01554557	9.550943	0.19	3	100	0	6546	-3.587477	-5.913557	65.72942	
13:20:55	-6.728657	38.94606	133.767	0.04697982	11.91568	0.08	3	100	0	6546	-3.637602	-5.921474	65.70334	
13:20:55	-6.728657	38.94606	133.782	0.07420723	12.40274	0.14	3	100	0	6546	-3.637531	-5.804414	65.78149	
13:20:56	-6.728657	38.94606	133.855	0.09586544	11.72875	0.09	3	100	0	6546	-3.662596	-5.809538	65.84188	
13:20:56	-6.728656	38.94606	133.875	-0.008262143	5.102409	0.04	3	100	0	6546	-3.635735	-5.812253	65.84741	
13:20:56	-6.728657	38.94606	133.837	-0.1031753	-0.3733177	0.13	3	100	0	6546	-3.742498	-5.851518	65.7826	
13:20:56	-6.728657	38.94606	133.832	-0.1612384	-3.96672	0.19	3	100	0	6546	-3.606029	-5.86074	65.75394	
13:20:56	-6.728657	38.94606	133.85	-0.2095659	-6.629994	0.14	3	100	0	6546	-3.50978	-5.882395	65.76931	
13:20:57	-6.728657	38.94606	133.859	-0.2425645	-7.828742	0.19	3	100	0	6546	-3.566336	-5.731091	65.78364	
13:20:57	-6.728657	38.94606	133.859	-0.2688574	-9.049398	0.19	3	100	0	6546	-3.513639	-5.764274	65.86937	
13:20:57	-6.728657	38.94606	133.854	-0.2501122	-7.511596	0.13	3	100	0	6546	-3.579233	-5.723532	65.86501	
13:20:57	-6.728657	38.94606	133.804	-0.2281359	-5.934855	0.13	3	100	0	6546	-3.711739	-5.844394	65.92356	
13:20:57	-6.728657	38.94606	133.753	-0.222511	-5.109864	0.13	3	100	0	6546	-3.587329	-5.678439	65.92188	
13:20:58	-6.728657	38.94606	133.742	-0.2167861	-4.488244	0.14	3	100	0	6546	-3.497622	-5.71452	65.89628	
13:20:58	-6.728657	38.94606	133.724	-0.172393	-1.528742	0.26	3	100	0	6547	-3.570313	-5.5941	65.93124	
13:20:58	-6.728657	38.94606	133.784	-0.131462	0.9124648	0.16	3	100	0	6546	-3.452099	-5.814735	66.01163	
13:20:58	-6.728657	38.94606	133.784	-0.08306309	3.181975	0.16	3	100	0	6546	-3.450244	-5.701765	65.98579	
13:20:59	-6.728657	38.94606	133.811	-0.04385236	4.721638	0.14	3	100	0	6546	-3.688527	-5.565397	66.04552	
13:20:59	-6.728656	38.94606	133.791	-0.03478718	4.742157	0.25	3	100	0	6546	-3.607599	-5.608466	66.10918	
13:20:59	-6.728656	38.94606	133.796	-0.02741213	4.0813	0.22	3	100	0	6546	-3.424307	-5.604254	66.09646	
13:20:59	-6.728657	38.94606	133.726	-0.03620663	3.210301	0.19	3	100	0	6545	-3.427768	-5.658874	66.07837	
13:20:59	-6.728657	38.94606	133.693	-0.04525286	2.170549	0.07	3	100	0	6546	-3.444355	-5.643124	66.06439	
13:20:59	-6.728657	38.94606	133.693	-0.06427743	0.7731698	0.07	3	100	0	6546	-3.546436	-5.636159	66.02261	
13:21:00	-6.728656	38.94606	133.722	-0.08248644	-0.7690765	0.17	3	100	0	6546	-3.519987	-5.780427	66.00092	
13:21:00	-6.728656	38.94606	133.726	-0.09992719	-1.565272	0.02	3	100	0	6546	-3.500185	-5.51523	65.99879	
13:21:00	-6.728656	38.94606	133.713	-0.115695	-2.621773	0.21	3	100	0	6546	-3.662859	-5.471284	66.05497	
13:21:00	-6.728657	38.94606	133.708	-0.1108279	-2.745615	0.26	3	100	0	6546	-3.514797	-5.402302	66.06457	
13:21:00	-6.728657	38.94606	133.694	-0.1073118	-2.898211	0.09	3	100	0	6546	-3.444669	-5.572574	66.12994	
13:21:00	-6.728656	38.94606	133.675	-0.1165565	-3.736202	0.06	3	100	0	6546	-3.622722	-5.359419	66.18849	
13:21:01	-6.728656	38.94606	133.667	-0.1356532	-4.484248	0.04	3	100	0	6546	-3.677099	-5.386478	66.2326	
13:21:01	-6.728657	38.94606	133.615	-0.1416055	-4.643894	0.16	3	100	0	6546	-3.683362	-5.427598	66.2405	
13:21:01	-6.728657	38.94606	133.592	-0.1350088	-4.065221	0.04	3	100	0	6546	-3.565996	-5.482103	66.21777	
13:21:01	-6.728657	38.94606	133.535	-0.1555392	-4.723245	0.14	3	100	0	6546	-3.644661	-5.445354	66.25533	
13:21:02	-6.728657	38.94606	133.555	-0.1900448	-6.656097	0.06	3	100	0	6546	-3.573606	-5.448321	66.30173	
13:21:02	-6.728656	38.94606	133.577	-0.2240834	-7.628486	0.19	3	100	0	6546	-3.666075	-5.479874	66.38715	
13:21:02	-6.728656	38.94606	133.571	-0.25516	-8.79873	0.12	3	100	0	6546	-3.554701	-5.514194	66.37508	
13:21:02	-6.728656	38.94606	133.572	-0.2685279	-8.673397	0.13	3	100	0	6546	-3.823928	-5.333451	66.44459	
13:21:02	-6.728656	38.94606	133.547	-0.2653185	-7.678044	0.09	3	100	0	6546	-3.712215	-5.505832	66.48956	
13:21:03	-6.728656	38.94606	133.506	-0.272723	-7.321632	0.31	3	100	0	6546	-3.785516	-5.376153	66.55112	
13:21:03	-6.728656	38.94606	133.508	-0.2959646	-8.492394	0.09	3	100	0	6546	-3.527634	-5.630318	66.56731	
13:21:03	-6.728656	38.94606	133.499	-0.3032799	-8.315065	0.19	3	100	0	6547	-3.61214	-5.497836	66.50259	
13:21:03	-6.728657	38.94606	133.488	-0.2922626	-6.779655	0.09	3	100	0	6546	-3.539879	-5.532801	66.51717	
13:21:03	-6.728657	38.94606	133.464	-0.2852884	-5.646641	0.21	3	100	0	6546	-3.606038	-5.533557	66.47246	
13:21:03	-6.728657	38.94606	133.403	-0.2808328	-4.96863	0.14	3	100	0	6546	-3.479729	-5.547733	66.47102	
13:21:04	-6.728657	38.94606	133.404	-0.2520057	-3.156657	0.13	3	100	0	6546	-3.605083	-5.344881	66.46039	
13:21:04	-6.728657	38.94606	133.382	-0.1991218	0.02924684	0.11	3	100	0	6546	-3.599051	-5.426571	66.53835	
13:21:04	-6.728657	38.94606	133.384	-0.1640608	1.735404	0.14	3	100	0	6546	-3.609977	-5.498458	66.55305	
13:21:04	-6.728658	38.94606	133.374	-0.1434156	2.605677	0.06	3	100	0	6546	-3.559141	-5.471527	66.56269	
13:21:04	-6.728658	38.94606	133.339	-0.1084731	4.391618	0.14	3	100	0	6546	-3.634323	-5.458886	66.52202	
13:21:05	-6.728658	38.94606	133.342	-0.05785026	6.476132	0.14	3	100	0	6546	-3.583758	-5.555623	66.54267	
13:21:05	-6.728658	38.94606	133.307	-0.02963289	7.440176	0.12	3	100	0	6546	-3.643809	-5.624738	66.53615	
13:21:05	-6.728658	38.94606	133.287	-0.028425	6.115837	0.07	3	100	0	6546	-3.565826	-5.524346	66.55008	
13:21:05	-6.728658	38.94606	133.238	-0.02905926	5.544871	0.04	3	100	0	6546	-3.661529	-5.543864	66.57996	
13:21:06	-6.728658	38.94606	133.211	-0.05574501	3.485775	0.08	3	100	0	6546	-3.743043	-5.450348	66.61509	
13:21:06	-6.728658	38.94606	133.183	-0.08713479	0.9322127	0.18	3	100	0	6546	-3.623975	-5.435782	66.59383	
13:21:06	-6.728658	38.94606	133.194	-0.09164969	0.5163004	0.06	3	100	0	6546	-3.527864	-5.534272	66.63633	
13:21:06	-6.728658	38.94606	133.162	-0.09663582	0.06830736	0.08	3	100	0	6546	-3.661003	-5.460597	66.6625	
13:21:06	-6.728658	38.94606	133.146	-0.1007852	-0.3122255	0.14	3	100	0	6546	-3.615758	-5.545936	66.61335	
13:21:06	-6.728658	38.94606	133.089	-0.1048659	-0.7464802	0.16	3	100	0	6546	-3.672708	-5.362411	66.62438	
13:21:07	-6.728658	38.94606	133.038	-0.1066572	-1.106376	0.08	3	100	0	6546	-3.77111	-5.6822	66.72325	
13:21:07	-6.728658	38.94606	133.018	-0.1084948	-1.064145	0.09	3	100	0	6546	-3.667585	-5.431533	66.72614	
13:21:07	-6.728658	38.94606	133.004	-0.07590443	0.2279121	0.16	3	100	0	6546	-3.633558	-5.556572	66.72143	
13:21:07	-6.728658	38.94606	133.007	-0.04741383	0.8616726	0.07	3	100	0	6546	-3.554	-5.555601	66.73439	
13:21:08	-6.728658	38.94606	132.976	-0.0151734	2.349936	0.12	3	100	0	6546	-3.657004	-5.469265	66.68396	
13:21:08	-6.728658	38.94606	132.942	0.01683165	3.570051	0.09	3	100	0	6546	-3.622666	-5.445315	66.70213	
13:21:08	-6.728658	38.94606	132.924	0.04822939	4.727308	0.06	3	100	0	6546	-3.608994	-5.528189	66.73463	
13:21:08	-6.728658	38.94606	132.879	0.07339831	5.570613	0.12	3	100	0	6546	-3.735479	-5.532394	66.78609	
13:21:08	-6.728658	38.94606	132.88	0.05791103	4.46395	0.11	3	100	0	6546	-3.625529	-5.642689	66.7539	
13:21:09	-6.728658	38.94606	132.841	0.04113359	2.68709	0.21	3	100	0	6547	-3.610933	-5.646028	66.75938	
13:21:09	-6.728658	38.94606	132.79	0.03501064	2.167597	0.07	3	100	0	6546	-3.512234	-5.715463	66.68408	
13:21:09	-6.728658	38.94606	132.73	0.0285195	1.50728	0.09	3	100	0	6546	-3.606852	-5.673473	66.70953	
13:21:09	-6.728658	38.94606	132.667	0.01471313	0.6682174	0.06	3	100	0	6546	-3.722076	-5.575257	66.74026	
13:21:10	-6.728658	38.94606	132.645	0.001833639	-0.2697796	0.11	3	100	0	6546	-3.635288	-5.679393	66.70506	
13:21:10	-6.728658	38.94606	132.69	0.006471371	-0.07019144	0.14	3	100	0	6546	-3.72086	-5.801879	66.71643	
13:21:10	-6.728658	38.94606	132.632	0.01203837	0.3866326	0.07	3	100	0	6546	-3.486956	-5.63015	66.69889	
13:21:10	-6.728658	38.94606	132.635	-0.006291888	-0.1297796	0.07	3	100	0	6546	-3.721712	-5.61851	66.77576	
13:21:10	-6.728658	38.94606	132.646	-0.02255336	-0.6505422	0.16	3	100	0	6546	-3.58368	-5.683027	66.71835	
13:21:11	-6.728658	38.94606	132.665	-0.04034887	-1.352535	0.06	3	100	0	6546	-3.838416	-5.659526	66.79103	
13:21:11	-6.728658	38.94606	132.64	-0.059274	-1.837399	0.04	3	100	0	6546	-3.676048	-5.75212	66.75319	
13:21:11	-6.728658	38.94606	132.647	-0.06217326	-1.932067	0.03	3	100	0	6546	-3.674356	-5.633237	66.7601	
13:21:11	-6.728658	38.94606	132.583	-0.05171028	-1.412158	0.14	3	100	0	6546	-3.704713	-5.662939	66.82101	
13:21:11	-6.728658	38.94606	132.536	-0.03724714	-0.9783102	0.04	3	100	0	6546	-3.822762	-5.583277	66.81165	
13:21:12	-6.728658	38.94606	132.534	-0.02052123	0.6061193	0.04	3	100	0	6546	-3.738513	-5.656818	66.76041	
13:21:12	-6.728658	38.94606	132.505	0.01735234	2.514935	0.04	3	100	0	6546	-3.653509	-5.727603	66.76566	
13:21:12	-6.728658	38.94606	132.507	0.06536241	4.786843	0.01	3	100	0	6546	-3.662716	-5.739637	66.7533	
13:21:13	-6.728658	38.94606	132.489	0.1104015	6.816283	0.04	3	100	0	6546	-3.684218	-5.688774	66.76367	
13:21:13	-6.728658	38.94606	132.458	0.1518882	7.902606	0.02	3	100	0	6546	-3.661696	-5.639055	66.75481	
13:21:13	-6.728658	38.94606	132.462	0.1656977	7.237185	0.03	3	100	0	6546	-3.682764	-5.689156	66.7674	
13:21:13	-6.728658	38.94606	132.426	0.1547012	5.564684	0.12	3	100	0	6546	-3.680827	-5.712867	66.79706	
13:21:13	-6.728658	38.94606	132.404	0.1480831	5.017206	0.14	3	100	0	6546	-3.508384	-5.742515	66.79778	
13:21:13	-6.728658	38.94606	132.359	0.146268	4.759334	0.06	3	100	0	6546	-3.456823	-5.751062	66.77548	
13:21:14	-6.728658	38.94606	132.334	0.1428253	4.164732	0.14	3	100	0	6546	-3.568192	-5.64549	66.73013	
13:21:14	-6.728659	38.94606	132.253	0.1370223	2.758351	0.03	3	100	0	6546	-3.470147	-5.738968	66.78075	
13:21:14	-6.728658	38.94606	132.248	0.1398784	2.726814	0.09	3	100	0	6546	-3.614781	-5.701659	66.73622	
13:21:14	-6.728658	38.94606	132.225	0.1472982	2.654881	0.02	3	100	0	6546	-3.730771	-5.806343	66.76118	
13:21:14	-6.728658	38.94606	132.208	0.1512713	2.669146	0.12	3	100	0	6546	-3.635806	-5.719429	66.71842	
13:21:14	-6.728658	38.94606	132.129	0.1506549	2.588461	0.11	3	100	0	6546	-3.528001	-5.742235	66.63265	
13:21:15	-6.728658	38.94606	132.086	0.1705281	3.275871	0.07	3	100	0	6546	-3.598887	-5.845018	66.58092	
13:21:15	-6.728658	38.94606	132.066	0.2178079	4.930558	0.11	3	100	0	6546	-3.62402	-5.822803	66.56348	
13:21:15	-6.728658	38.94606	132.089	0.2415109	5.946275	0.06	3	100	0	6546	-3.544193	-5.838762	66.49733	
13:21:15	-6.728658	38.94606	132.042	0.2354178	4.998468	0.11	3	100	0	6546	-3.611519	-5.828823	66.53085	
13:21:16	-6.728658	38.94606	132.028	0.2287276	3.742939	0.09	3	100	0	6546	-3.609161	-5.694551	66.54477	
13:21:16	-6.728658	38.94606	131.991	0.2010862	1.798555	0.11	3	100	0	6546	-3.63269	-5.899327	66.56122	
13:21:16	-6.728659	38.94606	131.961	0.1701913	0.3050174	0.04	3	100	0	6546	-3.545343	-5.828401	66.5095	
13:21:16	-6.728658	38.94606	131.979	0.1447152	-1.218565	0.14	3	100	0	6546	-3.661253	-5.769051	66.54031	
13:21:16	-6.728658	38.94606	131.981	0.1189985	-2.271069	0.04	3	100	0	6546	-3.520342	-5.819855	66.53316	
13:21:17	-6.728658	38.94606	131.951	0.05065967	-5.635567	0.04	3	100	0	6546	-3.650994	-5.760119	66.51463	
13:21:17	-6.728658	38.94606	131.971	-0.01642324	-8.420101	0.07	3	100	0	6546	-3.675096	-5.759855	66.5724	
13:21:17	-6.728658	38.94606	131.969	-0.05345014	-10.40023	0.06	3	100	0	6546	-3.711376	-5.728703	66.59119	
13:21:17	-6.728658	38.94606	131.943	-0.08561705	-10.81452	0.17	3	100	0	6546	-3.737919	-5.787874	66.61665	
13:21:17	-6.728658	38.94606	131.917	-0.1367284	-12.87226	0.19	3	100	0	6546	-3.485088	-5.754751	66.5479	
13:21:18	-6.728659	38.94606	131.874	-0.1812543	-14.06421	0.14	3	100	0	6546	-3.53032	-5.946813	66.48394	
13:21:18	-6.728659	38.94606	131.807	-0.260332	-16.45594	0.19	3	100	0	6546	-3.547735	-5.881733	66.44455	
13:21:18	-6.728659	38.94606	131.825	-0.3282188	-18.15993	0.16	3	100	0	6546	-3.4816	-5.839252	66.43155	
13:21:18	-6.728659	38.94606	131.764	-0.3951231	-20.42599	0.13	3	100	0	6546	-3.522904	-5.832119	66.43289	
13:21:18	-6.728659	38.94606	131.766	-0.4606424	-22.3505	0	3	100	0	6546	-3.542467	-5.738475	66.3734	
13:21:18	-6.728659	38.94606	131.746	-0.463664	-20.36767	0.11	3	100	0	6546	-3.672587	-5.739546	66.38248	
13:21:18	-6.728659	38.94606	131.714	-0.4628515	-18.48506	0.17	3	100	0	6546	-3.568329	-5.761958	66.29047	
13:21:19	-6.728659	38.94606	131.688	-0.4244426	-14.60988	0.14	3	100	0	6546	-3.589518	-5.92564	66.25375	
13:21:19	-6.728659	38.94606	131.629	-0.3866956	-11.6563	0.16	3	100	0	6546	-3.515927	-5.812716	66.23814	
13:21:19	-6.728659	38.94606	131.598	-0.37986	-10.37296	0.14	3	100	0	6546	-3.510025	-5.801963	66.25339	
13:21:19	-6.728659	38.94606	131.574	-0.3725591	-8.991435	0.22	3	100	0	6546	-3.509106	-5.791781	66.26178	
13:21:19	-6.728659	38.94606	131.566	-0.3998762	-9.575556	0.19	3	100	0	6546	-3.427665	-5.773511	66.29582	
13:21:20	-6.728659	38.94606	131.577	-0.4233138	-9.989526	0.14	3	100	0	6546	-3.51421	-5.875534	66.20892	
13:21:20	-6.728659	38.94606	131.589	-0.4158473	-8.689484	0.11	3	100	0	6546	-3.602747	-5.857076	66.19032	
13:21:20	-6.728659	38.94606	131.521	-0.4067176	-7.417706	0.16	3	100	0	6546	-3.580894	-5.705487	66.14188	
13:21:20	-6.728659	38.94606	131.551	-0.4071296	-6.62104	0.09	3	100	0	6546	-3.568639	-5.847926	66.13659	
13:21:21	-6.728659	38.94606	131.551	-0.4219202	-7.097122	0.09	3	100	0	6546	-3.607381	-5.691078	66.15991	
13:21:21	-6.728659	38.94606	131.551	-0.4278634	-6.176497	0.19	3	100	0	6546	-3.584464	-5.779218	66.19164	
13:21:21	-6.728659	38.94606	131.594	-0.4244003	-5.917933	0.17	3	100	0	6546	-3.471665	-5.777153	66.11452	
13:21:21	-6.728659	38.94606	131.579	-0.4150258	-5.019692	0.09	3	100	0	6546	-3.535999	-5.838666	66.0419	
13:21:21	-6.728659	38.94606	131.538	-0.4026749	-4.378708	0.09	3	100	0	6546	-3.663636	-5.659587	66.04416	
13:21:21	-6.728659	38.94606	131.574	-0.3749199	-2.362995	0.18	3	100	0	6546	-3.634883	-5.693498	66.01789	
13:21:22	-6.728659	38.94606	131.609	-0.3430208	-0.8635066	0.09	3	100	0	6546	-3.580377	-5.860083	66.03614	
13:21:22	-6.728659	38.94606	131.602	-0.3043968	1.313316	0.09	3	100	0	6546	-3.658585	-5.666372	66.07991	
13:21:22	-6.728659	38.94606	131.588	-0.2608516	2.849263	0.17	3	100	0	6546	-3.636599	-5.737407	66.13136	
13:21:22	-6.72866	38.94606	131.544	-0.2285036	3.736941	0.14	3	100	0	6546	-3.602748	-5.853566	66.08055	
13:21:22	-6.72866	38.94606	131.481	-0.2080853	4.006107	0.17	3	100	0	6546	-3.734512	-5.642257	66.10947	
13:21:23	-6.72866	38.94606	131.474	-0.1814877	4.904639	0.12	3	100	0	6546	-3.570806	-5.81677	66.09403	
13:21:23	-6.72866	38.94606	131.449	-0.1530923	5.622818	0.04	3	100	0	6546	-3.625488	-5.763565	66.11973	
13:21:23	-6.72866	38.94606	131.455	-0.124477	6.809436	0.08	3	100	0	6546	-3.709603	-5.811503	66.15141	
13:21:23	-6.728661	38.94606	131.438	-0.09680266	7.449983	0.06	3	100	0	6546	-3.666446	-5.750285	66.13385	
13:21:23	-6.728661	38.94606	131.402	-0.06254994	9.199691	0.09	3	100	0	6546	-3.662901	-5.806592	66.11698	
13:21:23	-6.728661	38.94606	131.353	-0.02854255	10.90126	0.09	3	100	0	6546	-3.648203	-5.846718	66.08762	
13:21:24	-6.728661	38.94606	131.325	0.009729274	12.13579	0.03	3	100	0	6546	-3.646864	-5.823069	66.03816	
13:21:24	-6.728661	38.94606	131.27	0.03792823	12.42772	0.19	3	100	0	6546	-3.720749	-5.709117	66.02329	
13:21:24	-6.728661	38.94606	131.175	0.06648333	13.10359	0.09	3	100	0	6546	-3.770998	-5.605602	66.04718	
13:21:24	-6.728662	38.94606	131.125	0.09338924	13.35864	0.18	3	100	0	6546	-3.661899	-5.837084	66.02314	
13:21:24	-6.728662	38.94606	131.103	0.1202112	13.25365	0.12	3	100	0	6548	-3.592374	-5.871572	66.05297	
13:21:25	-6.728662	38.94606	131.112	0.1421765	12.43015	0.09	3	100	0	6546	-3.608206	-5.742408	65.96676	
13:21:25	-6.728662	38.94606	131.098	0.1592789	12.17222	0.19	3	100	0	6546	-3.617598	-5.790996	65.94243	
13:21:25	-6.728662	38.94607	131.069	0.1770759	11.89053	0.26	3	100	0	6545	-3.571894	-5.86347	65.90612	
13:21:25	-6.728662	38.94607	131.029	0.1907236	11.44312	0.12	3	100	0	6546	-3.454864	-5.715662	65.94573	
13:21:26	-6.728662	38.94607	131.01	0.1542641	8.709673	0.08	3	100	0	6546	-3.595086	-5.680699	65.95814	
13:21:26	-6.728662	38.94607	131.039	0.1152869	5.645915	0.18	3	100	0	6546	-3.653129	-5.600885	66.00082	
13:21:26	-6.728662	38.94607	131.019	0.0911058	3.847539	0.07	3	100	0	6546	-3.61133	-5.720962	66.02239	
13:21:26	-6.728662	38.94607	130.972	0.06765798	2.117156	0.04	3	100	0	6546	-3.656356	-5.569235	66.1172	
13:21:26	-6.728662	38.94607	130.99	0.04098568	0.7036459	0.16	3	100	0	6546	-3.66834	-5.613451	66.06288	
13:21:27	-6.728662	38.94607	130.97	0.01482501	-0.4432799	0.09	3	100	0	6546	-3.694795	-5.621803	66.09467	
13:21:27	-6.728662	38.94607	130.903	-0.01104864	-2.223027	0.11	3	100	0	6546	-3.806732	-5.40053	66.05572	
13:21:27	-6.728662	38.94607	130.863	-0.03510258	-3.608014	0.06	3	100	0	6546	-3.727303	-5.383325	66.10722	
13:21:27	-6.728662	38.94607	130.823	-0.07980829	-6.0851	0.16	3	100	0	6546	-3.68632	-5.493059	66.10793	
13:21:27	-6.728662	38.94607	130.781	-0.1198462	-7.781634	0.13	3	100	0	6546	-3.6782	-5.564442	66.18531	
13:21:28	-6.728662	38.94607	130.745	-0.1275727	-7.389202	0.09	3	100	0	6546	-3.819528	-5.545489	66.17464	
13:21:28	-6.728663	38.94607	130.689	-0.1341613	-7.405078	0.09	3	100	0	6546	-3.83661	-5.344066	66.22247	
13:21:28	-6.728663	38.94607	130.642	-0.1588078	-8.084129	0.07	3	100	0	6546	-3.742347	-5.369203	66.19493	
13:21:28	-6.728663	38.94607	130.632	-0.1801014	-8.492881	0.09	3	100	0	6546	-3.75754	-5.394991	66.22125	
13:21:28	-6.728663	38.94607	130.618	-0.1793693	-6.713614	0.22	3	100	0	6546	-3.720189	-5.352921	66.24738	
13:21:29	-6.728663	38.94607	130.543	-0.175479	-5.429643	0.14	3	100	0	6546	-3.637282	-5.441374	66.26962	
13:21:29	-6.728664	38.94607	130.519	-0.1581428	-3.906501	0.22	3	100	0	6546	-3.734021	-5.280255	66.32983	
13:21:29	-6.728664	38.94607	130.532	-0.1421023	-2.945054	0.04	3	100	0	6546	-3.629795	-5.447171	66.2869	
13:21:29	-6.728664	38.94607	130.493	-0.1589983	-3.784931	0.14	3	100	0	6546	-3.737325	-5.354684	66.35365	
13:21:29	-6.728664	38.94607	130.483	-0.1739122	-3.988702	0.19	3	100	0	6546	-3.6079	-5.391754	66.33068	
13:21:29	-6.728664	38.94607	130.467	-0.1763493	-4.146358	0.13	3	100	0	6546	-3.598072	-5.474131	66.34355	
13:21:30	-6.728664	38.94607	130.386	-0.1784276	-3.763412	0.12	3	100	0	6546	-3.678967	-5.477308	66.3793	
13:21:30	-6.728665	38.94607	130.338	-0.1982815	-4.904708	0.19	3	100	0	6546	-3.657722	-5.429427	66.42305	
13:21:30	-6.728665	38.94607	130.304	-0.2315305	-6.645392	0.08	3	100	0	6546	-3.651365	-5.515107	66.42866	
13:21:30	-6.728665	38.94607	130.248	-0.2932028	-8.877316	0.18	3	100	0	6546	-3.73859	-5.405721	66.48927	
13:21:31	-6.728666	38.94607	130.209	-0.3698679	-11.8509	0.12	3	100	0	6546	-3.653747	-5.45832	66.43461	
13:21:31	-6.728666	38.94607	130.177	-0.4247788	-13.95703	0.06	3	100	0	6546	-3.710701	-5.425933	66.47212	
13:21:31	-6.728666	38.94607	130.152	-0.4597591	-14.71178	0.12	3	100	0	6546	-3.717486	-5.438302	66.45513	
13:21:31	-6.728666	38.94607	130.131	-0.4830066	-14.67042	0.09	3	100	0	6546	-3.672999	-5.434105	66.45765	
13:21:31	-6.728666	38.94607	130.099	-0.495981	-13.60782	0.18	3	100	0	6547	-3.669171	-5.465823	66.42945	
13:21:32	-6.728666	38.94607	130.112	-0.4984418	-12.30626	0.06	3	100	0	6546	-3.699056	-5.496347	66.4351	
13:21:32	-6.728666	38.94607	130.081	-0.4868047	-10.34175	0.08	3	100	0	6546	-3.799106	-5.458414	66.43665	
13:21:32	-6.728666	38.94607	130.037	-0.4711521	-8.25165	0.08	3	100	0	6546	-3.777508	-5.411655	66.38426	
13:21:32	-6.728666	38.94607	130.032	-0.4523152	-6.571118	0.08	3	100	0	6546	-3.79178	-5.403855	66.45225	
13:21:32	-6.728666	38.94607	130.018	-0.4120031	-4.056326	0.02	3	100	0	6546	-3.823966	-5.386432	66.47796	
13:21:33	-6.728666	38.94607	130.029	-0.3636509	-1.643547	0.09	3	100	0	6546	-3.830384	-5.367276	66.53979	
13:21:33	-6.728666	38.94607	130.017	-0.323143	0.9451123	0.03	3	100	0	6546	-3.794543	-5.340537	66.61225	
13:21:33	-6.728666	38.94607	129.979	-0.2896133	2.606766	0.07	3	100	0	6546	-3.812791	-5.345293	66.59712	
13:21:33	-6.728666	38.94607	130.011	-0.2477561	4.330975	0.07	3	100	0	6546	-3.745955	-5.34509	66.56971	
13:21:33	-6.728666	38.94607	130.015	-0.2084573	5.454031	0.09	3	100	0	6546	-3.773724	-5.372233	66.60803	
13:21:34	-6.728666	38.94607	129.994	-0.1823016	6.206587	0.09	3	100	0	6546	-3.788544	-5.356377	66.5751	
13:21:34	-6.728666	38.94607	130.003	-0.1714301	6.217317	0.03	3	100	0	6546	-3.723272	-5.393154	66.61117	
13:21:34	-6.728666	38.94607	129.963	-0.1773999	5.660705	0.11	3	100	0	6546	-3.773925	-5.465852	66.61752	
13:21:34	-6.728666	38.94607	129.95	-0.1985381	3.652155	0.21	3	100	0	6546	-3.639259	-5.526264	66.59047	
13:21:34	-6.728666	38.94607	129.942	-0.2004192	2.924422	0.09	3	100	0	6546	-3.567417	-5.453066	66.59165	
13:21:34	-6.728666	38.94607	129.909	-0.188422	3.039062	0.09	3	100	0	6546	-3.648098	-5.440253	66.55991	
13:21:35	-6.728666	38.94607	129.904	-0.1779329	3.535541	0.22	3	100	0	6546	-3.617107	-5.560425	66.56393	
13:21:35	-6.728666	38.94607	129.92	-0.1617793	4.084074	0.08	3	100	0	6546	-3.611054	-5.619978	66.51224	
13:21:35	-6.728666	38.94607	129.914	-0.1477336	4.067428	0.12	3	100	0	6546	-3.669271	-5.537159	66.52002	
13:21:35	-6.728666	38.94607	129.909	-0.1708086	2.363101	0.06	3	100	0	6546	-3.724124	-5.500615	66.57162	
13:21:36	-6.728666	38.94607	129.879	-0.1950241	0.6746994	0.14	3	100	0	6546	-3.749695	-5.429192	66.63939	
13:21:36	-6.728666	38.94607	129.879	-0.2301914	-1.429873	0.29	3	100	0	6546	-3.599396	-5.572761	66.61345	
13:21:36	-6.728666	38.94607	129.857	-0.2623714	-3.514936	0.13	3	100	0	6546	-3.5823	-5.576548	66.55413	
13:21:36	-6.728666	38.94607	129.859	-0.3094402	-5.756736	0.06	3	100	0	6546	-3.651026	-5.43945	66.56921	
13:21:36	-6.728666	38.94607	129.893	-0.3547435	-7.453977	0.14	3	100	0	6546	-3.699241	-5.535956	66.58199	
13:21:37	-6.728666	38.94607	129.871	-0.3721805	-7.350019	0.01	3	100	0	6546	-3.701516	-5.554599	66.51528	
13:21:37	-6.728666	38.94607	129.881	-0.3865274	-7.667015	0.09	3	100	0	6546	-3.745792	-5.530038	66.55473	
13:21:37	-6.728666	38.94607	129.864	-0.3597761	-5.872483	0.08	3	100	0	6546	-3.705033	-5.547438	66.58015	
13:21:37	-6.728666	38.94607	129.8	-0.3342193	-3.792435	0.02	3	100	0	6546	-3.709746	-5.474678	66.54788	
13:21:37	-6.728666	38.94607	129.789	-0.3377381	-3.856115	0.09	3	100	0	6546	-3.752283	-5.485308	66.563	
13:21:38	-6.728666	38.94607	129.808	-0.3407634	-3.596001	0.03	3	100	0	6546	-3.731436	-5.489538	66.55757	
13:21:38	-6.728665	38.94607	129.849	-0.3361699	-2.592201	0.04	3	100	0	6546	-3.740796	-5.453799	66.56441	
13:21:38	-6.728665	38.94607	129.812	-0.331071	-1.862071	0.07	3	100	0	6546	-3.713409	-5.462643	66.54617	
13:21:38	-6.728666	38.94607	129.763	-0.3342333	-1.321437	0.17	3	100	0	6546	-3.687065	-5.376378	66.57896	
13:21:38	-6.728666	38.94607	129.741	-0.3370263	-1.818822	0.13	3	100	0	6546	-3.640376	-5.440073	66.59747	
13:21:39	-6.728665	38.94607	129.761	-0.2869629	1.092959	0.18	3	100	0	6546	-3.632652	-5.558144	66.67339	
13:21:39	-6.728665	38.94607	129.788	-0.2418167	2.936785	0.18	3	100	0	6546	-3.584996	-5.51067	66.65311	
13:21:39	-6.728665	38.94607	129.801	-0.1536671	7.230807	0.09	3	100	0	6546	-3.599314	-5.443055	66.69658	
13:21:39	-6.728666	38.94607	129.766	-0.07586534	10.42006	0.09	3	100	0	6546	-3.653822	-5.514823	66.70061	
13:21:40	-6.728665	38.94607	129.757	-0.01423186	12.85044	0.04	3	100	0	6546	-3.67953	-5.486471	66.70464	
13:21:40	-6.728665	38.94607	129.755	0.04580431	14.75281	0.09	3	100	0	6546	-3.716949	-5.422627	66.71745	
13:21:40	-6.728665	38.94607	129.741	0.0656031	14.72335	0.04	3	100	0	6546	-3.700745	-5.404786	66.77029	
13:21:40	-6.728665	38.94607	129.739	0.0356554	11.6558	0.04	3	100	0	6546	-3.673665	-5.470042	66.70573	
13:21:40	-6.728665	38.94607	129.717	0.009589923	9.390462	0.04	3	100	0	6546	-3.674638	-5.492905	66.68939	
13:21:40	-6.728665	38.94607	129.717	-0.01513492	6.849608	0.07	3	100	0	6546	-3.661501	-5.462589	66.75703	
13:21:41	-6.728665	38.94606	129.695	-0.03078745	5.385343	0.04	3	100	0	6546	-3.627284	-5.467642	66.71175	
13:21:41	-6.728664	38.94606	129.71	-0.04132668	4.290538	0.03	3	100	0	6546	-3.658685	-5.495238	66.71762	
13:21:41	-6.728664	38.94606	129.692	-0.06614501	2.793262	0.11	3	100	0	6546	-3.697607	-5.523825	66.77555	
13:21:41	-6.728664	38.94606	129.692	-0.09443806	1.496553	0.11	3	100	0	6546	-3.554045	-5.558752	66.79329	
13:21:41	-6.728665	38.94606	129.668	-0.0983381	0.9372872	0.13	3	100	0	6546	-3.457516	-5.572665	66.749	
13:21:42	-6.728664	38.94606	129.648	-0.1029113	0.7751759	0.09	3	100	0	6546	-3.481534	-5.542125	66.73233	
13:21:42	-6.728664	38.94606	129.664	-0.07984374	2.409296	0.09	3	100	0	6546	-3.447401	-5.593768	66.73946	
13:21:42	-6.728664	38.94606	129.672	-0.05313318	3.619893	0.02	3	100	0	6546	-3.488725	-5.642408	66.7202	
13:21:42	-6.728664	38.94606	129.683	-0.04151558	3.80802	0.11	3	100	0	6546	-3.505085	-5.728527	66.62748	
13:21:43	-6.728663	38.94606	129.677	-0.03095103	3.822336	0.06	3	100	0	6546	-3.554083	-5.735758	66.60241	
13:21:43	-6.728663	38.94606	129.694	0.01507977	5.827071	0.04	3	100	0	6546	-3.554347	-5.712961	66.61268	
13:21:43	-6.728663	38.94606	129.713	0.05549659	7.101804	0.18	3	100	0	6546	-3.429482	-5.748491	66.53884	
13:21:43	-6.728663	38.94606	129.714	0.1577297	11.75547	0.18	3	100	0	6546	-3.385895	-5.802154	66.50337	
13:21:43	-6.728662	38.94606	129.754	0.2397481	14.61632	0.17	3	100	0	6546	-3.408942	-5.808201	66.53816	
13:21:44	-6.728662	38.94606	129.727	0.2601381	14.10343	0.01	3	100	0	6546	-3.514377	-5.724974	66.49192	
13:21:44	-6.728662	38.94606	129.738	0.2757222	13.55815	0.07	3	100	0	6546	-3.555562	-5.674763	66.48196	
13:21:44	-6.728662	38.94606	129.717	0.2632321	11.83788	0.07	3	100	0	6546	-3.621825	-5.617152	66.47954	
13:21:44	-6.728662	38.94606	129.707	0.2495789	9.934601	0	3	100	0	6546	-3.632634	-5.605558	66.49063	
13:21:44	-6.728662	38.94606	129.687	0.213906	6.904426	0.17	3	100	0	6546	-3.494772	-5.648885	66.46291	
13:21:45	-6.728662	38.94606	129.695	0.1755285	4.244571	0.19	3	100	0	6546	-3.451796	-5.745628	66.47244	
13:21:45	-6.728662	38.94606	129.653	0.1374288	2.239185	0.13	3	100	0	6546	-3.464329	-5.692098	66.50574	
13:21:45	-6.728662	38.94606	129.71	0.1091959	0.4686807	0.08	3	100	0	6546	-3.500684	-5.62378	66.51508	
13:21:45	-6.728662	38.94606	129.681	0.08011805	-1.348616	0.09	3	100	0	6546	-3.51749	-5.635949	66.43398	
13:21:45	-6.728662	38.94606	129.706	0.05881281	-2.22123	0.24	3	100	0	6546	-3.434622	-5.686409	66.4084	
13:21:46	-6.728662	38.94606	129.694	0.03265574	-3.392162	0.17	3	100	0	6546	-3.41451	-5.638163	66.34472	
13:21:46	-6.728662	38.94606	129.698	0.004989321	-4.480768	0.12	3	100	0	6546	-3.562373	-5.682187	66.36355	
13:21:46	-6.728662	38.94606	129.73	-0.01649828	-4.963346	0.12	3	100	0	6546	-3.644748	-5.691435	66.38098	
13:21:46	-6.728662	38.94606	129.775	-0.03151044	-5.666642	0.08	3	100	0	6546	-3.612252	-5.645879	66.3959	
13:21:46	-6.728662	38.94606	129.756	-0.05768018	-7.093717	0.07	3	100	0	6546	-3.62167	-5.625294	66.46836	
13:21:47	-6.728662	38.94606	129.7	-0.09733903	-8.903791	0.01	3	100	0	6546	-3.65595	-5.571497	66.40739	
13:21:47	-6.728662	38.94606	129.664	-0.1226575	-9.013498	0.08	3	100	0	6546	-3.684277	-5.606528	66.37727	
13:21:47	-6.728662	38.94606	129.702	-0.1289862	-9.172061	0.09	3	100	0	6546	-3.608677	-5.58905	66.35645	
13:21:47	-6.728662	38.94606	129.666	-0.1339338	-8.319816	0.11	3	100	0	6546	-3.570099	-5.511253	66.36642	
13:21:47	-6.728662	38.94606	129.658	-0.1350592	-6.996502	0.11	3	100	0	6546	-3.5649	-5.547102	66.36239	
13:21:48	-6.728662	38.94606	129.684	-0.1391946	-6.616382	0.04	3	100	0	6546	-3.622913	-5.507051	66.36803	
13:21:48	-6.728662	38.94606	129.728	-0.1448583	-6.124447	0.09	3	100	0	6546	-3.598737	-5.515436	66.38679	
13:21:48	-6.728662	38.94606	129.689	-0.1288022	-4.928365	0.08	3	100	0	6546	-3.62381	-5.470733	66.44784	
13:21:48	-6.728662	38.94606	129.649	-0.1040151	-3.221955	0.06	3	100	0	6546	-3.644755	-5.469685	66.4798	
13:21:49	-6.728662	38.94606	129.669	-0.0804313	-1.569444	0.12	3	100	0	6546	-3.622103	-5.572985	66.50861	
13:21:49	-6.728662	38.94606	129.63	-0.06119474	-0.6589251	0.11	3	100	0	6546	-3.606431	-5.498383	66.54207	
13:21:49	-6.728662	38.94606	129.631	-0.05219791	-0.4408618	0.03	3	100	0	6547	-3.65516	-5.470793	66.54189	
13:21:49	-6.728662	38.94606	129.67	-0.05087658	-0.9999914	0.04	3	100	0	6546	-3.650884	-5.516188	66.5039	
13:21:49	-6.728662	38.94606	129.672	-0.04057861	-0.4350075	0.08	3	100	0	6546	-3.622892	-5.548793	66.5229	
13:21:50	-6.728662	38.94606	129.63	-0.02244123	0.8805265	0.02	3	100	0	6546	-3.670697	-5.527271	66.5526	
13:21:50	-6.728662	38.94606	129.652	-0.004850356	2.110643	0	3	100	0	6546	-3.708168	-5.547495	66.60057	
13:21:50	-6.728662	38.94606	129.72	0.04282623	3.982009	0.04	3	100	0	6546	-3.71789	-5.471867	66.55313	
13:21:50	-6.728662	38.94606	129.72	0.08542725	5.856824	0.04	3	100	0	6546	-3.716203	-5.588631	66.55536	
13:21:50	-6.728662	38.94606	129.731	0.1202525	7.127227	0.04	3	100	0	6546	-3.740587	-5.593282	66.56127	
13:21:51	-6.728662	38.94606	129.679	0.155034	8.550758	0.03	3	100	0	6546	-3.694285	-5.618394	66.53168	
13:21:51	-6.728662	38.94606	129.633	0.1282322	6.093514	0.11	3	100	0	6546	-3.611972	-5.657267	66.56466	
13:21:51	-6.728662	38.94606	129.603	0.1023367	4.239803	0.08	3	100	0	6546	-3.613306	-5.54303	66.53327	
13:21:51	-6.728662	38.94606	129.589	0.07395189	2.547213	0.07	3	100	0	6546	-3.589363	-5.530029	66.49524	
13:21:51	-6.728662	38.94606	129.617	0.04575614	1.021154	0.12	3	100	0	6546	-3.539674	-5.616167	66.45734	
13:21:51	-6.728662	38.94606	129.617	0.02491447	0.2432594	0.19	3	100	0	6546	-3.471598	-5.66784	66.42458	
13:21:52	-6.728662	38.94606	129.646	0.00601857	-1.010354	0.16	3	100	0	6546	-3.476903	-5.652398	66.40685	
13:21:52	-6.728662	38.94606	129.647	-0.005466421	-1.587104	0.04	3	100	0	6546	-3.607171	-5.62418	66.4381	
13:21:52	-6.728662	38.94606	129.648	-0.01530261	-1.529295	0.14	3	100	0	6546	-3.570522	-5.644717	66.45309	
13:21:52	-6.728662	38.94606	129.669	0.02584346	0.9322112	0.14	3	100	0	6546	-3.720604	-5.544412	66.45445	
13:21:53	-6.728662	38.94606	129.677	0.06741883	2.96194	0.09	3	100	0	6546	-3.638311	-5.567505	66.41386	
13:21:53	-6.728662	38.94606	129.686	0.1070942	4.694345	0.04	3	100	0	6546	-3.677916	-5.600729	66.44208	
13:21:53	-6.728662	38.94606	129.701	0.1424812	6.066636	0.04	3	100	0	6546	-3.676277	-5.593813	66.4679	
13:21:53	-6.728662	38.94606	129.724	0.1517309	6.32114	0.04	3	100	0	6546	-3.646883	-5.503484	66.44027	
13:21:53	-6.728662	38.94606	129.724	0.1584733	5.823339	0.04	3	100	0	6547	-3.663479	-5.562356	66.46767	
13:21:54	-6.728662	38.94606	129.724	0.1071837	2.725291	0.06	3	100	0	6546	-3.664284	-5.521263	66.55575	
13:21:54	-6.728661	38.94606	129.811	0.06401957	0.0873931	0.13	3	100	0	6546	-3.727222	-5.586847	66.57616	
13:21:54	-6.728661	38.94606	129.771	-0.03403582	-4.290927	0.04	3	100	0	6546	-3.801608	-5.472281	66.56098	
13:21:54	-6.728661	38.94606	129.727	-0.1129952	-8.382627	0.09	3	100	0	6546	-3.741214	-5.526004	66.53999	
13:21:54	-6.72866	38.94606	129.809	-0.167763	-10.43274	0.09	3	100	0	6546	-3.664191	-5.599485	66.51623	
13:21:54	-6.728661	38.94606	129.811	-0.2156606	-11.57267	0.11	3	100	0	6546	-3.723421	-5.475084	66.48309	
13:21:55	-6.728661	38.94606	129.811	-0.2543538	-12.45344	0.11	3	100	0	6546	-3.601087	-5.485244	66.5442	
13:21:55	-6.728661	38.94606	129.783	-0.2825554	-13.10573	0.14	3	100	0	6546	-3.561614	-5.499354	66.51477	
13:21:55	-6.728661	38.94606	129.803	-0.3021965	-12.12013	0.04	3	100	0	6546	-3.53686	-5.426351	66.4918	
13:21:55	-6.72866	38.94606	129.843	-0.3056448	-11.09576	0.03	3	100	0	6546	-3.670658	-5.485896	66.49031	
13:21:55	-6.72866	38.94606	129.82	-0.280807	-8.768477	0.09	3	100	0	6546	-3.656277	-5.509487	66.48618	
13:21:56	-6.728661	38.94606	129.797	-0.24091	-6.126345	0.09	3	100	0	6546	-3.640485	-5.403057	66.49295	
13:21:56	-6.728661	38.94606	129.736	-0.2180383	-4.027698	0.11	3	100	0	6546	-3.575532	-5.47144	66.54503	
13:21:56	-6.728661	38.94606	129.714	-0.2055582	-2.776318	0.14	3	100	0	6546	-3.541106	-5.440676	66.51086	
13:21:56	-6.728661	38.94606	129.728	-0.198202	-2.405498	0.03	3	100	0	6546	-3.550462	-5.564044	66.58064	
13:21:57	-6.728661	38.94606	129.742	-0.1959918	-2.080348	0.12	3	100	0	6546	-3.641761	-5.537036	66.59988	
13:21:57	-6.728661	38.94606	129.742	-0.1906503	-1.904108	0.12	3	100	0	6546	-3.56839	-5.545223	66.55599	
13:21:57	-6.728661	38.94606	129.755	-0.1838375	-1.592216	0.11	3	100	0	6546	-3.53797	-5.569106	66.54092	
13:21:57	-6.728661	38.94606	129.739	-0.1682305	-0.4284026	0.09	3	100	0	6546	-3.681573	-5.380661	66.61868	
13:21:57	-6.728661	38.94606	129.767	-0.1476829	0.4146286	0.07	3	100	0	6546	-3.611223	-5.380552	66.60128	
13:21:58	-6.72866	38.94606	129.798	-0.1478596	0.3049063	0.12	3	100	0	6546	-3.619143	-5.488002	66.67076	
13:21:58	-6.728661	38.94606	129.79	-0.1604288	-1.013563	0.09	3	100	0	6546	-3.69186	-5.563924	66.71036	
13:21:58	-6.72866	38.94606	129.831	-0.1571088	-0.2501855	0.19	3	100	0	6547	-3.669505	-5.379516	66.69622	
13:21:58	-6.72866	38.94606	129.854	-0.1442304	0.5384295	0.04	3	100	0	6546	-3.717869	-5.254032	66.639	
13:21:58	-6.72866	38.94606	129.872	-0.1344852	0.9331338	0.09	3	100	0	6546	-3.72349	-5.426087	66.67384	
13:21:58	-6.72866	38.94606	129.814	-0.1272326	1.114524	0.09	3	100	0	6546	-3.769515	-5.461423	66.61845	
13:21:59	-6.72866	38.94606	129.796	-0.131833	0.7080592	0.06	3	100	0	6546	-3.79747	-5.457663	66.65308	
13:21:59	-6.728659	38.94606	129.905	-0.146217	-0.5053658	0.09	3	100	0	6546	-3.749168	-5.502438	66.6818	
13:21:59	-6.72866	38.94606	129.876	-0.1557877	-1.540176	0.12	3	100	0	6546	-3.698947	-5.592439	66.59673	
13:21:59	-6.72866	38.94606	129.894	-0.1604062	-1.694475	0.04	3	100	0	6546	-3.567514	-5.521905	66.55418	
13:21:59	-6.72866	38.94606	129.883	-0.1643538	-2.082788	0.11	3	100	0	6546	-3.68336	-5.536596	66.59408	
13:22:00	-6.72866	38.94606	129.84	-0.08886065	1.802035	0.07	3	100	0	6547	-3.609669	-5.609463	66.60081	
13:22:00	-6.72866	38.94606	129.831	-0.02009041	5.191178	0.09	3	100	0	6546	-3.645571	-5.474936	66.67326	
13:22:00	-6.728661	38.94606	129.82	0.04368586	8.058421	0.22	3	100	0	6546	-3.598326	-5.525986	66.71352	
13:22:00	-6.728661	38.94606	129.741	0.1005998	10.21627	0.13	3	100	0	6546	-3.445854	-5.566341	66.70367	
13:22:00	-6.728661	38.94606	129.714	0.0921106	8.378374	0.19	3	100	0	6546	-3.564257	-5.594073	66.84702	
13:22:01	-6.728662	38.94606	129.679	0.08247195	6.902013	0.03	3	100	0	6546	-3.539403	-5.609044	66.83566	
13:22:01	-6.728662	38.94606	129.631	0.04431424	3.977025	0.07	3	100	0	6546	-3.680236	-5.53155	66.86189	
13:22:01	-6.728662	38.94606	129.604	0.007550637	1.315192	0.11	3	100	0	6546	-3.688462	-5.497335	66.90476	
13:22:01	-6.728662	38.94606	129.596	-0.0003372657	1.157695	0.08	3	100	0	6547	-3.687958	-5.583313	66.89411	
13:22:01	-6.728662	38.94606	129.527	-0.007648376	0.4255801	0.19	3	100	0	6546	-3.682246	-5.50492	66.91656	
13:22:02	-6.728662	38.94606	129.473	-0.07059558	-2.980435	0.14	3	100	0	6546	-3.560836	-5.568027	66.91097	
13:22:02	-6.728662	38.94606	129.442	-0.1403162	-6.329504	0.06	3	100	0	6546	-3.56275	-5.559004	66.83657	
13:22:02	-6.728662	38.94606	129.37	-0.1616338	-6.904635	0.18	3	100	0	6546	-3.705562	-5.617728	66.81948	
13:22:02	-6.728663	38.94606	129.325	-0.1782236	-7.162681	0.03	3	100	0	6547	-3.551492	-5.629535	66.76253	
13:22:02	-6.728663	38.94606	129.287	-0.1732778	-6.399117	0.13	3	100	0	6546	-3.706089	-5.602	66.78752	
13:22:03	-6.728663	38.94606	129.31	-0.1678732	-5.886786	0.14	3	100	0	6546	-3.652254	-5.46276	66.76862	
13:22:03	-6.728663	38.94606	129.284	-0.1834532	-6.303044	0.08	3	100	0	6546	-3.599957	-5.566331	66.83683	
13:22:03	-6.728663	38.94606	129.248	-0.1956971	-6.650763	0.09	3	100	0	6546	-3.622255	-5.528389	66.87577	
13:22:03	-6.728663	38.94606	129.235	-0.2037524	-6.264152	0.13	3	100	0	6546	-3.677631	-5.566795	66.90395	
13:22:03	-6.728664	38.94606	129.197	-0.2115959	-6.265002	0.16	3	100	0	6546	-3.634285	-5.555577	66.87975	
13:22:04	-6.728664	38.94606	129.149	-0.2160357	-6.555173	0.06	3	100	0	6546	-3.59451	-5.59181	66.82359	
13:22:04	-6.728664	38.94606	129.112	-0.2206829	-6.366826	0.11	3	100	0	6546	-3.73801	-5.588571	66.8491	
13:22:04	-6.728664	38.94606	129.097	-0.2224773	-6.036792	0.14	3	100	0	6546	-3.688119	-5.590876	66.85561	
13:22:04	-6.728664	38.94606	129.039	-0.2240936	-6.16941	0.12	3	100	0	6546	-3.643033	-5.63197	66.83313	
13:22:05	-6.728665	38.94606	128.946	-0.2016174	-4.842328	0.09	3	100	0	6546	-3.646946	-5.502922	66.82437	
13:22:05	-6.728665	38.94606	128.917	-0.1629737	-2.396103	0.18	3	100	0	6546	-3.672084	-5.599612	66.82883	
13:22:05	-6.728666	38.94606	128.877	-0.1153127	0.006202515	0.12	3	100	0	6546	-3.565857	-5.628128	66.73117	
13:22:05	-6.728666	38.94606	128.862	-0.05819908	2.209911	0.21	3	100	0	6546	-3.601682	-5.556954	66.75282	
13:22:05	-6.728666	38.94606	128.853	-0.01859828	4.221729	0.04	3	100	0	6546	-3.512866	-5.502005	66.71435	
13:22:05	-6.728666	38.94606	128.831	0.01893354	5.677472	0.04	3	100	0	6546	-3.670081	-5.48926	66.69558	
13:22:06	-6.728666	38.94606	128.801	0.03632263	6.190898	0.11	3	100	0	6546	-3.765059	-5.574819	66.7182	
13:22:06	-6.728666	38.94606	128.744	0.03642296	5.520585	0.08	3	100	0	6546	-3.637234	-5.564016	66.71774	
13:22:06	-6.728666	38.94606	128.732	0.02523067	4.191226	0.04	3	100	0	6546	-3.680691	-5.650483	66.65379	
13:22:06	-6.728666	38.94606	128.711	-0.0005591717	1.632076	0.06	3	100	0	6546	-3.654519	-5.56324	66.62165	
13:22:06	-6.728666	38.94607	128.631	0.004584515	1.540371	0.09	3	100	0	6546	-3.646806	-5.562325	66.66364	
13:22:07	-6.728666	38.94607	128.56	0.05121961	3.623024	0.18	3	100	0	6546	-3.6254	-5.621764	66.68751	
13:22:07	-6.728667	38.94607	128.502	0.08813793	4.896458	0.14	3	100	0	6546	-3.514902	-5.58216	66.64475	
13:22:07	-6.728667	38.94607	128.476	0.1149628	6.208488	0.19	3	100	0	6546	-3.544879	-5.570088	66.65343	
13:22:07	-6.728667	38.94607	128.436	0.1277468	6.014372	0.06	3	100	0	6546	-3.576125	-5.791486	66.6452	
13:22:07	-6.728667	38.94607	128.384	0.127953	5.456888	0.17	3	100	0	6546	-3.720393	-5.718124	66.66931	
13:22:08	-6.728667	38.94607	128.333	0.1355808	5.175213	0.13	3	100	0	6548	-3.566475	-5.707006	66.6401	
13:22:08	-6.728667	38.94607	128.303	0.1456647	5.495462	0.19	3	100	0	6547	-3.586072	-5.700355	66.56939	
