Date	Latitude(deg) 	Longitude(deg)	hamsl(m)	hafl(m)	climbrate(cm/s)	GroundSpeed(m/s)	Airspeed(m/s)	Mav_Link(%)	Rssi_Link(%)	Throttle	Roll(deg)	Pitch(deg)	Yaw(deg)
09:28:37	0	0	0	0	0	0	0	100	0	0	-0.709775	-0.1057715	-149.4671	
09:28:37	0	0	0	0	0	0	0	100	0	0	-0.7155359	-0.1369724	-149.4657	
09:28:37	0	0	0	0	0	0	0	100	0	0	-0.716861	-0.1389958	-149.4625	
09:28:37	0	0	0	0	0	0	0	100	0	0	-0.7078168	-0.1180235	-149.4712	
09:28:37	0	0	0	-1.144483	-34.57616	0	3	100	0	50	-0.7031352	-0.1179234	-149.4576	
09:28:37	0	0	0	-1.144483	-34.57616	0	3	100	0	50	-0.7004263	-0.09636123	-149.4547	
09:28:38	0	0	0	-1.144483	-34.57616	0	3	100	0	50	-0.7041652	-0.1019388	-149.4509	
09:28:38	0	0	0	-1.144483	-34.57616	0	3	100	0	50	-0.7049513	-0.1006609	-149.4426	
09:28:38	0	0	0	-1.144483	-34.57616	0	3	100	0	50	-0.698324	-0.1226056	-149.4313	
09:28:38	0	0	0	-0.8293611	-1.197279	0	3	100	0	50	-0.7087317	-0.1325962	-149.4286	
09:28:38	0	0	0	-0.8293611	-1.197279	0	3	100	0	50	-0.6969699	-0.1089059	-149.4141	
09:28:39	0	0	0	-0.8293611	-1.197279	0	3	100	0	50	-0.7033283	-0.09574591	-149.4166	
09:28:39	0	0	0	-0.8293611	-1.197279	0	3	100	0	50	-0.7164347	-0.08274258	-149.4174	
09:28:39	0	0	0	-0.8293611	-1.197279	0	3	100	0	50	-0.7071652	-0.0891722	-149.4264	
09:28:39	0	0	0	-0.2802086	24.26563	0	3	100	0	50	-0.7044589	-0.08755526	-149.4211	
09:28:39	0	0	0	-0.2802086	24.26563	0	3	100	0	50	-0.7088487	-0.07710563	-149.4342	
09:28:40	0	0	0	-0.2802086	24.26563	0	3	100	0	50	-0.7121035	-0.09186476	-149.4409	
09:28:40	0	0	0	-0.2802086	24.26563	0	3	100	0	50	-0.721025	-0.09970872	-149.4286	
09:28:40	0	0	0	-0.2802086	24.26563	0	3	100	0	50	-0.737589	-0.1026495	-149.4301	
09:28:40	0	0	0	-0.1737858	20.24262	0	3	100	0	50	-0.7458116	-0.09234163	-149.4359	
09:28:40	0	0	0	-0.1737858	20.24262	0	3	100	0	50	-0.7395098	-0.109031	-149.4363	
09:28:41	0	0	0	-0.1737858	20.24262	0	3	100	0	50	-0.7304032	-0.08160013	-149.4517	
09:28:41	0	0	0	-0.1737858	20.24262	0	3	100	0	50	-0.7240676	-0.08148324	-149.4611	
09:28:41	0	0	0	-0.1737858	20.24262	0	3	100	0	50	-0.7187303	-0.08015455	-149.4603	
09:28:41	0	0	0	-0.295905	7.637381	0	3	100	0	50	-0.717567	-0.0722603	-149.4593	
09:28:41	0	0	0	-0.295905	7.637381	0	3	100	0	50	-0.7240075	-0.06048487	-149.4584	
09:28:42	0	0	0	-0.295905	7.637381	0	3	100	0	50	-0.722471	-0.05892023	-149.4541	
09:28:42	0	0	0	-0.295905	7.637381	0	3	100	0	50	-0.7206607	-0.05376371	-149.4483	
09:28:42	0	0	0	-0.295905	7.637381	0	3	100	0	50	-0.7147089	-0.05666141	-149.4437	
09:28:42	0	0	0	-0.2290493	8.457438	0	3	100	0	50	-0.7156448	-0.04450351	-149.4423	
09:28:42	0	0	0	-0.2290493	8.457438	0	3	100	0	50	-0.7110218	-0.05057835	-149.4492	
09:28:43	0	0	0	-0.2290493	8.457438	0	3	100	0	50	-0.7146532	-0.05481518	-149.4417	
09:28:43	0	0	0	-0.2290493	8.457438	0	3	100	0	50	-0.7107975	-0.04358834	-149.4502	
09:28:43	0	0	0	-0.2290493	8.457438	0	3	100	0	50	-0.7045575	-0.02538794	-149.4542	
09:28:43	0	0	0	-0.2678573	4.818513	0	3	100	0	50	-0.7149065	-0.005987328	-149.4475	
09:28:43	0	0	0	-0.2678573	4.818513	0	3	100	0	50	-0.7086002	-0.003055256	-149.446	
09:28:44	0	0	0	-0.2678573	4.818513	0	3	100	0	50	-0.7089103	0.007578441	-149.461	
09:28:44	0	0	0	-0.2678573	4.818513	0	3	100	0	50	-0.7146602	0.00424531	-149.4686	
09:28:44	0	0	0	-0.2678573	4.818513	0	3	100	0	50	-0.7322132	0.01617002	-149.4851	
09:28:44	0	0	0	-0.3227472	2.414206	0	3	100	0	50	-0.7263885	0.01637743	-149.4948	
09:28:44	0	0	0	-0.3227472	2.414206	0	3	100	0	50	-0.7277675	0.03136647	-149.4904	
09:28:45	0	0	0	-0.3227472	2.414206	0	3	100	0	50	-0.7130119	0.03372707	-149.4975	
09:28:45	0	0	0	-0.3227472	2.414206	0	3	100	0	50	-0.7141618	0.03629002	-149.4913	
09:28:45	0	0	0	-0.3227472	2.414206	0	3	100	0	50	-0.7166145	0.03734841	-149.4879	
09:28:45	0	0	0	-0.1882998	8.278661	0	3	100	0	50	-0.7170357	0.05858125	-149.4896	
09:28:46	0	0	0	-0.1882998	8.278661	0	3	100	0	50	-0.7131025	0.0344923	-149.4913	
09:28:46	0	0	0	-0.1882998	8.278661	0	3	100	0	50	-0.7163257	0.04648298	-149.5042	
09:28:46	0	0	0	-0.1882998	8.278661	0	3	100	0	50	-0.7150638	0.03858139	-149.4994	
09:28:46	0	0	0	-0.1882998	8.278661	0	3	100	0	50	-0.7227606	0.02388525	-149.5093	
09:28:46	0	0	0	-0.3696175	-2.538851	0	3	100	0	50	-0.7239684	0.02031485	-149.503	
09:28:46	0	0	0	-0.3696175	-2.538851	0	3	100	0	50	-0.7260501	0.01618301	-149.5123	
09:28:47	0	0	0	-0.3696175	-2.538851	0	3	100	0	50	-0.7263753	0.03023577	-149.5105	
09:28:47	0	0	0	-0.3696175	-2.538851	0	3	100	0	50	-0.7174917	0.04437445	-149.5216	
09:28:47	0	0	0	-0.3696175	-2.538851	0	3	100	0	50	-0.7149656	0.06880294	-149.5312	
09:28:47	0	0	0	-0.4488227	-4.941026	0	3	100	0	50	-0.7016835	0.06265821	-149.5262	
09:28:48	0	0	0	-0.4488227	-4.941026	0	3	100	0	50	-0.7045828	0.05117843	-149.5319	
09:28:48	0	0	0	-0.4488227	-4.941026	0	3	100	0	50	-0.7066143	0.06463642	-149.5369	
09:28:48	0	0	0	-0.4488227	-4.941026	0	3	100	0	50	-0.7063981	0.04212369	-149.55	
09:28:48	0	0	0	-0.4488227	-4.941026	0	3	100	0	50	-0.710485	0.05379012	-149.5559	
09:28:48	0	0	0	-0.4081683	0.1428354	0	3	100	0	50	-0.7145247	0.03853198	-149.564	
09:28:49	0	0	0	-0.4081683	0.1428354	0	3	100	0	50	-0.7221954	0.02529966	-149.5703	
09:28:49	0	0	0	-0.4081683	0.1428354	0	3	100	0	50	-0.7196511	0.01562091	-149.5743	
09:28:49	0	0	0	-0.4081683	0.1428354	0	3	100	0	50	-0.7226488	0.01385861	-149.5721	
09:28:49	0	0	0	-0.4081683	0.1428354	0	3	100	0	50	-0.7167349	0.02545323	-149.5849	
09:28:49	0	0	0	-0.5226196	-4.777841	0	3	100	0	50	-0.7114314	0.01550642	-149.5763	
09:28:50	0	0	0	-0.5226196	-4.777841	0	3	100	0	50	-0.7235317	0.003287455	-149.572	
09:28:50	0	0	0	-0.5226196	-4.777841	0	3	100	0	50	-0.7281289	-0.006605032	-149.5663	
09:28:50	0	0	0	-0.5226196	-4.777841	0	3	100	0	50	-0.7282043	-0.01192858	-149.5833	
09:28:50	0	0	0	-0.5226196	-4.777841	0	3	100	0	50	-0.7331392	-0.01538449	-149.5937	
09:28:50	0	0	0	-0.4075944	2.123818	0	3	100	0	50	-0.7214545	-0.01771572	-149.6061	
09:28:51	0	0	0	-0.4075944	2.123818	0	3	100	0	50	-0.7436551	-0.0151429	-149.6024	
09:28:51	0	0	0	-0.4075944	2.123818	0	3	100	0	50	-0.7503005	-0.01434404	-149.6124	
09:28:51	0	0	0	-0.4075944	2.123818	0	3	100	0	50	-0.753492	-0.02209683	-149.6087	
09:28:51	0	0	0	-0.4075944	2.123818	0	3	100	0	50	-0.7471937	-0.04743668	-149.6109	
09:28:51	0	0	0	-0.7979444	-13.99316	0	3	100	0	50	-0.734569	-0.05164275	-149.6116	
09:28:52	0	0	0	-0.7979444	-13.99316	0	3	100	0	50	-0.7342027	-0.03292441	-149.6101	
09:28:52	0	0	0	-0.7979444	-13.99316	0	3	100	0	50	-0.7416216	-0.04313533	-149.6082	
09:28:52	0	0	0	-0.7979444	-13.99316	0	3	100	0	50	-0.7538508	-0.06792653	-149.615	
09:28:52	0	0	0	-0.7979444	-13.99316	0	3	100	0	50	-0.7555358	-0.06260177	-149.6179	
09:28:52	0	0	0	-0.738331	-5.222369	0	3	100	0	50	-0.7521478	-0.07029521	-149.6216	
09:28:53	0	0	0	-0.738331	-5.222369	0	3	100	0	50	-0.7516532	-0.05774409	-149.6158	
09:28:53	0	0	0	-0.738331	-5.222369	0	3	100	0	50	-0.7565095	-0.07830749	-149.6224	
09:28:53	0	0	0	-0.738331	-5.222369	0	3	100	0	50	-0.749254	-0.09502155	-149.6216	
09:28:53	0	0	0	-0.738331	-5.222369	0	3	100	0	50	-0.7592168	-0.1144031	-149.6166	
09:28:53	0	0	0	-0.6583124	1.249176	0	3	100	0	50	-0.7550398	-0.1297636	-149.6201	
09:28:54	0	0	0	-0.6583124	1.249176	0	3	100	0	50	-0.7523082	-0.1224274	-149.6222	
09:28:54	0	0	0	-0.6583124	1.249176	0	3	100	0	50	-0.755659	-0.1308502	-149.6141	
09:28:54	0	0	0	-0.6583124	1.249176	0	3	100	0	50	-0.7460979	-0.1149043	-149.6228	
09:28:54	0	0	0	-0.6583124	1.249176	0	3	100	0	50	-0.7392582	-0.1098096	-149.6279	
09:28:54	0	0	0	-0.5723737	5.920278	0	3	100	0	50	-0.7385541	-0.09337917	-149.6103	
09:28:55	0	0	0	-0.5723737	5.920278	0	3	100	0	50	-0.7321376	-0.07741888	-149.6044	
09:28:55	0	0	0	-0.5723737	5.920278	0	3	100	0	50	-0.7306259	-0.08237125	-149.6049	
09:28:55	0	0	0	-0.5723737	5.920278	0	3	100	0	50	-0.7325602	-0.09617378	-149.6065	
09:28:55	0	0	0	-0.5723737	5.920278	0	3	100	0	50	-0.7391249	-0.09137596	-149.5988	
09:28:55	0	0	0	-0.2735764	17.7473	0	3	100	0	50	-0.7395115	-0.07001525	-149.606	
09:28:56	0	0	0	-0.2735764	17.7473	0	3	100	0	50	-0.7419814	-0.08184616	-149.6124	
09:28:56	0	0	0	-0.2735764	17.7473	0	3	100	0	50	-0.7401628	-0.06812409	-149.6053	
09:28:56	0	0	0	-0.2735764	17.7473	0	3	100	0	50	-0.7363726	-0.05226352	-149.6004	
09:28:56	0	0	0	-0.2735764	17.7473	0	3	100	0	50	-0.7402544	-0.06517749	-149.5969	
09:28:56	0	0	0	-0.2303353	12.41466	0	3	100	0	50	-0.7379013	-0.05682277	-149.5893	
09:28:57	0	0	0	-0.2303353	12.41466	0	3	100	0	50	-0.7428064	-0.06400312	-149.594	
09:28:57	0	0	0	-0.2303353	12.41466	0	3	100	0	50	-0.7492443	-0.08097066	-149.5945	
09:28:57	0	0	0	-0.2303353	12.41466	0	3	100	0	50	-0.7543387	-0.08734779	-149.5963	
09:28:57	0	0	0	-0.2303353	12.41466	0	3	100	0	50	-0.7491306	-0.1153901	-149.5992	
09:28:57	0	0	0	-0.1734562	11.22297	0	3	100	0	50	-0.7461357	-0.1211964	-149.5941	
09:28:58	0	0	0	-0.1734562	11.22297	0	3	100	0	50	-0.7520908	-0.1259681	-149.6072	
09:28:58	0	0	0	-0.1734562	11.22297	0	3	100	0	50	-0.750603	-0.1333139	-149.6147	
09:28:58	0	0	0	-0.1734562	11.22297	0	3	100	0	50	-0.7417281	-0.1303721	-149.6086	
09:28:58	0	0	0	-0.1734562	11.22297	0	3	100	0	50	-0.7360241	-0.1094378	-149.6035	
09:28:58	0	0	0	-0.4710306	-5.483116	0	3	100	0	50	-0.7295338	-0.1028497	-149.5995	
09:28:59	0	0	0	-0.4710306	-5.483116	0	3	100	0	50	-0.7319424	-0.1143229	-149.5976	
09:28:59	0	0	0	-0.4710306	-5.483116	0	3	100	0	50	-0.7275528	-0.1163557	-149.5968	
09:28:59	0	0	0	-0.4710306	-5.483116	0	3	100	0	50	-0.7302165	-0.1051647	-149.6105	
09:28:59	0	0	0	-0.4710306	-5.483116	0	3	100	0	50	-0.730171	-0.09362078	-149.6047	
09:28:59	0	0	0	-0.502405	-5.187452	0	3	100	0	50	-0.7181396	-0.08549083	-149.6031	
09:29:00	0	0	0	-0.502405	-5.187452	0	3	100	0	50	-0.7226285	-0.08693594	-149.6003	
09:29:00	0	0	0	-0.502405	-5.187452	0	3	100	0	50	-0.7208907	-0.07817525	-149.5924	
09:29:00	0	0	0	-0.502405	-5.187452	0	3	100	0	50	-0.7141062	-0.06157966	-149.5927	
09:29:00	0	0	0	-0.502405	-5.187452	0	3	100	0	50	-0.713696	-0.06844638	-149.5826	
09:29:00	0	0	0	-0.5599439	-3.418777	0	3	100	0	50	-0.71556	-0.07756138	-149.5795	
09:29:01	0	0	0	-0.5599439	-3.418777	0	3	100	0	50	-0.7094941	-0.09656616	-149.5836	
09:29:01	0	0	0	-0.5599439	-3.418777	0	3	100	0	50	-0.7088149	-0.09836535	-149.5894	
09:29:01	0	0	0	-0.5599439	-3.418777	0	3	100	0	50	-0.7022779	-0.1087868	-149.5835	
09:29:01	0	0	0	-0.5599439	-3.418777	0	3	100	0	50	-0.6996762	-0.1058156	-149.5798	
09:29:01	0	0	0	-0.3170729	8.167109	0	3	100	0	50	-0.7054171	-0.1028764	-149.5827	
09:29:02	0	0	0	-0.3170729	8.167109	0	3	100	0	50	-0.7104915	-0.09001879	-149.5763	
09:29:02	0	0	0	-0.3170729	8.167109	0	3	100	0	50	-0.7184829	-0.07439198	-149.5801	
09:29:02	0	0	0	-0.3170729	8.167109	0	3	100	0	50	-0.717117	-0.06613477	-149.5952	
09:29:02	0	0	0	-0.3170729	8.167109	0	3	100	0	50	-0.718841	-0.05063751	-149.5873	
09:29:02	0	0	0	-0.4094889	0.7783149	0	3	100	0	50	-0.7234932	-0.05203674	-149.5899	
09:29:03	0	0	0	-0.4094889	0.7783149	0	3	100	0	50	-0.7198166	-0.03352294	-149.5851	
09:29:03	0	0	0	-0.4094889	0.7783149	0	3	100	0	50	-0.7152945	-0.03119497	-149.5947	
09:29:03	0	0	0	-0.4094889	0.7783149	0	3	100	0	50	-0.714537	-0.03510371	-149.5993	
09:29:03	0	0	0	-0.4094889	0.7783149	0	3	100	0	50	-0.7143194	-0.01514317	-149.6024	
09:29:03	0	0	0	-0.28127	6.760438	0	3	100	0	50	-0.7078589	-0.005262127	-149.6064	
09:29:04	0	0	0	-0.28127	6.760438	0	3	100	0	50	-0.7106704	-0.01548148	-149.6097	
09:29:04	0	0	0	-0.28127	6.760438	0	3	100	0	50	-0.7114935	-0.02231319	-149.6091	
09:29:04	0	0	0	-0.28127	6.760438	0	3	100	0	50	-0.7162029	-0.01998607	-149.6063	
09:29:04	0	0	0	-0.28127	6.760438	0	3	100	0	50	-0.7102172	0.005605931	-149.6149	
09:29:04	0	0	0	-0.01799553	16.0052	0	3	100	0	50	-0.7094454	-0.01405861	-149.6167	
09:29:05	0	0	0	-0.01799553	16.0052	0	3	100	0	50	-0.7125474	-0.0303532	-149.6241	
09:29:05	0	0	0	-0.01799553	16.0052	0	3	100	0	50	-0.6962211	-0.03222216	-149.6294	
09:29:05	0	0	0	-0.01799553	16.0052	0	3	100	0	50	-0.6986831	-0.0347472	-149.6394	
09:29:05	0	0	0	-0.01799553	16.0052	0	3	100	0	50	-0.6955413	-0.03522117	-149.6411	
09:29:05	0	0	0	0.08672232	14.23445	0	3	100	0	50	-0.6919178	-0.04363007	-149.6294	
09:29:06	0	0	0	0.08672232	14.23445	0	3	100	0	50	-0.6957789	-0.04044862	-149.624	
09:29:06	0	0	0	0.08672232	14.23445	0	3	100	0	50	-0.697926	-0.06166287	-149.62	
09:29:06	0	0	0	0.08672232	14.23445	0	3	100	0	50	-0.6943212	-0.07942491	-149.6318	
09:29:06	0	0	0	0.08672232	14.23445	0	3	100	0	50	-0.6910021	-0.08694707	-149.6371	
09:29:06	0	0	0	-0.01337192	4.15797	0	3	100	0	50	-0.6834423	-0.07353495	-149.6339	
09:29:07	0	0	0	-0.01337192	4.15797	0	3	100	0	50	-0.6801952	-0.05447385	-149.6218	
09:29:07	0	0	0	-0.01337192	4.15797	0	3	100	0	50	-0.6800002	-0.04667428	-149.62	
09:29:07	0	0	0	-0.01337192	4.15797	0	3	100	0	50	-0.6688101	-0.03582202	-149.6205	
09:29:07	0	0	0	-0.01337192	4.15797	0	3	100	0	50	-0.6725901	-0.0373078	-149.6075	
09:29:07	0	0	0	-0.2079303	-6.199613	0	3	100	0	50	-0.6623737	-0.02116699	-149.6104	
09:29:08	0	0	0	-0.2079303	-6.199613	0	3	100	0	50	-0.6690238	-0.02193953	-149.6095	
09:29:08	0	0	0	-0.2079303	-6.199613	0	3	100	0	50	-0.669338	-0.02005407	-149.6072	
09:29:08	0	0	0	-0.2079303	-6.199613	0	3	100	0	50	-0.6731109	-0.02550035	-149.6064	
09:29:08	0	0	0	-0.2079303	-6.199613	0	3	100	0	50	-0.6652609	-0.01148139	-149.6045	
09:29:08	0	0	0	-0.2582899	-6.651669	0	3	100	0	50	-0.6583282	-0.0113868	-149.6003	
09:29:09	0	0	0	-0.2582899	-6.651669	0	3	100	0	50	-0.654238	0.004616808	-149.6015	
09:29:09	0	0	0	-0.2582899	-6.651669	0	3	100	0	50	-0.6459969	-0.005226749	-149.6043	
09:29:09	0	0	0	-0.2582899	-6.651669	0	3	100	0	50	-0.6460226	0.03128	-149.5977	
09:29:09	0	0	0	-0.2582899	-6.651669	0	3	100	0	50	-0.6491132	0.04233433	-149.588	
09:29:09	0	0	0	-0.193568	-1.87685	0	3	100	0	50	-0.6531714	0.05639092	-149.5745	
09:29:10	0	0	0	-0.193568	-1.87685	0	3	100	0	50	-0.6569521	0.0558087	-149.5712	
09:29:10	0	0	0	-0.193568	-1.87685	0	3	100	0	50	-0.6550791	0.05649547	-149.5779	
09:29:10	0	0	0	-0.193568	-1.87685	0	3	100	0	50	-0.6516541	0.02672858	-149.5892	
09:29:10	0	0	0	-0.193568	-1.87685	0	3	100	0	50	-0.6566482	0.0353573	-149.5786	
09:29:10	0	0	0	-0.1475402	1.46191	0	3	100	0	50	-0.6608639	0.03455187	-149.576	
09:29:11	0	0	0	-0.1475402	1.46191	0	3	100	0	50	-0.6626223	0.02461472	-149.5699	
09:29:11	0	0	0	-0.1475402	1.46191	0	3	100	0	50	-0.6545975	0.0276596	-149.5647	
09:29:11	0	0	0	-0.1475402	1.46191	0	3	100	0	50	-0.6510154	0.04771821	-149.5661	
09:29:11	0	0	0	-0.1475402	1.46191	0	3	100	0	50	-0.649149	0.044297	-149.5654	
09:29:11	0	0	0	-0.1541623	1.583725	0	3	100	0	50	-0.6475613	0.03559105	-149.5792	
09:29:12	0	0	0	-0.1541623	1.583725	0	3	100	0	50	-0.6579761	0.01608712	-149.5827	
09:29:12	0	0	0	-0.1541623	1.583725	0	3	100	0	50	-0.6721663	0.004799942	-149.5805	
09:29:12	0	0	0	-0.1541623	1.583725	0	3	100	0	50	-0.6803784	0.002404226	-149.5868	
09:29:12	0	0	0	-0.1541623	1.583725	0	3	100	0	50	-0.6740409	0.005061677	-149.5804	
09:29:12	0	0	0	-0.2061039	-1.809295	0	3	100	0	50	-0.6591991	0.0248692	-149.5754	
09:29:13	0	0	0	-0.2061039	-1.809295	0	3	100	0	50	-0.6577414	0.001057452	-149.5696	
09:29:13	0	0	0	-0.2061039	-1.809295	0	3	100	0	50	-0.6576888	0.02098146	-149.5686	
09:29:13	0	0	0	-0.2061039	-1.809295	0	3	100	0	50	-0.6531844	0.02825318	-149.5573	
09:29:13	0	0	0	-0.2061039	-1.809295	0	3	100	0	50	-0.6582766	0.01920118	-149.5615	
09:29:13	0	0	0	-0.4610419	-11.31999	0	3	100	0	50	-0.663865	0.02560395	-149.5557	
09:29:14	0	0	0	-0.4610419	-11.31999	0	3	100	0	50	-0.6740745	0.01147683	-149.5509	
09:29:14	0	0	0	-0.4610419	-11.31999	0	3	100	0	50	-0.6730694	0.02498184	-149.5551	
09:29:14	0	0	0	-0.4610419	-11.31999	0	3	100	0	50	-0.6848563	0.009302024	-149.5565	
09:29:14	0	0	0	-0.4610419	-11.31999	0	3	100	0	50	-0.6867591	0.0154164	-149.5519	
09:29:14	0	0	0	-0.5248827	-9.12518	0	3	100	0	50	-0.6892766	0.007239759	-149.5482	
09:29:15	0	0	0	-0.5248827	-9.12518	0	3	100	0	50	-0.682556	-0.02027862	-149.5478	
09:29:15	0	0	0	-0.5248827	-9.12518	0	3	100	0	50	-0.6943538	-0.0398696	-149.5435	
09:29:15	0	0	0	-0.5248827	-9.12518	0	3	100	0	50	-0.6883627	-0.05892224	-149.5488	
09:29:15	0	0	0	-0.5248827	-9.12518	0	3	100	0	50	-0.6925437	-0.05684773	-149.5481	
09:29:15	0	0	0	-0.4131791	-0.5754103	0	3	100	0	50	-0.6877079	-0.07122909	-149.5541	
09:29:16	0	0	0	-0.4131791	-0.5754103	0	3	100	0	50	-0.686111	-0.07167287	-149.5526	
09:29:16	0	0	0	-0.4131791	-0.5754103	0	3	100	0	50	-0.6960022	-0.06137851	-149.555	
09:29:16	0	0	0	-0.4131791	-0.5754103	0	3	100	0	50	-0.7036412	-0.06389344	-149.5655	
09:29:16	0	0	0	-0.4131791	-0.5754103	0	3	100	0	50	-0.6984589	-0.05626824	-149.5704	
09:29:16	0	0	0	-0.3702079	1.881546	0	3	100	0	50	-0.7129306	-0.04848429	-149.5866	
09:29:17	0	0	0	-0.3702079	1.881546	0	3	100	0	50	-0.7199535	-0.0611889	-149.5958	
09:29:17	0	0	0	-0.3702079	1.881546	0	3	100	0	50	-0.7217578	-0.08383252	-149.5913	
09:29:17	0	0	0	-0.3702079	1.881546	0	3	100	0	50	-0.7275195	-0.09668857	-149.5849	
09:29:17	0	0	0	-0.3702079	1.881546	0	3	100	0	50	-0.7295644	-0.09665317	-149.5847	
09:29:17	0	0	0	-0.4388502	-3.007495	0	3	100	0	50	-0.7263134	-0.09879404	-149.5721	
09:29:18	0	0	0	-0.4388502	-3.007495	0	3	100	0	50	-0.7291972	-0.104831	-149.5724	
09:29:18	0	0	0	-0.4388502	-3.007495	0	3	100	0	50	-0.7432765	-0.1190967	-149.5743	
09:29:18	0	0	0	-0.4388502	-3.007495	0	3	100	0	50	-0.7487898	-0.1178254	-149.5867	
09:29:18	0	0	0	-0.4388502	-3.007495	0	3	100	0	50	-0.7521434	-0.112611	-149.5943	
09:29:18	0	0	0	-0.5529601	-7.216085	0	3	100	0	50	-0.7421968	-0.1193909	-149.5908	
09:29:19	0	0	0	-0.5529601	-7.216085	0	3	100	0	50	-0.7315505	-0.1310941	-149.5865	
09:29:19	0	0	0	-0.5529601	-7.216085	0	3	100	0	50	-0.7173364	-0.1407204	-149.5989	
09:29:19	0	0	0	-0.5529601	-7.216085	0	3	100	0	50	-0.7279523	-0.1638885	-149.6102	
09:29:19	0	0	0	-0.5529601	-7.216085	0	3	100	0	50	-0.7282072	-0.1741453	-149.6149	
09:29:19	0	0	0	-0.5500177	-4.275746	0	3	100	0	50	-0.7320727	-0.1887501	-149.6111	
09:29:20	0	0	0	-0.5500177	-4.275746	0	3	100	0	50	-0.7280247	-0.1873884	-149.6079	
09:29:20	0	0	0	-0.5500177	-4.275746	0	3	100	0	50	-0.7254468	-0.170803	-149.5982	
09:29:20	0	0	0	-0.5500177	-4.275746	0	3	100	0	50	-0.7192809	-0.1682381	-149.5898	
09:29:20	0	0	0	-0.5500177	-4.275746	0	3	100	0	50	-0.7222944	-0.1959093	-149.5859	
09:29:20	0	0	0	-0.4998531	-0.9999948	0	3	100	0	50	-0.7227374	-0.2133752	-149.5773	
09:29:21	0	0	0	-0.4998531	-0.9999948	0	3	100	0	50	-0.7197759	-0.2068978	-149.5672	
09:29:21	0	0	0	-0.4998531	-0.9999948	0	3	100	0	50	-0.7139202	-0.211818	-149.57	
09:29:21	0	0	0	-0.4998531	-0.9999948	0	3	100	0	50	-0.7264754	-0.1953743	-149.5663	
09:29:21	0	0	0	-0.4998531	-0.9999948	0	3	100	0	50	-0.7241291	-0.19212	-149.5611	
09:29:21	0	0	0	-0.5133664	-1.082983	0	3	100	0	50	-0.7180616	-0.1813741	-149.5615	
09:29:22	0	0	0	-0.5133664	-1.082983	0	3	100	0	50	-0.723016	-0.1615395	-149.5576	
09:29:22	0	0	0	-0.5133664	-1.082983	0	3	100	0	50	-0.7242522	-0.1436967	-149.5432	
09:29:22	0	0	0	-0.5133664	-1.082983	0	3	100	0	50	-0.7326201	-0.115413	-149.5375	
09:29:22	0	0	0	-0.5133664	-1.082983	0	3	100	0	50	-0.7427956	-0.1182777	-149.5368	
09:29:22	0	0	0	-0.7008922	-10.36301	0	3	100	0	50	-0.7307475	-0.09254712	-149.5355	
09:29:23	0	0	0	-0.7008922	-10.36301	0	3	100	0	50	-0.7434315	-0.07444468	-149.5273	
09:29:23	0	0	0	-0.7008922	-10.36301	0	3	100	0	50	-0.7470679	-0.0802978	-149.5383	
09:29:23	0	0	0	-0.7008922	-10.36301	0	3	100	0	50	-0.7593392	-0.08202635	-149.5347	
09:29:23	0	0	0	-0.7008922	-10.36301	0	3	100	0	50	-0.754271	-0.07032198	-149.5477	
09:29:23	0	0	0	-0.8639103	-12.61441	0	3	100	0	50	-0.7489226	-0.0400489	-149.5482	
09:29:24	0	0	0	-0.8639103	-12.61441	0	3	100	0	50	-0.7511041	-0.058185	-149.5541	
09:29:24	0	0	0	-0.8639103	-12.61441	0	3	100	0	50	-0.7305456	-0.06341679	-149.5553	
09:29:24	0	0	0	-0.8639103	-12.61441	0	3	100	0	50	-0.7181067	-0.04751517	-149.5541	
09:29:24	0	0	0	-0.8639103	-12.61441	0	3	100	0	50	-0.7180392	-0.03007973	-149.5604	
09:29:24	0	0	0	-0.9502035	-11.18182	0	3	100	0	50	-0.69969	-0.02304367	-149.558	
09:29:25	0	0	0	-0.9502035	-11.18182	0	3	100	0	50	-0.7173014	-0.03188407	-149.549	
09:29:25	0	0	0	-0.9502035	-11.18182	0	3	100	0	50	-0.7224222	-0.04264433	-149.5573	
09:29:25	0	0	0	-0.9502035	-11.18182	0	3	100	0	50	-0.7247479	-0.0564008	-149.5659	
09:29:25	0	0	0	-0.9502035	-11.18182	0	3	100	0	50	-0.72286	-0.06955203	-149.5723	
09:29:25	0	0	0	-0.8053691	-0.4055633	0	3	100	0	50	-0.7364693	-0.07484843	-149.5723	
09:29:26	0	0	0	-0.8053691	-0.4055633	0	3	100	0	50	-0.7549418	-0.08011802	-149.5789	
09:29:26	0	0	0	-0.8053691	-0.4055633	0	3	100	0	50	-0.7521914	-0.09170674	-149.5705	
09:29:26	0	0	0	-0.8053691	-0.4055633	0	3	100	0	50	-0.7433088	-0.1063416	-149.576	
09:29:26	0	0	0	-0.8053691	-0.4055633	0	3	100	0	50	-0.7341787	-0.09781522	-149.5728	
09:29:26	0	0	0	-0.7538718	1.236267	0	3	100	0	50	-0.7344137	-0.1044275	-149.5669	
09:29:27	0	0	0	-0.7538718	1.236267	0	3	100	0	50	-0.730874	-0.1009548	-149.5698	
09:29:27	0	0	0	-0.7538718	1.236267	0	3	100	0	50	-0.7122831	-0.1035898	-149.5626	
09:29:27	0	0	0	-0.7538718	1.236267	0	3	100	0	50	-0.7053754	-0.08917113	-149.5625	
09:29:27	0	0	0	-0.7538718	1.236267	0	3	100	0	50	-0.7027131	-0.09108804	-149.558	
09:29:27	0	0	0	-0.6526684	5.414107	0	3	100	0	50	-0.6944063	-0.07380889	-149.5678	
09:29:28	0	0	0	-0.6526684	5.414107	0	3	100	0	50	-0.6772257	-0.06861801	-149.5623	
09:29:28	0	0	0	-0.6526684	5.414107	0	3	100	0	50	-0.6756111	-0.05003677	-149.555	
09:29:28	0	0	0	-0.6526684	5.414107	0	3	100	0	50	-0.6691386	-0.03964114	-149.5492	
09:29:28	0	0	0	-0.6526684	5.414107	0	3	100	0	50	-0.6549653	-0.03597218	-149.5324	
09:29:28	0	0	0	-0.5178621	9.685508	0	3	100	0	50	-0.6576845	-0.08903696	-149.5239	
09:29:29	0	0	0	-0.5178621	9.685508	0	3	100	0	50	-0.6627714	-0.1084881	-149.5228	
09:29:29	0	0	0	-0.5178621	9.685508	0	3	100	0	50	-0.6636417	-0.104281	-149.5214	
09:29:29	0	0	0	-0.5178621	9.685508	0	3	100	0	50	-0.6623673	-0.09076309	-149.522	
09:29:29	0	0	0	-0.5178621	9.685508	0	3	100	0	50	-0.6623706	-0.09655134	-149.5183	
09:29:29	0	0	0	-0.2579643	17.54053	0	3	100	0	50	-0.678093	-0.08664541	-149.5206	
09:29:30	0	0	0	-0.2579643	17.54053	0	3	100	0	50	-0.6896845	-0.08878795	-149.5158	
09:29:30	0	0	0	-0.2579643	17.54053	0	3	100	0	50	-0.6724355	-0.06127697	-149.5029	
09:29:30	0	0	0	-0.2579643	17.54053	0	3	100	0	50	-0.6740397	-0.05709721	-149.4998	
09:29:30	0	0	0	-0.2579643	17.54053	0	3	100	0	50	-0.6694975	-0.03943073	-149.5006	
09:29:30	0	0	0	-0.08834052	18.36063	0	3	100	0	50	-0.6740289	-0.02581923	-149.5016	
09:29:31	0	0	0	-0.08834052	18.36063	0	3	100	0	50	-0.6701549	-0.007704641	-149.5083	
09:29:31	0	0	0	-0.08834052	18.36063	0	3	100	0	50	-0.662495	-0.01004803	-149.5035	
09:29:31	0	0	0	-0.08834052	18.36063	0	3	100	0	50	-0.6607799	0.01519573	-149.5078	
09:29:31	0	0	0	-0.08834052	18.36063	0	3	100	0	50	-0.6538271	0.02875122	-149.5095	
09:29:31	0	0	0	-0.1647708	7.646591	0	3	100	0	50	-0.6634251	0.03483642	-149.5045	
09:29:32	0	0	0	-0.1647708	7.646591	0	3	100	0	50	-0.6605919	0.0474618	-149.4986	
09:29:32	0	0	0	-0.1647708	7.646591	0	3	100	0	50	-0.6716806	0.03781049	-149.497	
09:29:32	0	0	0	-0.1647708	7.646591	0	3	100	0	50	-0.6640006	0.04213814	-149.501	
09:29:32	0	0	0	-0.1647708	7.646591	0	3	100	0	50	-0.668953	0.03831467	-149.4971	
09:29:32	0	0	0	-0.1433862	5.561067	0	3	100	0	50	-0.6592626	0.06200145	-149.4977	
09:29:33	0	0	0	-0.1433862	5.561067	0	3	100	0	50	-0.6626131	0.074098	-149.4886	
09:29:33	0	0	0	-0.1433862	5.561067	0	3	100	0	50	-0.6602105	0.09699547	-149.4969	
09:29:33	0	0	0	-0.1433862	5.561067	0	3	100	0	50	-0.65464	0.093928	-149.4904	
09:29:33	0	0	0	-0.1433862	5.561067	0	3	100	0	50	-0.6523129	0.08862796	-149.497	
09:29:33	0	0	0	-0.2621691	-1.686954	0	3	100	0	50	-0.6465796	0.0742004	-149.4957	
09:29:34	0	0	0	-0.2621691	-1.686954	0	3	100	0	50	-0.6645342	0.0556526	-149.497	
09:29:34	0	0	0	-0.2621691	-1.686954	0	3	100	0	50	-0.6675919	0.04266865	-149.4992	
09:29:34	0	0	0	-0.2621691	-1.686954	0	3	100	0	50	-0.6689376	0.04813997	-149.4986	
09:29:34	0	0	0	-0.2621691	-1.686954	0	3	100	0	50	-0.6687962	0.06116323	-149.4979	
09:29:34	0	0	0	-0.2437123	0.194718	0	3	100	0	50	-0.6670362	0.0611993	-149.4992	
09:29:35	0	0	0	-0.2437123	0.194718	0	3	100	0	50	-0.6532796	0.04656306	-149.5041	
09:29:35	0	0	0	-0.2437123	0.194718	0	3	100	0	50	-0.6648621	0.02945484	-149.5048	
09:29:35	0	0	0	-0.2437123	0.194718	0	3	100	0	50	-0.6583641	0.0393476	-149.5007	
09:29:35	0	0	0	-0.2437123	0.194718	0	3	100	0	50	-0.6589215	0.04718017	-149.4983	
09:29:36	0	0	0	-0.2420343	0.3341215	0	3	100	0	50	-0.6610915	0.04755419	-149.4976	
09:29:36	0	0	0	-0.2420343	0.3341215	0	3	100	0	50	-0.6700763	0.06115984	-149.4952	
09:29:36	0	0	0	-0.2420343	0.3341215	0	3	100	0	50	-0.6689638	0.05927444	-149.4941	
09:29:36	0	0	0	-0.2420343	0.3341215	0	3	100	0	50	-0.6565767	0.07759319	-149.496	
09:29:36	0	0	0	-0.2420343	0.3341215	0	3	100	0	50	-0.6629055	0.04092668	-149.5072	
09:29:36	0	0	0	-0.2735209	-1.371404	0	3	100	0	50	-0.6681302	0.01445439	-149.5177	
09:29:37	0	0	0	-0.2735209	-1.371404	0	3	100	0	50	-0.6694814	0.01220611	-149.5236	
09:29:37	0	0	0	-0.2735209	-1.371404	0	3	100	0	50	-0.6679958	0.01239727	-149.5251	
09:29:37	0	0	0	-0.2735209	-1.371404	0	3	100	0	50	-0.6716245	0.006262563	-149.529	
09:29:37	0	0	0	-0.2735209	-1.371404	0	3	100	0	50	-0.6723497	-0.0005071682	-149.5313	
09:29:37	0	0	0	-0.6149189	-14.86458	0	3	100	0	50	-0.6732635	-0.01077324	-149.5378	
09:29:38	0	0	0	-0.6149189	-14.86458	0	3	100	0	50	-0.6643508	-0.003403115	-149.5353	
09:29:38	0	0	0	-0.6149189	-14.86458	0	3	100	0	50	-0.669586	-0.01323141	-149.5335	
09:29:38	0	0	0	-0.6149189	-14.86458	0	3	100	0	50	-0.6713312	-0.02547994	-149.5353	
09:29:38	0	0	0	-0.6149189	-14.86458	0	3	100	0	50	-0.6833704	-0.04136141	-149.5446	
09:29:38	0	0	0	-0.5127835	-3.991987	0	3	100	0	50	-0.6755509	-0.04544645	-149.5483	
09:29:39	0	0	0	-0.5127835	-3.991987	0	3	100	0	50	-0.6678503	-0.03612921	-149.558	
09:29:39	0	0	0	-0.5127835	-3.991987	0	3	100	0	50	-0.6626636	-0.05710679	-149.5598	
09:29:39	0	0	0	-0.5127835	-3.991987	0	3	100	0	50	-0.666239	-0.08067326	-149.555	
09:29:39	0	0	0	-0.5127835	-3.991987	0	3	100	0	50	-0.6720088	-0.08324228	-149.5449	
09:29:39	0	0	0	-0.6063318	-7.596968	0	3	100	0	50	-0.6719996	-0.09952672	-149.5482	
09:29:40	0	0	0	-0.6063318	-7.596968	0	3	100	0	50	-0.6676851	-0.0747876	-149.5507	
09:29:40	0	0	0	-0.6063318	-7.596968	0	3	100	0	50	-0.6635876	-0.06818964	-149.5484	
09:29:40	0	0	0	-0.6063318	-7.596968	0	3	100	0	50	-0.6618967	-0.07373544	-149.5419	
09:29:40	0	0	0	-0.6063318	-7.596968	0	3	100	0	50	-0.6637476	-0.09203431	-149.5346	
09:29:40	0	0	0	-0.5929056	-4.392542	0	3	100	0	50	-0.6702396	-0.08577199	-149.5331	
09:29:41	0	0	0	-0.5929056	-4.392542	0	3	100	0	50	-0.6796771	-0.08483139	-149.5376	
09:29:41	0	0	0	-0.5929056	-4.392542	0	3	100	0	50	-0.6808223	-0.07764927	-149.526	
09:29:41	0	0	0	-0.5929056	-4.392542	0	3	100	0	50	-0.6870632	-0.07558596	-149.5231	
09:29:41	0	0	0	-0.5929056	-4.392542	0	3	100	0	50	-0.6801693	-0.09075447	-149.5168	
09:29:41	0	0	0	-0.6176808	-2.689672	0	3	100	0	50	-0.6772294	-0.1173242	-149.504	
09:29:42	0	0	0	-0.6176808	-2.689672	0	3	100	0	50	-0.6911427	-0.1125824	-149.4923	
09:29:42	0	0	0	-0.6176808	-2.689672	0	3	100	0	50	-0.6973854	-0.1060062	-149.5005	
09:29:42	0	0	0	-0.6176808	-2.689672	0	3	100	0	50	-0.6995953	-0.0823281	-149.5026	
09:29:42	0	0	0	-0.6176808	-2.689672	0	3	100	0	50	-0.7095751	-0.07047357	-149.5067	
09:29:42	0	0	0	-0.5168051	3.135622	0	3	100	0	50	-0.6993095	-0.05630783	-149.5024	
09:29:43	0	0	0	-0.5168051	3.135622	0	3	100	0	50	-0.6951737	-0.03119731	-149.4931	
09:29:43	0	0	0	-0.5168051	3.135622	0	3	100	0	50	-0.6955134	-0.03357433	-149.4968	
09:29:43	0	0	0	-0.5168051	3.135622	0	3	100	0	50	-0.6967437	-0.06567047	-149.4927	
09:29:43	0	0	0	-0.5168051	3.135622	0	3	100	0	50	-0.6981103	-0.0605003	-149.4959	
09:29:43	0	0	0	-0.3326605	10.07015	0	3	100	0	50	-0.7119156	-0.05956538	-149.5063	
09:29:44	0	0	0	-0.3326605	10.07015	0	3	100	0	50	-0.71157	-0.04364207	-149.521	
09:29:44	0	0	0	-0.3326605	10.07015	0	3	100	0	50	-0.716608	-0.06561264	-149.5159	
09:29:44	0	0	0	-0.3326605	10.07015	0	3	100	0	50	-0.7168939	-0.05918605	-149.5222	
09:29:44	0	0	0	-0.3326605	10.07015	0	3	100	0	50	-0.7199447	-0.05660152	-149.5189	
09:29:44	0	0	0	-0.4172946	3.552759	0	3	100	0	50	-0.712082	-0.05247122	-149.528	
09:29:45	0	0	0	-0.4172946	3.552759	0	3	100	0	50	-0.721502	-0.04678578	-149.5419	
09:29:45	0	0	0	-0.4172946	3.552759	0	3	100	0	50	-0.7331605	-0.0615013	-149.5394	
09:29:45	0	0	0	-0.4172946	3.552759	0	3	100	0	50	-0.7383317	-0.09228516	-149.5365	
09:29:45	0	0	0	-0.4172946	3.552759	0	3	100	0	50	-0.7365419	-0.08982948	-149.534	
09:29:45	0	0	0	-0.4237426	2.018934	0	3	100	0	50	-0.7317024	-0.07918262	-149.5396	
09:29:46	0	0	0	-0.4237426	2.018934	0	3	100	0	50	-0.7378547	-0.09325106	-149.5384	
09:29:46	0	0	0	-0.4237426	2.018934	0	3	100	0	50	-0.7395352	-0.05065731	-149.5413	
09:29:46	0	0	0	-0.4237426	2.018934	0	3	100	0	50	-0.7436932	-0.04455017	-149.5456	
09:29:46	0	0	0	-0.4237426	2.018934	0	3	100	0	50	-0.7443325	-0.05295976	-149.549	
09:29:46	0	0	0	-0.6711309	-9.10707	0	3	100	0	50	-0.7539086	-0.05410853	-149.5667	
09:29:47	0	0	0	-0.6711309	-9.10707	0	3	100	0	50	-0.7602191	-0.08129854	-149.5806	
09:29:47	0	0	0	-0.6711309	-9.10707	0	3	100	0	50	-0.7577675	-0.08293682	-149.5865	
09:29:47	0	0	0	-0.6711309	-9.10707	0	3	100	0	50	-0.7564375	-0.08414289	-149.5932	
09:29:47	0	0	0	-0.6711309	-9.10707	0	3	100	0	50	-0.7707677	-0.05872896	-149.5902	
09:29:47	0	0	0	-0.410522	4.305154	0	3	100	0	50	-0.7726706	-0.04752685	-149.5955	
09:29:48	0	0	0	-0.410522	4.305154	0	3	100	0	50	-0.7701145	-0.03290835	-149.5928	
09:29:48	0	0	0	-0.410522	4.305154	0	3	100	0	50	-0.7689009	-0.03770988	-149.5898	
09:29:48	0	0	0	-0.410522	4.305154	0	3	100	0	50	-0.77108	-0.03378876	-149.5956	
09:29:48	0	0	0	-0.410522	4.305154	0	3	100	0	50	-0.7663452	-0.0523212	-149.6066	
09:29:48	0	0	0	-0.3252233	5.459542	0	3	100	0	50	-0.7631266	-0.07068183	-149.6157	
09:29:49	0	0	0	-0.3252233	5.459542	0	3	100	0	50	-0.7738672	-0.08701946	-149.6249	
09:29:49	0	0	0	-0.3252233	5.459542	0	3	100	0	50	-0.7603835	-0.09044866	-149.6328	
09:29:49	0	0	0	-0.3252233	5.459542	0	3	100	0	50	-0.7626249	-0.0958543	-149.64	
09:29:49	0	0	0	-0.3252233	5.459542	0	3	100	0	50	-0.7497892	-0.09116506	-149.65	
09:29:49	0	0	0	-0.2928126	3.734193	0	3	100	0	50	-0.7570092	-0.1091028	-149.6573	
09:29:50	0	0	0	-0.2928126	3.734193	0	3	100	0	50	-0.7669643	-0.1114069	-149.662	
09:29:50	0	0	0	-0.2928126	3.734193	0	3	100	0	50	-0.7557472	-0.1047235	-149.6631	
09:29:50	0	0	0	-0.2928126	3.734193	0	3	100	0	50	-0.7499034	-0.07738644	-149.674	
09:29:50	0	0	0	-0.2928126	3.734193	0	3	100	0	50	-0.7527221	-0.07581063	-149.6594	
09:29:50	0	0	0	-0.5548235	-9.458787	0	3	100	0	50	-0.741212	-0.04722987	-149.6412	
09:29:51	0	0	0	-0.5548235	-9.458787	0	3	100	0	50	-0.7328847	-0.05006333	-149.6411	
09:29:51	0	0	0	-0.5548235	-9.458787	0	3	100	0	50	-0.7278051	-0.05369839	-149.6449	
09:29:51	0	0	0	-0.5548235	-9.458787	0	3	100	0	50	-0.7344115	-0.04164905	-149.6292	
09:29:51	0	0	0	-0.5548235	-9.458787	0	3	100	0	50	-0.7387377	-0.04385472	-149.6304	
09:29:51	0	0	0	-0.5628589	-5.079281	0	3	100	0	50	-0.7319744	-0.0299884	-149.6279	
09:29:52	0	0	0	-0.5628589	-5.079281	0	3	100	0	50	-0.7264964	-0.007885985	-149.6364	
09:29:52	0	0	0	-0.5628589	-5.079281	0	3	100	0	50	-0.7333025	-0.0407523	-149.636	
09:29:52	0	0	0	-0.5628589	-5.079281	0	3	100	0	50	-0.7205251	-0.05042657	-149.625	
09:29:52	0	0	0	-0.5628589	-5.079281	0	3	100	0	50	-0.7071905	-0.06210698	-149.6101	
09:29:53	0	0	0	-0.5135428	-0.9565431	0	3	100	0	50	-0.7002785	-0.07052708	-149.6105	
09:29:53	0	0	0	-0.5135428	-0.9565431	0	3	100	0	50	-0.7097164	-0.07404877	-149.6139	
09:29:53	0	0	0	-0.5135428	-0.9565431	0	3	100	0	50	-0.7162945	-0.06503166	-149.6024	
09:29:53	0	0	0	-0.5135428	-0.9565431	0	3	100	0	50	-0.7228595	-0.05538379	-149.5963	
09:29:53	0	0	0	-0.5135428	-0.9565431	0	3	100	0	50	-0.726953	-0.05634098	-149.5926	
09:29:53	0	0	0	-0.2768964	9.330137	0	3	100	0	50	-0.7297643	-0.05264236	-149.5963	
09:29:54	0	0	0	-0.2768964	9.330137	0	3	100	0	50	-0.7505027	-0.06763716	-149.5993	
09:29:54	0	0	0	-0.2768964	9.330137	0	3	100	0	50	-0.7581496	-0.08280551	-149.5991	
09:29:54	0	0	0	-0.2768964	9.330137	0	3	100	0	50	-0.7699801	-0.0683737	-149.6027	
09:29:54	0	0	0	-0.2768964	9.330137	0	3	100	0	50	-0.7645071	-0.08092964	-149.598	
09:29:55	0	0	0	-0.4254002	-1.138777	0	3	100	0	50	-0.7578753	-0.1010165	-149.5994	
09:29:55	0	0	0	-0.4254002	-1.138777	0	3	100	0	50	-0.7500986	-0.09941171	-149.6077	
09:29:55	0	0	0	-0.4254002	-1.138777	0	3	100	0	50	-0.7410999	-0.1316962	-149.6111	
09:29:55	0	0	0	-0.4254002	-1.138777	0	3	100	0	50	-0.7403781	-0.1587961	-149.6289	
09:29:55	0	0	0	-0.4254002	-1.138777	0	3	100	0	50	-0.7400181	-0.1577284	-149.6341	
09:29:56	0	0	0	-0.4893053	-4.133616	0	3	100	0	50	-0.7462416	-0.1451962	-149.6385	
09:29:56	0	0	0	-0.4893053	-4.133616	0	3	100	0	50	-0.7402288	-0.1372178	-149.6311	
09:29:56	0	0	0	-0.4893053	-4.133616	0	3	100	0	50	-0.7451965	-0.1218461	-149.6271	
09:29:56	0	0	0	-0.4893053	-4.133616	0	3	100	0	50	-0.7449135	-0.1178339	-149.6163	
09:29:56	0	0	0	-0.4893053	-4.133616	0	3	100	0	50	-0.7486913	-0.1133885	-149.6168	
09:29:57	0	0	0	-0.4574468	-1.77193	0	3	100	0	50	-0.750396	-0.1005884	-149.6198	
09:29:57	0	0	0	-0.4574468	-1.77193	0	3	100	0	50	-0.7392984	-0.06192725	-149.6064	
09:29:57	0	0	0	-0.4574468	-1.77193	0	3	100	0	50	-0.7334136	-0.06400195	-149.5999	
09:29:57	0	0	0	-0.4574468	-1.77193	0	3	100	0	50	-0.7272217	-0.06177376	-149.6054	
09:29:57	0	0	0	-0.4574468	-1.77193	0	3	100	0	50	-0.7254472	-0.04408213	-149.6013	
09:29:58	0	0	0	-0.5111992	-3.250598	0	3	100	0	50	-0.7278836	-0.04473728	-149.6011	
09:29:58	0	0	0	-0.5111992	-3.250598	0	3	100	0	50	-0.7226298	-0.0524416	-149.6009	
09:29:58	0	0	0	-0.5111992	-3.250598	0	3	100	0	50	-0.7167702	-0.06635817	-149.6104	
09:29:58	0	0	0	-0.5111992	-3.250598	0	3	100	0	50	-0.7236952	-0.08646739	-149.6056	
09:29:58	0	0	0	-0.5111992	-3.250598	0	3	100	0	50	-0.7050016	-0.1000667	-149.607	
09:29:59	0	0	0	-0.453209	-2.564277	0	3	100	0	50	-0.6996813	-0.08612454	-149.6051	
09:29:59	0	0	0	-0.453209	-2.564277	0	3	100	0	50	-0.6908258	-0.07321198	-149.6123	
09:29:59	0	0	0	-0.453209	-2.564277	0	3	100	0	50	-0.6888822	-0.06452028	-149.6014	
09:29:59	0	0	0	-0.453209	-2.564277	0	3	100	0	50	-0.6932825	-0.04340608	-149.5939	
09:29:59	0	0	0	-0.453209	-2.564277	0	3	100	0	50	-0.6792094	-0.02247476	-149.588	
09:30:00	0	0	0	-0.4075004	-1.612031	0	3	100	0	50	-0.670386	-0.03811032	-149.5887	
09:30:00	0	0	0	-0.4075004	-1.612031	0	3	100	0	50	-0.6587585	-0.04324966	-149.582	
09:30:00	0	0	0	-0.4075004	-1.612031	0	3	100	0	50	-0.6543437	-0.04463429	-149.5707	
09:30:00	0	0	0	-0.4075004	-1.612031	0	3	100	0	50	-0.6567523	-0.03362265	-149.56	
09:30:00	0	0	0	-0.4075004	-1.612031	0	3	100	0	50	-0.6676351	-0.0223642	-149.5666	
09:30:01	0	0	0	-0.6956672	-13.50922	0	3	100	0	50	-0.6724968	-0.03394417	-149.5708	
09:30:01	0	0	0	-0.6956672	-13.50922	0	3	100	0	50	-0.6622047	-0.007240107	-149.5697	
09:30:01	0	0	0	-0.6956672	-13.50922	0	3	100	0	50	-0.6553066	0.01154681	-149.5585	
09:30:01	0	0	0	-0.6956672	-13.50922	0	3	100	0	50	-0.6605032	0.0314388	-149.5604	
09:30:01	0	0	0	-0.6956672	-13.50922	0	3	100	0	50	-0.6591168	0.04251832	-149.5719	
09:30:02	0	0	0	-1.00748	-21.33573	0	3	100	0	50	-0.6655962	0.03450804	-149.581	
09:30:02	0	0	0	-1.00748	-21.33573	0	3	100	0	50	-0.6684322	0.02271286	-149.5787	
09:30:02	0	0	0	-1.00748	-21.33573	0	3	100	0	50	-0.6647274	0.03116111	-149.5769	
09:30:02	0	0	0	-1.00748	-21.33573	0	3	100	0	50	-0.6590582	0.03122101	-149.5881	
09:30:02	0	0	0	-1.00748	-21.33573	0	3	100	0	50	-0.6465374	0.04435766	-149.5823	
09:30:03	0	0	0	-0.8964956	-6.382542	0	3	100	0	50	-0.6433917	0.02646495	-149.5655	
09:30:03	0	0	0	-0.8964956	-6.382542	0	3	100	0	50	-0.6396365	0.01638362	-149.564	
09:30:03	0	0	0	-0.8964956	-6.382542	0	3	100	0	50	-0.6358325	0.04163003	-149.5743	
09:30:03	0	0	0	-0.8964956	-6.382542	0	3	100	0	50	-0.6391627	0.04476509	-149.5712	
09:30:03	0	0	0	-0.8964956	-6.382542	0	3	100	0	50	-0.6509139	0.05984147	-149.5691	
09:30:04	0	0	0	-0.498142	13.25359	0	3	100	0	100	-0.6607807	0.05507293	-149.5699	
09:30:04	0	0	0	-0.498142	13.25359	0	3	100	0	100	-0.6535886	0.04747923	-149.5609	
09:30:04	0	0	0	-0.498142	13.25359	0	3	100	0	100	-0.658047	0.01986403	-149.5577	
09:30:04	0	0	0	-0.498142	13.25359	0	3	100	0	100	-0.6723673	0.01080363	-149.5564	
09:30:04	0	0	0	-0.498142	13.25359	0	3	100	0	100	-0.6710347	0.007493144	-149.5491	
09:30:05	0	0	0	-0.47033	8.827569	0	3	100	0	100	-0.6714547	0.02397348	-149.5387	
09:30:05	0	0	0	-0.47033	8.827569	0	3	100	0	100	-0.6804404	0.02644777	-149.5389	
09:30:05	0	0	0	-0.47033	8.827569	0	3	100	0	100	-0.69214	0.04190843	-149.536	
09:30:05	0	0	0	-0.47033	8.827569	0	3	100	0	100	-0.7038658	0.03539767	-149.539	
09:30:05	0	0	0	-0.47033	8.827569	0	3	100	0	100	-0.6925881	0.05406626	-149.5371	
09:30:06	0	0	0	-0.508651	4.997806	0	3	100	0	100	-0.6849593	0.06496757	-149.5395	
09:30:06	0	0	0	-0.508651	4.997806	0	3	100	0	100	-0.6843458	0.06663731	-149.5393	
09:30:06	0	0	0	-0.508651	4.997806	0	3	100	0	100	-0.6855153	0.07158931	-149.5297	
09:30:06	0	0	0	-0.508651	4.997806	0	3	100	0	100	-0.679777	0.06327835	-149.5262	
09:30:06	0	0	0	-0.508651	4.997806	0	3	100	0	100	-0.6870968	0.05921198	-149.5271	
09:30:07	0	0	0	-0.4827543	4.37641	0	3	100	0	4	-0.6807799	0.08163599	-149.5309	
09:30:07	0	0	0	-0.4827543	4.37641	0	3	100	0	4	-0.6810973	0.07383385	-149.5297	
09:30:07	0	0	0	-0.4827543	4.37641	0	3	100	0	4	-0.6842145	0.06904645	-149.5264	
09:30:07	0	0	0	-0.4827543	4.37641	0	3	100	0	4	-0.6871185	0.05967492	-149.5179	
09:30:07	0	0	0	-0.4827543	4.37641	0	3	100	0	4	-0.6695725	0.05278896	-149.5186	
09:30:08	0	0	0	-0.3752532	7.331254	0	3	100	0	4	-0.6619976	0.04669771	-149.5263	
09:30:08	0	0	0	-0.3752532	7.331254	0	3	100	0	4	-0.6510196	0.04183168	-149.5309	
09:30:08	0	0	0	-0.3752532	7.331254	0	3	100	0	4	-0.6476826	0.05647962	-149.5312	
09:30:08	0	0	0	-0.3752532	7.331254	0	3	100	0	4	-0.6480992	0.05375316	-149.5296	
09:30:08	0	0	0	-0.3752532	7.331254	0	3	100	0	4	-0.6530628	0.04384412	-149.5222	
09:30:09	0	0	0	-0.2599885	10.8412	0	3	100	0	4	-0.6567376	0.05358489	-149.534	
09:30:09	0	0	0	-0.2599885	10.8412	0	3	100	0	4	-0.6636854	0.06516882	-149.5258	
09:30:09	0	0	0	-0.2599885	10.8412	0	3	100	0	4	-0.6678252	0.07692961	-149.537	
09:30:09	0	0	0	-0.2599885	10.8412	0	3	100	0	4	-0.6647121	0.07712775	-149.535	
09:30:09	0	0	0	-0.2599885	10.8412	0	3	100	0	4	-0.6756034	0.08288553	-149.543	
09:30:10	0	0	0	-0.3984608	-0.100816	0	3	100	0	4	-0.6815535	0.08560157	-149.5272	
09:30:10	0	0	0	-0.3984608	-0.100816	0	3	100	0	4	-0.6929187	0.08959822	-149.5304	
09:30:10	0	0	0	-0.3984608	-0.100816	0	3	100	0	4	-0.7004202	0.09053184	-149.5271	
09:30:10	0	0	0	-0.3984608	-0.100816	0	3	100	0	4	-0.6983073	0.09125954	-149.5447	
09:30:10	0	0	0	-0.3984608	-0.100816	0	3	100	0	4	-0.7008474	0.06002044	-149.5506	
09:30:11	0	0	0	-0.480521	-2.811179	0	3	100	0	4	-0.6972684	0.04958791	-149.5472	
09:30:11	0	0	0	-0.480521	-2.811179	0	3	100	0	4	-0.697982	0.03029432	-149.545	
09:30:11	0	0	0	-0.480521	-2.811179	0	3	100	0	4	-0.7099012	0.02063934	-149.5506	
09:30:11	0	0	0	-0.480521	-2.811179	0	3	100	0	4	-0.7060287	0.01999759	-149.5468	
09:30:11	0	0	0	-0.480521	-2.811179	0	3	100	0	4	-0.7100032	0.03199724	-149.5392	
09:30:12	0	0	0	-0.5847569	-7.15462	0	3	100	0	4	-0.7176824	0.02266222	-149.5301	
09:30:12	0	0	0	-0.5847569	-7.15462	0	3	100	0	4	-0.7274749	0.00062056	-149.5181	
09:30:12	0	0	0	-0.5847569	-7.15462	0	3	100	0	4	-0.7318071	0.008882338	-149.5213	
09:30:12	0	0	0	-0.5847569	-7.15462	0	3	100	0	4	-0.7345751	0.01755858	-149.5204	
09:30:12	0	0	0	-0.5847569	-7.15462	0	3	100	0	4	-0.7268482	0.04291695	-149.521	
09:30:13	0	0	0	-0.3700721	5.427649	0	3	100	0	4	-0.7291936	0.04115336	-149.5253	
09:30:13	0	0	0	-0.3700721	5.427649	0	3	100	0	4	-0.7373843	0.02860227	-149.5357	
09:30:13	0	0	0	-0.3700721	5.427649	0	3	100	0	4	-0.7469237	0.01448043	-149.5247	
09:30:13	0	0	0	-0.3700721	5.427649	0	3	100	0	4	-0.748714	0.01355456	-149.526	
09:30:13	0	0	0	-0.3700721	5.427649	0	3	100	0	4	-0.7305655	0.011486	-149.5256	
09:30:14	0	0	0	-0.2976883	4.676463	0	3	100	0	4	-0.7353306	0.008400733	-149.5417	
09:30:14	0	0	0	-0.2976883	4.676463	0	3	100	0	4	-0.7410094	0.01985394	-149.5474	
09:30:14	0	0	0	-0.2976883	4.676463	0	3	100	0	4	-0.7275824	0.01524293	-149.5581	
09:30:14	0	0	0	-0.2976883	4.676463	0	3	100	0	4	-0.7178097	0.02046295	-149.5489	
09:30:14	0	0	0	-0.2976883	4.676463	0	3	100	0	4	-0.7245508	0.0237383	-149.5394	
09:30:15	0	0	0	-0.3379749	1.940308	0	3	100	0	4	-0.718447	0.01628755	-149.5374	
09:30:15	0	0	0	-0.3379749	1.940308	0	3	100	0	4	-0.7126464	-0.005752994	-149.5435	
09:30:15	0	0	0	-0.3379749	1.940308	0	3	100	0	4	-0.7044303	0.009115821	-149.5462	
09:30:15	0	0	0	-0.3379749	1.940308	0	3	100	0	4	-0.7070425	0.0105738	-149.5535	
09:30:15	0	0	0	-0.3379749	1.940308	0	3	100	0	4	-0.7076302	0.02476466	-149.5585	
09:30:16	0	0	0	-0.4158383	-2.188891	0	3	100	0	4	-0.7183539	0.008940157	-149.5519	
09:30:16	0	0	0	-0.4158383	-2.188891	0	3	100	0	4	-0.7151208	0.02016555	-149.5512	
09:30:16	0	0	0	-0.4158383	-2.188891	0	3	100	0	4	-0.7038454	0.02033796	-149.5538	
09:30:16	0	0	0	-0.4158383	-2.188891	0	3	100	0	4	-0.7024596	0.01710498	-149.5529	
09:30:16	0	0	0	-0.4158383	-2.188891	0	3	100	0	4	-0.6957272	0.02503443	-149.5454	
09:30:17	0	0	0	-0.7062453	-14.68677	0	3	100	0	4	-0.6924726	0.02889981	-149.5532	
09:30:17	0	0	0	-0.7062453	-14.68677	0	3	100	0	4	-0.6983652	0.006804763	-149.5524	
09:30:17	0	0	0	-0.7062453	-14.68677	0	3	100	0	4	-0.6964065	-0.003034205	-149.5553	
09:30:17	0	0	0	-0.7062453	-14.68677	0	3	100	0	4	-0.6888193	-0.004813735	-149.5468	
09:30:17	0	0	0	-0.7062453	-14.68677	0	3	100	0	4	-0.6842426	-0.002799417	-149.5485	
09:30:18	0	0	0	-0.8590631	-15.47792	0	3	100	0	4	-0.6814645	-0.008637414	-149.5369	
09:30:18	0	0	0	-0.8590631	-15.47792	0	3	100	0	4	-0.6821535	0.003523844	-149.5398	
09:30:18	0	0	0	-0.8590631	-15.47792	0	3	100	0	4	-0.6864665	0.01441223	-149.5441	
09:30:18	0	0	0	-0.8590631	-15.47792	0	3	100	0	4	-0.6717378	0.01309334	-149.5358	
09:30:18	0	0	0	-0.8590631	-15.47792	0	3	100	0	4	-0.6715515	0.02184982	-149.5318	
09:30:19	0	0	0	-0.7220374	-1.378416	0	3	100	0	4	-0.6637032	0.01658114	-149.538	
09:30:19	0	0	0	-0.7220374	-1.378416	0	3	100	0	4	-0.6548594	0.02720824	-149.5487	
09:30:19	0	0	0	-0.7220374	-1.378416	0	3	100	0	4	-0.6600904	0.03663316	-149.5526	
09:30:19	0	0	0	-0.7220374	-1.378416	0	3	100	0	4	-0.6623119	0.04282325	-149.5466	
09:30:19	0	0	0	-0.7220374	-1.378416	0	3	100	0	4	-0.6562464	0.02815557	-149.5419	
09:30:20	0	0	0	-0.7192293	-0.7811808	0	3	100	0	4	-0.661067	0.02449682	-149.5357	
09:30:20	0	0	0	-0.7192293	-0.7811808	0	3	100	0	4	-0.6763912	0.00224924	-149.532	
09:30:20	0	0	0	-0.7192293	-0.7811808	0	3	100	0	4	-0.6855747	-0.004917576	-149.5307	
09:30:20	0	0	0	-0.7192293	-0.7811808	0	3	100	0	4	-0.6856359	-0.01945161	-149.5358	
09:30:20	0	0	0	-0.7192293	-0.7811808	0	3	100	0	4	-0.6975381	-0.04254431	-149.5475	
09:30:21	0	0	0	-0.6586734	2.687781	0	3	100	0	5	-0.6903026	-0.06625686	-149.5363	
09:30:21	0	0	0	-0.6586734	2.687781	0	3	100	0	5	-0.6914752	-0.0736988	-149.5354	
09:30:21	0	0	0	-0.6586734	2.687781	0	3	100	0	5	-0.6873148	-0.0671647	-149.539	
09:30:21	0	0	0	-0.6586734	2.687781	0	3	100	0	5	-0.6738092	-0.06818293	-149.5323	
09:30:21	0	0	0	-0.6586734	2.687781	0	3	100	0	5	-0.6766363	-0.08577774	-149.5351	
09:30:22	0	0	0	-0.5997286	3.820821	0	3	100	0	4	-0.6882914	-0.09143934	-149.5374	
09:30:22	0	0	0	-0.5997286	3.820821	0	3	100	0	4	-0.679612	-0.1036987	-149.533	
09:30:22	0	0	0	-0.5997286	3.820821	0	3	100	0	4	-0.6719781	-0.1320783	-149.5262	
09:30:22	0	0	0	-0.5997286	3.820821	0	3	100	0	4	-0.6785781	-0.1283271	-149.5087	
09:30:22	0	0	0	-0.5997286	3.820821	0	3	100	0	4	-0.6707149	-0.1331729	-149.5143	
09:30:23	0	0	0	-0.6492423	0.09010021	0	3	100	0	4	-0.6681139	-0.1181944	-149.5029	
09:30:23	0	0	0	-0.6492423	0.09010021	0	3	100	0	4	-0.6702868	-0.1084038	-149.4903	
09:30:23	0	0	0	-0.6492423	0.09010021	0	3	100	0	4	-0.6766264	-0.1142275	-149.4729	
09:30:23	0	0	0	-0.6492423	0.09010021	0	3	100	0	4	-0.6747106	-0.1152208	-149.4727	
09:30:23	0	0	0	-0.6492423	0.09010021	0	3	100	0	4	-0.6714711	-0.1336028	-149.47	
09:30:24	0	0	0	-0.6357782	1.443103	0	3	100	0	4	-0.665436	-0.1479739	-149.457	
09:30:24	0	0	0	-0.6357782	1.443103	0	3	100	0	4	-0.6635041	-0.1542741	-149.4382	
09:30:24	0	0	0	-0.6357782	1.443103	0	3	100	0	4	-0.6687014	-0.1582031	-149.4337	
09:30:24	0	0	0	-0.6357782	1.443103	0	3	100	0	4	-0.6731589	-0.1732997	-149.4216	
09:30:24	0	0	0	-0.6357782	1.443103	0	3	100	0	4	-0.6764497	-0.1680343	-149.4204	
09:30:25	0	0	0	-0.7392508	-3.713465	0	3	100	0	4	-0.6733747	-0.1395964	-149.4139	
09:30:25	0	0	0	-0.7392508	-3.713465	0	3	100	0	4	-0.6610135	-0.1280821	-149.3993	
09:30:25	0	0	0	-0.7392508	-3.713465	0	3	100	0	4	-0.6561165	-0.1131765	-149.3906	
09:30:25	0	0	0	-0.7392508	-3.713465	0	3	100	0	4	-0.6482678	-0.116345	-149.3763	
09:30:25	0	0	0	-0.7392508	-3.713465	0	3	100	0	4	-0.6446324	-0.09860563	-149.3756	
09:30:26	0	0	0	-0.8086528	-5.787279	0	3	100	0	4	-0.6445256	-0.09217329	-149.3705	
09:30:26	0	0	0	-0.8086528	-5.787279	0	3	100	0	4	-0.6552633	-0.1035437	-149.3754	
09:30:26	0	0	0	-0.8086528	-5.787279	0	3	100	0	4	-0.6564643	-0.09476381	-149.3758	
09:30:26	0	0	0	-0.8086528	-5.787279	0	3	100	0	4	-0.6591968	-0.07123516	-149.3723	
09:30:26	0	0	0	-0.8086528	-5.787279	0	3	100	0	4	-0.6729996	-0.04513185	-149.3741	
09:30:27	0	0	0	-0.818185	-4.584165	0	3	100	0	4	-0.6766312	-0.05582794	-149.3809	
09:30:27	0	0	0	-0.818185	-4.584165	0	3	100	0	4	-0.6580941	-0.04705059	-149.3683	
09:30:27	0	0	0	-0.818185	-4.584165	0	3	100	0	4	-0.6547745	-0.03852931	-149.3663	
09:30:27	0	0	0	-0.818185	-4.584165	0	3	100	0	4	-0.6614735	-0.03467887	-149.3712	
09:30:27	0	0	0	-0.818185	-4.584165	0	3	100	0	4	-0.6659707	-0.0312491	-149.3787	
09:30:28	0	0	0	-0.7012094	2.343232	0	3	100	0	4	-0.6698472	-0.02989614	-149.3842	
09:30:28	0	0	0	-0.7012094	2.343232	0	3	100	0	4	-0.665395	-0.03159998	-149.3672	
09:30:28	0	0	0	-0.7012094	2.343232	0	3	100	0	4	-0.6616243	-0.04027266	-149.3487	
09:30:28	0	0	0	-0.7012094	2.343232	0	3	100	0	4	-0.6672989	-0.06263753	-149.3478	
09:30:28	0	0	0	-0.7012094	2.343232	0	3	100	0	4	-0.664837	-0.06326532	-149.3558	
09:30:29	0	0	0	-0.7076939	1.172617	0	3	100	0	4	-0.6697115	-0.08574829	-149.3611	
09:30:29	0	0	0	-0.7076939	1.172617	0	3	100	0	4	-0.6735518	-0.09532602	-149.3536	
09:30:29	0	0	0	-0.7076939	1.172617	0	3	100	0	4	-0.6715213	-0.07679581	-149.347	
09:30:29	0	0	0	-0.7076939	1.172617	0	3	100	0	4	-0.6671576	-0.06633537	-149.3497	
09:30:29	0	0	0	-0.7076939	1.172617	0	3	100	0	4	-0.6804755	-0.0764814	-149.3473	
09:30:30	0	0	0	-0.6557971	2.831336	0	3	100	0	4	-0.6847565	-0.09097068	-149.3365	
09:30:30	0	0	0	-0.6557971	2.831336	0	3	100	0	4	-0.6831638	-0.1065357	-149.3334	
09:30:30	0	0	0	-0.6557971	2.831336	0	3	100	0	4	-0.692484	-0.1195044	-149.3362	
09:30:30	0	0	0	-0.6557971	2.831336	0	3	100	0	4	-0.6898053	-0.1425747	-149.3284	
09:30:30	0	0	0	-0.6557971	2.831336	0	3	100	0	4	-0.6902666	-0.1420879	-149.3231	
09:30:31	0	0	0	-0.4671729	10.8239	0	3	100	0	4	-0.6937516	-0.1547751	-149.3138	
09:30:31	0	0	0	-0.4671729	10.8239	0	3	100	0	4	-0.6759608	-0.1683915	-149.3211	
09:30:31	0	0	0	-0.4671729	10.8239	0	3	100	0	4	-0.6743416	-0.1545472	-149.3173	
09:30:31	0	0	0	-0.4671729	10.8239	0	3	100	0	4	-0.6783829	-0.1610335	-149.3135	
09:30:31	0	0	0	-0.4671729	10.8239	0	3	100	0	4	-0.6807193	-0.1574174	-149.313	
09:30:32	0	0	0	-0.6244874	0.6985178	0	3	100	0	4	-0.675791	-0.1516926	-149.3179	
09:30:32	0	0	0	-0.6244874	0.6985178	0	3	100	0	4	-0.6751696	-0.1298036	-149.3174	
09:30:32	0	0	0	-0.6244874	0.6985178	0	3	100	0	4	-0.669732	-0.1373921	-149.3287	
09:30:32	0	0	0	-0.6244874	0.6985178	0	3	100	0	4	-0.6688591	-0.1354201	-149.3331	
09:30:32	0	0	0	-0.6244874	0.6985178	0	3	100	0	4	-0.6751312	-0.1408577	-149.3355	
09:30:33	0	0	0	-0.5638318	3.711907	0	3	100	0	4	-0.6755018	-0.1455328	-149.3253	
09:30:33	0	0	0	-0.5638318	3.711907	0	3	100	0	4	-0.66193	-0.1344645	-149.3354	
09:30:33	0	0	0	-0.5638318	3.711907	0	3	100	0	4	-0.6541848	-0.1041679	-149.3542	
09:30:33	0	0	0	-0.5638318	3.711907	0	3	100	0	4	-0.6475881	-0.08639051	-149.3614	
09:30:33	0	0	0	-0.5638318	3.711907	0	3	100	0	4	-0.64992	-0.08308107	-149.3493	
09:30:34	0	0	0	-0.6004639	0.9795341	0	3	100	0	4	-0.648027	-0.06728052	-149.3437	
09:30:34	0	0	0	-0.6004639	0.9795341	0	3	100	0	4	-0.6473086	-0.08708388	-149.3424	
09:30:34	0	0	0	-0.6004639	0.9795341	0	3	100	0	4	-0.6472979	-0.1045009	-149.3439	
09:30:34	0	0	0	-0.6004639	0.9795341	0	3	100	0	4	-0.6294582	-0.09806151	-149.3419	
09:30:34	0	0	0	-0.6004639	0.9795341	0	3	100	0	4	-0.6145149	-0.08279406	-149.325	
09:30:35	0	0	0	-0.5020677	4.615808	0	3	100	0	4	-0.605809	-0.06563892	-149.3109	
09:30:35	0	0	0	-0.5020677	4.615808	0	3	100	0	4	-0.6065044	-0.06405279	-149.3092	
09:30:35	0	0	0	-0.5020677	4.615808	0	3	100	0	4	-0.6104313	-0.06721514	-149.3072	
09:30:35	0	0	0	-0.5020677	4.615808	0	3	100	0	4	-0.6145281	-0.06350604	-149.3017	
09:30:35	0	0	0	-0.5020677	4.615808	0	3	100	0	4	-0.6242129	-0.07558908	-149.3034	
09:30:36	0	0	0	-0.8112305	-10.25497	0	3	100	0	4	-0.6307186	-0.09497809	-149.3061	
09:30:36	0	0	0	-0.8112305	-10.25497	0	3	100	0	4	-0.6232696	-0.08996227	-149.2955	
09:30:36	0	0	0	-0.8112305	-10.25497	0	3	100	0	4	-0.6146461	-0.08558895	-149.2836	
09:30:36	0	0	0	-0.8112305	-10.25497	0	3	100	0	4	-0.6136553	-0.08058901	-149.2828	
09:30:36	0	0	0	-0.8112305	-10.25497	0	3	100	0	4	-0.6157945	-0.09297517	-149.2792	
09:30:37	0	0	0	-0.8526177	-7.359155	0	3	100	0	4	-0.629279	-0.09428985	-149.2919	
09:30:37	0	0	0	-0.8526177	-7.359155	0	3	100	0	4	-0.6359259	-0.08033171	-149.2905	
09:30:37	0	0	0	-0.8526177	-7.359155	0	3	100	0	4	-0.6343458	-0.0693251	-149.2855	
09:30:37	0	0	0	-0.8526177	-7.359155	0	3	100	0	4	-0.6365488	-0.0583673	-149.287	
09:30:37	0	0	0	-0.8526177	-7.359155	0	3	100	0	4	-0.6312974	-0.04507468	-149.2828	
09:30:38	0	0	0	-0.8281843	-3.511943	0	3	100	0	4	-0.6359652	-0.04218829	-149.2751	
09:30:38	0	0	0	-0.8281843	-3.511943	0	3	100	0	4	-0.6346475	-0.02041826	-149.2728	
09:30:38	0	0	0	-0.8281843	-3.511943	0	3	100	0	4	-0.6470338	-0.03145382	-149.2607	
09:30:38	0	0	0	-0.8281843	-3.511943	0	3	100	0	4	-0.6344156	-0.02589357	-149.2559	
09:30:38	0	0	0	-0.8281843	-3.511943	0	3	100	0	4	-0.6246749	-0.02184596	-149.2519	
09:30:39	0	0	0	-0.7984397	-1.582194	0	3	100	0	4	-0.6259373	-0.02064185	-149.2587	
09:30:39	0	0	0	-0.7984397	-1.582194	0	3	100	0	4	-0.6355144	-0.01279751	-149.2668	
09:30:39	0	0	0	-0.7984397	-1.582194	0	3	100	0	4	-0.64109	-0.01984277	-149.2711	
09:30:39	0	0	0	-0.7984397	-1.582194	0	3	100	0	4	-0.625168	-0.02176394	-149.2664	
09:30:39	0	0	0	-0.7984397	-1.582194	0	3	100	0	4	-0.6202863	-0.009856523	-149.2632	
09:30:40	0	0	0	-0.8376424	-3.335098	0	3	100	0	4	-0.6135423	-0.02192192	-149.2586	
09:30:40	0	0	0	-0.8376424	-3.335098	0	3	100	0	4	-0.6106215	-0.02461686	-149.2503	
09:30:40	0	0	0	-0.8376424	-3.335098	0	3	100	0	4	-0.6090097	-0.03023372	-149.2552	
09:30:40	0	0	0	-0.8376424	-3.335098	0	3	100	0	4	-0.6044728	-0.0348539	-149.253	
09:30:40	0	0	0	-0.8376424	-3.335098	0	3	100	0	4	-0.6046008	-0.05586889	-149.2564	
09:30:41	0	0	0	-0.7723876	0.9301757	0	3	100	0	4	-0.6039019	-0.06299513	-149.2544	
09:30:41	0	0	0	-0.7723876	0.9301757	0	3	100	0	4	-0.5997521	-0.06514399	-149.2672	
09:30:41	0	0	0	-0.7723876	0.9301757	0	3	100	0	4	-0.6002451	-0.07782832	-149.2658	
09:30:41	0	0	0	-0.7723876	0.9301757	0	3	100	0	4	-0.6073052	-0.08862425	-149.2749	
09:30:41	0	0	0	-0.7723876	0.9301757	0	3	100	0	4	-0.6068227	-0.1056796	-149.2659	
09:30:42	0	0	0	-0.6554545	6.063539	0	3	100	0	4	-0.611075	-0.1180496	-149.2676	
09:30:42	0	0	0	-0.6554545	6.063539	0	3	100	0	4	-0.6110334	-0.1086743	-149.2568	
09:30:42	0	0	0	-0.6554545	6.063539	0	3	100	0	4	-0.6061203	-0.08999933	-149.2604	
09:30:42	0	0	0	-0.6554545	6.063539	0	3	100	0	4	-0.6092939	-0.0750123	-149.2597	
09:30:43	0	0	0	-0.6554545	6.063539	0	3	100	0	4	-0.6225316	-0.06162063	-149.2689	
09:30:43	0	0	0	-0.7024143	-1.06579	0	3	100	0	4	-0.6272411	-0.0674183	-149.2523	
09:30:43	0	0	0	-0.7024143	-1.06579	0	3	100	0	4	-0.634008	-0.07353589	-149.2568	
09:30:43	0	0	0	-0.7024143	-1.06579	0	3	100	0	4	-0.6414483	-0.0726549	-149.2545	
09:30:43	0	0	0	-0.7024143	-1.06579	0	3	100	0	4	-0.6345869	-0.082771	-149.2522	
09:30:43	0	0	0	-0.7024143	-1.06579	0	3	100	0	4	-0.6354498	-0.09796648	-149.2498	
09:30:44	0	0	0	-0.8595991	-6.43477	0	3	100	0	4	-0.6429957	-0.07988301	-149.2528	
09:30:44	0	0	0	-0.8595991	-6.43477	0	3	100	0	4	-0.6409762	-0.07237966	-149.248	
09:30:45	0	0	0	-0.8595991	-6.43477	0	3	100	0	4	-0.6439927	-0.08271161	-149.2405	
09:30:45	0	0	0	-0.8595991	-6.43477	0	3	100	0	4	-0.6402916	-0.08821447	-149.2384	
09:30:45	0	0	0	-0.8595991	-6.43477	0	3	100	0	4	-0.6412941	-0.07012451	-149.2504	
09:30:45	0	0	0	-0.7824612	-0.7918399	0	3	100	0	4	-0.6403931	-0.08131653	-149.2639	
09:30:45	0	0	0	-0.7824612	-0.7918399	0	3	100	0	4	-0.6445131	-0.08485407	-149.2563	
09:30:46	0	0	0	-0.7824612	-0.7918399	0	3	100	0	4	-0.6614096	-0.1072896	-149.2572	
09:30:46	0	0	0	-0.7824612	-0.7918399	0	3	100	0	4	-0.6550742	-0.08948544	-149.2549	
09:30:46	0	0	0	-0.7824612	-0.7918399	0	3	100	0	4	-0.6483486	-0.08385096	-149.2586	
09:30:46	0	0	0	-0.6837387	4.430998	0	3	100	0	4	-0.6605913	-0.0801692	-149.2507	
09:30:46	0	0	0	-0.6837387	4.430998	0	3	100	0	4	-0.6621411	-0.08313964	-149.2547	
09:30:46	0	0	0	-0.6837387	4.430998	0	3	100	0	4	-0.6650666	-0.06907441	-149.2564	
09:30:47	0	0	0	-0.6837387	4.430998	0	3	100	0	4	-0.6704267	-0.070621	-149.2553	
09:30:47	0	0	0	-0.6837387	4.430998	0	3	100	0	4	-0.6882723	-0.08304778	-149.263	
09:30:48	0	0	0	-0.5636257	6.158097	0	3	100	0	5	-0.683042	-0.09520546	-149.2836	
09:30:48	0	0	0	-0.5636257	6.158097	0	3	100	0	5	-0.6883589	-0.1000376	-149.3069	
09:30:48	0	0	0	-0.5636257	6.158097	0	3	100	0	5	-0.6904422	-0.07920743	-149.3247	
09:30:48	0	0	0	-0.5636257	6.158097	0	3	100	0	5	-0.6765961	-0.08182112	-149.3393	
09:30:49	0	0	0	-0.5636257	6.158097	0	3	100	0	5	-0.6743087	-0.07510755	-149.351	
09:30:49	0	0	0	-0.5385463	4.764173	0	3	100	0	4	-0.6756415	-0.06876319	-149.3448	
09:30:49	0	0	0	-0.5385463	4.764173	0	3	100	0	4	-0.6790471	-0.08673235	-149.3522	
09:30:49	0	0	0	-0.5385463	4.764173	0	3	100	0	4	-0.6740089	-0.07628068	-149.3478	
09:30:50	0	0	0	-0.5385463	4.764173	0	3	100	0	4	-0.6695802	-0.07030815	-149.3349	
09:30:50	0	0	0	-0.5385463	4.764173	0	3	100	0	4	-0.6828817	-0.0641707	-149.3394	
09:30:51	0	0	0	-0.559153	2.499485	0	3	100	0	4	-0.6896774	-0.05888613	-149.3543	
09:30:51	0	0	0	-0.559153	2.499485	0	3	100	0	4	-0.6811488	-0.05535719	-149.356	
09:30:51	0	0	0	-0.559153	2.499485	0	3	100	0	4	-0.6661171	-0.08212688	-149.343	
09:30:52	0	0	0	-0.559153	2.499485	0	3	100	0	4	-0.6561838	-0.07695165	-149.3346	
09:30:52	0	0	0	-0.559153	2.499485	0	3	100	0	4	-0.655804	-0.08540723	-149.3374	
09:30:52	0	0	0	-0.7470456	-7.017055	0	3	100	0	4	-0.6556444	-0.09785794	-149.3443	
09:30:52	0	0	0	-0.7470456	-7.017055	0	3	100	0	4	-0.6599457	-0.1155428	-149.3513	
09:30:53	0	0	0	-0.7470456	-7.017055	0	3	100	0	4	-0.6668736	-0.1276517	-149.3591	
09:30:53	0	0	0	-0.7470456	-7.017055	0	3	100	0	4	-0.6644564	-0.1252633	-149.36	
09:30:53	0	0	0	-0.7470456	-7.017055	0	3	100	0	4	-0.6558117	-0.1105356	-149.3602	
09:30:53	0	0	0	-0.7828553	-4.463064	0	3	100	0	4	-0.667585	-0.1303054	-149.3496	
09:30:54	0	0	0	-0.7828553	-4.463064	0	3	100	0	4	-0.6653535	-0.123625	-149.3482	
09:30:54	0	0	0	-0.7828553	-4.463064	0	3	100	0	4	-0.6560347	-0.1089223	-149.3486	
09:30:54	0	0	0	-0.7828553	-4.463064	0	3	100	0	4	-0.6499329	-0.1210741	-149.3393	
09:30:54	0	0	0	-0.7828553	-4.463064	0	3	100	0	4	-0.6443211	-0.1352759	-149.3498	
09:30:55	0	0	0	-0.5897211	5.585155	0	3	100	0	4	-0.6362409	-0.0995246	-149.3498	
09:30:55	0	0	0	-0.5897211	5.585155	0	3	100	0	4	-0.6219009	-0.1049435	-149.3382	
09:30:55	0	0	0	-0.5897211	5.585155	0	3	100	0	4	-0.6205274	-0.08874051	-149.338	
09:30:55	0	0	0	-0.5897211	5.585155	0	3	100	0	4	-0.6067413	-0.1098978	-149.3401	
09:30:55	0	0	0	-0.5897211	5.585155	0	3	100	0	4	-0.6205923	-0.121059	-149.3343	
09:30:55	0	0	0	-0.3496777	13.87039	0	3	100	0	4	-0.6085081	-0.1090815	-149.3384	
09:30:55	0	0	0	-0.3496777	13.87039	0	3	100	0	4	-0.6085394	-0.1036073	-149.333	
09:30:56	0	0	0	-0.3496777	13.87039	0	3	100	0	4	-0.6074604	-0.1056652	-149.3305	
09:30:56	0	0	0	-0.3496777	13.87039	0	3	100	0	4	-0.6094502	-0.1265125	-149.3236	
09:30:56	0	0	0	-0.3496777	13.87039	0	3	100	0	4	-0.6229991	-0.1361599	-149.3197	
09:30:56	0	0	0	-0.24831	10.19625	0	3	100	0	4	-0.6281843	-0.1433774	-149.3227	
09:30:56	0	0	0	-0.24831	10.19625	0	3	100	0	4	-0.6195778	-0.1190449	-149.3134	
09:30:56	0	0	0	-0.24831	10.19625	0	3	100	0	4	-0.6172392	-0.09735104	-149.3168	
09:30:56	0	0	0	-0.24831	10.19625	0	3	100	0	4	-0.6227316	-0.08039518	-149.3234	
09:30:56	0	0	0	-0.24831	10.19625	0	3	100	0	4	-0.6247796	-0.07652434	-149.3289	
09:30:56	0	0	0	-0.5028782	-5.355052	0	3	100	0	4	-0.6257059	-0.08771938	-149.332	
09:30:57	0	0	0	-0.5028782	-5.355052	0	3	100	0	4	-0.6233485	-0.1116612	-149.324	
09:30:57	0	0	0	-0.5028782	-5.355052	0	3	100	0	4	-0.6190597	-0.09673698	-149.3283	
09:30:57	0	0	0	-0.5028782	-5.355052	0	3	100	0	4	-0.6187651	-0.1165978	-149.3174	
09:30:57	0	0	0	-0.5028782	-5.355052	0	3	100	0	4	-0.6185865	-0.1083112	-149.3173	
09:30:57	0	0	0	-0.4437714	-0.6029673	0	3	100	0	4	-0.6179154	-0.1200653	-149.3181	
09:30:57	0	0	0	-0.4437714	-0.6029673	0	3	100	0	4	-0.6195518	-0.1211119	-149.3333	
09:30:57	0	0	0	-0.4437714	-0.6029673	0	3	100	0	4	-0.6159048	-0.09991597	-149.326	
09:30:57	0	0	0	-0.4437714	-0.6029673	0	3	100	0	4	-0.6222581	-0.1076678	-149.3173	
09:30:58	0	0	0	-0.4437714	-0.6029673	0	3	100	0	4	-0.61199	-0.1194402	-149.3049	
09:30:58	0	0	0	-0.02827929	17.37041	0	3	100	0	4	-0.6171557	-0.1311048	-149.3113	
09:30:58	0	0	0	-0.02827929	17.37041	0	3	100	0	4	-0.6177593	-0.1184452	-149.3069	
09:30:58	0	0	0	-0.02827929	17.37041	0	3	100	0	4	-0.6088658	-0.1231359	-149.3061	
09:30:58	0	0	0	-0.02827929	17.37041	0	3	100	0	4	-0.6142947	-0.1207974	-149.2962	
09:30:58	0	0	0	-0.02827929	17.37041	0	3	100	0	4	-0.6064584	-0.1200564	-149.2885	
09:30:58	0	0	0	0.05961054	13.46326	0	3	100	0	4	-0.6037686	-0.1367415	-149.2818	
09:30:59	0	0	0	0.05961054	13.46326	0	3	100	0	4	-0.6066829	-0.1418784	-149.2877	
09:30:59	0	0	0	0.05961054	13.46326	0	3	100	0	4	-0.5992531	-0.1356374	-149.2767	
09:30:59	0	0	0	0.05961054	13.46326	0	3	100	0	4	-0.6054658	-0.1091288	-149.2897	
09:30:59	0	0	0	0.05961054	13.46326	0	3	100	0	4	-0.6121224	-0.09163108	-149.282	
09:30:59	0	0	0	-0.1105736	0.6435091	0	3	100	0	4	-0.6166647	-0.09752033	-149.2807	
09:30:59	0	0	0	-0.1105736	0.6435091	0	3	100	0	4	-0.6272364	-0.1021731	-149.2763	
09:30:59	0	0	0	-0.1105736	0.6435091	0	3	100	0	4	-0.6312998	-0.1063049	-149.2794	
09:31:00	0	0	0	-0.1105736	0.6435091	0	3	100	0	4	-0.6396754	-0.1159738	-149.2806	
09:31:00	0	0	0	-0.1105736	0.6435091	0	3	100	0	4	-0.6407733	-0.1078549	-149.2649	
09:31:00	0	0	0	-0.1816165	-2.35436	0	3	100	0	4	-0.649911	-0.1285272	-149.2686	
09:31:00	0	0	0	-0.1816165	-2.35436	0	3	100	0	4	-0.6611577	-0.1186888	-149.2718	
09:31:00	0	0	0	-0.1816165	-2.35436	0	3	100	0	4	-0.672153	-0.1239713	-149.2835	
09:31:00	0	0	0	-0.1816165	-2.35436	0	3	100	0	4	-0.6779807	-0.1235069	-149.2928	
09:31:00	0	0	0	-0.1816165	-2.35436	0	3	100	0	4	-0.676708	-0.1178334	-149.3028	
09:31:01	0	0	0	-0.4816471	-15.38963	0	3	100	0	4	-0.6791707	-0.1082838	-149.2992	
09:31:01	0	0	0	-0.4816471	-15.38963	0	3	100	0	4	-0.6747958	-0.08383096	-149.3089	
09:31:02	0	0	0	-0.4816471	-15.38963	0	3	100	0	4	-0.6861377	-0.06177042	-149.3225	
09:31:02	0	0	0	-0.4816471	-15.38963	0	3	100	0	4	-0.6952294	-0.07109055	-149.3372	
09:31:02	0	0	0	-0.4816471	-15.38963	0	3	100	0	4	-0.6975014	-0.06528364	-149.3454	
09:31:03	0	0	0	-0.6007261	-14.13709	0	3	100	0	4	-0.6950147	-0.05386226	-149.3413	
09:31:04	0	0	0	-0.6007261	-14.13709	0	3	100	0	4	-0.6963609	-0.04018379	-149.3438	
09:31:04	0	0	0	-0.6007261	-14.13709	0	3	100	0	4	-0.7066094	-0.04738943	-149.3533	
09:31:05	0	0	0	-0.6007261	-14.13709	0	3	100	0	4	-0.7143735	-0.0431776	-149.3508	
09:31:06	0	0	0	-0.6007261	-14.13709	0	3	100	0	4	-0.7202965	-0.02520703	-149.3633	
09:31:06	0	0	0	-0.4785611	-3.817184	0	3	100	0	4	-0.7150422	-0.01553604	-149.382	
09:31:06	0	0	0	-0.4785611	-3.817184	0	3	100	0	4	-0.7247786	-0.02009562	-149.3863	
09:31:07	0	0	0	-0.4785611	-3.817184	0	3	100	0	4	-0.7231781	-0.01524375	-149.3862	
09:31:08	0	0	0	-0.4785611	-3.817184	0	3	100	0	4	-0.7343193	-0.009221476	-149.3694	
09:31:08	0	0	0	-0.4785611	-3.817184	0	3	100	0	4	-0.7288725	-0.01403537	-149.3799	
09:31:09	0	0	0	-0.5071676	-3.779611	0	3	100	0	4	-0.7084591	-0.008103699	-149.3838	
09:31:10	0	0	0	-0.5071676	-3.779611	0	3	100	0	4	-0.7097297	0.007338425	-149.3961	
09:31:10	0	0	0	-0.5071676	-3.779611	0	3	100	0	4	-0.7031865	0.008171813	-149.3963	
