Date	Latitude(deg) 	Longitude(deg)	hamsl(m)	hafl(m)	climbrate(cm/s)	GroundSpeed(m/s)	Airspeed(m/s)	Mav_Link(%)	Rssi_Link(%)	Throttle	Roll(deg)	Pitch(deg)	Yaw(deg)
17:23:27	-6.795785	38.9854	130.031	0	0	0.18	0	100	0	0	-0.6139519	-1.94061	27.82232	
17:23:27	-6.795787	38.98541	129.807	0.2880911	-0.02357168	0.39	3	100	0	50	0.6188009	-1.620179	27.76792	
17:23:28	-6.795836	38.98539	123.038	0.2880911	-0.02357168	0.18	3	100	0	50	0.889764	-1.393375	27.70182	
17:23:28	-6.795833	38.98539	123.626	0.2880911	-0.02357168	1.28	3	100	0	50	1.105613	-1.437641	27.60051	
17:23:28	-6.795827	38.98539	124.869	0.2880911	-0.02357168	1.49	3	100	0	50	1.532583	-1.550847	27.58943	
17:23:28	-6.795826	38.98539	125.208	0.2880911	-0.02357168	0.44	3	100	0	50	0.6871173	-1.232349	27.56326	
17:23:28	-6.795827	38.98538	125.387	-0.2388057	-25.39554	1.4	3	100	0	50	-0.5373062	-0.7460566	27.55598	
17:23:29	-6.795828	38.98538	125.389	-0.2388057	-25.39554	1.51	3	100	0	50	-0.964816	-0.3391769	27.54852	
17:23:29	-6.795829	38.98538	125.574	-0.2388057	-25.39554	0.39	3	100	0	50	-0.2766653	-0.5286583	27.57768	
17:23:29	-6.795836	38.98538	124.777	-0.2388057	-25.39554	2.12	3	100	0	50	-0.2442584	-0.2208355	27.5733	
17:23:29	-6.795842	38.98537	124.713	-0.2388057	-25.39554	3.23	3	100	0	50	-0.9610683	0.4173912	26.56533	
17:23:29	-6.795849	38.98536	123.893	0.1564215	2.244611	3.43	3	100	0	50	-1.881819	0.1462181	24.92486	
17:23:30	-6.795846	38.98536	123.841	0.1564215	2.244611	4.38	3	100	0	50	-3.300988	-1.127017	23.04125	
17:23:30	-6.795843	38.98535	123.504	0.1564215	2.244611	4.96	3	100	0	50	-3.991476	-1.566052	21.09912	
17:23:30	-6.795838	38.98534	123.825	0.1564215	2.244611	4.77	3	100	0	50	-3.901071	-1.416904	19.14286	
17:23:30	-6.795828	38.98533	124.819	0.1564215	2.244611	2.34	3	100	0	50	-2.665661	-1.828748	18.65107	
17:23:30	-6.795816	38.98532	126.254	0.3929779	7.790786	2.76	3	100	0	50	-2.201127	-2.276314	19.03472	
17:23:31	-6.795809	38.98532	126.776	0.3929779	7.790786	2.14	3	100	0	50	-1.867963	-1.953749	19.36682	
17:23:31	-6.79581	38.98532	127.039	0.3929779	7.790786	0.25	3	100	0	50	-0.7579823	-1.583264	19.67295	
17:23:31	-6.795813	38.98532	126.863	0.3929779	7.790786	0.81	3	100	0	50	0.680064	-1.611372	19.91164	
17:23:31	-6.795815	38.98532	126.63	0.3929779	7.790786	0.58	3	100	0	50	0.0923569	-1.85947	20.1813	
17:23:31	-6.795807	38.98532	127.128	0.6426792	13.53417	2.38	3	100	0	50	-1.809248	-2.080253	20.53197	
17:23:32	-6.795802	38.98531	127.334	0.6426792	13.53417	2.69	3	100	0	50	-2.612655	-2.224969	20.86487	
17:23:32	-6.795792	38.9853	128.001	0.6426792	13.53417	3.88	3	100	0	50	-3.515995	-2.027977	19.52642	
17:23:32	-6.79578	38.98529	128.837	0.6426792	13.53417	4.85	3	100	0	50	-4.813286	-2.591443	17.43551	
17:23:32	-6.795761	38.98528	130.77	0.6426792	13.53417	4.06	3	100	0	50	-4.526856	-3.151746	15.2519	
17:23:32	-6.795741	38.98527	133.005	0.7540896	9.65554	5.58	4.375809	100	0	50	-4.819612	-3.468257	13.1583	
17:23:33	-6.795721	38.98526	135.146	0.7540896	9.65554	6.42	4.375809	100	0	50	-5.329637	-3.864688	11.1071	
17:23:33	-6.795707	38.98524	136.46	0.7540896	9.65554	7.28	4.375809	100	0	50	-5.859717	-3.767165	9.05317	
17:23:33	-6.795695	38.98523	137.682	0.7540896	9.65554	7.25	4.375809	100	0	50	-5.823154	-3.742867	6.954857	
17:23:33	-6.795681	38.98522	139.433	0.7540896	9.65554	7.29	4.375809	100	0	50	-5.477705	-3.956889	4.86978	
17:23:33	-6.795668	38.9852	140.956	0.8183852	3.917918	7.44	6.460408	100	0	50	-4.948529	-4.731153	2.856944	
17:23:34	-6.795658	38.9852	142.094	0.8183852	3.917918	6.39	6.460408	100	0	50	-3.997182	-4.883655	0.8904668	
17:23:34	-6.795641	38.98518	144.218	0.8183852	3.917918	6.1	6.460408	100	0	50	-3.102377	-4.582991	-0.995961	
17:23:34	-6.795616	38.98516	147.575	0.8183852	3.917918	9.05	6.460408	100	0	50	-2.963063	-4.407872	-2.746783	
17:23:34	-6.795616	38.98516	147.575	0.8183852	3.917918	9.05	6.460408	100	0	50	-4.210467	-5.504829	-3.852979	
17:23:34	-6.795589	38.98514	151.119	0.7352577	-5.923235	10.69	9.154431	100	0	50	-5.367969	-6.162755	-2.881048	
17:23:35	-6.795554	38.9851	155.652	0.7352577	-5.923235	11.71	9.154431	100	0	50	-5.747176	-6.099504	-2.01127	
17:23:35	-6.795533	38.98508	158.218	0.7352577	-5.923235	12.67	9.154431	100	0	50	-6.275352	-6.465872	-1.141348	
17:23:35	-6.795511	38.98506	161.103	0.7352577	-5.923235	14.14	9.154431	100	0	50	-6.866896	-6.734621	-0.274759	
17:23:35	-6.795504	38.98504	162.115	0.7352577	-5.923235	11.88	9.154431	100	0	50	-7.722467	-6.867576	0.6208832	
17:23:35	-6.795498	38.98503	163.55	0.3108189	-32.16543	9.96	10.31353	100	0	50	-6.722444	-6.05793	1.267873	
17:23:36	-6.795493	38.98503	165.066	0.3108189	-32.16543	7.82	10.31353	100	0	50	-4.949498	-4.843098	1.846442	
17:23:36	-6.795491	38.98502	165.685	0.3108189	-32.16543	6.68	10.31353	100	0	50	-4.52278	-2.939153	2.529357	
17:23:36	-6.795489	38.98502	166.044	0.3108189	-32.16543	5.78	10.31353	100	0	50	-4.390806	-2.325328	3.210003	
17:23:36	-6.795487	38.98502	166.238	0.3108189	-32.16543	5.1	10.31353	100	0	50	-4.295177	-3.060014	3.918729	
17:23:36	-6.79548	38.98503	166.92	0.004830617	-34.07514	5.65	10.31353	100	0	50	-4.25597	-1.699776	4.566946	
17:23:37	-6.79547	38.98503	168.136	0.004830617	-34.07514	5.6	10.31353	100	0	50	-4.18236	-1.189953	5.190555	
17:23:37	-6.795465	38.98503	168.64	0.004830617	-34.07514	5.26	10.31353	100	0	50	-4.183506	-2.758053	5.797405	
17:23:37	-6.795463	38.98503	168.97	0.004830617	-34.07514	4.81	10.31353	100	0	50	-4.140284	-1.75747	6.369681	
17:23:37	-6.795465	38.98503	168.998	0.004830617	-34.07514	5.62	10.31353	100	0	50	-4.07228	-2.649249	6.910482	
17:23:37	-6.795465	38.98502	169.451	-0.1072094	-25.98547	6.37	10.31353	100	0	50	-4.0287	-1.459526	7.362875	
17:23:38	-6.795467	38.98501	169.302	-0.1072094	-25.98547	7.05	10.31353	100	0	50	-3.944013	0.1854763	7.828014	
17:23:38	-6.795463	38.985	169.808	-0.1072094	-25.98547	6.8	10.31353	100	0	50	-3.859841	-0.3580117	8.32118	
17:23:38	-6.795455	38.985	171.097	-0.1072094	-25.98547	6.22	10.31353	100	0	50	-3.792983	-1.559291	8.788428	
17:23:38	-6.795447	38.98499	172.407	-0.1072094	-25.98547	5.51	10.31353	100	0	50	-3.737774	-0.5605589	9.204279	
17:23:38	-6.795449	38.98499	172.538	-0.06529047	-13.44816	4.52	10.31353	100	0	50	-3.680978	-0.977714	9.635427	
17:23:39	-6.795448	38.98498	173.106	-0.06529047	-13.44816	4.27	10.31353	100	0	50	-3.615744	-2.156774	10.01959	
17:23:39	-6.795451	38.98498	172.845	-0.06529047	-13.44816	4.17	10.31353	100	0	50	-3.56015	-1.733202	10.38633	
17:23:39	-6.795448	38.98498	173.521	-0.06529047	-13.44816	3.79	10.31353	100	0	50	-3.486697	-0.7173891	10.76771	
17:23:39	-6.795448	38.98498	173.732	-0.06529047	-13.44816	3.52	10.31353	100	0	50	-3.402653	-0.6188211	11.15057	
17:23:39	-6.795443	38.98498	174.272	0.108436	0.9359891	3.41	10.31353	100	0	50	-3.323215	-0.525843	11.50126	
17:23:40	-6.795438	38.98498	174.839	0.108436	0.9359891	3.27	10.31353	100	0	50	-3.231645	-0.4441595	11.84957	
17:23:40	-6.795429	38.98497	176.165	0.108436	0.9359891	3.41	10.31353	100	0	50	-3.17608	-1.196742	12.15703	
17:23:40	-6.795427	38.98497	176.612	0.108436	0.9359891	3.53	10.31353	100	0	50	-3.14666	-1.161765	12.49756	
17:23:40	-6.795425	38.98496	177.296	0.108436	0.9359891	4.41	10.31353	100	0	50	-3.094031	-1.092948	12.80637	
17:23:40	-6.795446	38.98498	174.407	0.3188734	9.490441	2.14	10.31353	100	0	50	-3.062063	-2.746491	13.11112	
17:23:41	-6.795461	38.98499	172.521	0.3188734	9.490441	1.29	10.31353	100	0	50	-3.045202	-2.612329	13.38885	
17:23:41	-6.795473	38.985	171.142	0.3188734	9.490441	0.58	10.31353	100	0	50	-3.043435	-2.60882	13.64857	
17:23:41	-6.795483	38.985	169.81	0.3188734	9.490441	2.96	10.31353	100	0	50	-3.043813	-3.10791	13.89779	
17:23:41	-6.795492	38.985	168.944	0.3188734	9.490441	4.39	10.31353	100	0	50	-3.009667	-1.243603	14.13365	
17:23:41	-6.795503	38.985	167.871	0.3636223	7.364666	3.09	10.31353	100	0	50	-2.965064	-1.092718	14.34426	
17:23:42	-6.795511	38.985	167.436	0.3636223	7.364666	1.51	10.31353	100	0	50	-2.950355	-1.552179	14.54086	
17:23:42	-6.795529	38.98501	165.336	0.3636223	7.364666	1.99	10.31353	100	0	50	-2.917889	-1.213374	14.73402	
17:23:42	-6.795537	38.98502	164.646	0.3636223	7.364666	3.1	10.31353	100	0	50	-2.876648	-2.523078	14.94547	
17:23:42	-6.795546	38.98503	163.701	0.3636223	7.364666	2.7	10.31353	100	0	50	-2.826943	-2.445754	15.15007	
17:23:42	-6.795552	38.98504	162.889	0.171745	-5.479084	2.95	5.850197	100	0	50	-3.360138	-2.361908	15.55493	
17:23:43	-6.795561	38.98505	161.573	0.171745	-5.479084	4.33	5.850197	100	0	50	-2.581575	-3.111411	15.87774	
17:23:43	-6.795572	38.98506	159.832	0.171745	-5.479084	5.69	5.850197	100	0	50	-0.6676734	-3.10283	16.11739	
17:23:43	-6.795582	38.98508	158.192	0.171745	-5.479084	7.2	5.850197	100	0	50	0.790769	-3.212619	16.29575	
17:23:43	-6.795593	38.9851	156.469	0.171745	-5.479084	7.41	5.850197	100	0	50	2.386878	-2.886391	16.45867	
17:23:43	-6.795601	38.9851	155.342	0.02051711	-10.30522	4.54	10.86684	100	0	50	2.483005	-3.015281	16.66637	
17:23:44	-6.795608	38.98511	154.224	0.02051711	-10.30522	1.56	10.86684	100	0	50	0.8186978	-2.578762	16.96039	
17:23:44	-6.795609	38.98511	154.456	0.02051711	-10.30522	1.62	10.86684	100	0	50	-0.9477645	-2.214875	17.2694	
17:23:44	-6.795618	38.98512	153.083	0.02051711	-10.30522	1.57	10.86684	100	0	50	-0.9927937	-2.099297	17.52422	
17:23:44	-6.795626	38.98512	151.832	0.02051711	-10.30522	2.73	10.86684	100	0	50	-0.859746	-2.268834	17.75366	
17:23:44	-6.795635	38.98513	150.768	0.07227093	-4.031777	3.51	6.078992	100	0	50	0.1706525	-2.347291	17.94792	
17:23:45	-6.795646	38.98515	149.522	0.07227093	-4.031777	5.5	6.078992	100	0	50	1.077179	-1.915564	18.1377	
17:23:45	-6.795656	38.98516	147.641	0.07227093	-4.031777	6.79	6.078992	100	0	50	2.633663	-2.036179	18.27028	
17:23:45	-6.795663	38.98518	146.669	0.07227093	-4.031777	8.16	6.078992	100	0	50	4.173013	-2.923048	18.31245	
17:23:45	-6.79567	38.9852	145.707	0.07227093	-4.031777	9.38	6.078992	100	0	50	5.094037	-2.676934	18.34566	
17:23:45	-6.795679	38.98522	144.213	0.1940356	1.829167	9.72	9.786628	100	0	50	6.052756	-3.101501	18.34746	
17:23:46	-6.795691	38.98524	142.231	0.1940356	1.829167	9.64	9.786628	100	0	50	6.161234	-3.025578	18.3809	
17:23:46	-6.795706	38.98526	139.706	0.1940356	1.829167	10.18	9.786628	100	0	50	5.936831	-2.167862	18.41107	
17:23:46	-6.795712	38.98528	138.292	0.1940356	1.829167	9.88	9.786628	100	0	50	6.536592	-2.446309	18.40281	
17:23:46	-6.795716	38.9853	137.139	0.1940356	1.829167	10.46	9.786628	100	0	50	5.735213	-3.212226	18.44969	
17:23:46	-6.795725	38.98532	135.331	0.1955191	-4.862392	8.84	7.752484	100	0	50	5.82124	-3.311375	18.46507	
17:23:47	-6.795731	38.98534	133.947	0.1955191	-4.862392	8.28	7.752484	100	0	50	4.135728	-2.729029	19.0189	
17:23:47	-6.795732	38.98535	133.226	0.1955191	-4.862392	6.82	7.752484	100	0	50	2.167572	-3.712273	20.54688	
17:23:47	-6.795735	38.98536	132.478	0.1955191	-4.862392	6.39	7.752484	100	0	50	2.106236	-1.859203	20.59522	
17:23:47	-6.795739	38.98537	131.719	0.1955191	-4.862392	5.54	7.752484	100	0	50	2.001388	-3.280525	20.65097	
17:23:47	-6.795744	38.98537	130.72	0.04326106	-10.07658	4.31	5.467445	100	0	50	1.983826	-1.4964	20.77424	
17:23:48	-6.795747	38.98538	129.839	0.04326106	-10.07658	3.18	5.467445	100	0	50	1.919306	-1.153886	20.93449	
17:23:48	-6.795751	38.98538	129.391	0.04326106	-10.07658	2.65	5.467445	100	0	50	1.90439	-2.953407	21.04822	
17:23:48	-6.795753	38.98538	129.07	0.04326106	-10.07658	2.04	5.467445	100	0	50	1.886883	-1.307516	21.18741	
17:23:48	-6.795757	38.98536	129.172	0.04326106	-10.07658	2.54	5.467445	100	0	50	1.821989	-0.7790484	21.37076	
17:23:48	-6.795759	38.98536	129.448	-0.1338475	-13.07635	3.04	5.467445	100	0	50	1.751027	-0.6431847	21.55226	
17:23:49	-6.795759	38.98536	129.448	-0.1338475	-13.07635	3.04	5.467445	100	0	50	1.729065	-2.210404	21.67877	
17:23:49	-6.795759	38.98536	129.448	-0.1338475	-13.07635	3.04	5.467445	100	0	50	1.715325	-1.687827	21.77818	
17:23:49	-6.795759	38.98536	129.448	-0.1338475	-13.07635	3.04	5.467445	100	0	50	1.675479	-0.1013954	21.89968	
17:23:49	-6.795759	38.98536	129.448	-0.1338475	-13.07635	3.04	5.467445	100	0	50	1.666586	-0.9331738	22.0206	
17:23:50	-6.795759	38.98536	129.448	-0.1099949	-5.431678	3.04	5.467445	100	0	50	1.645342	-0.1078835	22.15491	
17:23:50	-6.795759	38.98536	129.448	-0.1099949	-5.431678	3.04	5.467445	100	0	50	1.606362	-0.6029309	22.28218	
17:23:50	-6.795759	38.98536	129.448	-0.1099949	-5.431678	3.04	5.467445	100	0	50	1.567974	0.07582404	22.3525	
17:23:50	-6.795759	38.98536	129.448	-0.1099949	-5.431678	3.04	5.467445	100	0	50	1.542877	-0.4741566	22.4787	
17:23:50	-6.795759	38.98536	129.448	-0.1099949	-5.431678	3.04	5.467445	100	0	50	1.520604	0.18131	22.56014	
17:23:51	-6.795759	38.98536	129.448	0.1357768	8.53679	3.04	5.467445	100	0	50	1.503605	-0.3817419	22.67701	
17:23:51	-6.795759	38.98536	129.448	0.1357768	8.53679	3.04	5.467445	100	0	50	1.480401	-1.372367	22.77201	
17:23:51	-6.795762	38.98536	129.285	0.1357768	8.53679	2.66	5.467445	100	0	50	1.472088	-0.4158219	22.82738	
17:23:51	-6.795802	38.98535	123.929	0.1357768	8.53679	1.7	5.467445	100	0	50	1.452542	1.276282	22.93242	
17:23:51	-6.795812	38.98537	122.804	0.1357768	8.53679	3.64	5.467445	100	0	50	1.426281	1.031791	23.01254	
17:23:52	-6.795819	38.98539	122.517	0.3306301	14.4585	5.2	5.467445	100	0	50	1.37482	0.4576155	23.07458	
17:23:52	-6.795822	38.98539	122.675	0.3306301	14.4585	5.31	5.467445	100	0	50	1.340937	1.376822	23.14123	
17:23:52	-6.795825	38.98539	122.487	0.3306301	14.4585	4.37	5.467445	100	0	50	1.306593	2.129055	23.21763	
17:23:52	-6.795835	38.9854	121.336	0.3306301	14.4585	5.37	5.467445	100	0	50	1.273663	2.115953	23.32821	
17:23:52	-6.795842	38.9854	120.66	0.3306301	14.4585	4.39	5.467445	100	0	50	1.245875	1.319409	23.44308	
17:23:53	-6.795844	38.9854	120.901	0.6061432	22.22921	3.78	5.467445	100	0	50	1.227004	0.9823661	23.57	
17:23:53	-6.795837	38.98539	122.274	0.6061432	22.22921	2.33	5.467445	100	0	50	1.194054	1.006533	23.7136	
17:23:53	-6.795836	38.98539	123.047	0.6061432	22.22921	3.72	5.467445	100	0	50	1.198169	0.6363289	23.82488	
17:23:53	-6.795838	38.98539	123.235	0.6061432	22.22921	3.11	5.467445	100	0	50	1.191808	1.226321	23.95825	
17:23:53	-6.795837	38.98538	123.893	0.6061432	22.22921	2	5.467445	100	0	50	1.154019	0.5295945	24.08917	
17:23:54	-6.795846	38.98539	122.999	0.7919621	21.6424	2.76	5.467445	100	0	50	1.129476	1.843097	24.20125	
17:23:54	-6.795852	38.9854	122.009	0.7919621	21.6424	4.66	5.467445	100	0	50	1.076993	1.859263	24.35103	
17:23:54	-6.795856	38.98541	121.257	0.7919621	21.6424	5.72	5.467445	100	0	50	1.026626	1.86585	24.43916	
17:23:54	-6.795862	38.98542	120.264	0.7919621	21.6424	5.44	5.467445	100	0	50	0.9801387	1.844765	24.56723	
17:23:54	-6.795866	38.98541	119.823	0.7919621	21.6424	3.1	5.467445	100	0	50	0.9389586	1.86147	24.70694	
17:23:55	-6.795867	38.98541	119.888	0.6042811	4.72568	3.1	5.467445	100	0	50	0.9015426	1.465913	24.8059	
17:23:55	-6.795866	38.9854	120.347	0.6042811	4.72568	1.88	5.467445	100	0	50	0.8684234	0.6871225	24.91073	
17:23:55	-6.795867	38.9854	120.671	0.6042811	4.72568	2.36	5.467445	100	0	50	0.8410271	1.666405	24.99316	
17:23:55	-6.795866	38.9854	121.062	0.6042811	4.72568	2.82	5.467445	100	0	50	0.8015204	1.679046	25.063	
17:23:55	-6.795868	38.98541	121.05	0.6042811	4.72568	5.45	5.467445	100	0	50	0.7660326	1.465156	25.14915	
17:23:56	-6.795875	38.98542	120.121	0.2561032	-12.97746	7.58	5.467445	100	0	50	0.7618629	-0.2106893	25.22185	
17:23:56	-6.795876	38.98544	119.578	0.2561032	-12.97746	7.22	5.467445	100	0	50	0.761876	1.71347	25.29453	
17:23:56	-6.795878	38.98544	118.897	0.2561032	-12.97746	5.44	5.467445	100	0	50	0.7430466	3.189143	25.32509	
17:23:56	-6.795882	38.98544	118.096	0.2561032	-12.97746	4.48	5.467445	100	0	50	0.7451041	1.514631	25.38745	
17:23:56	-6.795886	38.98543	118.158	0.2561032	-12.97746	1.7	5.467445	100	0	50	0.751649	3.585982	25.46597	
17:23:57	-6.795887	38.98542	118.075	0.08286809	-14.23255	1.44	5.467445	100	0	50	0.7338794	2.554848	25.60616	
17:23:57	-6.795889	38.98542	117.9	0.08286809	-14.23255	1.57	5.467445	100	0	50	0.7190805	0.953863	25.70745	
17:23:57	-6.795887	38.98543	118.384	0.08286809	-14.23255	3.64	5.467445	100	0	50	0.7146885	3.122952	25.80009	
17:23:57	-6.795888	38.98543	118.543	0.08286809	-14.23255	3.22	5.467445	100	0	50	0.6960084	1.742372	25.89636	
17:23:57	-6.795889	38.98543	118.241	0.08286809	-14.23255	3.02	5.467445	100	0	50	0.6643011	1.569405	25.97167	
17:23:58	-6.795887	38.98542	118.294	0.04858714	-9.130774	1.67	5.467445	100	0	50	0.6664054	3.310427	26.04864	
17:23:58	-6.79589	38.98543	117.436	0.04858714	-9.130774	2.08	5.467445	100	0	50	0.6305428	3.488398	26.17422	
17:23:58	-6.795891	38.98544	117.506	0.04858714	-9.130774	3.75	5.467445	100	0	50	0.5833898	2.13342	26.29769	
17:23:58	-6.795892	38.98544	117.291	0.04858714	-9.130774	2.5	5.467445	100	0	50	0.553618	0.9328852	26.36396	
17:23:58	-6.795905	38.98546	115.207	0.04858714	-9.130774	3.87	5.467445	100	0	50	0.5360912	2.213051	26.41013	
17:23:59	-6.795917	38.98548	113.226	0.04807905	-6.371603	3.67	5.467445	100	0	50	0.5065264	1.11767	26.48004	
17:23:59	-6.795929	38.9855	111.433	0.04807905	-6.371603	3.79	5.467445	100	0	50	0.4785068	1.707501	26.57962	
17:23:59	-6.795937	38.98551	110.447	0.04807905	-6.371603	4.4	5.467445	100	0	50	0.47809	0.4572035	26.65067	
17:23:59	-6.79594	38.98552	110.072	0.04807905	-6.371603	5.17	5.467445	100	0	50	0.4677673	1.812764	26.69991	
17:23:59	-6.795936	38.98553	110.695	0.04807905	-6.371603	4.98	5.467445	100	0	50	0.4633016	0.962398	26.75909	
17:24:00	-6.795938	38.98553	110.152	-0.04316263	-7.438506	3.23	5.467445	100	0	50	0.4595483	1.783267	26.82252	
17:24:00	-6.79594	38.98552	109.611	-0.04316263	-7.438506	1.06	5.467445	100	0	50	0.4535598	1.354959	26.90901	
17:24:00	-6.795946	38.98553	108.697	-0.04316263	-7.438506	1.06	5.467445	100	0	50	0.4594305	2.282886	26.9674	
17:24:00	-6.795941	38.98552	109.519	-0.04316263	-7.438506	1.74	5.467445	100	0	50	0.455773	1.533895	27.03031	
17:24:00	-6.795933	38.9855	111.135	-0.04316263	-7.438506	1.75	5.467445	100	0	50	0.4502469	2.42242	27.08697	
17:24:01	-6.795925	38.98549	112.826	0.07603316	2.17183	1.74	5.467445	100	0	50	0.4307218	2.332775	27.14859	
17:24:01	-6.795922	38.98549	113.299	0.07603316	2.17183	1.29	5.467445	100	0	50	0.3989557	2.666055	27.17864	
17:24:01	-6.795915	38.98548	114.577	0.07603316	2.17183	1.19	5.467445	100	0	50	0.3576395	2.954426	27.25924	
17:24:01	-6.795907	38.98547	116.003	0.07603316	2.17183	1.52	5.467445	100	0	50	0.3269562	2.785438	27.31642	
17:24:01	-6.795855	38.98542	124.091	0.07603316	2.17183	2.3	5.467445	100	0	50	-0.0503761	2.581882	27.40498	
17:24:02	-6.795819	38.98538	129.536	0.2140722	8.35326	2.33	6.636012	100	0	50	-0.5502384	2.391058	27.44581	
17:24:02	-6.795785	38.98534	134.498	0.2140722	8.35326	2.62	6.636012	100	0	50	-0.8687849	1.848042	27.49247	
17:24:02	-6.795751	38.98531	139.651	0.2140722	8.35326	1.71	6.636012	100	0	50	-0.7639758	1.117149	27.5686	
17:24:02	-6.795722	38.98529	144.292	0.2140722	8.35326	1.88	6.636012	100	0	50	-0.4285141	0.9661994	27.61658	
17:24:02	-6.795698	38.98526	148.32	0.2140722	8.35326	2.11	6.636012	100	0	50	-0.5876605	1.002515	27.65162	
17:24:03	-6.795679	38.98524	151.723	0.3694573	11.44974	3.13	7.591091	100	0	50	-1.104541	1.198019	27.70594	
17:24:03	-6.795661	38.98523	154.206	0.3694573	11.44974	3.66	7.591091	100	0	50	-2.068664	1.207816	27.75566	
17:24:03	-6.795651	38.98521	155.493	0.3694573	11.44974	3.16	7.591091	100	0	50	-2.363275	1.113599	27.85953	
17:24:03	-6.79564	38.9852	156.967	0.3694573	11.44974	2.64	7.591091	100	0	50	-1.700907	0.7080082	27.94649	
17:24:03	-6.795632	38.98519	158.005	0.3694573	11.44974	1.04	7.591091	100	0	50	-0.6854995	0.4782354	28.01051	
17:24:04	-6.795626	38.98519	158.756	0.4879874	13.10741	1.16	4.198169	100	0	50	0.517432	0.1536918	28.05563	
17:24:04	-6.795619	38.98518	159.86	0.4879874	13.10741	0.9	4.198169	100	0	50	0.8711391	-0.2473656	28.06406	
17:24:04	-6.795609	38.98518	161.692	0.4879874	13.10741	1.49	4.198169	100	0	50	0.07104672	0.1536572	28.06192	
17:24:04	-6.7956	38.98517	163.064	0.4879874	13.10741	1.29	4.198169	100	0	50	-0.060827	-0.07274055	28.10473	
17:24:04	-6.795594	38.98516	164.085	0.4879874	13.10741	0.91	4.198169	100	0	50	0.4101391	-0.2837048	28.1177	
17:24:05	-6.795589	38.98516	165.005	0.4636972	6.141384	1.44	4.039817	100	0	50	0.1811692	-0.1253971	28.10949	
17:24:05	-6.795586	38.98516	165.824	0.4636972	6.141384	0.79	4.039817	100	0	50	0.2355327	0.223449	28.10735	
17:24:05	-6.795583	38.98516	166.023	0.4636972	6.141384	1.11	4.039817	100	0	50	0.04851159	-0.01105299	28.08424	
17:24:05	-6.795581	38.98515	166.442	0.4636972	6.141384	0.97	4.039817	100	0	50	-0.1639661	-0.2552229	28.1156	
17:24:05	-6.795577	38.98515	167.406	0.4636972	6.141384	1.33	4.039817	100	0	50	-0.3338428	0.1189193	28.14689	
17:24:06	-6.795575	38.98515	168.08	0.4425655	3.863604	0.69	3	100	0	50	-0.08125184	0.4241651	28.19699	
17:24:06	-6.795575	38.98515	168.543	0.4425655	3.863604	0.45	3	100	0	50	0.3360552	0.3650108	28.23343	
17:24:06	-6.795574	38.98514	168.96	0.4425655	3.863604	0.85	3	100	0	50	-0.2475978	-0.1021419	28.24642	
17:24:06	-6.795574	38.98514	168.631	0.4425655	3.863604	0.17	3	100	0	50	-0.1629934	-0.4973982	28.27931	
17:24:06	-6.795573	38.98514	169.057	0.4425655	3.863604	0.39	3	100	0	50	0.005971805	-0.4115239	28.28991	
17:24:07	-6.795569	38.98514	169.959	0.7413059	15.76553	0.81	3	100	0	50	-0.5266084	-0.2957507	28.31694	
17:24:07	-6.795566	38.98514	170.734	0.7413059	15.76553	1.15	3	100	0	50	-1.041793	-0.4327136	28.34065	
17:24:07	-6.795562	38.98513	171.628	0.7413059	15.76553	1.73	3	100	0	50	-1.539436	-0.4115619	28.38655	
17:24:07	-6.795558	38.98513	172.143	0.7413059	15.76553	1.75	3	100	0	50	-1.774018	-0.2183139	28.42328	
17:24:07	-6.795555	38.98512	172.446	0.7413059	15.76553	3.14	3	100	0	50	-2.723747	0.08641583	27.20012	
17:24:08	-6.795551	38.98512	173.11	0.8233348	12.64019	4.69	4.390971	100	0	50	-4.032243	0.4399593	25.23692	
17:24:08	-6.795547	38.9851	173.615	0.8233348	12.64019	4.29	4.390971	100	0	50	-4.343893	0.3975124	23.25742	
17:24:08	-6.795544	38.9851	174.167	0.8233348	12.64019	3.52	4.390971	100	0	50	-3.385517	0.04614867	21.25099	
17:24:08	-6.795542	38.98509	174.264	0.8233348	12.64019	4.04	4.390971	100	0	50	-3.249392	-0.03316543	19.2415	
17:24:08	-6.795536	38.98508	175.118	0.8233348	12.64019	3.64	4.390971	100	0	50	-3.105863	-0.1508826	17.20715	
17:24:09	-6.795529	38.98506	175.932	0.6844091	1.034922	9.1	7.483376	100	0	50	-4.265356	-0.1999994	15.18795	
17:24:09	-6.795521	38.98504	176.763	0.6844091	1.034922	10.8	7.483376	100	0	50	-5.741842	-0.2324801	13.15559	
17:24:09	-6.795515	38.98502	177.391	0.6844091	1.034922	11.77	7.483376	100	0	50	-6.582294	-0.3637816	11.15696	
17:24:09	-6.795509	38.985	177.821	0.6844091	1.034922	10.37	7.483376	100	0	50	-5.413156	-0.4967679	9.15208	
17:24:09	-6.795503	38.98499	177.969	0.6844091	1.034922	8.45	7.483376	100	0	50	-3.435337	-0.7283486	7.107861	
17:24:10	-6.795499	38.98497	178.168	0.588079	-5.969659	8.28	6.081548	100	0	50	-2.617429	-0.8155742	5.08626	
17:24:10	-6.795494	38.98496	178.882	0.588079	-5.969659	6.91	6.081548	100	0	50	-1.787746	-0.6393852	3.091139	
17:24:10	-6.795486	38.98494	179.727	0.588079	-5.969659	6.71	6.081548	100	0	50	-0.9521511	-1.395409	1.117534	
17:24:10	-6.795471	38.98492	180.906	0.588079	-5.969659	6.66	6.081548	100	0	50	-0.9411465	-2.289693	-0.8104532	
17:24:10	-6.795471	38.98492	180.906	0.588079	-5.969659	6.66	6.081548	100	0	50	-0.8023413	-2.139979	-2.720834	
17:24:11	-6.795466	38.98492	181.628	0.4138947	-11.34295	2.31	3	100	0	50	0.4806794	-1.632696	-2.49454	
17:24:11	-6.795464	38.98492	182.075	0.4138947	-11.34295	1.43	3	100	0	50	2.050252	-1.176928	-1.484465	
17:24:11	-6.795464	38.98492	182.087	0.4138947	-11.34295	1.17	3	100	0	50	2.633045	-0.8323882	-0.5071115	
17:24:11	-6.795464	38.98492	181.86	0.4138947	-11.34295	1.29	3	100	0	50	3.552594	-1.032144	0.4172331	
17:24:11	-6.795464	38.98492	181.564	0.4138947	-11.34295	1.38	3	100	0	50	3.739985	-1.23061	1.306876	
17:24:12	-6.795464	38.98492	181.564	0.3030756	-13.52948	1.38	3.473899	100	0	50	4.435569	-0.9222818	2.128461	
17:24:12	-6.795463	38.98493	182.18	0.3030756	-13.52948	1.55	3.473899	100	0	50	4.721122	-0.6627724	2.94397	
17:24:12	-6.795461	38.98493	182.56	0.3030756	-13.52948	1.09	3.473899	100	0	50	4.692846	-0.4545219	3.736008	
17:24:12	-6.795459	38.98493	183.036	0.3030756	-13.52948	1.07	3.473899	100	0	50	3.197546	-0.6434615	4.495367	
17:24:12	-6.795458	38.98493	183.506	0.3030756	-13.52948	1.04	3.473899	100	0	50	2.497354	-0.5727105	5.259657	
17:24:13	-6.795457	38.98494	183.947	0.2843593	-10.53848	0.82	3.122751	100	0	50	3.375668	-0.4449421	6.00154	
17:24:13	-6.795455	38.98494	184.271	0.2843593	-10.53848	0.96	3.122751	100	0	50	2.548718	-0.6379001	6.688513	
17:24:13	-6.795456	38.98494	184.316	0.2843593	-10.53848	0.52	3.122751	100	0	50	1.898439	-0.813246	7.240122	
17:24:13	-6.795457	38.98494	184.245	0.2843593	-10.53848	0.52	3.122751	100	0	50	1.668418	-0.523634	7.696678	
17:24:13	-6.795458	38.98494	184.199	0.2843593	-10.53848	0.72	3.122751	100	0	50	1.287365	-0.2051855	8.189319	
17:24:14	-6.795457	38.98494	184.024	0.3250149	-3.847465	1.15	3	100	0	50	1.90744	-0.7435354	8.675035	
17:24:14	-6.795456	38.98494	183.741	0.3250149	-3.847465	0.95	3	100	0	50	0.9652899	-0.3837623	9.157684	
17:24:14	-6.795455	38.98494	184.097	0.3250149	-3.847465	0.96	3	100	0	50	0.6614298	-1.752489	9.617	
17:24:14	-6.795452	38.98494	184.769	0.3250149	-3.847465	0.62	3	100	0	50	0.6344609	-0.5673016	10.05718	
17:24:14	-6.795449	38.98493	185.648	0.3250149	-3.847465	2.11	3	100	0	50	0.6195517	-1.668591	10.52068	
17:24:15	-6.795446	38.98492	186.283	0.4334469	2.154237	3.88	3	100	0	50	0.6188236	-0.4822386	10.94805	
17:24:15	-6.795443	38.9849	187.154	0.4334469	2.154237	5.27	3	100	0	50	0.6239327	-1.242742	8.981612	
17:24:15	-6.795438	38.98489	188.1	0.4334469	2.154237	7.26	3	100	0	50	0.5892443	-1.462094	6.786568	
17:24:15	-6.795432	38.98487	188.705	0.4334469	2.154237	8.32	3	100	0	50	0.6039985	-2.840272	4.56686	
17:24:15	-6.795424	38.98484	189.69	0.4334469	2.154237	10	3	100	0	50	0.6075954	-1.935862	2.394367	
17:24:16	-6.795415	38.98482	190.961	0.3785691	0.1214293	10.76	3	100	0	50	0.5416522	-1.205466	0.2371268	
17:24:16	-6.795406	38.9848	192.193	0.3785691	0.1214293	12	3	100	0	50	0.4632145	-1.061055	-1.903921	
17:24:16	-6.795397	38.98477	193.43	0.3785691	0.1214293	12.89	3	100	0	50	0.4465393	-2.183281	-4.03296	
17:24:16	-6.795386	38.98475	194.692	0.3785691	0.1214293	12.67	3	100	0	50	0.4532432	-1.701529	-6.136922	
17:24:16	-6.795373	38.98472	196.519	0.3785691	0.1214293	13.31	3	100	0	50	0.4249167	-2.002184	-8.215238	
17:24:17	-6.795361	38.98469	198.095	0.2716811	-4.679081	14.11	3	100	0	50	0.4280059	-1.425193	-10.22195	
17:24:17	-6.795347	38.98465	199.507	0.2716811	-4.679081	16.4	3	100	0	50	0.416042	-1.384538	-12.2232	
17:24:17	-6.795339	38.98464	200.179	0.2716811	-4.679081	13.58	3	100	0	50	0.3996475	-1.616985	-14.17154	
17:24:17	-6.795332	38.98462	201.072	0.2716811	-4.679081	11.86	3	100	0	50	0.3158908	0.09194548	-16.04422	
17:24:17	-6.795326	38.9846	202.01	0.2716811	-4.679081	10.57	3	100	0	50	0.2591762	0.06273421	-17.87892	
17:24:18	-6.795321	38.98458	202.687	0.2397634	-3.488142	10.16	3	100	0	50	0.2116693	-1.615016	-19.69142	
17:24:18	-6.795315	38.98458	203.29	0.2397634	-3.488142	8.76	3	100	0	50	0.1682984	-1.611435	-21.458	
17:24:18	-6.795315	38.98458	203.29	0.2397634	-3.488142	8.76	3	100	0	50	0.0969364	-1.138375	-20.14044	
17:24:18	-6.795315	38.98458	203.29	0.2397634	-3.488142	8.76	3	100	0	50	0.04913138	-2.080713	-18.98418	
17:24:18	-6.795315	38.98458	203.29	0.2397634	-3.488142	8.76	3	100	0	50	0.06030696	-1.1814	-17.85411	
17:24:19	-6.795315	38.98458	203.29	0.2575548	-0.8650693	8.76	3	100	0	50	0.03661948	-2.709881	-16.7455	
17:24:19	-6.795315	38.98458	203.29	0.2575548	-0.8650693	8.76	3	100	0	50	0.0765051	-1.42346	-15.66876	
17:24:19	-6.795315	38.98458	203.29	0.2575548	-0.8650693	8.76	3	100	0	50	0.0876727	-1.876291	-14.63916	
17:24:19	-6.795315	38.98458	203.29	0.2575548	-0.8650693	8.76	3	100	0	50	0.09095609	-0.6976342	-13.66209	
17:24:19	-6.795315	38.98458	203.29	0.2575548	-0.8650693	8.76	3	100	0	50	0.07644064	-1.933652	-12.66771	
17:24:20	-6.795315	38.98458	203.29	0.3067983	2.686558	8.76	3	100	0	50	0.07458764	-0.1987445	-11.71917	
17:24:20	-6.795315	38.98458	203.29	0.3067983	2.686558	8.76	3	100	0	50	0.06631395	0.2945008	-10.7577	
17:24:20	-6.795315	38.98458	203.29	0.3067983	2.686558	8.76	3	100	0	50	0.02405156	0.3447412	-11.37796	
17:24:20	-6.795315	38.98458	203.29	0.3067983	2.686558	8.76	3	100	0	50	0.0108068	-1.326864	-13.24345	
17:24:20	-6.795315	38.98458	203.29	0.3067983	2.686558	8.76	3	100	0	50	-0.03592484	-0.0655222	-14.73009	
17:24:21	-6.795315	38.98458	203.29	0.3881158	6.114436	8.76	3	100	0	50	-0.0837977	0.3908412	-15.95336	
17:24:21	-6.795315	38.98458	203.29	0.3881158	6.114436	8.76	3	100	0	50	-0.1153548	-0.7949072	-16.96523	
17:24:21	-6.795315	38.98458	203.29	0.3881158	6.114436	8.76	3	100	0	50	-0.1568992	0.1417637	-17.81828	
17:24:21	-6.795315	38.98458	203.29	0.3881158	6.114436	8.76	3	100	0	50	-0.2099397	0.5054544	-18.57191	
17:24:21	-6.795315	38.98458	203.29	0.3881158	6.114436	8.76	3	100	0	50	-0.2398452	0.5474347	-19.24217	
17:24:22	-6.795315	38.98458	203.29	0.4264768	6.870653	8.76	3	100	0	50	-0.2698787	0.5415045	-19.84686	
17:24:22	-6.795315	38.98458	203.29	0.4264768	6.870653	8.76	3	100	0	50	-0.3043998	0.510093	-20.41453	
17:24:22	-6.795315	38.98458	203.29	0.4264768	6.870653	8.76	3	100	0	50	-0.3168836	-1.158291	-20.77998	
17:24:22	-6.795315	38.98458	203.29	0.4264768	6.870653	8.76	3	100	0	50	-0.3474875	0.08531795	-19.61315	
17:24:22	-6.795315	38.98458	203.29	0.4264768	6.870653	8.76	3	100	0	50	-0.3624279	-1.164985	-18.43253	
17:24:23	-6.795315	38.98458	203.29	0.6210508	13.27631	8.76	3	100	0	50	-0.3442695	0.1379912	-17.30752	
17:24:23	-6.795315	38.98458	203.29	0.6210508	13.27631	8.76	3	100	0	50	-0.3442872	0.6401634	-16.19401	
17:24:23	-6.795315	38.98458	203.29	0.6210508	13.27631	8.76	3	100	0	50	-0.3584052	-0.5056134	-15.11371	
17:24:23	-6.795315	38.98458	203.29	0.6210508	13.27631	8.76	3	100	0	50	-0.3518282	-0.877813	-13.88492	
17:24:23	-6.795315	38.98458	203.29	0.6210508	13.27631	8.76	3	100	0	50	-0.3588639	-2.146603	-12.66538	
17:24:24	-6.795315	38.98458	203.29	0.5603662	4.909668	8.76	3	100	0	50	-0.3424545	-1.94575	-11.4926	
17:24:24	-6.795315	38.98458	203.29	0.5603662	4.909668	8.76	3	100	0	50	-0.3106462	-1.002123	-10.31712	
17:24:24	-6.795315	38.98458	203.29	0.5603662	4.909668	8.76	3	100	0	50	-0.2688599	0.5770538	-9.177984	
17:24:24	-6.795315	38.98458	203.29	0.5603662	4.909668	8.76	3	100	0	50	-0.243718	1.437774	-8.332671	
17:24:24	-6.795315	38.98458	203.29	0.5603662	4.909668	8.76	3	100	0	50	-0.2289781	1.619078	-7.761712	
17:24:25	-6.795315	38.98458	203.29	0.2017829	-12.13111	8.76	3	100	0	50	-0.2441609	0.7214087	-7.403316	
17:24:25	-6.795315	38.98458	203.29	0.2017829	-12.13111	8.76	3	100	0	50	-0.2529974	-0.1943821	-7.197813	
17:24:25	-6.795315	38.98458	203.29	0.2017829	-12.13111	8.76	3	100	0	50	-0.277261	0.3937742	-7.102106	
17:24:25	-6.795315	38.98458	203.29	0.2017829	-12.13111	8.76	3	100	0	50	-0.3096844	0.2018792	-7.097327	
17:24:25	-6.795315	38.98458	203.29	0.2017829	-12.13111	8.76	3	100	0	50	-0.3246412	0.4481007	-7.158262	
17:24:26	-6.795315	38.98458	203.29	0.188663	-4.741591	8.76	3	100	0	50	-0.3333673	0.4420919	-7.253677	
17:24:26	-6.795315	38.98458	203.29	0.188663	-4.741591	8.76	3	100	0	50	-0.3573534	0.3719598	-7.365895	
17:24:26	-6.795315	38.98458	203.29	0.188663	-4.741591	8.76	3	100	0	50	-0.3718298	1.584025	-7.526888	
17:24:26	-6.795315	38.98458	203.29	0.188663	-4.741591	8.76	3	100	0	50	-0.3976575	1.634013	-7.696132	
17:24:26	-6.795315	38.98458	203.29	0.188663	-4.741591	8.76	3	100	0	50	-0.4297481	0.8345814	-7.87287	
17:24:27	-6.795315	38.98458	203.29	0.3025874	3.727495	8.76	3	100	0	50	-0.4301184	0.1192525	-8.061378	
17:24:27	-6.795315	38.98458	203.29	0.3025874	3.727495	8.76	3	100	0	50	-0.4346123	1.155867	-8.250658	
17:24:27	-6.795315	38.98458	203.29	0.3025874	3.727495	8.76	3	100	0	50	-0.449515	0.1002766	-8.45171	
17:24:27	-6.795315	38.98458	203.29	0.3025874	3.727495	8.76	3	100	0	50	-0.4707082	0.5147082	-8.664641	
17:24:27	-6.795315	38.98458	203.29	0.3025874	3.727495	8.76	3	100	0	50	-0.5093207	1.747281	-8.870459	
17:24:28	-6.795315	38.98458	203.29	0.344974	3.640659	8.76	3	100	0	50	-0.5307226	1.341345	-9.086948	
17:24:28	-6.795315	38.98458	203.29	0.344974	3.640659	8.76	3	100	0	50	-0.5473828	0.1002323	-9.309792	
17:24:28	-6.795315	38.98458	203.29	0.344974	3.640659	8.76	3	100	0	50	-0.4895508	1.447406	-9.521855	
17:24:28	-6.795315	38.98458	203.29	0.344974	3.640659	8.76	3	100	0	50	-0.4061257	0.5027745	-9.710946	
17:24:28	-6.795315	38.98458	203.29	0.344974	3.640659	8.76	3	100	0	50	-0.4688956	1.749125	-9.864529	
17:24:29	-6.795315	38.98458	203.29	0.3022081	1.746155	8.76	3	100	0	50	-0.5481749	1.787211	-10.00809	
17:24:29	-6.795315	38.98458	203.29	0.3022081	1.746155	8.76	3	100	0	50	-0.5778387	1.595199	-10.16129	
17:24:29	-6.795315	38.98458	203.29	0.3022081	1.746155	8.76	3	100	0	50	-0.5899538	0.01918761	-10.33076	
17:24:29	-6.795315	38.98458	203.29	0.3022081	1.746155	8.76	3	100	0	50	-0.5940033	1.673519	-10.48448	
17:24:29	-6.795315	38.98458	203.29	0.3022081	1.746155	8.76	3	100	0	50	-0.6066077	-0.4211797	-10.63924	
17:24:30	-6.795315	38.98458	203.29	0.3480674	3.305301	8.76	3	100	0	50	-0.6240163	1.753545	-10.80042	
17:24:30	-6.795315	38.98458	203.29	0.3480674	3.305301	8.76	3	100	0	50	-0.6253127	1.768168	-10.95526	
17:24:30	-6.795315	38.98458	203.29	0.3480674	3.305301	8.76	3	100	0	50	-0.6199009	-0.1951557	-11.11056	
17:24:30	-6.795315	38.98458	203.29	0.3480674	3.305301	8.76	3	100	0	50	-0.6105353	-2.453772	-11.25734	
17:24:30	-6.795315	38.98458	203.29	0.3480674	3.305301	8.76	3	100	0	50	-0.6345477	-0.2326054	-11.40967	
17:24:31	-6.795315	38.98458	203.29	0.3866557	4.608394	8.76	3	100	0	50	-0.6464927	1.996904	-11.5662	
17:24:31	-6.795315	38.98458	203.29	0.3866557	4.608394	8.76	3	100	0	50	-0.6686971	1.706234	-11.70537	
17:24:31	-6.795315	38.98458	203.29	0.3866557	4.608394	8.76	3	100	0	50	-0.6746852	0.4051224	-11.85542	
17:24:31	-6.795315	38.98458	203.29	0.3866557	4.608394	8.76	3	100	0	50	-0.7018435	1.468983	-12.01368	
17:24:31	-6.795315	38.98458	203.29	0.3866557	4.608394	8.76	3	100	0	50	-0.7284634	3.264256	-12.16216	
17:24:32	-6.795315	38.98458	203.29	0.3128799	-0.585995	8.76	3	100	0	50	-0.734078	1.706349	-12.3044	
17:24:32	-6.795315	38.98458	203.29	0.3128799	-0.585995	8.76	3	100	0	50	-0.7559441	1.43188	-12.45255	
17:24:32	-6.795315	38.98458	203.29	0.3128799	-0.585995	8.76	3	100	0	50	-0.7668175	3.024162	-12.6006	
17:24:32	-6.795315	38.98458	203.29	0.3128799	-0.585995	8.76	3	100	0	50	-0.777015	1.705576	-12.74283	
17:24:32	-6.795315	38.98458	203.29	0.3128799	-0.585995	8.76	3	100	0	50	-0.7874749	3.053678	-12.8908	
17:24:33	-6.795315	38.98458	203.29	0.1645908	-5.519518	8.76	3	100	0	50	-0.8030397	1.847116	-13.03891	
17:24:33	-6.795315	38.98458	203.29	0.1645908	-5.519518	8.76	3	100	0	50	-0.8176943	0.9761948	-13.18346	
17:24:33	-6.795315	38.98458	203.29	0.1645908	-5.519518	8.76	3	100	0	50	-0.8281738	2.589853	-13.3379	
17:24:33	-6.795315	38.98458	203.29	0.1645908	-5.519518	8.76	3	100	0	50	-0.839114	3.019391	-13.48977	
17:24:33	-6.795315	38.98458	203.29	0.1645908	-5.519518	8.76	3	100	0	50	-0.8546888	2.620944	-13.64248	
17:24:34	-6.795315	38.98458	203.29	0.2724203	1.804838	8.76	3	100	0	50	-0.8566601	0.7627437	-13.78854	
17:24:34	-6.795315	38.98458	203.29	0.2724203	1.804838	8.76	3	100	0	50	-0.8613217	-1.439975	-13.94724	
17:24:34	-6.795315	38.98458	203.29	0.2724203	1.804838	8.76	3	100	0	50	-0.8945974	-0.4772324	-14.10121	
17:24:34	-6.795315	38.98458	203.29	0.2724203	1.804838	8.76	3	100	0	50	-0.9395884	-0.7247084	-14.25806	
17:24:34	-6.795315	38.98458	203.29	0.2724203	1.804838	8.76	3	100	0	50	-0.9609428	0.9273915	-14.40355	
17:24:35	-6.795315	38.98458	203.29	0.313638	2.988238	8.76	3	100	0	50	-0.980583	1.607858	-14.56607	
17:24:35	-6.795315	38.98458	203.29	0.313638	2.988238	8.76	3	100	0	50	-1.007954	0.8081013	-14.72599	
17:24:35	-6.795315	38.98458	203.29	0.313638	2.988238	8.76	3	100	0	50	-1.032717	-0.8403667	-14.87954	
17:24:35	-6.795315	38.98458	203.29	0.313638	2.988238	8.76	3	100	0	50	-1.054187	-0.1619668	-15.03076	
17:24:35	-6.795315	38.98458	203.29	0.313638	2.988238	8.76	3	100	0	50	-1.073449	1.582637	-15.1832	
17:24:36	-6.795315	38.98458	203.29	0.177951	-3.875672	8.76	3	100	0	50	-1.095197	3.19295	-15.34108	
17:24:36	-6.795315	38.98458	203.29	0.177951	-3.875672	8.76	3	100	0	50	-1.11757	5.01341	-15.48641	
17:24:36	-6.795315	38.98458	203.29	0.177951	-3.875672	8.76	3	100	0	50	-1.145291	5.435489	-15.63913	
17:24:36	-6.795315	38.98458	203.29	0.177951	-3.875672	8.76	3	100	0	50	-1.163829	5.880329	-15.79069	
17:24:37	-6.795315	38.98458	203.29	0.177951	-3.875672	8.76	3	100	0	50	-1.178892	6.334323	-15.9411	
17:24:37	-6.795315	38.98458	203.29	0.006590816	-12.70522	8.76	3	100	0	50	-1.179977	5.235162	-16.08614	
17:24:37	-6.795315	38.98458	203.29	0.006590816	-12.70522	8.76	3	100	0	50	-1.195311	3.164597	-16.23852	
17:24:37	-6.795315	38.98458	203.29	0.006590816	-12.70522	8.76	3	100	0	50	-1.212955	3.182376	-16.38623	
17:24:37	-6.795315	38.98458	203.29	0.006590816	-12.70522	8.76	3	100	0	50	-1.219314	3.351625	-16.53846	
17:24:38	-6.795315	38.98458	203.29	0.006590816	-12.70522	8.76	3	100	0	50	-1.230257	3.075448	-16.67746	
17:24:38	-6.795315	38.98458	203.29	0.04400039	-5.588776	8.76	3	100	0	50	-1.257792	3.647754	-16.83402	
17:24:38	-6.795315	38.98458	203.29	0.04400039	-5.588776	8.76	3	100	0	50	-1.27516	2.672931	-16.98417	
17:24:38	-6.795315	38.98458	203.29	0.04400039	-5.588776	8.76	3	100	0	50	-1.299399	3.314498	-17.13792	
17:24:38	-6.795315	38.98458	203.29	0.04400039	-5.588776	8.76	3	100	0	50	-1.30532	3.536661	-17.28762	
17:24:39	-6.795315	38.98458	203.29	0.04400039	-5.588776	8.76	3	100	0	50	-1.324062	2.857727	-17.44388	
17:24:39	-6.795315	38.98458	203.29	-0.04338296	-7.920018	8.76	3	100	0	50	-1.367509	3.608036	-17.59674	
17:24:39	-6.795315	38.98458	203.29	-0.04338296	-7.920018	8.76	3	100	0	50	-1.395765	2.653661	-17.74854	
17:24:39	-6.795315	38.98458	203.29	-0.04338296	-7.920018	8.76	3	100	0	50	-1.419136	2.057671	-17.89201	
17:24:39	-6.795315	38.98458	203.29	-0.04338296	-7.920018	8.76	3	100	0	50	-1.445043	2.893681	-18.03852	
17:24:40	-6.795315	38.98458	203.29	-0.04338296	-7.920018	8.76	3	100	0	50	-1.466142	2.039177	-18.19299	
17:24:40	-6.795315	38.98458	203.29	-0.2663938	-15.09702	8.76	3	100	0	50	-1.502442	4.182768	-18.35468	
17:24:40	-6.795315	38.98458	203.29	-0.2663938	-15.09702	8.76	3	100	0	50	-1.52026	5.63017	-18.503	
17:24:40	-6.795315	38.98458	203.29	-0.2663938	-15.09702	8.76	3	100	0	50	-1.534127	5.273896	-18.65783	
17:24:40	-6.795315	38.98458	203.29	-0.2663938	-15.09702	8.76	3	100	0	50	-1.545893	3.656605	-18.80429	
17:24:41	-6.795315	38.98458	203.29	-0.2663938	-15.09702	8.76	3	100	0	50	-1.56771	2.849049	-18.95351	
17:24:41	-6.795315	38.98458	203.29	-0.1668935	-4.525624	8.76	3	100	0	50	-1.588183	4.169662	-19.10858	
17:24:41	-6.795315	38.98458	203.29	-0.1668935	-4.525624	8.76	3	100	0	50	-1.593106	3.903502	-19.25941	
17:24:41	-6.795315	38.98458	203.29	-0.1668935	-4.525624	8.76	3	100	0	50	-1.608926	4.003587	-19.41114	
17:24:41	-6.795315	38.98458	203.29	-0.1668935	-4.525624	8.76	3	100	0	50	-1.618609	4.247385	-19.55986	
17:24:42	-6.795315	38.98458	203.29	-0.1668935	-4.525624	8.76	3	100	0	50	-1.628624	3.846296	-19.70655	
17:24:42	-6.795315	38.98458	203.29	0.1020666	8.773975	8.76	3	100	0	50	-1.645512	4.287319	-19.85965	
17:24:42	-6.795315	38.98458	203.29	0.1020666	8.773975	8.76	3	100	0	50	-1.650908	2.969379	-20.00733	
17:24:42	-6.795315	38.98458	203.29	0.1020666	8.773975	8.76	3	100	0	50	-1.673425	4.219299	-20.15598	
17:24:42	-6.795315	38.98458	203.29	0.1020666	8.773975	8.76	3	100	0	50	-1.691719	3.102075	-20.29926	
17:24:43	-6.795315	38.98458	203.29	0.1020666	8.773975	8.76	3	100	0	50	-1.713365	2.049896	-20.45134	
17:24:43	-6.795315	38.98458	203.29	0.1995302	9.264589	8.76	3	100	0	50	-1.740154	3.159752	-20.60648	
17:24:43	-6.795315	38.98458	203.29	0.1995302	9.264589	8.76	3	100	0	50	-1.753746	3.967263	-20.75238	
17:24:43	-6.795315	38.98458	203.29	0.1995302	9.264589	8.76	3	100	0	50	-1.703488	6.093219	-20.39081	
17:24:43	-6.795315	38.98458	203.29	0.1995302	9.264589	8.76	3	100	0	50	-1.478043	6.290174	-18.85727	
17:24:44	-6.795315	38.98458	203.29	0.1995302	9.264589	8.76	3	100	0	50	-1.230778	5.457891	-17.40047	
17:24:44	-6.795315	38.98458	203.29	0.2205615	4.497322	8.76	3	100	0	50	-0.9818303	4.847522	-15.91846	
17:24:44	-6.795315	38.98458	203.29	0.2205615	4.497322	8.76	3	100	0	50	-0.782138	5.674626	-14.43936	
17:24:44	-6.795315	38.98458	203.29	0.2205615	4.497322	8.76	3	100	0	50	-0.5869676	5.818388	-12.98302	
17:24:44	-6.795315	38.98458	203.29	0.2205615	4.497322	8.76	3	100	0	50	-0.4339335	4.344407	-11.60964	
17:24:45	-6.795315	38.98458	203.29	0.2205615	4.497322	8.76	3	100	0	50	-0.2566312	5.084337	-10.28412	
17:24:45	-6.795315	38.98458	203.29	0.2501417	1.612715	8.76	3	100	0	50	-0.06590044	6.749783	-8.990695	
17:24:45	-6.795315	38.98458	203.29	0.2501417	1.612715	8.76	3	100	0	50	0.07740515	6.162067	-7.720394	
17:24:45	-6.795315	38.98458	203.29	0.2501417	1.612715	8.76	3	100	0	50	0.2103229	5.824823	-6.488494	
17:24:45	-6.795315	38.98458	203.29	0.2501417	1.612715	8.76	3	100	0	50	0.3177908	5.51686	-5.535256	
17:24:46	-6.795315	38.98458	203.29	0.2501417	1.612715	8.76	3	100	0	50	0.3632504	5.198596	-4.853831	
17:24:46	-6.795315	38.98458	203.29	0.2384141	-1.639926	8.76	3	100	0	50	0.3854312	4.32384	-4.394032	
17:24:46	-6.795315	38.98458	203.29	0.2384141	-1.639926	8.76	3	100	0	50	0.3972355	4.638541	-4.075155	
17:24:46	-6.795315	38.98458	203.29	0.2384141	-1.639926	8.76	3	100	0	50	0.3930639	4.124861	-3.862376	
17:24:46	-6.795315	38.98458	203.29	0.2384141	-1.639926	8.76	3	100	0	50	0.3818989	3.977095	-3.73394	
17:24:47	-6.795315	38.98458	203.29	0.2384141	-1.639926	8.76	3	100	0	50	0.3658101	5.196632	-3.665687	
17:24:47	-6.795315	38.98458	203.29	0.3329912	1.564868	8.76	3	100	0	50	0.3288409	5.181309	-3.645821	
17:24:47	-6.795315	38.98458	203.29	0.3329912	1.564868	8.76	3	100	0	50	0.2939018	5.039185	-3.663381	
17:24:47	-6.795315	38.98458	203.29	0.3329912	1.564868	8.76	3	100	0	50	0.2503406	5.21025	-3.704974	
17:24:47	-6.795315	38.98458	203.29	0.3329912	1.564868	8.76	3	100	0	50	0.2076308	5.736509	-3.760905	
17:24:48	-6.795315	38.98458	203.29	0.3329912	1.564868	8.76	3	100	0	50	0.1776129	5.93415	-3.841882	
17:24:48	-6.795315	38.98458	203.29	0.1789304	-8.712156	8.76	3	100	0	50	0.1457283	5.587582	-3.926169	
17:24:48	-6.795315	38.98458	203.29	0.1789304	-8.712156	8.76	3	100	0	50	0.1082197	6.357347	-4.009106	
17:24:48	-6.795315	38.98458	203.29	0.1789304	-8.712156	8.76	3	100	0	50	0.04769292	6.181192	-4.110528	
17:24:48	-6.795315	38.98458	203.29	0.1789304	-8.712156	8.76	3	100	0	50	0.0007701422	5.411677	-4.204736	
17:24:49	-6.795315	38.98458	203.29	0.1789304	-8.712156	8.76	3	100	0	50	-0.0720949	4.527974	-4.310905	
17:24:49	-6.795315	38.98458	203.29	0.1188083	-8.727247	8.76	3	100	0	50	-0.09500188	6.469638	-4.374267	
17:24:49	-6.795315	38.98458	203.29	0.1188083	-8.727247	8.76	3	100	0	50	-0.182971	7.252723	-4.364625	
17:24:49	-6.795315	38.98458	203.29	0.1188083	-8.727247	8.76	3	100	0	50	-0.1860138	6.536475	-4.348796	
17:24:49	-6.795315	38.98458	203.29	0.1188083	-8.727247	8.76	3	100	0	50	-0.1754277	7.666456	-4.33724	
17:24:50	-6.795315	38.98458	203.29	0.1188083	-8.727247	8.76	3	100	0	50	-0.1900507	6.414101	-4.32627	
17:24:50	-6.795315	38.98458	203.29	0.1393785	-8.100426	8.76	3	100	0	50	-0.2030667	8.010885	-4.325324	
17:24:50	-6.795315	38.98458	203.29	0.1393785	-8.100426	8.76	3	100	0	50	-0.2113266	9.146077	-4.322175	
17:24:50	-6.795315	38.98458	203.29	0.1393785	-8.100426	8.76	3	100	0	50	-0.2190417	8.933018	-4.312041	
17:24:50	-6.795315	38.98458	203.29	0.1393785	-8.100426	8.76	3	100	0	50	-0.2266122	8.390661	-4.306736	
17:24:51	-6.795315	38.98458	203.29	0.1393785	-8.100426	8.76	3	100	0	50	-0.2464825	7.374746	-4.293449	
17:24:51	-6.795315	38.98458	203.29	0.05454498	-14.45738	8.76	3	100	0	50	-0.2578185	8.477681	-4.28091	
17:24:51	-6.795315	38.98458	203.29	0.05454498	-14.45738	8.76	3	100	0	50	-0.2662954	6.839503	-4.27281	
17:24:51	-6.795315	38.98458	203.29	0.05454498	-14.45738	8.76	3	100	0	50	-0.2847319	8.468297	-4.26548	
17:24:51	-6.795315	38.98458	203.29	0.05454498	-14.45738	8.76	3	100	0	50	-0.2915729	8.085694	-4.257273	
17:24:52	-6.795315	38.98458	203.29	0.05454498	-14.45738	8.76	3	100	0	50	-0.327531	6.186711	-4.242132	
17:24:52	-6.795315	38.98458	203.29	-0.03440912	-14.6373	8.76	3	100	0	50	-0.3298334	4.007675	-4.231698	
17:24:52	-6.795315	38.98458	203.29	-0.03440912	-14.6373	8.76	3	100	0	50	-0.3354411	1.760195	-4.22751	
17:24:52	-6.795315	38.98458	203.29	-0.03440912	-14.6373	8.76	3	100	0	50	-0.3592712	1.118525	-4.213242	
17:24:52	-6.795315	38.98458	203.29	-0.03440912	-14.6373	8.76	3	100	0	50	-0.3533463	1.646271	-4.210157	
17:24:53	-6.795315	38.98458	203.29	-0.03440912	-14.6373	8.76	3	100	0	50	-0.3616741	0.7008079	-4.197084	
17:24:53	-6.795315	38.98458	203.29	0.09901224	-0.6845798	8.76	3	100	0	50	-0.3656	0.6913108	-4.174597	
17:24:53	-6.795315	38.98458	203.29	0.09901224	-0.6845798	8.76	3	100	0	50	-0.3656144	0.6973569	-4.159931	
17:24:53	-6.795315	38.98458	203.29	0.09901224	-0.6845798	8.76	3	100	0	50	-0.3722541	-0.348374	-4.149672	
17:24:53	-6.795315	38.98458	203.29	0.09901224	-0.6845798	8.76	3	100	0	50	-0.3801688	-2.157095	-4.129696	
17:24:54	-6.795315	38.98458	203.29	0.09901224	-0.6845798	8.76	3	100	0	50	-0.3777019	-3.513607	-4.121965	
17:24:54	-6.795315	38.98458	203.29	0.2824233	9.684066	8.76	3	100	0	50	-0.3789577	-3.488134	-4.111317	
17:24:54	-6.795315	38.98458	203.29	0.2824233	9.684066	8.76	3	100	0	50	-0.3876144	-4.507478	-4.099017	
17:24:54	-6.795315	38.98458	203.29	0.2824233	9.684066	8.76	3	100	0	50	-0.3983672	-5.47739	-4.081204	
17:24:54	-6.795315	38.98458	203.29	0.2824233	9.684066	8.76	3	100	0	50	-0.3942766	-4.753418	-4.066087	
17:24:55	-6.795315	38.98458	203.29	0.2824233	9.684066	8.76	3	100	0	50	-0.3935792	-3.973712	-4.051722	
17:24:55	-6.795315	38.98458	203.29	0.3222025	6.107771	8.76	3	100	0	50	-0.4110248	-3.781463	-4.038453	
17:24:55	-6.795315	38.98458	203.29	0.3222025	6.107771	8.76	3	100	0	50	-0.4178577	-3.283516	-4.021551	
17:24:55	-6.795315	38.98458	203.29	0.3222025	6.107771	8.76	3	100	0	50	-0.4290627	-2.510582	-4.007764	
17:24:55	-6.795315	38.98458	203.29	0.3222025	6.107771	8.76	3	100	0	50	-0.4388115	-1.310597	-3.99356	
17:24:56	-6.795315	38.98458	203.29	0.3222025	6.107771	8.76	3	100	0	50	-0.441999	-1.172436	-3.971753	
17:24:56	-6.795315	38.98458	203.29	0.3224144	5.386914	8.76	3	100	0	50	-0.4446737	-1.443527	-3.965041	
17:24:56	-6.795315	38.98458	203.29	0.3224144	5.386914	8.76	3	100	0	50	-0.4443213	-1.530148	-3.942964	
17:24:56	-6.795315	38.98458	203.29	0.3224144	5.386914	8.76	3	100	0	50	-0.4583632	-1.083094	-3.930471	
17:24:56	-6.795315	38.98458	203.29	0.3224144	5.386914	8.76	3	100	0	50	-0.457109	-0.8594672	-3.916765	
17:24:57	-6.795315	38.98458	203.29	0.3224144	5.386914	8.76	3	100	0	50	-0.4601185	-1.007788	-3.906024	
17:24:57	-6.795315	38.98458	203.29	0.3534148	6.258844	8.76	3	100	0	50	-0.4529696	-1.085173	-3.898411	
17:24:57	-6.795315	38.98458	203.29	0.3534148	6.258844	8.76	3	100	0	50	-0.4530325	-0.8352981	-3.876325	
17:24:57	-6.795315	38.98458	203.29	0.3534148	6.258844	8.76	3	100	0	50	-0.4515983	-0.6291885	-3.854553	
17:24:57	-6.795315	38.98458	203.29	0.3534148	6.258844	8.76	3	100	0	50	-0.4694527	-1.28025	-3.841012	
17:24:58	-6.795315	38.98458	203.29	0.3534148	6.258844	8.76	3	100	0	50	-0.4714251	-1.092974	-3.831676	
17:24:58	-6.795315	38.98458	203.29	0.4250268	7.911703	8.76	3	100	0	50	-0.4900977	-0.7627816	-3.824361	
17:24:58	-6.795315	38.98458	203.29	0.4250268	7.911703	8.76	3	100	0	50	-0.5069734	-1.04397	-3.825176	
17:24:58	-6.795315	38.98458	203.29	0.4250268	7.911703	8.76	3	100	0	50	-0.5131949	-1.347405	-3.810909	
17:24:58	-6.795315	38.98458	203.29	0.4250268	7.911703	8.76	3	100	0	50	-0.5250595	-1.853304	-3.801055	
17:24:59	-6.795315	38.98458	203.29	0.4250268	7.911703	8.76	3	100	0	50	-0.520997	-2.375861	-3.786087	
17:24:59	-6.795315	38.98458	203.29	0.3884386	4.20769	8.76	3	100	0	50	-0.5229003	-3.552356	-3.773891	
17:24:59	-6.795315	38.98458	203.29	0.3884386	4.20769	8.76	3	100	0	50	-0.5169192	-3.276201	-3.763386	
17:24:59	-6.795315	38.98458	203.29	0.3884386	4.20769	8.76	3	100	0	50	-0.527563	-1.850363	-3.754833	
17:24:59	-6.795315	38.98458	203.29	0.3884386	4.20769	8.76	3	100	0	50	-0.5380613	-1.657235	-3.749562	
17:25:00	-6.795315	38.98458	203.29	0.3884386	4.20769	8.76	3	100	0	50	-0.5506418	-2.295038	-3.742223	
17:25:00	-6.795315	38.98458	203.29	0.3822497	2.89941	8.76	3	100	0	50	-0.5443568	-1.378713	-3.731452	
17:25:00	-6.795315	38.98458	203.29	0.3822497	2.89941	8.76	3	100	0	50	-0.5387585	-0.66523	-3.717854	
17:25:00	-6.795315	38.98458	203.29	0.3822497	2.89941	8.76	3	100	0	50	-0.5842306	-1.364849	-3.698408	
17:25:00	-6.795315	38.98458	203.29	0.3822497	2.89941	8.76	3	100	0	50	-0.6239884	0.8604303	-3.684497	
17:25:01	-6.795315	38.98458	203.29	0.3822497	2.89941	8.76	3	100	0	50	-0.5905902	2.359621	-3.679041	
17:25:01	-6.795315	38.98458	203.29	0.4028315	3.900107	8.76	3	100	0	50	-0.6215481	1.122044	-3.661581	
17:25:01	-6.795315	38.98458	203.29	0.4028315	3.900107	8.76	3	100	0	50	-0.612869	2.76523	-3.647436	
17:25:01	-6.795315	38.98458	203.29	0.4028315	3.900107	8.76	3	100	0	50	-0.6127366	4.170267	-3.650921	
17:25:01	-6.795315	38.98458	203.29	0.4028315	3.900107	8.76	3	100	0	50	-0.6277438	2.137	-3.635896	
17:25:02	-6.795315	38.98458	203.29	0.4028315	3.900107	8.76	3	100	0	50	-0.6445122	0.9005523	-3.628828	
17:25:02	-6.795315	38.98458	203.29	0.3967558	2.135037	8.76	3	100	0	50	-0.6548873	2.996246	-3.629727	
17:25:02	-6.795315	38.98458	203.29	0.3967558	2.135037	8.76	3	100	0	50	-0.6528819	0.9909685	-3.60834	
17:25:02	-6.795315	38.98458	203.29	0.3967558	2.135037	8.76	3	100	0	50	-0.6543491	2.555778	-3.593123	
17:25:02	-6.795315	38.98458	203.29	0.3967558	2.135037	8.76	3	100	0	50	-0.6725221	2.642021	-3.584018	
17:25:03	-6.795315	38.98458	203.29	0.3967558	2.135037	8.76	3	100	0	50	-0.665413	0.6849421	-3.566508	
17:25:03	-6.795315	38.98458	203.29	0.2543662	-2.906437	8.76	3	100	0	50	-0.6636806	2.347321	-3.545454	
17:25:03	-6.795315	38.98458	203.29	0.2543662	-2.906437	8.76	3	100	0	50	-0.6669129	2.954525	-3.542731	
17:25:03	-6.795315	38.98458	203.29	0.2543662	-2.906437	8.76	3	100	0	50	-0.6800273	1.596031	-3.527896	
17:25:03	-6.795315	38.98458	203.29	0.2543662	-2.906437	8.76	3	100	0	50	-0.6783301	2.730989	-3.516951	
17:25:04	-6.795315	38.98458	203.29	0.2543662	-2.906437	8.76	3	100	0	50	-0.7029416	2.949551	-3.501252	
17:25:04	-6.795315	38.98458	203.29	0.3390896	3.567421	8.76	3	100	0	50	-0.7074468	2.860044	-3.491667	
17:25:04	-6.795315	38.98458	203.29	0.3390896	3.567421	8.76	3	100	0	50	-0.7003406	2.752129	-3.48387	
17:25:04	-6.795315	38.98458	203.29	0.3390896	3.567421	8.76	3	100	0	50	-0.6981186	1.669061	-3.46882	
17:25:04	-6.795315	38.98458	203.29	0.3390896	3.567421	8.76	3	100	0	50	-0.6972367	-0.06410123	-3.453449	
17:25:05	-6.795315	38.98458	203.29	0.3390896	3.567421	8.76	3	100	0	50	-0.7060997	0.8518309	-3.449883	
17:25:05	-6.795315	38.98458	203.29	0.4380297	6.836393	8.76	3	100	0	50	-0.7260514	1.174171	-3.429514	
17:25:05	-6.795315	38.98458	203.29	0.4380297	6.836393	8.76	3	100	0	50	-0.726924	1.389509	-3.417298	
17:25:05	-6.795315	38.98458	203.29	0.4380297	6.836393	8.76	3	100	0	50	-0.7376204	1.29556	-3.405257	
17:25:05	-6.795315	38.98458	203.29	0.4380297	6.836393	8.76	3	100	0	50	-0.7497845	1.383155	-3.390198	
17:25:06	-6.795315	38.98458	203.29	0.4380297	6.836393	8.76	3	100	0	50	-0.7527251	1.456252	-3.37759	
17:25:06	-6.795315	38.98458	203.29	0.4914585	6.17708	8.76	3	100	0	50	-0.7663116	0.3128375	-3.362533	
17:25:06	-6.795315	38.98458	203.29	0.4914585	6.17708	8.76	3	100	0	50	-0.7728342	0.2429132	-3.361305	
17:25:06	-6.795315	38.98458	203.29	0.4914585	6.17708	8.76	3	100	0	50	-0.7756873	0.7525813	-3.351885	
17:25:06	-6.795315	38.98458	203.29	0.4914585	6.17708	8.76	3	100	0	50	-0.790869	0.06808976	-3.338406	
17:25:07	-6.795315	38.98458	203.29	0.4914585	6.17708	8.76	3	100	0	50	-0.802553	0.1183191	-3.331887	
17:25:07	-6.795315	38.98458	203.29	0.4794434	4.889702	8.76	3	100	0	50	-0.8186219	0.4082008	-3.319243	
17:25:07	-6.795315	38.98458	203.29	0.4794434	4.889702	8.76	3	100	0	50	-0.8541911	-1.022995	-3.311935	
17:25:07	-6.795315	38.98458	203.29	0.4794434	4.889702	8.76	3	100	0	50	-0.8499313	-0.589753	-3.294508	
17:25:07	-6.795315	38.98458	203.29	0.4794434	4.889702	8.76	3	100	0	50	-0.8219224	0.1424862	-3.284845	
17:25:08	-6.795315	38.98458	203.29	0.4794434	4.889702	8.76	3	100	0	50	-0.8198559	0.5109308	-3.273247	
17:25:08	-6.795315	38.98458	203.29	0.3414643	-3.086186	8.76	3	100	0	50	-0.8101066	1.126992	-3.267486	
17:25:08	-6.795315	38.98458	203.29	0.3414643	-3.086186	8.76	3	100	0	50	-0.8151179	-0.5684378	-3.255339	
17:25:08	-6.795315	38.98458	203.29	0.3414643	-3.086186	8.76	3	100	0	50	-0.8198148	-1.388777	-3.251628	
17:25:08	-6.795315	38.98458	203.29	0.3414643	-3.086186	8.76	3	100	0	50	-0.8295559	0.4304853	-3.24267	
17:25:09	-6.795315	38.98458	203.29	0.3414643	-3.086186	8.76	3	100	0	50	-0.8321595	1.499059	-3.226624	
17:25:09	-6.795315	38.98458	203.29	0.190014	-8.406016	8.76	3	100	0	50	-0.833202	1.4948	-3.214338	
17:25:09	-6.795315	38.98458	203.29	0.190014	-8.406016	8.76	3	100	0	50	-0.8384827	1.476539	-3.198191	
17:25:09	-6.795315	38.98458	203.29	0.190014	-8.406016	8.76	3	100	0	50	-0.8363102	1.506327	-3.187774	
17:25:09	-6.795315	38.98458	203.29	0.190014	-8.406016	8.76	3	100	0	50	-0.8323993	1.485029	-3.176751	
17:25:10	-6.795315	38.98458	203.29	0.190014	-8.406016	8.76	3	100	0	50	-0.8429727	1.457171	-3.170972	
17:25:10	-6.795315	38.98458	203.29	0.1818544	-4.185905	8.76	3	100	0	50	-0.8494192	0.9988222	-3.160034	
17:25:10	-6.795315	38.98458	203.29	0.1818544	-4.185905	8.76	3	100	0	50	-0.8576958	-0.5402878	-3.150153	
17:25:10	-6.795315	38.98458	203.29	0.1818544	-4.185905	8.76	3	100	0	50	-0.8514274	0.4363463	-3.136642	
17:25:10	-6.795315	38.98458	203.29	0.1818544	-4.185905	8.76	3	100	0	50	-0.8492715	2.035549	-3.123775	
17:25:11	-6.795315	38.98458	203.29	0.1818544	-4.185905	8.76	3	100	0	50	-0.8457441	0.625047	-3.111031	
17:25:11	-6.795315	38.98458	203.29	0.4189421	10.59547	8.76	3	100	0	50	-0.8500716	2.53343	-3.096268	
17:25:11	-6.795315	38.98458	203.29	0.4189421	10.59547	8.76	3	100	0	50	-0.8462902	1.742866	-3.082836	
17:25:11	-6.795315	38.98458	203.29	0.4189421	10.59547	8.76	3	100	0	50	-0.8554622	1.004337	-3.07	
17:25:11	-6.795315	38.98458	203.29	0.4189421	10.59547	8.76	3	100	0	50	-0.857546	0.3899956	-3.054734	
17:25:12	-6.795315	38.98458	203.29	0.4189421	10.59547	8.76	3	100	0	50	-0.8451509	1.982119	-3.049716	
17:25:12	-6.795315	38.98458	203.29	0.4726284	9.211309	8.76	3	100	0	50	-0.8371791	0.4691758	-3.042503	
17:25:12	-6.795315	38.98458	203.29	0.4726284	9.211309	8.76	3	100	0	50	-0.8430841	1.637883	-3.033771	
17:25:12	-6.795315	38.98458	203.29	0.4726284	9.211309	8.76	3	100	0	50	-0.8341238	1.748285	-3.026042	
17:25:12	-6.795315	38.98458	203.29	0.4726284	9.211309	8.76	3	100	0	50	-0.8290889	1.722074	-3.020498	
17:25:13	-6.795315	38.98458	203.29	0.4726284	9.211309	8.76	3	100	0	50	-0.8326875	-0.1405296	-3.013792	
17:25:13	-6.795315	38.98458	203.29	0.1725191	-7.353433	8.76	3	100	0	50	-0.837936	-0.8860605	-3.007311	
17:25:13	-6.795315	38.98458	203.29	0.1725191	-7.353433	8.76	3	100	0	50	-0.8439354	0.5668796	-2.994813	
17:25:13	-6.795315	38.98458	203.29	0.1725191	-7.353433	8.76	3	100	0	50	-0.8455331	-0.2419049	-2.982063	
17:25:13	-6.795315	38.98458	203.29	0.1725191	-7.353433	8.76	3	100	0	50	-0.8498656	-0.6919975	-2.964074	
17:25:14	-6.795315	38.98458	203.29	0.1725191	-7.353433	8.76	3	100	0	50	-0.8519855	0.2281013	-2.944942	
17:25:14	-6.795315	38.98458	203.29	0.1551693	-3.495224	8.76	3	100	0	50	-0.8470079	0.007893057	-2.932548	
17:25:14	-6.795315	38.98458	203.29	0.1551693	-3.495224	8.76	3	100	0	50	-0.8250763	-0.3905434	-2.916649	
17:25:14	-6.795315	38.98458	203.29	0.1551693	-3.495224	8.76	3	100	0	50	-0.8304893	1.099874	-2.908787	
17:25:14	-6.795315	38.98458	203.29	0.1551693	-3.495224	8.76	3	100	0	50	-0.8281073	2.042282	-2.895995	
17:25:15	-6.795315	38.98458	203.29	0.1551693	-3.495224	8.76	3	100	0	50	-0.8198294	1.495991	-2.875282	
17:25:15	-6.795315	38.98458	203.29	0.09237518	-5.260474	8.76	3	100	0	50	-0.8225974	1.545302	-2.866755	
17:25:15	-6.795315	38.98458	203.29	0.09237518	-5.260474	8.76	3	100	0	50	-0.8236223	1.899005	-2.849688	
17:25:15	-6.795315	38.98458	203.29	0.09237518	-5.260474	8.76	3	100	0	50	-0.8066924	0.1852126	-2.829418	
17:25:15	-6.795315	38.98458	203.29	0.09237518	-5.260474	8.76	3	100	0	50	-0.8062263	0.1821092	-2.818973	
17:25:16	-6.795315	38.98458	203.29	0.09237518	-5.260474	8.76	3	100	0	50	-0.7901109	0.5850096	-2.807807	
17:25:16	-6.795315	38.98458	203.29	0.1800347	1.812824	8.76	3	100	0	50	-0.8026003	-0.2244478	-2.792469	
17:25:16	-6.795315	38.98458	203.29	0.1800347	1.812824	8.76	3	100	0	50	-0.8054182	0.894639	-2.780615	
17:25:16	-6.795315	38.98458	203.29	0.1800347	1.812824	8.76	3	100	0	50	-0.8037416	-0.1687194	-2.76422	
17:25:16	-6.795315	38.98458	203.29	0.1800347	1.812824	8.76	3	100	0	50	-0.7888418	-0.7304018	-2.761914	
17:25:17	-6.795315	38.98458	203.29	0.1800347	1.812824	8.76	3	100	0	50	-0.8062959	-0.2068301	-2.749417	
17:25:17	-6.795315	38.98458	203.29	0.2577016	5.243693	8.76	3	100	0	50	-0.8114578	0.9989631	-2.741218	
17:25:17	-6.795315	38.98458	203.29	0.2577016	5.243693	8.76	3	100	0	50	-0.8071917	1.013248	-2.728797	
17:25:17	-6.795315	38.98458	203.29	0.2577016	5.243693	8.76	3	100	0	50	-0.809085	1.012241	-2.715715	
17:25:17	-6.795315	38.98458	203.29	0.2577016	5.243693	8.76	3	100	0	50	-0.8117747	-0.7939379	-2.701133	
17:25:18	-6.795315	38.98458	203.29	0.2577016	5.243693	8.76	3	100	0	50	-0.7994187	1.023664	-2.691541	
17:25:18	-6.795315	38.98458	203.29	0.01153184	-6.169496	8.76	3	100	0	50	-0.8048263	-0.6242828	-2.687076	
17:25:18	-6.795315	38.98458	203.29	0.01153184	-6.169496	8.76	3	100	0	50	-0.8099933	1.094198	-2.672674	
17:25:18	-6.795315	38.98458	203.29	0.01153184	-6.169496	8.76	3	100	0	50	-0.8119063	-0.4785027	-2.654289	
17:25:18	-6.795315	38.98458	203.29	0.01153184	-6.169496	8.76	3	100	0	50	-0.8167309	-1.879395	-2.644776	
17:25:19	-6.795315	38.98458	203.29	0.01153184	-6.169496	8.76	3	100	0	50	-0.8157126	-0.2343974	-2.634732	
17:25:19	-6.795315	38.98458	203.29	0.05922423	-0.9197025	8.76	3	100	0	50	-0.8120159	1.326153	-2.617367	
17:25:19	-6.795315	38.98458	203.29	0.05922423	-0.9197025	8.76	3	100	0	50	-0.8040536	1.665519	-2.611085	
17:25:19	-6.795315	38.98458	203.29	0.05922423	-0.9197025	8.76	3	100	0	50	-0.8082066	1.671968	-2.599435	
17:25:19	-6.795315	38.98458	203.29	0.05922423	-0.9197025	8.76	3	100	0	50	-0.8103254	0.4419599	-2.58477	
17:25:20	-6.795315	38.98458	203.29	0.05922423	-0.9197025	8.76	3	100	0	50	-0.8042064	1.331629	-2.588464	
17:25:20	-6.795315	38.98458	203.29	0.2018749	6.104475	8.76	3	100	0	50	-0.8144159	0.5254731	-2.57792	
17:25:20	-6.795315	38.98458	203.29	0.2018749	6.104475	8.76	3	100	0	50	-0.7959423	0.4803032	-2.567292	
17:25:20	-6.795315	38.98458	203.29	0.2018749	6.104475	8.76	3	100	0	50	-0.7931788	1.856741	-2.562476	
17:25:20	-6.795315	38.98458	203.29	0.2018749	6.104475	8.76	3	100	0	50	-0.7849242	2.635776	-2.541391	
17:25:21	-6.795315	38.98458	203.29	0.2018749	6.104475	8.76	3	100	0	50	-0.782261	2.61396	-2.535783	
17:25:21	-6.795315	38.98458	203.29	0.1704848	3.000484	8.76	3	100	0	50	-0.7830089	1.952364	-2.525508	
17:25:21	-6.795315	38.98458	203.29	0.1704848	3.000484	8.76	3	100	0	50	-0.7706684	0.3518523	-2.517476	
17:25:21	-6.795315	38.98458	203.29	0.1704848	3.000484	8.76	3	100	0	50	-0.7621955	-0.9666121	-2.503997	
17:25:21	-6.795315	38.98458	203.29	0.1704848	3.000484	8.76	3	100	0	50	-0.7569479	-0.9131078	-2.485535	
17:25:22	-6.795315	38.98458	203.29	0.1704848	3.000484	8.76	3	100	0	50	-0.7671072	0.6120565	-2.476861	
17:25:22	-6.795315	38.98458	203.29	-0.07879338	-8.429786	8.76	3	100	0	50	-0.7655165	1.93901	-2.460187	
17:25:22	-6.795315	38.98458	203.29	-0.07879338	-8.429786	8.76	3	100	0	50	-0.7556801	1.971653	-2.446042	
17:25:22	-6.795315	38.98458	203.29	-0.07879338	-8.429786	8.76	3	100	0	50	-0.758074	1.942686	-2.430778	
17:25:22	-6.795315	38.98458	203.29	-0.07879338	-8.429786	8.76	3	100	0	50	-0.7656039	1.252536	-2.422033	
17:25:23	-6.795315	38.98458	203.29	-0.07879338	-8.429786	8.76	3	100	0	50	-0.7647679	0.3799218	-2.410947	
