Date	Latitude(deg) 	Longitude(deg)	hamsl(m)	hafl(m)	climbrate(cm/s)	GroundSpeed(m/s)	Airspeed(m/s)	Mav_Link(%)	Rssi_Link(%)	Throttle	Roll(deg)	Pitch(deg)	Yaw(deg)
15:30:34	-6.728675	38.94616	129.798	0	0	0.08	0	100	0	0	-1.393909	5.011772	-22.205	
15:30:34	-6.728675	38.94616	129.817	0	0	0.04	0	100	0	0	-1.218495	5.122166	-22.21052	
15:30:34	-6.728673	38.94616	130.459	0	0	0.08	0	100	0	0	-1.154598	5.193301	-22.30415	
15:30:35	-6.728673	38.94616	130.51	0	0	0.02	0	100	0	0	-1.182067	5.16329	-22.38205	
15:30:35	-6.728673	38.94616	130.527	-1.229938	-30.25954	0.06	3	100	0	6546	-1.201191	5.159057	-22.4722	
15:30:35	-6.728673	38.94616	130.601	-1.229938	-30.25954	0.09	3	100	0	6546	-1.268821	5.147443	-22.564	
15:30:35	-6.728673	38.94616	130.62	-1.229938	-30.25954	0.04	3	100	0	6546	-1.243257	5.182797	-22.60015	
15:30:36	-6.728673	38.94616	130.642	-1.229938	-30.25954	0.04	3	100	0	6546	-1.193823	5.225206	-22.75663	
15:30:36	-6.728673	38.94616	130.671	-1.229938	-30.25954	0.04	3	100	0	6546	-1.173835	5.202636	-22.77489	
15:30:36	-6.728673	38.94616	130.718	-0.8603798	-10.76979	0.03	3	100	0	6546	-1.218496	5.168576	-22.80048	
15:30:36	-6.728673	38.94616	130.763	-0.8603798	-10.76979	0.06	3	100	0	6546	-1.238651	5.180182	-22.85146	
15:30:36	-6.728673	38.94616	130.773	-0.8603798	-10.76979	0.02	3	100	0	6546	-1.240994	5.143256	-22.92681	
15:30:37	-6.728673	38.94616	130.751	-0.8603798	-10.76979	0.04	3	100	0	6546	-1.258338	5.083066	-22.90137	
15:30:37	-6.728673	38.94616	130.737	-0.8603798	-10.76979	0.04	3	100	0	6546	-1.268571	5.047973	-23.02417	
15:30:37	-6.728673	38.94616	130.738	-1.017603	-23.85536	0.04	3	100	0	6546	-1.274353	5.044657	-23.00287	
15:30:37	-6.728673	38.94616	130.777	-1.017603	-23.85536	0.07	3	100	0	6546	-1.347245	5.022351	-23.10501	
15:30:37	-6.728673	38.94616	130.807	-1.017603	-23.85536	0.07	3	100	0	6546	-1.343084	5.09797	-23.17683	
15:30:38	-6.728673	38.94616	130.848	-1.017603	-23.85536	0.07	3	100	0	6546	-1.359514	5.103038	-23.23314	
15:30:38	-6.728673	38.94616	130.87	-1.017603	-23.85536	0.04	3	100	0	6546	-1.364051	5.087347	-23.32213	
15:30:38	-6.728673	38.94616	130.929	-1.119608	-29.06207	0.06	3	100	0	6546	-1.305451	5.059787	-23.3508	
15:30:38	-6.728673	38.94616	130.919	-1.119608	-29.06207	0.07	3	100	0	6546	-1.268404	5.093908	-23.31687	
15:30:38	-6.728673	38.94616	130.954	-1.119608	-29.06207	0.03	3	100	0	6546	-1.306863	5.065441	-23.40174	
15:30:38	-6.728673	38.94616	130.957	-1.119608	-29.06207	0	3	100	0	6546	-1.344391	5.059872	-23.4632	
15:30:39	-6.728673	38.94616	130.94	-1.119608	-29.06207	0.03	3	100	0	6546	-1.348731	5.02439	-23.50088	
15:30:39	-6.728673	38.94616	130.941	-1.142589	-28.3074	0.08	3	100	0	6546	-1.413024	4.999605	-23.55872	
15:30:39	-6.728673	38.94616	130.972	-1.142589	-28.3074	0.04	3	100	0	6546	-1.369159	4.997277	-23.58541	
15:30:39	-6.728673	38.94616	131.017	-1.142589	-28.3074	0.03	3	100	0	6546	-1.366078	4.995802	-23.56969	
15:30:40	-6.728673	38.94616	131.053	-1.142589	-28.3074	0.09	3	100	0	6546	-1.329261	5.092928	-23.61561	
15:30:40	-6.728673	38.94616	131.072	-1.142589	-28.3074	0.11	3	100	0	6546	-1.436602	5.002784	-23.67373	
15:30:40	-6.728673	38.94616	131.115	-1.288128	-30.19328	0.11	3	100	0	6546	-1.339806	4.982122	-23.67809	
15:30:40	-6.728673	38.94616	131.116	-1.288128	-30.19328	0.11	3	100	0	6546	-1.416286	5.037858	-23.78084	
15:30:40	-6.728673	38.94616	131.194	-1.288128	-30.19328	0.04	3	100	0	6546	-1.473225	5.007401	-23.84896	
15:30:40	-6.728673	38.94616	131.224	-1.288128	-30.19328	0.07	3	100	0	6546	-1.424291	5.034874	-23.85418	
15:30:41	-6.728673	38.94616	131.233	-1.288128	-30.19328	0.08	3	100	0	6546	-1.471492	4.958087	-23.93088	
15:30:41	-6.728673	38.94616	131.266	-1.237581	-24.25602	0.04	3	100	0	6546	-1.422488	4.976671	-23.95373	
15:30:41	-6.728673	38.94616	131.28	-1.237581	-24.25602	0.04	3	100	0	6546	-1.429404	4.969083	-23.99903	
15:30:42	-6.728673	38.94616	131.306	-1.237581	-24.25602	0.04	3	100	0	6546	-1.424543	4.952581	-23.95116	
15:30:42	-6.728673	38.94616	131.312	-1.237581	-24.25602	0.01	3	100	0	6546	-1.427588	4.973415	-23.92859	
15:30:42	-6.728673	38.94616	131.339	-1.237581	-24.25602	0.04	3	100	0	6546	-1.459098	5.02056	-23.90171	
15:30:42	-6.728673	38.94616	131.361	-1.32391	-24.73892	0.07	3	100	0	6546	-1.394384	4.985269	-23.99223	
15:30:42	-6.728673	38.94616	131.391	-1.32391	-24.73892	0.06	3	100	0	6546	-1.383616	4.936045	-24.01442	
15:30:42	-6.728673	38.94616	131.413	-1.32391	-24.73892	0.07	3	100	0	6546	-1.36758	4.899202	-24.00194	
15:30:43	-6.728673	38.94616	131.412	-1.32391	-24.73892	0.09	3	100	0	6546	-1.481107	4.884524	-24.11337	
15:30:43	-6.728673	38.94616	131.43	-1.32391	-24.73892	0.03	3	100	0	6546	-1.478363	4.916619	-24.18976	
15:30:43	-6.728673	38.94616	131.48	-1.152345	-13.91062	0.01	3	100	0	6546	-1.446233	4.961038	-24.1776	
15:30:43	-6.728673	38.94616	131.534	-1.152345	-13.91062	0.09	3	100	0	6546	-1.479031	4.895621	-24.21297	
15:30:43	-6.728673	38.94616	131.577	-1.152345	-13.91062	0.09	3	100	0	6546	-1.4352	4.979208	-24.22643	
15:30:43	-6.728673	38.94616	131.615	-1.152345	-13.91062	0.06	3	100	0	6546	-1.444251	4.905834	-24.23021	
15:30:44	-6.728673	38.94616	131.609	-1.152345	-13.91062	0.14	3	100	0	6546	-1.342025	4.995097	-24.24523	
15:30:44	-6.728673	38.94616	131.686	-1.264672	-19.87936	0.04	3	100	0	6546	-1.385936	5.024662	-24.31242	
15:30:44	-6.728673	38.94616	131.699	-1.264672	-19.87936	0.01	3	100	0	6546	-1.355666	5.004699	-24.33306	
15:30:44	-6.728673	38.94616	131.7	-1.264672	-19.87936	0.04	3	100	0	6546	-1.420757	4.981227	-24.30028	
15:30:45	-6.728673	38.94616	131.69	-1.264672	-19.87936	0.03	3	100	0	6546	-1.418378	4.995745	-24.33427	
15:30:45	-6.728673	38.94616	131.663	-1.264672	-19.87936	0.01	3	100	0	6546	-1.424058	4.975604	-24.32806	
15:30:45	-6.728673	38.94616	131.663	-1.24219	-15.74386	0.01	3	100	0	6546	-1.448758	5.017725	-24.31906	
15:30:45	-6.728673	38.94616	131.674	-1.24219	-15.74386	0.08	3	100	0	6546	-1.378434	5.081972	-24.31378	
15:30:45	-6.728673	38.94616	131.667	-1.24219	-15.74386	0.02	3	100	0	6546	-1.45305	5.093271	-24.34326	
15:30:46	-6.728673	38.94616	131.638	-1.24219	-15.74386	0.04	3	100	0	6546	-1.516733	5.033906	-24.30735	
15:30:46	-6.728673	38.94616	131.628	-1.24219	-15.74386	0.04	3	100	0	6546	-1.479008	5.012547	-24.34227	
15:30:46	-6.728673	38.94616	131.625	-0.9479722	-4.104058	0.04	3	100	0	6546	-1.547979	5.021433	-24.37784	
15:30:46	-6.728673	38.94616	131.585	-0.9479722	-4.104058	0.04	3	100	0	6546	-1.561859	5.014224	-24.31484	
15:30:47	-6.728673	38.94616	131.554	-0.9479722	-4.104058	0.04	3	100	0	6546	-1.439223	5.013606	-24.20439	
15:30:47	-6.728673	38.94616	131.545	-0.9479722	-4.104058	0.04	3	100	0	6546	-1.484987	5.035589	-24.18019	
15:30:47	-6.728674	38.94616	131.519	-0.9479722	-4.104058	0.02	3	100	0	6546	-1.405487	5.055975	-24.17915	
15:30:47	-6.728674	38.94616	131.527	-0.9825342	-9.493321	0.04	3	100	0	6546	-1.408108	5.021631	-24.27526	
15:30:47	-6.728674	38.94616	131.557	-0.9825342	-9.493321	0.09	3	100	0	6546	-1.377987	5.003133	-24.26799	
15:30:47	-6.728674	38.94616	131.557	-0.9825342	-9.493321	0.03	3	100	0	6546	-1.446044	5.081557	-24.22168	
15:30:48	-6.728674	38.94616	131.562	-0.9825342	-9.493321	0.09	3	100	0	6546	-1.423874	5.048546	-24.32689	
15:30:48	-6.728674	38.94616	131.584	-0.9825342	-9.493321	0.04	3	100	0	6546	-1.516703	5.02122	-24.32791	
15:30:48	-6.728674	38.94616	131.569	-1.104435	-16.97015	0.07	3	100	0	6546	-1.466133	5.066924	-24.3517	
15:30:48	-6.728674	38.94616	131.554	-1.104435	-16.97015	0.02	3	100	0	6546	-1.344245	5.066456	-24.29915	
15:30:48	-6.728674	38.94616	131.577	-1.104435	-16.97015	0.01	3	100	0	6546	-1.382931	5.067423	-24.23216	
15:30:49	-6.728674	38.94616	131.576	-1.104435	-16.97015	0.02	3	100	0	6546	-1.374687	5.065303	-24.2532	
15:30:49	-6.728674	38.94616	131.598	-1.104435	-16.97015	0.04	3	100	0	6546	-1.375894	5.070388	-24.37604	
15:30:49	-6.728674	38.94616	131.612	-1.124831	-14.89076	0.06	3	100	0	6546	-1.357291	5.053097	-24.37187	
15:30:49	-6.728674	38.94616	131.608	-1.124831	-14.89076	0.01	3	100	0	6546	-1.42	5.027393	-24.30661	
15:30:50	-6.728674	38.94616	131.608	-1.124831	-14.89076	0.01	3	100	0	6546	-1.418171	5.054597	-24.3497	
15:30:50	-6.728675	38.94616	131.623	-1.124831	-14.89076	0.03	3	100	0	6546	-1.417452	5.085372	-24.35253	
15:30:50	-6.728675	38.94616	131.602	-1.124831	-14.89076	0.03	3	100	0	6546	-1.448721	5.054136	-24.38991	
15:30:50	-6.728675	38.94616	131.588	-1.075771	-10.95217	0.02	3	100	0	6546	-1.443594	5.02664	-24.36575	
15:30:50	-6.728675	38.94616	131.65	-1.075771	-10.95217	0.02	3	100	0	6546	-1.421556	5.038693	-24.40223	
15:30:51	-6.728675	38.94616	131.629	-1.075771	-10.95217	0.07	3	100	0	6546	-1.448333	5.052574	-24.40731	
15:30:51	-6.728675	38.94616	131.655	-1.075771	-10.95217	0.02	3	100	0	6546	-1.477456	4.999387	-24.48433	
15:30:51	-6.728675	38.94616	131.654	-1.075771	-10.95217	0.03	3	100	0	6546	-1.409772	5.048181	-24.40968	
15:30:51	-6.728675	38.94616	131.705	-0.8358835	-0.3890878	0.02	3	100	0	6546	-1.381762	5.034903	-24.37756	
15:30:51	-6.728675	38.94616	131.75	-0.8358835	-0.3890878	0.02	3	100	0	6546	-1.399388	5.036009	-24.34434	
15:30:51	-6.728675	38.94616	131.786	-0.8358835	-0.3890878	0.04	3	100	0	6546	-1.390347	5.066845	-24.37965	
15:30:52	-6.728676	38.94616	131.809	-0.8358835	-0.3890878	0.07	3	100	0	6546	-1.355341	5.013297	-24.33431	
15:30:52	-6.728676	38.94616	131.867	-0.8358835	-0.3890878	0.02	3	100	0	6546	-1.454471	5.02375	-24.36678	
15:30:52	-6.728676	38.94616	131.895	-0.6184368	5.540325	0.02	3	100	0	6546	-1.413427	5.004622	-24.35229	
15:30:52	-6.728676	38.94616	131.937	-0.6184368	5.540325	0.04	3	100	0	6546	-1.415091	5.054935	-24.31359	
15:30:52	-6.728676	38.94616	131.976	-0.6184368	5.540325	0.07	3	100	0	6546	-1.399069	4.999204	-24.24111	
15:30:52	-6.728676	38.94616	132.02	-0.6184368	5.540325	0.09	3	100	0	6546	-1.462193	5.001989	-24.28033	
15:30:53	-6.728676	38.94616	132.086	-0.6184368	5.540325	0.08	3	100	0	6546	-1.487523	5.008795	-24.27219	
15:30:53	-6.728676	38.94616	132.112	-0.6831396	-4.300732	0.04	3	100	0	6546	-1.456915	4.974546	-24.21144	
15:30:53	-6.728677	38.94616	132.18	-0.6831396	-4.300732	0.04	3	100	0	6546	-1.328039	5.036658	-24.17999	
15:30:53	-6.728677	38.94616	132.183	-0.6831396	-4.300732	0.06	3	100	0	6546	-1.405177	5.068621	-24.21783	
15:30:53	-6.728677	38.94616	132.217	-0.6831396	-4.300732	0.03	3	100	0	6546	-1.316251	5.040912	-24.24113	
15:30:54	-6.728677	38.94616	132.245	-0.6831396	-4.300732	0.04	3	100	0	6546	-1.338532	4.991206	-24.23796	
15:30:54	-6.728677	38.94616	132.271	-0.9657258	-19.85493	0.04	3	100	0	6546	-1.371366	4.957948	-24.16572	
15:30:54	-6.728677	38.94616	132.295	-0.9657258	-19.85493	0.09	3	100	0	6546	-1.380992	5.044315	-24.14545	
15:30:55	-6.728677	38.94616	132.361	-0.9657258	-19.85493	0.07	3	100	0	6546	-1.4629	5.028565	-24.15905	
15:30:55	-6.728678	38.94616	132.388	-0.9657258	-19.85493	0.09	3	100	0	6546	-1.444571	5.016698	-24.07479	
15:30:55	-6.728678	38.94616	132.433	-0.9657258	-19.85493	0.02	3	100	0	6546	-1.456805	5.000575	-24.07507	
15:30:55	-6.728678	38.94616	132.45	-1.088188	-19.16053	0.03	3	100	0	6546	-1.383427	5.026029	-24.09334	
15:30:55	-6.728678	38.94616	132.467	-1.088188	-19.16053	0.04	3	100	0	6546	-1.352071	5.058886	-24.06129	
15:30:56	-6.728678	38.94616	132.446	-1.088188	-19.16053	0.06	3	100	0	6546	-1.319745	5.035327	-24.03037	
15:30:56	-6.728678	38.94616	132.456	-1.088188	-19.16053	0	3	100	0	6546	-1.284535	5.005357	-24.09022	
15:30:56	-6.728678	38.94616	132.491	-1.088188	-19.16053	0.02	3	100	0	6546	-1.343145	5.023617	-24.06164	
15:30:56	-6.728678	38.94616	132.482	-1.180696	-20.76187	0.04	3	100	0	6546	-1.339333	5.026939	-24.05413	
15:30:56	-6.728678	38.94616	132.499	-1.180696	-20.76187	0.02	3	100	0	6546	-1.297886	4.974926	-24.06605	
15:30:57	-6.728678	38.94616	132.536	-1.180696	-20.76187	0.03	3	100	0	6546	-1.360521	4.972411	-24.12431	
15:30:57	-6.728678	38.94616	132.555	-1.180696	-20.76187	0.01	3	100	0	6546	-1.327173	4.99047	-24.15754	
15:30:57	-6.728678	38.94616	132.585	-1.180696	-20.76187	0.07	3	100	0	6546	-1.338774	4.99739	-24.10936	
15:30:57	-6.728678	38.94616	132.6	-1.269362	-19.74298	0.09	3	100	0	6546	-1.276917	5.033372	-24.10955	
15:30:57	-6.728678	38.94616	132.604	-1.269362	-19.74298	0.04	3	100	0	6546	-1.227866	4.985605	-24.04781	
15:30:57	-6.728678	38.94616	132.651	-1.269362	-19.74298	0.07	3	100	0	6546	-1.383582	4.974134	-24.14554	
15:30:58	-6.728678	38.94616	132.66	-1.269362	-19.74298	0.04	3	100	0	6546	-1.338877	5.082999	-24.13419	
15:30:58	-6.728678	38.94616	132.673	-1.269362	-19.74298	0.13	3	100	0	6546	-1.438189	5.01785	-24.08284	
15:30:58	-6.728678	38.94616	132.662	-1.351908	-18.19357	0.04	3	100	0	6546	-1.229685	5.086945	-24.12614	
15:30:58	-6.728678	38.94616	132.675	-1.351908	-18.19357	0.04	3	100	0	6546	-1.344641	4.99514	-24.18605	
15:30:58	-6.728678	38.94616	132.65	-1.351908	-18.19357	0.04	3	100	0	6546	-1.286352	5.085608	-24.16488	
15:30:59	-6.728678	38.94616	132.683	-1.351908	-18.19357	0.04	3	100	0	6546	-1.312878	5.019802	-24.21179	
15:30:59	-6.728678	38.94616	132.726	-1.351908	-18.19357	0.07	3	100	0	6546	-1.34066	4.990616	-24.26018	
15:30:59	-6.728678	38.94616	132.738	-1.086463	-2.285799	0.06	3	100	0	6546	-1.242113	5.059084	-24.1909	
15:30:59	-6.728678	38.94616	132.754	-1.086463	-2.285799	0.02	3	100	0	6546	-1.248633	4.971078	-24.21761	
15:31:00	-6.728678	38.94616	132.771	-1.086463	-2.285799	0.01	3	100	0	6546	-1.299515	5.020534	-24.17166	
15:31:00	-6.728678	38.94616	132.792	-1.086463	-2.285799	0.04	3	100	0	6546	-1.323966	5.057482	-24.15386	
15:31:00	-6.728678	38.94616	132.777	-1.086463	-2.285799	0.09	3	100	0	6546	-1.253218	5.051333	-24.16919	
15:31:00	-6.728678	38.94616	132.747	-0.9835551	0.5187359	0.01	3	100	0	6546	-1.392714	4.940372	-24.26674	
15:31:00	-6.728678	38.94616	132.725	-0.9835551	0.5187359	0.04	3	100	0	6546	-1.30014	5.026901	-24.21894	
15:31:01	-6.728678	38.94616	132.731	-0.9835551	0.5187359	0.07	3	100	0	6546	-1.266945	5.081566	-24.25987	
15:31:01	-6.728678	38.94616	132.749	-0.9835551	0.5187359	0.07	3	100	0	6546	-1.388742	5.068632	-24.25725	
15:31:01	-6.728678	38.94616	132.727	-0.9835551	0.5187359	0.02	3	100	0	6546	-1.36129	5.100905	-24.248	
15:31:01	-6.728678	38.94616	132.72	-1.011855	-2.695938	0.04	3	100	0	6546	-1.254007	4.978758	-24.34133	
15:31:01	-6.728677	38.94616	132.736	-1.011855	-2.695938	0.08	3	100	0	6546	-1.289286	4.98364	-24.3685	
15:31:02	-6.728677	38.94616	132.761	-1.011855	-2.695938	0.12	3	100	0	6546	-1.210827	4.913593	-24.32748	
15:31:02	-6.728677	38.94616	132.738	-1.011855	-2.695938	0.04	3	100	0	6546	-1.158912	5.023795	-24.29327	
15:31:02	-6.728677	38.94616	132.69	-1.011855	-2.695938	0.02	3	100	0	6546	-1.259907	4.98025	-24.27105	
15:31:02	-6.728677	38.94616	132.66	-1.0473	-4.958391	0.06	3	100	0	6546	-1.302786	4.94248	-24.27469	
15:31:02	-6.728677	38.94616	132.659	-1.0473	-4.958391	0.02	3	100	0	6546	-1.339144	4.935895	-24.2565	
15:31:03	-6.728677	38.94616	132.642	-1.0473	-4.958391	0.03	3	100	0	6546	-1.293134	4.959836	-24.25404	
15:31:03	-6.728677	38.94616	132.643	-1.0473	-4.958391	0.07	3	100	0	6546	-1.275015	4.905979	-24.32705	
15:31:03	-6.728677	38.94616	132.627	-1.0473	-4.958391	0.04	3	100	0	6546	-1.342246	4.921571	-24.33009	
15:31:03	-6.728677	38.94616	132.604	-1.201505	-13.09769	0.02	3	100	0	6546	-1.254077	4.909895	-24.37884	
15:31:03	-6.728677	38.94616	132.58	-1.201505	-13.09769	0.08	3	100	0	6546	-1.311803	4.926154	-24.36454	
15:31:03	-6.728677	38.94616	132.565	-1.201505	-13.09769	0.04	3	100	0	6546	-1.362445	4.8993	-24.38292	
15:31:04	-6.728677	38.94616	132.537	-1.201505	-13.09769	0.07	3	100	0	6546	-1.339038	4.983628	-24.40207	
15:31:04	-6.728677	38.94616	132.511	-1.201505	-13.09769	0.02	3	100	0	6546	-1.238644	4.986663	-24.31659	
15:31:04	-6.728677	38.94616	132.51	-1.109805	-5.608883	0.04	3	100	0	6546	-1.322485	4.972991	-24.36452	
15:31:04	-6.728677	38.94616	132.469	-1.109805	-5.608883	0.09	3	100	0	6546	-1.297365	4.940628	-24.32376	
15:31:05	-6.728677	38.94616	132.479	-1.109805	-5.608883	0.09	3	100	0	6546	-1.322449	4.894005	-24.29856	
15:31:05	-6.728677	38.94616	132.448	-1.109805	-5.608883	0.14	3	100	0	6546	-1.367204	4.960713	-24.34394	
15:31:05	-6.728677	38.94616	132.439	-1.109805	-5.608883	0.06	3	100	0	6546	-1.409573	5.010806	-24.26433	
15:31:05	-6.728676	38.94616	132.366	-1.160643	-8.934691	0.07	3	100	0	6546	-1.271713	5.167346	-24.22435	
15:31:05	-6.728676	38.94616	132.275	-1.160643	-8.934691	0.09	3	100	0	6546	-1.165916	5.243865	-24.27343	
15:31:06	-6.728676	38.94616	132.227	-1.160643	-8.934691	0.04	3	100	0	6546	-1.296362	5.203403	-24.27492	
15:31:06	-6.728676	38.94616	132.175	-1.160643	-8.934691	0.06	3	100	0	6546	-1.224397	5.197209	-24.19668	
15:31:06	-6.728676	38.94616	132.23	-1.160643	-8.934691	0.04	3	100	0	6546	-1.229706	5.23643	-24.17472	
15:31:06	-6.728676	38.94616	132.145	-1.089678	-3.072685	0.19	3	100	0	6546	-1.181938	5.199463	-24.23058	
15:31:06	-6.728675	38.94616	131.892	-1.089678	-3.072685	0.04	3	100	0	6546	-0.8193999	4.986022	-24.16542	
15:31:06	-6.728675	38.94616	131.974	-1.089678	-3.072685	0.08	3	100	0	6546	-0.9162998	5.082371	-24.20638	
15:31:07	-6.728675	38.94616	131.949	-1.089678	-3.072685	0.08	3	100	0	6546	-1.125941	4.934043	-24.29388	
15:31:07	-6.728675	38.94616	131.907	-1.089678	-3.072685	0.04	3	100	0	6546	-1.121509	4.953102	-24.32167	
15:31:07	-6.728675	38.94616	131.9	-1.184007	-8.840484	0.08	3	100	0	6546	-1.019917	5.010795	-24.31656	
15:31:07	-6.728675	38.94616	131.898	-1.184007	-8.840484	0.03	3	100	0	6546	-1.024336	5.042646	-24.4097	
15:31:08	-6.728675	38.94616	131.881	-1.184007	-8.840484	0.04	3	100	0	6546	-1.094895	5.031847	-24.42181	
15:31:08	-6.728675	38.94616	131.876	-1.184007	-8.840484	0.07	3	100	0	6546	-1.115963	4.973972	-24.37992	
15:31:08	-6.728675	38.94616	131.846	-1.184007	-8.840484	0.08	3	100	0	6546	-1.196941	5.012117	-24.41017	
15:31:08	-6.728675	38.94616	131.8	-1.26232	-10.58402	0.03	3	100	0	6546	-1.09443	5.074246	-24.35166	
15:31:08	-6.728675	38.94616	131.758	-1.26232	-10.58402	0.01	3	100	0	6546	-1.127295	5.008812	-24.38732	
15:31:08	-6.728675	38.94616	131.727	-1.26232	-10.58402	0.04	3	100	0	6546	-1.161999	5.030242	-24.363	
15:31:09	-6.728675	38.94616	131.714	-1.26232	-10.58402	0.04	3	100	0	6546	-1.193889	5.0309	-24.39035	
15:31:09	-6.728675	38.94616	131.736	-1.26232	-10.58402	0.04	3	100	0	6546	-1.140843	4.938792	-24.37863	
15:31:09	-6.728675	38.94616	131.76	-1.251645	-5.986434	0.12	3	100	0	6546	-1.139266	5.006716	-24.37681	
15:31:09	-6.728675	38.94616	131.717	-1.251645	-5.986434	0.01	3	100	0	6546	-1.101886	5.062398	-24.41657	
15:31:10	-6.728675	38.94616	131.692	-1.251645	-5.986434	0.03	3	100	0	6546	-1.272638	4.961715	-24.4868	
15:31:10	-6.728675	38.94616	131.682	-1.251645	-5.986434	0.08	3	100	0	6546	-1.309078	4.941544	-24.39179	
15:31:10	-6.728675	38.94616	131.671	-1.251645	-5.986434	0.01	3	100	0	6546	-1.359551	4.919185	-24.45427	
15:31:10	-6.728675	38.94616	131.668	-0.6719783	20.66816	0.04	3	100	0	6546	-1.275074	4.926676	-24.42486	
15:31:10	-6.728675	38.94616	131.651	-0.6719783	20.66816	0.04	3	100	0	6546	-1.266903	4.893419	-24.42511	
15:31:11	-6.728675	38.94616	131.653	-0.6719783	20.66816	0.02	3	100	0	6546	-1.313958	4.877663	-24.37728	
15:31:11	-6.728675	38.94616	131.678	-0.6719783	20.66816	0.04	3	100	0	6546	-1.283738	4.904827	-24.31435	
15:31:11	-6.728675	38.94616	131.716	-0.6719783	20.66816	0.01	3	100	0	6546	-1.264439	4.945432	-24.33443	
15:31:11	-6.728675	38.94616	131.72	-0.3489611	23.60218	0.03	3	100	0	6546	-1.306642	4.954152	-24.35852	
15:31:11	-6.728675	38.94616	131.736	-0.3489611	23.60218	0.04	3	100	0	6546	-1.305062	4.940767	-24.43379	
15:31:12	-6.728675	38.94616	131.762	-0.3489611	23.60218	0.04	3	100	0	6546	-1.363966	4.932465	-24.44	
15:31:12	-6.728675	38.94616	131.754	-0.3489611	23.60218	0.02	3	100	0	6546	-1.347064	4.925412	-24.3908	
15:31:12	-6.728675	38.94616	131.728	-0.3489611	23.60218	0.09	3	100	0	6546	-1.327018	4.926037	-24.3583	
15:31:12	-6.728675	38.94616	131.712	-0.7884356	-6.980947	0.09	3	100	0	6546	-1.37703	4.978871	-24.33525	
15:31:12	-6.728675	38.94616	131.679	-0.7884356	-6.980947	0.03	3	100	0	6546	-1.376795	4.940441	-24.31932	
15:31:12	-6.728675	38.94616	131.683	-0.7884356	-6.980947	0.03	3	100	0	6546	-1.329985	4.891941	-24.2831	
15:31:13	-6.728675	38.94616	131.671	-0.7884356	-6.980947	0.06	3	100	0	6546	-1.36333	4.898903	-24.30784	
15:31:13	-6.728675	38.94616	131.633	-0.7884356	-6.980947	0.06	3	100	0	6546	-1.395322	4.888507	-24.28622	
15:31:13	-6.728675	38.94616	131.614	-0.8636184	-8.090939	0.03	3	100	0	6547	-1.366353	4.93927	-24.24212	
15:31:13	-6.728675	38.94616	131.564	-0.8636184	-8.090939	0.04	3	100	0	6547	-1.318806	4.946437	-24.23976	
15:31:14	-6.728675	38.94616	131.494	-0.8636184	-8.090939	0.04	3	100	0	6547	-1.332073	4.89102	-24.27808	
15:31:14	-6.728675	38.94616	131.465	-0.8636184	-8.090939	0.03	3	100	0	6547	-1.297926	4.889849	-24.21577	
15:31:14	-6.728674	38.94616	131.404	-0.8636184	-8.090939	0.02	3	100	0	6547	-1.302545	4.925692	-24.19355	
15:31:14	-6.728674	38.94616	131.382	-0.8469778	-4.603184	0.03	3	100	0	6546	-1.329264	4.954322	-24.22078	
15:31:14	-6.728674	38.94616	131.358	-0.8469778	-4.603184	0.04	3	100	0	6546	-1.293564	4.952886	-24.20949	
15:31:14	-6.728674	38.94616	131.303	-0.8469778	-4.603184	0.12	3	100	0	6546	-1.298131	4.936058	-24.2422	
15:31:15	-6.728674	38.94616	131.264	-0.8469778	-4.603184	0.03	3	100	0	6546	-1.345106	4.935952	-24.30661	
15:31:15	-6.728674	38.94616	131.221	-0.8469778	-4.603184	0.08	3	100	0	6546	-1.269939	4.977482	-24.2818	
15:31:15	-6.728674	38.94616	131.197	-1.002498	-11.15899	0.04	3	100	0	6546	-1.333608	4.950027	-24.27907	
15:31:15	-6.728674	38.94616	131.151	-1.002498	-11.15899	0.04	3	100	0	6546	-1.265049	4.956022	-24.26265	
15:31:15	-6.728674	38.94616	131.127	-1.002498	-11.15899	0.02	3	100	0	6546	-1.260792	4.932228	-24.36989	
15:31:16	-6.728674	38.94616	131.1	-1.002498	-11.15899	0.08	3	100	0	6546	-1.257626	4.969037	-24.3765	
15:31:16	-6.728674	38.94616	131.078	-1.002498	-11.15899	0.04	3	100	0	6546	-1.183681	4.978508	-24.38969	
15:31:16	-6.728674	38.94616	131.052	-1.062357	-9.920292	0.04	3	100	0	6546	-1.199814	4.965549	-24.3531	
15:31:16	-6.728674	38.94616	131.04	-1.062357	-9.920292	0.03	3	100	0	6546	-1.231786	4.982436	-24.3645	
15:31:17	-6.728674	38.94616	131.05	-1.062357	-9.920292	0.06	3	100	0	6546	-1.254474	4.999329	-24.43849	
15:31:17	-6.728674	38.94616	131.082	-1.062357	-9.920292	0.03	3	100	0	6546	-1.216161	5.017859	-24.36407	
15:31:17	-6.728674	38.94616	131.06	-1.062357	-9.920292	0.04	3	100	0	6546	-1.236756	4.946608	-24.32572	
15:31:17	-6.728674	38.94616	131.092	-0.9005308	0.198333	0.07	3	100	0	6546	-1.258312	4.960657	-24.30335	
15:31:17	-6.728674	38.94616	131.09	-0.9005308	0.198333	0.04	3	100	0	6546	-1.284258	4.954696	-24.37839	
15:31:18	-6.728674	38.94616	131.148	-0.9005308	0.198333	0.04	3	100	0	6546	-1.270329	4.99263	-24.37167	
15:31:18	-6.728674	38.94616	131.122	-0.9005308	0.198333	0.04	3	100	0	6546	-1.308573	4.993629	-24.31912	
15:31:18	-6.728674	38.94616	131.123	-0.9005308	0.198333	0.04	3	100	0	6546	-1.2842	4.990949	-24.36192	
15:31:18	-6.728674	38.94616	131.098	-0.937585	-2.552691	0.03	3	100	0	6546	-1.290232	4.931431	-24.43774	
15:31:18	-6.728674	38.94616	131.093	-0.937585	-2.552691	0.02	3	100	0	6546	-1.321775	4.929276	-24.54682	
15:31:18	-6.728673	38.94616	131.113	-0.937585	-2.552691	0.08	3	100	0	6546	-1.279763	4.946616	-24.52254	
15:31:19	-6.728673	38.94616	131.093	-0.937585	-2.552691	0.06	3	100	0	6546	-1.256226	5.001331	-24.55083	
15:31:19	-6.728673	38.94616	131.137	-0.937585	-2.552691	0.04	3	100	0	6546	-1.283326	4.993824	-24.56381	
15:31:19	-6.728673	38.94616	131.179	-0.994625	-3.668747	0.04	3	100	0	6546	-1.292071	4.97051	-24.55586	
15:31:19	-6.728673	38.94616	131.188	-0.994625	-3.668747	0.04	3	100	0	6546	-1.284467	4.985804	-24.53214	
15:31:19	-6.728673	38.94616	131.186	-0.994625	-3.668747	0.03	3	100	0	6546	-1.280224	5.045924	-24.5442	
15:31:20	-6.728673	38.94616	131.186	-0.994625	-3.668747	0.03	3	100	0	6546	-1.295699	5.041919	-24.49314	
15:31:20	-6.728673	38.94616	131.166	-0.994625	-3.668747	0.11	3	100	0	6546	-1.289454	5.042923	-24.46566	
15:31:20	-6.728673	38.94616	131.191	-0.8039844	5.628528	0.04	3	100	0	6546	-1.2803	5.031017	-24.43422	
15:31:20	-6.728673	38.94616	131.237	-0.8039844	5.628528	0.02	3	100	0	6546	-1.328476	5.003128	-24.48098	
15:31:20	-6.728673	38.94616	131.329	-0.8039844	5.628528	0.04	3	100	0	6546	-1.342789	4.970901	-24.50703	
15:31:21	-6.728673	38.94616	131.369	-0.8039844	5.628528	0.04	3	100	0	6546	-1.349875	4.939876	-24.50515	
15:31:21	-6.728673	38.94616	131.387	-0.8039844	5.628528	0.04	3	100	0	6546	-1.377287	4.986195	-24.43865	
15:31:21	-6.728674	38.94616	131.345	-0.5474117	12.76107	0.03	3	100	0	6546	-1.357059	5.002461	-24.42529	
15:31:21	-6.728673	38.94616	131.352	-0.5474117	12.76107	0.04	3	100	0	6546	-1.320569	4.98373	-24.40346	
15:31:22	-6.728674	38.94616	131.354	-0.5474117	12.76107	0.09	3	100	0	6546	-1.318172	5.043807	-24.46374	
15:31:22	-6.728674	38.94616	131.321	-0.5474117	12.76107	0.08	3	100	0	6546	-1.299703	5.092652	-24.43472	
15:31:22	-6.728674	38.94616	131.32	-0.5474117	12.76107	0.04	3	100	0	6546	-1.285257	5.024437	-24.35492	
15:31:22	-6.728674	38.94616	131.322	-0.4990472	8.263954	0.01	3	100	0	6546	-1.317896	5.007575	-24.3278	
15:31:22	-6.728674	38.94616	131.28	-0.4990472	8.263954	0.09	3	100	0	6546	-1.391805	4.984419	-24.3341	
15:31:22	-6.728674	38.94616	131.274	-0.4990472	8.263954	0.06	3	100	0	6546	-1.437132	4.963173	-24.42051	
15:31:23	-6.728674	38.94616	131.28	-0.4990472	8.263954	0.11	3	100	0	6546	-1.448539	4.982455	-24.40188	
15:31:23	-6.728674	38.94616	131.296	-0.4990472	8.263954	0.04	3	100	0	6546	-1.431988	5.014229	-24.43976	
15:31:23	-6.728674	38.94616	131.314	-0.6875901	-3.825657	0.02	3	100	0	6546	-1.362617	5.019043	-24.3732	
15:31:23	-6.728674	38.94616	131.332	-0.6875901	-3.825657	0.03	3	100	0	6546	-1.336126	5.000133	-24.34319	
15:31:23	-6.728674	38.94616	131.325	-0.6875901	-3.825657	0.06	3	100	0	6546	-1.331647	4.988045	-24.28909	
15:31:24	-6.728674	38.94616	131.35	-0.6875901	-3.825657	0.02	3	100	0	6546	-1.322528	4.992743	-24.30515	
15:31:24	-6.728674	38.94616	131.359	-0.6875901	-3.825657	0.07	3	100	0	6546	-1.357321	5.01473	-24.23335	
15:31:24	-6.728674	38.94616	131.368	-0.7997428	-8.158151	0.03	3	100	0	6546	-1.389444	5.005121	-24.27062	
15:31:24	-6.728674	38.94616	131.358	-0.7997428	-8.158151	0.04	3	100	0	6546	-1.378559	5.017801	-24.33277	
15:31:25	-6.728674	38.94616	131.355	-0.7997428	-8.158151	0.04	3	100	0	6546	-1.327157	4.994603	-24.3233	
15:31:25	-6.728674	38.94616	131.351	-0.7997428	-8.158151	0.04	3	100	0	6546	-1.327729	5.048612	-24.29817	
15:31:25	-6.728674	38.94616	131.31	-0.7997428	-8.158151	0.06	3	100	0	6546	-1.322713	5.070432	-24.34206	
15:31:25	-6.728674	38.94616	131.298	-0.7430931	-2.654947	0.03	3	100	0	6546	-1.323528	5.06	-24.27526	
15:31:25	-6.728674	38.94616	131.282	-0.7430931	-2.654947	0.04	3	100	0	6546	-1.365929	5.088074	-24.29737	
15:31:26	-6.728674	38.94616	131.282	-0.7430931	-2.654947	0.01	3	100	0	6546	-1.388871	5.103609	-24.23422	
15:31:26	-6.728674	38.94616	131.28	-0.7430931	-2.654947	0	3	100	0	6546	-1.356545	5.139248	-24.22264	
15:31:26	-6.728674	38.94616	131.279	-0.7430931	-2.654947	0.02	3	100	0	6546	-1.36204	5.121549	-24.18501	
15:31:26	-6.728674	38.94616	131.279	-0.7230946	-1.013628	0.04	3	100	0	6546	-1.337588	5.130562	-24.15432	
15:31:26	-6.728674	38.94616	131.264	-0.7230946	-1.013628	0.02	3	100	0	6546	-1.337957	5.133184	-24.15755	
15:31:27	-6.728674	38.94616	131.272	-0.7230946	-1.013628	0.06	3	100	0	6546	-1.372361	5.153719	-24.19194	
15:31:27	-6.728674	38.94616	131.298	-0.7230946	-1.013628	0.04	3	100	0	6546	-1.423281	5.040394	-24.19878	
15:31:27	-6.728674	38.94616	131.287	-0.7230946	-1.013628	0.04	3	100	0	6546	-1.453874	4.951882	-24.18549	
15:31:27	-6.728674	38.94616	131.297	-0.7601016	-2.529772	0.02	3	100	0	6546	-1.411182	5.031564	-24.1658	
15:31:27	-6.728674	38.94616	131.247	-0.7601016	-2.529772	0.04	3	100	0	6546	-1.36951	5.045959	-24.18393	
15:31:28	-6.728674	38.94616	131.242	-0.7601016	-2.529772	0.06	3	100	0	6546	-1.36322	5.012123	-24.14005	
15:31:28	-6.728674	38.94616	131.237	-0.7601016	-2.529772	0.02	3	100	0	6546	-1.40483	5.065463	-24.18129	
15:31:28	-6.728674	38.94616	131.256	-0.7601016	-2.529772	0.04	3	100	0	6546	-1.394782	5.120796	-24.15428	
15:31:28	-6.728674	38.94616	131.283	-1.159828	-19.64394	0.06	3	100	0	6546	-1.424157	5.144547	-24.09445	
15:31:28	-6.728674	38.94616	131.298	-1.159828	-19.64394	0.04	3	100	0	6546	-1.382115	5.098769	-24.1081	
15:31:28	-6.728674	38.94616	131.296	-1.159828	-19.64394	0.06	3	100	0	6546	-1.41683	5.008962	-24.20173	
15:31:29	-6.728675	38.94616	131.307	-1.159828	-19.64394	0.04	3	100	0	6546	-1.460108	5.004058	-24.17961	
15:31:29	-6.728675	38.94616	131.335	-1.159828	-19.64394	0.04	3	100	0	6546	-1.476549	5.10076	-24.20929	
15:31:29	-6.728675	38.94616	131.323	-1.172466	-12.54764	0.04	3	100	0	6546	-1.448815	5.103405	-24.19373	
15:31:29	-6.728675	38.94616	131.363	-1.172466	-12.54764	0.04	3	100	0	6546	-1.44939	5.114894	-24.18604	
15:31:29	-6.728675	38.94616	131.356	-1.172466	-12.54764	0.09	3	100	0	6546	-1.456177	5.181516	-24.22437	
15:31:30	-6.728675	38.94616	131.371	-1.172466	-12.54764	0.04	3	100	0	6546	-1.454384	5.169591	-24.23233	
15:31:30	-6.728675	38.94616	131.36	-1.172466	-12.54764	0.04	3	100	0	6546	-1.383636	5.127448	-24.26938	
15:31:30	-6.728675	38.94616	131.344	-1.219279	-11.17774	0.01	3	100	0	6547	-1.38895	5.123529	-24.21209	
15:31:30	-6.728675	38.94616	131.317	-1.219279	-11.17774	0.03	3	100	0	6547	-1.40357	5.140369	-24.13179	
15:31:31	-6.728675	38.94616	131.317	-1.219279	-11.17774	0.02	3	100	0	6547	-1.393914	5.106726	-24.15263	
15:31:31	-6.728675	38.94616	131.33	-1.219279	-11.17774	0.04	3	100	0	6547	-1.350188	5.126028	-24.17403	
15:31:31	-6.728675	38.94616	131.325	-1.219279	-11.17774	0.06	3	100	0	6547	-1.321605	5.155311	-24.16973	
15:31:31	-6.728675	38.94616	131.295	-1.262346	-9.549722	0.04	3	100	0	6546	-1.384549	5.097094	-24.15251	
15:31:31	-6.728675	38.94616	131.292	-1.262346	-9.549722	0.06	3	100	0	6546	-1.449788	5.060765	-24.1692	
15:31:31	-6.728675	38.94616	131.283	-1.262346	-9.549722	0.04	3	100	0	6546	-1.439509	5.076441	-24.23247	
15:31:32	-6.728675	38.94616	131.286	-1.262346	-9.549722	0.04	3	100	0	6546	-1.433764	5.072546	-24.21521	
15:31:32	-6.728675	38.94616	131.287	-1.262346	-9.549722	0.07	3	100	0	6546	-1.371505	5.115175	-24.19813	
15:31:32	-6.728675	38.94616	131.276	-1.233204	-6.994452	0.07	3	100	0	6546	-1.406361	5.109486	-24.15451	
15:31:32	-6.728675	38.94616	131.276	-1.233204	-6.994452	0.02	3	100	0	6546	-1.412725	5.102362	-24.21523	
15:31:33	-6.728675	38.94616	131.266	-1.233204	-6.994452	0.02	3	100	0	6546	-1.372419	5.114482	-24.23492	
15:31:33	-6.728675	38.94616	131.258	-1.233204	-6.994452	0.04	3	100	0	6546	-1.397597	5.100083	-24.19925	
15:31:33	-6.728675	38.94616	131.265	-1.233204	-6.994452	0.02	3	100	0	6546	-1.375767	5.118639	-24.15424	
15:31:33	-6.728675	38.94616	131.224	-1.17716	-1.094819	0.08	3	100	0	6546	-1.317598	5.176611	-24.21558	
15:31:33	-6.728675	38.94616	131.2	-1.17716	-1.094819	0.03	3	100	0	6546	-1.32933	5.137543	-24.16161	
15:31:33	-6.728675	38.94616	131.149	-1.17716	-1.094819	0.04	3	100	0	6546	-1.392133	5.096612	-24.19504	
15:31:34	-6.728675	38.94616	131.152	-1.17716	-1.094819	0.02	3	100	0	6546	-1.401292	5.107377	-24.22935	
15:31:34	-6.728675	38.94616	131.135	-1.17716	-1.094819	0.06	3	100	0	6546	-1.352604	5.125132	-24.25107	
15:31:34	-6.728675	38.94616	131.127	-1.014803	7.190248	0.04	3	100	0	6546	-1.379896	5.175012	-24.28179	
15:31:35	-6.728675	38.94616	131.13	-1.014803	7.190248	0.04	3	100	0	6546	-1.42308	5.174039	-24.33049	
15:31:35	-6.728676	38.94616	131.167	-1.014803	7.190248	0.08	3	100	0	6546	-1.435922	5.106626	-24.31223	
15:31:35	-6.728676	38.94616	131.142	-1.014803	7.190248	0.04	3	100	0	6546	-1.419756	5.097275	-24.23529	
15:31:35	-6.728676	38.94616	131.091	-1.014803	7.190248	0.07	3	100	0	6546	-1.322037	5.101203	-24.18054	
15:31:35	-6.728676	38.94616	131.068	-1.289245	-7.096235	0.02	3	100	0	6546	-1.328142	5.122879	-24.21581	
15:31:35	-6.728676	38.94616	131.092	-1.289245	-7.096235	0.07	3	100	0	6546	-1.39507	5.17312	-24.14732	
15:31:36	-6.728676	38.94616	131.087	-1.289245	-7.096235	0.03	3	100	0	6546	-1.42336	5.169433	-24.23628	
15:31:36	-6.728676	38.94616	131.081	-1.289245	-7.096235	0.03	3	100	0	6546	-1.378292	5.128801	-24.18565	
15:31:36	-6.728676	38.94616	131.071	-1.289245	-7.096235	0.03	3	100	0	6546	-1.369024	5.130079	-24.13682	
15:31:36	-6.728676	38.94616	131.126	-1.347188	-5.574334	0.04	3	100	0	6546	-1.312271	5.161724	-24.14704	
15:31:37	-6.728676	38.94616	131.122	-1.347188	-5.574334	0.07	3	100	0	6546	-1.299959	5.206891	-24.10036	
15:31:37	-6.728676	38.94616	131.081	-1.347188	-5.574334	0.04	3	100	0	6546	-1.287086	5.172493	-24.06521	
15:31:37	-6.728676	38.94616	131.086	-1.347188	-5.574334	0.04	3	100	0	6546	-1.294186	5.174827	-24.10324	
15:31:37	-6.728676	38.94616	131.084	-1.347188	-5.574334	0.02	3	100	0	6546	-1.309679	5.133733	-24.16651	
15:31:37	-6.728676	38.94616	131.065	-1.190667	3.66677	0.01	3	100	0	6546	-1.331004	5.105819	-24.22413	
15:31:37	-6.728676	38.94616	131.057	-1.190667	3.66677	0.02	3	100	0	6546	-1.318192	5.149571	-24.19864	
15:31:38	-6.728677	38.94616	131.075	-1.190667	3.66677	0.04	3	100	0	6546	-1.360796	5.141012	-24.20999	
15:31:38	-6.728677	38.94616	131.095	-1.190667	3.66677	0.04	3	100	0	6546	-1.310319	5.128703	-24.24518	
15:31:38	-6.728677	38.94616	131.095	-1.190667	3.66677	0.04	3	100	0	6546	-1.364371	5.15629	-24.31742	
15:31:38	-6.728677	38.94616	131.132	-1.051806	7.014964	0.01	3	100	0	6546	-1.371758	5.099327	-24.22543	
15:31:38	-6.728677	38.94616	131.112	-1.051806	7.014964	0.03	3	100	0	6546	-1.361354	5.072433	-24.22406	
15:31:39	-6.728677	38.94616	131.138	-1.051806	7.014964	0.04	3	100	0	6546	-1.456232	5.131988	-24.28251	
15:31:39	-6.728677	38.94616	131.111	-1.051806	7.014964	0.09	3	100	0	6546	-1.562001	5.19358	-24.42828	
15:31:39	-6.728677	38.94616	131.111	-1.051806	7.014964	0.09	3	100	0	6546	-1.486617	5.316228	-24.37968	
15:31:39	-6.728677	38.94616	131.104	-1.111211	2.994638	0.07	3	100	0	6546	-1.464507	5.350023	-24.36085	
15:31:40	-6.728677	38.94616	131.05	-1.111211	2.994638	0.04	3	100	0	6546	-1.33606	5.368931	-24.25303	
15:31:40	-6.728677	38.94616	131.039	-1.111211	2.994638	0.07	3	100	0	6546	-1.390351	5.477555	-24.34518	
15:31:40	-6.728677	38.94616	131.039	-1.111211	2.994638	0.04	3	100	0	6546	-1.410689	5.419092	-24.32968	
15:31:40	-6.728677	38.94616	131.012	-1.111211	2.994638	0.04	3	100	0	6546	-1.510409	5.347279	-24.31722	
15:31:40	-6.728677	38.94616	131.003	-1.065864	4.421714	0.04	3	100	0	6546	-1.424185	5.35947	-24.22178	
15:31:41	-6.728677	38.94616	130.987	-1.065864	4.421714	0.04	3	100	0	6546	-1.417386	5.340241	-24.2391	
15:31:41	-6.728677	38.94616	130.949	-1.065864	4.421714	0.03	3	100	0	6546	-1.405144	5.231418	-24.25611	
15:31:41	-6.728677	38.94616	130.88	-1.065864	4.421714	0.04	3	100	0	6546	-1.40982	5.30148	-24.24018	
15:31:41	-6.728677	38.94616	130.842	-1.065864	4.421714	0.04	3	100	0	6546	-1.414683	5.331876	-24.25601	
15:31:41	-6.728677	38.94616	130.813	-0.793157	15.78178	0.07	3	100	0	6546	-1.377681	5.327469	-24.24349	
15:31:42	-6.728677	38.94616	130.793	-0.793157	15.78178	0.01	3	100	0	6546	-1.522378	5.283479	-24.25119	
15:31:42	-6.728677	38.94616	130.8	-0.793157	15.78178	0.04	3	100	0	6546	-1.407169	5.19718	-24.22263	
15:31:42	-6.728677	38.94616	130.803	-0.793157	15.78178	0.04	3	100	0	6546	-1.404038	5.092753	-24.22746	
15:31:42	-6.728677	38.94616	130.771	-0.793157	15.78178	0.01	3	100	0	6546	-1.432264	5.079057	-24.25177	
15:31:43	-6.728677	38.94616	130.752	-0.608574	17.13564	0.09	3	100	0	6546	-1.394245	5.085959	-24.285	
15:31:43	-6.728677	38.94616	130.795	-0.608574	17.13564	0.03	3	100	0	6546	-1.48784	5.086333	-24.24499	
15:31:43	-6.728677	38.94616	130.816	-0.608574	17.13564	0.06	3	100	0	6546	-1.391862	5.127934	-24.24953	
15:31:43	-6.728677	38.94616	130.802	-0.608574	17.13564	0.02	3	100	0	6546	-1.501279	5.128209	-24.2907	
15:31:43	-6.728677	38.94616	130.79	-0.608574	17.13564	0.04	3	100	0	6546	-1.451468	5.157991	-24.3035	
15:31:43	-6.728677	38.94616	130.794	-0.5576895	12.0443	0.04	3	100	0	6546	-1.394344	5.199743	-24.31022	
15:31:44	-6.728677	38.94616	130.811	-0.5576895	12.0443	0.04	3	100	0	6546	-1.391817	5.166179	-24.30051	
15:31:44	-6.728677	38.94616	130.829	-0.5576895	12.0443	0.08	3	100	0	6546	-1.408278	5.128559	-24.37852	
15:31:44	-6.728676	38.94616	130.884	-0.5576895	12.0443	0.03	3	100	0	6546	-1.519141	5.126197	-24.32412	
15:31:44	-6.728676	38.94616	130.856	-0.5576895	12.0443	0.04	3	100	0	6546	-1.437984	5.250085	-24.28559	
15:31:44	-6.728676	38.94616	130.821	-0.6350923	2.479568	0.09	3	100	0	6546	-1.381255	5.259374	-24.26728	
15:31:45	-6.728676	38.94616	130.814	-0.6350923	2.479568	0.04	3	100	0	6546	-1.394353	5.346976	-24.30373	
15:31:45	-6.728676	38.94616	130.855	-0.6350923	2.479568	0.04	3	100	0	6546	-1.370135	5.22427	-24.31607	
15:31:45	-6.728676	38.94616	130.893	-0.6350923	2.479568	0.02	3	100	0	6546	-1.402519	5.266819	-24.37576	
15:31:45	-6.728676	38.94616	130.924	-0.6350923	2.479568	0.11	3	100	0	6546	-1.445831	5.200216	-24.35376	
15:31:45	-6.728676	38.94616	130.981	-0.7268108	-3.56534	0.04	3	100	0	6546	-1.504762	5.179884	-24.29974	
15:31:46	-6.728676	38.94616	131.029	-0.7268108	-3.56534	0.04	3	100	0	6546	-1.441788	5.235827	-24.30953	
15:31:46	-6.728676	38.94616	131.054	-0.7268108	-3.56534	0.06	3	100	0	6546	-1.42626	5.284183	-24.26101	
15:31:46	-6.728676	38.94616	131.095	-0.7268108	-3.56534	0.04	3	100	0	6546	-1.425412	5.215221	-24.28775	
15:31:46	-6.728676	38.94616	131.167	-0.7268108	-3.56534	0.04	3	100	0	6546	-1.33703	5.303284	-24.26488	
15:31:47	-6.728676	38.94616	131.234	-0.5566887	5.231948	0.03	3	100	0	6546	-1.300109	5.296905	-24.21068	
15:31:47	-6.728676	38.94616	131.25	-0.5566887	5.231948	0.01	3	100	0	6546	-1.307713	5.295347	-24.17503	
15:31:47	-6.728676	38.94616	131.273	-0.5566887	5.231948	0.04	3	100	0	6546	-1.352315	5.293911	-24.23213	
15:31:47	-6.728676	38.94616	131.263	-0.5566887	5.231948	0.04	3	100	0	6546	-1.371329	5.302955	-24.23963	
15:31:47	-6.728676	38.94616	131.301	-0.5566887	5.231948	0.04	3	100	0	6546	-1.313499	5.268305	-24.25926	
15:31:47	-6.728676	38.94616	131.344	-0.3960541	9.890902	0.04	3	100	0	6546	-1.330993	5.247636	-24.25212	
15:31:48	-6.728675	38.94616	131.321	-0.3960541	9.890902	0.04	3	100	0	6546	-1.317083	5.257617	-24.30349	
15:31:48	-6.728675	38.94616	131.302	-0.3960541	9.890902	0.04	3	100	0	6546	-1.40899	5.273612	-24.28408	
15:31:48	-6.728675	38.94616	131.298	-0.3960541	9.890902	0.07	3	100	0	6546	-1.331684	5.272318	-24.32897	
15:31:48	-6.728675	38.94616	131.267	-0.3960541	9.890902	0.06	3	100	0	6546	-1.334608	5.333154	-24.3217	
15:31:48	-6.728675	38.94616	131.288	-0.378668	6.344657	0.03	3	100	0	6546	-1.392189	5.215552	-24.29452	
15:31:49	-6.728675	38.94616	131.319	-0.378668	6.344657	0.02	3	100	0	6546	-1.33478	5.313087	-24.29475	
15:31:49	-6.728675	38.94616	131.322	-0.378668	6.344657	0.04	3	100	0	6546	-1.35198	5.332172	-24.33432	
15:31:49	-6.728675	38.94616	131.327	-0.378668	6.344657	0.04	3	100	0	6546	-1.310944	5.374689	-24.30913	
15:31:49	-6.728675	38.94616	131.349	-0.378668	6.344657	0.11	3	100	0	6546	-1.394141	5.308525	-24.3769	
15:31:49	-6.728675	38.94616	131.371	-0.536591	-4.402856	0.02	3	100	0	6546	-1.403889	5.263999	-24.34638	
15:31:50	-6.728675	38.94616	131.419	-0.536591	-4.402856	0.04	3	100	0	6546	-1.364211	5.333763	-24.32184	
15:31:50	-6.728675	38.94616	131.45	-0.536591	-4.402856	0.02	3	100	0	6546	-1.395571	5.301048	-24.35569	
15:31:50	-6.728675	38.94616	131.449	-0.536591	-4.402856	0.03	3	100	0	6546	-1.324636	5.277802	-24.34898	
15:31:50	-6.728674	38.94616	131.395	-0.536591	-4.402856	0.04	3	100	0	6546	-1.319001	5.272783	-24.45056	
15:31:50	-6.728674	38.94616	131.397	-0.7145861	-10.55374	0.04	3	100	0	6546	-1.31699	5.304883	-24.41633	
15:31:51	-6.728674	38.94616	131.375	-0.7145861	-10.55374	0.06	3	100	0	6546	-1.375679	5.235692	-24.48397	
15:31:51	-6.728674	38.94616	131.382	-0.7145861	-10.55374	0.02	3	100	0	6546	-1.318043	5.178177	-24.49709	
15:31:51	-6.728674	38.94616	131.375	-0.7145861	-10.55374	0.02	3	100	0	6546	-1.3496	5.215994	-24.46313	
15:31:51	-6.728674	38.94616	131.361	-0.7145861	-10.55374	0.01	3	100	0	6546	-1.36551	5.236888	-24.46518	
15:31:52	-6.728674	38.94616	131.384	-0.8869288	-15.04357	0.02	3	100	0	6546	-1.390397	5.226603	-24.49751	
15:31:52	-6.728674	38.94616	131.399	-0.8869288	-15.04357	0.03	3	100	0	6546	-1.380782	5.186878	-24.4538	
15:31:52	-6.728674	38.94616	131.392	-0.8869288	-15.04357	0.04	3	100	0	6546	-1.384555	5.159074	-24.53831	
15:31:52	-6.728674	38.94616	131.389	-0.8869288	-15.04357	0.04	3	100	0	6546	-1.39289	5.160325	-24.52376	
15:31:52	-6.728673	38.94616	131.383	-0.8869288	-15.04357	0.03	3	100	0	6546	-1.408918	5.205982	-24.49375	
15:31:52	-6.728673	38.94616	131.393	-0.983285	-13.4949	0.02	3	100	0	6546	-1.327182	5.213012	-24.38451	
15:31:53	-6.728673	38.94616	131.437	-0.983285	-13.4949	0.06	3	100	0	6546	-1.366491	5.225411	-24.43007	
15:31:53	-6.728673	38.94616	131.466	-0.983285	-13.4949	0.04	3	100	0	6546	-1.366263	5.167519	-24.39894	
15:31:53	-6.728673	38.94616	131.481	-0.983285	-13.4949	0.02	3	100	0	6546	-1.326241	5.201202	-24.38059	
15:31:53	-6.728673	38.94616	131.495	-0.983285	-13.4949	0.07	3	100	0	6546	-1.33954	5.200959	-24.45493	
15:31:53	-6.728673	38.94616	131.515	-1.049387	-11.60883	0.07	3	100	0	6546	-1.2849	5.257197	-24.39488	
15:31:54	-6.728673	38.94616	131.535	-1.049387	-11.60883	0.04	3	100	0	6546	-1.314367	5.269646	-24.3418	
15:31:54	-6.728673	38.94616	131.538	-1.049387	-11.60883	0.04	3	100	0	6546	-1.371268	5.194018	-24.32457	
15:31:54	-6.728673	38.94616	131.566	-1.049387	-11.60883	0.04	3	100	0	6546	-1.377524	5.242745	-24.301	
15:31:54	-6.728673	38.94616	131.593	-1.049387	-11.60883	0.03	3	100	0	6546	-1.351373	5.233166	-24.29551	
15:31:55	-6.728673	38.94615	131.626	-1.040379	-7.840232	0.06	3	100	0	6546	-1.315987	5.248282	-24.36538	
15:31:55	-6.728673	38.94615	131.658	-1.040379	-7.840232	0.09	3	100	0	6546	-1.396341	5.238349	-24.35468	
15:31:55	-6.728673	38.94615	131.704	-1.040379	-7.840232	0.06	3	100	0	6546	-1.376351	5.209699	-24.30804	
15:31:55	-6.728673	38.94615	131.713	-1.040379	-7.840232	0.04	3	100	0	6546	-1.314362	5.271312	-24.29679	
15:31:55	-6.728673	38.94615	131.707	-1.040379	-7.840232	0.09	3	100	0	6546	-1.355205	5.194745	-24.3276	
15:31:55	-6.728673	38.94615	131.72	-0.7600716	8.552747	0.08	3	100	0	6546	-1.264976	5.249874	-24.31491	
15:31:56	-6.728673	38.94615	131.732	-0.7600716	8.552747	0.04	3	100	0	6546	-1.384806	5.204014	-24.3643	
15:31:56	-6.728673	38.94615	131.75	-0.7600716	8.552747	0.07	3	100	0	6546	-1.3517	5.18019	-24.40717	
15:31:56	-6.728673	38.94615	131.773	-0.7600716	8.552747	0.04	3	100	0	6546	-1.368077	5.154296	-24.4184	
15:31:56	-6.728673	38.94615	131.797	-0.7600716	8.552747	0.07	3	100	0	6546	-1.349482	5.17245	-24.4417	
15:31:56	-6.728673	38.94615	131.825	-0.4727791	17.91324	0.06	3	100	0	6546	-1.353157	5.139681	-24.41679	
15:31:57	-6.728673	38.94615	131.88	-0.4727791	17.91324	0.04	3	100	0	6546	-1.297871	5.137156	-24.45855	
15:31:57	-6.728673	38.94615	131.915	-0.4727791	17.91324	0.08	3	100	0	6546	-1.28034	5.167566	-24.48496	
15:31:57	-6.728673	38.94615	131.967	-0.4727791	17.91324	0.08	3	100	0	6546	-1.265125	5.175051	-24.53063	
15:31:57	-6.728673	38.94615	132.054	-0.4727791	17.91324	0.02	3	100	0	6546	-1.314125	5.17371	-24.57796	
15:31:57	-6.728673	38.94615	132.129	-0.2940114	17.38432	0.04	3	100	0	6546	-1.370257	5.132688	-24.5773	
15:31:58	-6.728673	38.94615	132.178	-0.2940114	17.38432	0.04	3	100	0	6546	-1.320961	5.135003	-24.56333	
15:31:58	-6.728673	38.94615	132.214	-0.2940114	17.38432	0.08	3	100	0	6546	-1.305797	5.129912	-24.47432	
15:31:58	-6.728673	38.94615	132.251	-0.2940114	17.38432	0.04	3	100	0	6546	-1.329866	5.112384	-24.42842	
15:31:58	-6.728673	38.94615	132.317	-0.2940114	17.38432	0.06	3	100	0	6546	-1.420117	5.067983	-24.38587	
15:31:59	-6.728673	38.94615	132.345	-0.4041978	5.847913	0.04	3	100	0	6546	-1.401823	5.058431	-24.37744	
15:31:59	-6.728673	38.94615	132.338	-0.4041978	5.847913	0.04	3	100	0	6546	-1.351517	5.096903	-24.38937	
15:31:59	-6.728673	38.94615	132.395	-0.4041978	5.847913	0.08	3	100	0	6546	-1.322587	5.115353	-24.41056	
15:31:59	-6.728673	38.94615	132.4	-0.4041978	5.847913	0.04	3	100	0	6546	-1.327307	5.107255	-24.38691	
15:31:59	-6.728673	38.94615	132.444	-0.4041978	5.847913	0.07	3	100	0	6546	-1.352266	5.021659	-24.41797	
15:31:59	-6.728673	38.94615	132.486	-0.6096592	-4.645644	0.01	3	100	0	6546	-1.317663	5.058982	-24.37333	
15:32:00	-6.728673	38.94615	132.536	-0.6096592	-4.645644	0.04	3	100	0	6546	-1.38196	5.026757	-24.39064	
15:32:00	-6.728673	38.94615	132.61	-0.6096592	-4.645644	0.03	3	100	0	6546	-1.39972	5.012176	-24.31007	
15:32:00	-6.728673	38.94615	132.624	-0.6096592	-4.645644	0.01	3	100	0	6546	-1.371686	4.996254	-24.2899	
15:32:00	-6.728673	38.94615	132.661	-0.6096592	-4.645644	0.11	3	100	0	6546	-1.388366	4.971128	-24.25305	
15:32:00	-6.728673	38.94615	132.691	-0.7024021	-6.767543	0.02	3	100	0	6546	-1.411134	4.949804	-24.28262	
15:32:01	-6.728673	38.94615	132.741	-0.7024021	-6.767543	0.02	3	100	0	6546	-1.359325	5.001626	-24.25967	
15:32:01	-6.728673	38.94615	132.758	-0.7024021	-6.767543	0.03	3	100	0	6546	-1.348993	4.994885	-24.26154	
15:32:01	-6.728673	38.94615	132.803	-0.7024021	-6.767543	0.03	3	100	0	6546	-1.346284	5.020821	-24.19933	
15:32:01	-6.728673	38.94615	132.868	-0.7024021	-6.767543	0.02	3	100	0	6546	-1.349853	5.0576	-24.2058	
15:32:01	-6.728673	38.94615	132.917	-0.741645	-4.933018	0.06	3	100	0	6546	-1.330804	5.041218	-24.17984	
15:32:02	-6.728673	38.94615	132.942	-0.741645	-4.933018	0.07	3	100	0	6546	-1.303553	5.066081	-24.19222	
15:32:02	-6.728673	38.94615	132.967	-0.741645	-4.933018	0.06	3	100	0	6546	-1.250914	4.999194	-24.12533	
15:32:02	-6.728673	38.94615	133.005	-0.741645	-4.933018	0.04	3	100	0	6546	-1.293633	4.971666	-24.04641	
15:32:02	-6.728673	38.94615	133.029	-0.741645	-4.933018	0.01	3	100	0	6546	-1.316936	5.012515	-24.05466	
15:32:03	-6.728673	38.94615	133.047	-0.7276561	-2.31069	0.03	3	100	0	6546	-1.327822	4.995594	-24.04594	
15:32:03	-6.728673	38.94615	133.125	-0.7276561	-2.31069	0.06	3	100	0	6546	-1.362833	4.988032	-24.1505	
15:32:03	-6.728673	38.94615	133.165	-0.7276561	-2.31069	0.01	3	100	0	6546	-1.398254	4.961018	-24.12782	
15:32:03	-6.728673	38.94615	133.202	-0.7276561	-2.31069	0.06	3	100	0	6546	-1.339926	4.961359	-24.0969	
15:32:03	-6.728673	38.94615	133.204	-0.7276561	-2.31069	0.04	3	100	0	6546	-1.319242	4.961835	-24.12406	
15:32:04	-6.728673	38.94615	133.174	-1.023214	-15.60582	0.09	3	100	0	6546	-1.318904	4.962255	-24.23448	
15:32:04	-6.728673	38.94615	133.165	-1.023214	-15.60582	0.18	3	100	0	6546	-1.361064	4.911765	-24.16633	
15:32:04	-6.728673	38.94615	133.158	-1.023214	-15.60582	0.04	3	100	0	6546	-1.426349	4.923193	-24.12485	
15:32:04	-6.728673	38.94615	133.143	-1.023214	-15.60582	0.04	3	100	0	6546	-1.313509	4.986506	-24.08605	
15:32:04	-6.728673	38.94615	133.155	-1.023214	-15.60582	0.04	3	100	0	6546	-1.319541	4.958591	-24.09008	
15:32:05	-6.728673	38.94615	133.242	-1.048081	-10.81841	0.11	3	100	0	6546	-1.272191	5.037274	-24.12821	
15:32:05	-6.728673	38.94615	133.275	-1.048081	-10.81841	0.06	3	100	0	6546	-1.349068	4.992265	-24.16115	
15:32:05	-6.728673	38.94615	133.311	-1.048081	-10.81841	0.11	3	100	0	6546	-1.384733	4.904625	-24.10536	
15:32:05	-6.728673	38.94615	133.269	-1.048081	-10.81841	0.09	3	100	0	6546	-1.337805	4.969449	-24.17709	
15:32:05	-6.728673	38.94615	133.274	-1.048081	-10.81841	0.04	3	100	0	6546	-1.423752	4.979823	-24.18669	
15:32:05	-6.728673	38.94615	133.286	-0.8990421	-0.4854863	0.07	3	100	0	6546	-1.44011	4.996489	-24.18427	
15:32:06	-6.728673	38.94615	133.297	-0.8990421	-0.4854863	0.08	3	100	0	6546	-1.400175	5.030741	-24.24009	
15:32:06	-6.728673	38.94615	133.281	-0.8990421	-0.4854863	0.02	3	100	0	6546	-1.442813	5.023888	-24.22038	
15:32:06	-6.728673	38.94615	133.315	-0.8990421	-0.4854863	0.01	3	100	0	6546	-1.435268	4.979563	-24.15758	
15:32:06	-6.728673	38.94615	133.312	-0.8990421	-0.4854863	0.08	3	100	0	6546	-1.405429	5.006322	-24.12563	
15:32:07	-6.728673	38.94615	133.338	-0.7436856	6.695599	0.04	3	100	0	6545	-1.394895	4.989611	-24.21152	
15:32:07	-6.728673	38.94615	133.395	-0.7436856	6.695599	0.03	3	100	0	6545	-1.429961	4.966925	-24.13926	
15:32:07	-6.728673	38.94615	133.363	-0.7436856	6.695599	0.09	3	100	0	6545	-1.471524	4.891887	-24.1055	
15:32:07	-6.728673	38.94615	133.349	-0.7436856	6.695599	0.02	3	100	0	6545	-1.442055	4.881546	-24.10583	
15:32:07	-6.728673	38.94615	133.383	-0.7436856	6.695599	0.06	3	100	0	6545	-1.451244	4.96162	-24.03229	
15:32:08	-6.728673	38.94615	133.339	-0.7303953	4.102799	0.09	3	100	0	6546	-1.428733	4.995372	-24.02077	
15:32:08	-6.728673	38.94615	133.342	-0.7303953	4.102799	0.12	3	100	0	6546	-1.459147	4.924808	-24.09469	
15:32:08	-6.728673	38.94615	133.348	-0.7303953	4.102799	0.07	3	100	0	6546	-1.487041	4.846834	-24.03891	
15:32:08	-6.728673	38.94615	133.398	-0.7303953	4.102799	0.04	3	100	0	6546	-1.44557	4.897976	-24.06046	
15:32:08	-6.728673	38.94615	133.414	-0.7303953	4.102799	0.04	3	100	0	6546	-1.460666	4.936177	-24.05596	
15:32:09	-6.728672	38.94615	133.408	-0.5861349	8.264252	0.04	3	100	0	6546	-1.44354	4.94582	-24.07168	
15:32:09	-6.728672	38.94615	133.399	-0.5861349	8.264252	0.06	3	100	0	6546	-1.379757	4.976831	-24.06981	
15:32:09	-6.728672	38.94615	133.363	-0.5861349	8.264252	0.04	3	100	0	6546	-1.328036	5.013505	-24.02722	
15:32:09	-6.728672	38.94615	133.382	-0.5861349	8.264252	0.03	3	100	0	6546	-1.36672	4.998708	-24.08657	
15:32:09	-6.728672	38.94615	133.393	-0.5861349	8.264252	0.07	3	100	0	6546	-1.440134	4.98547	-24.14488	
15:32:10	-6.728672	38.94615	133.367	-0.4192829	11.80092	0.04	3	100	0	6546	-1.453437	4.984912	-24.1229	
15:32:10	-6.728672	38.94615	133.365	-0.4192829	11.80092	0.04	3	100	0	6546	-1.402867	5.027465	-24.08962	
15:32:10	-6.728672	38.94615	133.353	-0.4192829	11.80092	0.02	3	100	0	6546	-1.368791	5.046201	-24.0583	
15:32:10	-6.728672	38.94615	133.323	-0.4192829	11.80092	0.06	3	100	0	6546	-1.425784	5.034191	-24.11111	
15:32:10	-6.728672	38.94615	133.299	-0.4192829	11.80092	0.06	3	100	0	6546	-1.400239	5.011023	-24.07806	
15:32:10	-6.728672	38.94615	133.299	-0.3565753	9.242611	0.02	3	100	0	6546	-1.374114	5.036001	-24.09483	
15:32:11	-6.728672	38.94615	133.299	-0.3565753	9.242611	0.03	3	100	0	6546	-1.406659	5.078904	-24.13999	
15:32:11	-6.728672	38.94615	133.307	-0.3565753	9.242611	0.04	3	100	0	6546	-1.369324	5.138704	-24.14769	
15:32:11	-6.728672	38.94615	133.287	-0.3565753	9.242611	0.04	3	100	0	6546	-1.344886	5.126745	-24.19776	
15:32:11	-6.728672	38.94615	133.248	-0.3565753	9.242611	0.02	3	100	0	6546	-1.340994	5.085341	-24.17957	
15:32:12	-6.728671	38.94615	133.235	-0.1879685	14.36724	0.01	3	100	0	6546	-1.344627	5.058601	-24.07959	
15:32:12	-6.728671	38.94615	133.221	-0.1879685	14.36724	0.08	3	100	0	6546	-1.276686	5.052481	-24.14585	
15:32:12	-6.728671	38.94615	133.174	-0.1879685	14.36724	0.09	3	100	0	6546	-1.34179	5.015967	-24.13674	
15:32:12	-6.728671	38.94615	133.185	-0.1879685	14.36724	0.01	3	100	0	6546	-1.361142	5.033243	-24.1331	
15:32:12	-6.728671	38.94615	133.205	-0.1879685	14.36724	0.03	3	100	0	6546	-1.315341	5.040707	-24.19997	
15:32:12	-6.728671	38.94615	133.253	-0.1879685	14.36724	0.04	3	100	0	6546	-1.291293	5.043917	-24.17815	
15:32:13	-6.728671	38.94615	133.283	-0.1879685	14.36724	0.04	3	100	0	6546	-1.319932	5.0043	-24.22161	
15:32:13	-6.728671	38.94615	133.314	-0.1879685	14.36724	0.08	3	100	0	6546	-1.380662	4.960601	-24.23356	
15:32:13	-6.728671	38.94615	133.31	-0.1879685	14.36724	0.03	3	100	0	6546	-1.345511	4.976749	-24.25471	
15:32:13	-6.728671	38.94615	133.33	-0.1879685	14.36724	0.09	3	100	0	6546	-1.305879	5.051609	-24.1729	
15:32:14	-6.728671	38.94615	133.346	0.09893123	13.74251	0.04	3	100	0	6546	-1.291108	5.064753	-24.22564	
15:32:14	-6.728671	38.94615	133.32	0.09893123	13.74251	0.01	3	100	0	6546	-1.320081	5.001072	-24.25523	
15:32:14	-6.728671	38.94616	133.311	0.09893123	13.74251	0.04	3	100	0	6546	-1.317968	4.973927	-24.27868	
15:32:14	-6.728671	38.94616	133.323	0.09893123	13.74251	0.01	3	100	0	6546	-1.341393	4.982963	-24.20823	
15:32:14	-6.728671	38.94616	133.368	0.09893123	13.74251	0.04	3	100	0	6546	-1.368626	4.984757	-24.23671	
15:32:14	-6.728671	38.94616	133.391	-0.04590504	2.443228	0.04	3	100	0	6546	-1.337912	4.994737	-24.19708	
15:32:15	-6.728671	38.94616	133.369	-0.04590504	2.443228	0.07	3	100	0	6546	-1.369745	4.917869	-24.22215	
15:32:15	-6.72867	38.94616	133.336	-0.04590504	2.443228	0.08	3	100	0	6546	-1.346631	4.953255	-24.24017	
15:32:15	-6.72867	38.94616	133.29	-0.04590504	2.443228	0.03	3	100	0	6546	-1.351136	4.951167	-24.24516	
15:32:15	-6.72867	38.94616	133.294	-0.04590504	2.443228	0.04	3	100	0	6546	-1.363544	4.947668	-24.18349	
15:32:15	-6.72867	38.94616	133.264	-0.2924845	-8.865759	0.03	3	100	0	6546	-1.353655	4.968637	-24.21055	
15:32:16	-6.72867	38.94616	133.244	-0.2924845	-8.865759	0.04	3	100	0	6546	-1.385878	4.940653	-24.23749	
15:32:16	-6.72867	38.94616	133.217	-0.2924845	-8.865759	0.04	3	100	0	6546	-1.364981	4.911966	-24.18744	
15:32:16	-6.72867	38.94616	133.229	-0.2924845	-8.865759	0.03	3	100	0	6546	-1.329934	4.932806	-24.08713	
15:32:16	-6.72867	38.94616	133.244	-0.2924845	-8.865759	0.04	3	100	0	6546	-1.35047	4.956419	-24.15219	
15:32:17	-6.72867	38.94616	133.223	-0.2081024	-2.13216	0.07	3	100	0	6546	-1.389689	4.903695	-24.1841	
15:32:17	-6.72867	38.94616	133.251	-0.2081024	-2.13216	0.04	3	100	0	6546	-1.367559	4.881236	-24.19477	
15:32:17	-6.72867	38.94616	133.247	-0.2081024	-2.13216	0.03	3	100	0	6546	-1.368598	4.93571	-24.17661	
15:32:17	-6.72867	38.94616	133.256	-0.2081024	-2.13216	0.04	3	100	0	6546	-1.388185	4.921057	-24.14128	
15:32:17	-6.72867	38.94616	133.241	-0.2081024	-2.13216	0.03	3	100	0	6546	-1.390739	4.933015	-24.14977	
15:32:18	-6.72867	38.94616	133.271	-0.08934312	3.330846	0.03	3	100	0	6546	-1.37393	4.928401	-24.06605	
15:32:18	-6.72867	38.94616	133.282	-0.08934312	3.330846	0.12	3	100	0	6546	-1.296412	5.030169	-24.02748	
15:32:18	-6.72867	38.94616	133.297	-0.08934312	3.330846	0.04	3	100	0	6546	-1.331479	5.065794	-24.02358	
15:32:18	-6.728669	38.94616	133.279	-0.08934312	3.330846	0.02	3	100	0	6546	-1.343087	5.0135	-24.03724	
15:32:19	-6.728669	38.94616	133.288	-0.08934312	3.330846	0.04	3	100	0	6546	-1.308617	5.046555	-24.02309	
15:32:19	-6.728669	38.94616	133.263	-0.2449497	-3.484235	0.01	3	100	0	6546	-1.316993	5.009462	-24.02614	
15:32:19	-6.728669	38.94616	133.232	-0.2449497	-3.484235	0.03	3	100	0	6546	-1.323776	4.983443	-23.97789	
15:32:19	-6.728669	38.94616	133.227	-0.2449497	-3.484235	0.04	3	100	0	6546	-1.354143	4.951375	-24.07011	
15:32:19	-6.728669	38.94616	133.25	-0.2449497	-3.484235	0.04	3	100	0	6546	-1.331305	4.961948	-24.06922	
15:32:19	-6.728669	38.94616	133.253	-0.2449497	-3.484235	0.09	3	100	0	6546	-1.291756	5.04343	-24.13633	
15:32:20	-6.728669	38.94616	133.274	-0.3232583	-5.392451	0.06	3	100	0	6546	-1.279037	5.06712	-24.125	
15:32:20	-6.728669	38.94616	133.24	-0.3232583	-5.392451	0.02	3	100	0	6546	-1.291652	5.043095	-24.07293	
15:32:20	-6.728669	38.94616	133.281	-0.3232583	-5.392451	0.02	3	100	0	6546	-1.341988	5.020447	-24.13407	
15:32:20	-6.728668	38.94616	133.278	-0.3232583	-5.392451	0.02	3	100	0	6546	-1.360853	5.040535	-24.17762	
15:32:20	-6.728668	38.94616	133.311	-0.3232583	-5.392451	0.06	3	100	0	6546	-1.397073	5.001046	-24.16303	
15:32:21	-6.728668	38.94616	133.291	-0.4050044	-7.009073	0.02	3	100	0	6546	-1.390873	5.00007	-24.14859	
15:32:21	-6.728668	38.94616	133.346	-0.4050044	-7.009073	0.07	3	100	0	6546	-1.412678	4.973108	-24.13498	
15:32:21	-6.728668	38.94616	133.383	-0.4050044	-7.009073	0.04	3	100	0	6546	-1.470996	4.941275	-24.17056	
15:32:21	-6.728668	38.94616	133.383	-0.4050044	-7.009073	0.04	3	100	0	6546	-1.376893	4.958475	-24.18993	
15:32:22	-6.728668	38.94616	133.418	-0.4050044	-7.009073	0.03	3	100	0	6546	-1.320035	4.975517	-24.12888	
15:32:22	-6.728668	38.94616	133.489	-0.2009481	4.321638	0.08	3	100	0	6546	-1.244216	5.07186	-24.01853	
15:32:22	-6.728668	38.94616	133.506	-0.2009481	4.321638	0.07	3	100	0	6546	-1.194416	5.077272	-23.95054	
15:32:22	-6.728668	38.94616	133.523	-0.2009481	4.321638	0.07	3	100	0	6546	-1.214951	5.095631	-23.98477	
15:32:22	-6.728667	38.94616	133.586	-0.2009481	4.321638	0.06	3	100	0	6546	-1.279757	5.040091	-23.9452	
15:32:23	-6.728667	38.94616	133.586	-0.2009481	4.321638	0.06	3	100	0	6546	-1.205862	5.034527	-23.92204	
15:32:23	-6.728668	38.94616	133.359	-0.1671942	2.163043	0.11	3	100	0	6545	-1.389822	5.263704	-23.98014	
15:32:23	-6.728668	38.94616	133.359	-0.1671942	2.163043	0.11	3	100	0	6545	-1.342985	5.287961	-23.92404	
15:32:23	-6.728667	38.94616	133.343	-0.1671942	2.163043	0.06	3	100	0	6545	-1.366676	5.231608	-23.9647	
15:32:23	-6.728667	38.94616	133.384	-0.1671942	2.163043	0.03	3	100	0	6545	-1.308366	5.291481	-24.02627	
15:32:24	-6.728667	38.94616	133.445	-0.1671942	2.163043	0.06	3	100	0	6545	-1.340904	5.2956	-24.02598	
15:32:24	-6.728667	38.94616	133.527	-0.1764204	0.9821839	0.08	3	100	0	6547	-1.39579	5.234195	-24.02054	
15:32:24	-6.728667	38.94616	133.567	-0.1764204	0.9821839	0.04	3	100	0	6547	-1.317504	5.286371	-24.05388	
15:32:24	-6.728667	38.94616	133.627	-0.1764204	0.9821839	0.02	3	100	0	6547	-1.315687	5.269668	-24.06565	
15:32:24	-6.728667	38.94616	133.609	-0.1764204	0.9821839	0.03	3	100	0	6547	-1.378682	5.22751	-24.0447	
15:32:25	-6.728667	38.94616	133.644	-0.1764204	0.9821839	0.04	3	100	0	6547	-1.382689	5.222177	-23.96069	
15:32:25	-6.728667	38.94616	133.721	0.1012283	12.17679	0.13	3	100	0	6546	-1.377027	5.221329	-24.04897	
15:32:25	-6.728667	38.94616	133.754	0.1012283	12.17679	0.04	3	100	0	6546	-1.284617	5.278202	-24.05229	
15:32:25	-6.728667	38.94616	133.818	0.1012283	12.17679	0.06	3	100	0	6546	-1.336623	5.152355	-24.09175	
15:32:25	-6.728667	38.94616	133.898	0.1012283	12.17679	0.08	3	100	0	6546	-1.299993	5.164137	-24.12535	
15:32:26	-6.728667	38.94616	133.898	0.1012283	12.17679	0.08	3	100	0	6546	-1.377626	5.143889	-24.11182	
15:32:26	-6.728667	38.94616	134.042	0.2005221	12.61794	0.03	3	100	0	6546	-1.370972	5.180233	-24.15886	
15:32:26	-6.728666	38.94616	134.129	0.2005221	12.61794	0.03	3	100	0	6546	-1.356378	5.128789	-24.104	
15:32:26	-6.728666	38.94616	134.212	0.2005221	12.61794	0.07	3	100	0	6546	-1.396912	5.12852	-24.18346	
15:32:26	-6.728666	38.94616	134.26	0.2005221	12.61794	0.06	3	100	0	6546	-1.330364	5.202638	-24.17791	
15:32:26	-6.728666	38.94616	134.195	0.2005221	12.61794	0.12	3	100	0	6546	-1.328261	5.212042	-24.21862	
15:32:26	-6.728666	38.94616	134.292	0.2655221	12.55159	0.04	3	100	0	6546	-1.423029	5.155437	-24.21687	
15:32:27	-6.728666	38.94616	134.302	0.2655221	12.55159	0.07	3	100	0	6546	-1.343871	5.155872	-24.26114	
15:32:27	-6.728666	38.94616	134.295	0.2655221	12.55159	0.04	3	100	0	6546	-1.266587	5.138867	-24.18526	
15:32:27	-6.728666	38.94616	134.359	0.2655221	12.55159	0.06	3	100	0	6546	-1.277045	5.138258	-24.23894	
15:32:27	-6.728667	38.94616	134.381	0.2655221	12.55159	0.01	3	100	0	6546	-1.2916	5.204004	-24.20198	
15:32:28	-6.728667	38.94616	134.396	0.3561831	11.22906	0.04	3	100	0	6546	-1.262586	5.177119	-24.2353	
15:32:28	-6.728667	38.94616	134.509	0.3561831	11.22906	0.09	3	100	0	6546	-1.2588	5.130632	-24.20818	
15:32:28	-6.728667	38.94616	134.493	0.3561831	11.22906	0.02	3	100	0	6546	-1.225543	5.039588	-24.17236	
15:32:28	-6.728667	38.94616	134.465	0.3561831	11.22906	0.14	3	100	0	6546	-1.18736	5.052131	-24.16382	
15:32:28	-6.728667	38.94616	134.585	0.3561831	11.22906	0.08	3	100	0	6546	-1.14961	5.1487	-24.1885	
15:32:29	-6.728667	38.94616	134.568	0.272486	2.739731	0.11	3	100	0	6546	-1.234554	5.078961	-24.14167	
15:32:29	-6.728667	38.94616	134.543	0.272486	2.739731	0.04	3	100	0	6546	-1.346398	4.881934	-24.16538	
15:32:29	-6.728667	38.94616	134.46	0.272486	2.739731	0.06	3	100	0	6546	-1.33001	4.896212	-24.23334	
15:32:29	-6.728667	38.94616	134.571	0.272486	2.739731	0.04	3	100	0	6546	-1.293495	4.949649	-24.21472	
15:32:29	-6.728667	38.94616	134.732	0.272486	2.739731	0.11	3	100	0	6546	-1.314986	4.949143	-24.23312	
15:32:30	-6.728667	38.94616	134.709	0.07446864	-8.117937	0.14	3	100	0	6546	-1.170353	5.010469	-24.2076	
15:32:30	-6.728667	38.94616	134.677	0.07446864	-8.117937	0.03	3	100	0	6546	-1.137601	5.118317	-24.30906	
15:32:30	-6.728667	38.94616	134.596	0.07446864	-8.117937	0.11	3	100	0	6546	-1.252959	5.027393	-24.30774	
15:32:30	-6.728667	38.94616	134.568	0.07446864	-8.117937	0.04	3	100	0	6546	-1.327856	4.915464	-24.34903	
