Date	Latitude(deg) 	Longitude(deg)	hamsl(m)	hafl(m)	climbrate(cm/s)	GroundSpeed(m/s)	Airspeed(m/s)	Mav_Link(%)	Rssi_Link(%)	Throttle	Roll(deg)	Pitch(deg)	Yaw(deg)
09:21:21	0	0	0	0	0	0	0	100	0	0	0	0	-0.2852671	
09:21:21	0	0	0	0	0	0	0	100	0	0	0	0	-2.423941	
09:21:21	0	0	0	0	0	0	0	100	0	0	0	0	-4.060608	
09:21:22	0	0	0	0	0	0	0	100	0	0	0	0	-5.260141	
09:21:22	0	0	0	0	0	0	3	100	0	50	0	0	-6.156312	
09:21:22	0	0	0	0	0	0	3	100	0	50	0	0	-6.932865	
09:21:22	0	0	0	0	0	0	3	100	0	50	0	0	-7.273166	
09:21:22	0	0	0	0	0	0	3	100	0	50	0	0	-7.253222	
09:21:23	0	0	0	0	0	0	3	100	0	50	0	0	-7.326735	
09:21:23	0	0	0	0	0	0	3	100	0	50	0	0	-7.331066	
09:21:23	0	0	0	0	0	0	3	100	0	50	-0.001149464	0.004710999	-7.707222	
09:21:23	0	0	0	0	0	0	3	100	0	50	0.01432941	0.03703605	-7.908149	
09:21:23	0	0	0	0	0	0	3	100	0	50	0.04189009	0.08812827	-7.832197	
09:21:24	0	0	0	0	0	0	3	100	0	50	0.1262098	0.295693	-7.784904	
09:21:24	0	0	0	0.2551292	-15.56656	0	3	100	0	50	0.2279081	0.4676223	-7.789842	
09:21:24	0	0	0	0.2551292	-15.56656	0	3	100	0	50	0.2796285	0.6056732	-7.893969	
09:21:24	0	0	0	0.2551292	-15.56656	0	3	100	0	50	0.272917	0.6889656	-8.253001	
09:21:24	0	0	0	0.2551292	-15.56656	0	3	100	0	50	0.2828081	0.739826	-8.53933	
09:21:25	0	0	0	0.2551292	-15.56656	0	3	100	0	50	0.3273702	0.7502061	-8.731441	
09:21:25	0	0	0	0.1630929	-20.06457	0	3	100	0	50	0.3686727	0.6979246	-8.91466	
09:21:25	0	0	0	0.1630929	-20.06457	0	3	100	0	50	0.3802254	0.6353754	-9.12228	
09:21:25	0	0	0	0.1630929	-20.06457	0	3	100	0	50	0.3696084	0.5835462	-9.316707	
09:21:25	0	0	0	0.1630929	-20.06457	0	3	100	0	50	0.3800905	0.6313305	-9.401651	
09:21:26	0	0	0	0.1630929	-20.06457	0	3	100	0	50	0.4120228	0.6094753	-9.437741	
09:21:26	0	0	0	0.2463961	-14.79049	0	3	100	0	50	0.388692	0.6084114	-9.558217	
09:21:26	0	0	0	0.2463961	-14.79049	0	3	100	0	50	0.4211971	0.4308572	-9.556286	
09:21:26	0	0	0	0.2463961	-14.79049	0	3	100	0	50	0.4181515	0.4550569	-9.517869	
09:21:27	0	0	0	0.2463961	-14.79049	0	3	100	0	50	0.4128651	0.4834335	-9.463732	
09:21:27	0	0	0	0.2463961	-14.79049	0	3	100	0	50	0.4165611	0.5492755	-9.464075	
09:21:27	0	0	0	0.165785	-20.84505	0	3	100	0	50	0.38974	0.623289	-9.3662	
09:21:27	0	0	0	0.165785	-20.84505	0	3	100	0	50	0.3686828	0.6650072	-9.534003	
09:21:27	0	0	0	0.165785	-20.84505	0	3	100	0	50	0.3517372	0.696658	-9.460181	
09:21:28	0	0	0	0.165785	-20.84505	0	3	100	0	50	0.3497384	0.7753411	-9.484298	
09:21:28	0	0	0	0.165785	-20.84505	0	3	100	0	50	0.3158838	0.7588102	-9.614558	
09:21:28	0	0	0	0.09774862	-20.68092	0	3	100	0	50	0.3222041	0.6920484	-9.494319	
09:21:28	0	0	0	0.09774862	-20.68092	0	3	100	0	50	0.3204334	0.6711059	-9.689779	
09:21:28	0	0	0	0.09774862	-20.68092	0	3	100	0	50	0.3610608	0.6898274	-9.595629	
09:21:29	0	0	0	0.09774862	-20.68092	0	3	100	0	50	0.3697817	0.7016237	-9.744203	
09:21:29	0	0	0	0.09774862	-20.68092	0	3	100	0	50	0.3509317	0.7041989	-9.802007	
09:21:29	0	0	0	0.3677899	-6.121933	0	3	100	0	50	0.3373243	0.7155816	-9.926068	
09:21:29	0	0	0	0.3677899	-6.121933	0	3	100	0	50	0.3505313	0.6853076	-9.773247	
09:21:30	0	0	0	0.3677899	-6.121933	0	3	100	0	50	0.3682438	0.6771083	-9.909793	
09:21:30	0	0	0	0.3677899	-6.121933	0	3	100	0	50	0.3620264	0.6649914	-9.758686	
09:21:30	0	0	0	0.3677899	-6.121933	0	3	100	0	50	0.3316171	0.6469527	-9.804581	
09:21:30	0	0	0	0.5237161	-2.979358	0	3	100	0	50	0.3263225	0.6351153	-9.685879	
09:21:30	0	0	0	0.5237161	-2.979358	0	3	100	0	50	0.3231756	0.6517413	-9.607763	
09:21:30	0	0	0	0.5237161	-2.979358	0	3	100	0	50	0.3103561	0.6559479	-9.492379	
09:21:31	0	0	0	0.5237161	-2.979358	0	3	100	0	50	0.3235797	0.6629876	-9.369944	
09:21:31	0	0	0	0.5237161	-2.979358	0	3	100	0	50	0.3575099	0.6548592	-9.073251	
09:21:31	0	0	0	0.3746454	-14.3316	0	3	100	0	50	0.4061265	0.6616436	-9.227543	
09:21:31	0	0	0	0.3746454	-14.3316	0	3	100	0	50	0.4071969	0.6784429	-9.337348	
09:21:31	0	0	0	0.3746454	-14.3316	0	3	100	0	50	0.3892474	0.6838289	-9.412757	
09:21:32	0	0	0	0.3746454	-14.3316	0	3	100	0	50	0.3497764	0.6702235	-9.565206	
09:21:32	0	0	0	0.3746454	-14.3316	0	3	100	0	50	0.3194747	0.6834012	-9.606377	
09:21:32	0	0	0	0.4784904	-9.986507	0	3	100	0	50	0.3069295	0.7334465	-9.402575	
09:21:32	0	0	0	0.4784904	-9.986507	0	3	100	0	50	0.321793	0.7405938	-9.40832	
09:21:32	0	0	0	0.4784904	-9.986507	0	3	100	0	50	0.3669185	0.7518814	-9.438299	
09:21:33	0	0	0	0.4784904	-9.986507	0	3	100	0	50	0.4056285	0.7098331	-9.681949	
09:21:33	0	0	0	0.4784904	-9.986507	0	3	100	0	50	0.4249421	0.6782372	-9.541531	
09:21:33	0	0	0	0.526269	-7.081975	0	3	100	0	50	0.4123937	0.6478783	-9.362761	
09:21:33	0	0	0	0.526269	-7.081975	0	3	100	0	50	0.400246	0.6221384	-9.295957	
09:21:33	0	0	0	0.526269	-7.081975	0	3	100	0	50	0.3795198	0.62779	-9.269807	
09:21:34	0	0	0	0.526269	-7.081975	0	3	100	0	50	0.3676779	0.6284989	-9.058181	
09:21:34	0	0	0	0.526269	-7.081975	0	3	100	0	50	0.3414495	0.625449	-8.947965	
09:21:34	0	0	0	0.4167798	-13.60182	0	3	100	0	50	0.3415731	0.6190745	-8.841222	
09:21:34	0	0	0	0.4167798	-13.60182	0	3	100	0	50	0.3526565	0.6286386	-8.851893	
09:21:34	0	0	0	0.4167798	-13.60182	0	3	100	0	50	0.3476075	0.6304116	-8.82882	
09:21:35	0	0	0	0.4167798	-13.60182	0	3	100	0	50	0.3299598	0.6563126	-8.654154	
09:21:35	0	0	0	0.4167798	-13.60182	0	3	100	0	50	0.3230699	0.6596928	-8.504651	
09:21:35	0	0	0	0.1927669	-21.56775	0	3	100	0	50	0.3165241	0.6683621	-8.528097	
09:21:35	0	0	0	0.1927669	-21.56775	0	3	100	0	50	0.3408892	0.6711081	-8.415423	
09:21:35	0	0	0	0.1927669	-21.56775	0	3	100	0	50	0.3604103	0.6698164	-8.451161	
09:21:36	0	0	0	0.1927669	-21.56775	0	3	100	0	50	0.379312	0.6601735	-8.445199	
09:21:36	0	0	0	0.1927669	-21.56775	0	3	100	0	50	0.3743013	0.681138	-8.561341	
09:21:36	0	0	0	0.15671	-18.18463	0	3	100	0	50	0.3427818	0.6791464	-8.750094	
09:21:36	0	0	0	0.15671	-18.18463	0	3	100	0	50	0.3464131	0.6866682	-8.755824	
09:21:36	0	0	0	0.15671	-18.18463	0	3	100	0	50	0.3478555	0.6741135	-8.771741	
09:21:37	0	0	0	0.15671	-18.18463	0	3	100	0	50	0.3410709	0.6732662	-8.782594	
09:21:37	0	0	0	0.15671	-18.18463	0	3	100	0	50	0.3327245	0.6701419	-8.8028	
09:21:37	0	0	0	0.177412	-14.16585	0	3	100	0	50	0.3334689	0.6695041	-8.843645	
09:21:37	0	0	0	0.177412	-14.16585	0	3	100	0	50	0.334898	0.6742647	-8.861343	
09:21:37	0	0	0	0.177412	-14.16585	0	3	100	0	50	0.3284929	0.6724681	-8.889019	
09:21:38	0	0	0	0.177412	-14.16585	0	3	100	0	50	0.3232862	0.6478225	-8.925793	
09:21:38	0	0	0	0.177412	-14.16585	0	3	100	0	50	0.3184926	0.6480502	-8.928288	
09:21:38	0	0	0	0.1750645	-11.58572	0	3	100	0	50	0.321472	0.6523951	-8.937542	
09:21:38	0	0	0	0.1750645	-11.58572	0	3	100	0	50	0.3233295	0.6621399	-8.961534	
09:21:38	0	0	0	0.1750645	-11.58572	0	3	100	0	50	0.3153244	0.6493456	-8.951441	
09:21:39	0	0	0	0.1750645	-11.58572	0	3	100	0	50	0.3158892	0.6431515	-8.950372	
09:21:39	0	0	0	0.1750645	-11.58572	0	3	100	0	50	0.3128922	0.6425291	-8.964121	
09:21:39	0	0	0	0.4887151	4.268167	0	3	100	0	50	0.3124916	0.6488048	-8.962407	
09:21:39	0	0	0	0.4887151	4.268167	0	3	100	0	50	0.3170186	0.6546651	-8.976707	
09:21:39	0	0	0	0.4887151	4.268167	0	3	100	0	50	0.3227061	0.6488184	-8.991547	
09:21:40	0	0	0	0.4887151	4.268167	0	3	100	0	50	0.3451477	0.6658123	-9.000035	
09:21:40	0	0	0	0.4887151	4.268167	0	3	100	0	50	0.3524209	0.6742374	-9.003259	
09:21:40	0	0	0	0.4974259	-1.745232	0	3	100	0	50	0.3482068	0.6816566	-9.010624	
09:21:40	0	0	0	0.4974259	-1.745232	0	3	100	0	50	0.3385455	0.666572	-9.03067	
09:21:41	0	0	0	0.4974259	-1.745232	0	3	100	0	50	0.3361061	0.6496451	-9.055128	
09:21:41	0	0	0	0.4974259	-1.745232	0	3	100	0	50	0.3503865	0.6483389	-9.047542	
09:21:41	0	0	0	0.4974259	-1.745232	0	3	100	0	50	0.3579119	0.6609421	-9.060388	
09:21:41	0	0	0	0.3611743	-8.828913	0	3	100	0	50	0.3406076	0.643687	-9.066524	
09:21:41	0	0	0	0.3611743	-8.828913	0	3	100	0	50	0.3543968	0.642541	-9.083872	
09:21:42	0	0	0	0.3611743	-8.828913	0	3	100	0	50	0.3499177	0.6236078	-9.062651	
09:21:42	0	0	0	0.3611743	-8.828913	0	3	100	0	50	0.3332253	0.6122578	-9.085171	
09:21:42	0	0	0	0.3611743	-8.828913	0	3	100	0	50	0.3253921	0.5991141	-9.100385	
09:21:42	0	0	0	0.1498011	-18.09033	0	3	100	0	50	0.3233843	0.5924992	-9.079892	
09:21:42	0	0	0	0.1498011	-18.09033	0	3	100	0	50	0.3181067	0.5988386	-9.072526	
09:21:43	0	0	0	0.1498011	-18.09033	0	3	100	0	50	0.3281653	0.6029429	-9.081272	
09:21:43	0	0	0	0.1498011	-18.09033	0	3	100	0	50	0.3284935	0.6043699	-9.07176	
09:21:43	0	0	0	0.1498011	-18.09033	0	3	100	0	50	0.3304887	0.6085837	-9.040315	
09:21:43	0	0	0	-0.1075379	-24.30799	0	3	100	0	50	0.3391772	0.6030085	-9.036346	
09:21:43	0	0	0	-0.1075379	-24.30799	0	3	100	0	50	0.340456	0.5966576	-9.065686	
09:21:44	0	0	0	-0.1075379	-24.30799	0	3	100	0	50	0.3467026	0.5993173	-9.067944	
09:21:44	0	0	0	-0.1075379	-24.30799	0	3	100	0	50	0.3566965	0.597549	-9.055335	
09:21:44	0	0	0	-0.1075379	-24.30799	0	3	100	0	50	0.3668965	0.6145306	-9.081182	
09:21:44	0	0	0	0.01453761	-9.586271	0	3	100	0	50	0.3615202	0.6208467	-9.112683	
09:21:44	0	0	0	0.01453761	-9.586271	0	3	100	0	50	0.3632816	0.620154	-9.141205	
09:21:45	0	0	0	0.01453761	-9.586271	0	3	100	0	50	0.3658409	0.6169144	-9.174123	
09:21:45	0	0	0	0.01453761	-9.586271	0	3	100	0	50	0.367447	0.6178204	-9.198967	
09:21:45	0	0	0	0.01453761	-9.586271	0	3	100	0	50	0.3596073	0.6032984	-9.211045	
09:21:45	0	0	0	0.1574732	-3.237887	0	3	100	0	50	0.3523143	0.6076031	-9.197962	
09:21:45	0	0	0	0.1574732	-3.237887	0	3	100	0	50	0.3464752	0.6010194	-9.166353	
09:21:46	0	0	0	0.1574732	-3.237887	0	3	100	0	50	0.3436133	0.5938232	-9.154389	
09:21:46	0	0	0	0.1574732	-3.237887	0	3	100	0	50	0.3355568	0.5846968	-9.146857	
09:21:46	0	0	0	0.1574732	-3.237887	0	3	100	0	50	0.3374926	0.5848064	-9.147303	
09:21:46	0	0	0	0.2233486	-1.156747	0	3	100	0	50	0.3404635	0.5886411	-9.154055	
09:21:46	0	0	0	0.2233486	-1.156747	0	3	100	0	50	0.3402663	0.5871133	-9.173721	
09:21:47	0	0	0	0.2233486	-1.156747	0	3	100	0	50	0.3390439	0.5716671	-9.163433	
09:21:47	0	0	0	0.2233486	-1.156747	0	3	100	0	50	0.3389472	0.5602179	-9.138597	
09:21:47	0	0	0	0.2233486	-1.156747	0	3	100	0	50	0.3337806	0.5470457	-9.13133	
09:21:47	0	0	0	0.212652	-3.583827	0	3	100	0	50	0.3328182	0.5396155	-9.108379	
09:21:47	0	0	0	0.212652	-3.583827	0	3	100	0	50	0.3232599	0.5313188	-9.105796	
09:21:48	0	0	0	0.212652	-3.583827	0	3	100	0	50	0.3159567	0.5145634	-9.070668	
09:21:48	0	0	0	0.212652	-3.583827	0	3	100	0	50	0.3202752	0.5128073	-9.071411	
09:21:48	0	0	0	0.212652	-3.583827	0	3	100	0	50	0.3238318	0.5109704	-9.078296	
09:21:48	0	0	0	0.2871037	0.02709949	0	3	100	0	50	0.3208524	0.5028185	-9.075785	
09:21:48	0	0	0	0.2871037	0.02709949	0	3	100	0	50	0.3198736	0.5011932	-9.085705	
09:21:49	0	0	0	0.2871037	0.02709949	0	3	100	0	50	0.3145498	0.4901819	-9.080061	
09:21:49	0	0	0	0.2871037	0.02709949	0	3	100	0	50	0.3180055	0.495921	-9.062417	
09:21:49	0	0	0	0.2871037	0.02709949	0	3	100	0	50	0.3197527	0.4999661	-9.047398	
09:21:49	0	0	0	0.3357892	0.2870989	0	3	100	0	50	0.3219104	0.5049116	-9.034899	
09:21:49	0	0	0	0.3357892	0.2870989	0	3	100	0	50	0.3223324	0.5019373	-9.054896	
09:21:50	0	0	0	0.3357892	0.2870989	0	3	100	0	50	0.3139668	0.4942603	-9.033545	
09:21:50	0	0	0	0.3357892	0.2870989	0	3	100	0	50	0.3260688	0.5087215	-9.045894	
09:21:50	0	0	0	0.3357892	0.2870989	0	3	100	0	50	0.3188812	0.5025226	-9.058252	
09:21:50	0	0	0	0.1637914	-7.793921	0	3	100	0	50	0.3113375	0.4845615	-9.057332	
09:21:50	0	0	0	0.1637914	-7.793921	0	3	100	0	50	0.3205267	0.4799994	-9.052241	
09:21:51	0	0	0	0.1637914	-7.793921	0	3	100	0	50	0.3214606	0.4791868	-9.069542	
09:21:51	0	0	0	0.1637914	-7.793921	0	3	100	0	50	0.3278565	0.479079	-9.06142	
09:21:51	0	0	0	0.1637914	-7.793921	0	3	100	0	50	0.3256735	0.4848712	-9.074941	
09:21:51	0	0	0	0.04061261	-10.73362	0	3	100	0	50	0.3311174	0.4889373	-9.063828	
09:21:51	0	0	0	0.04061261	-10.73362	0	3	100	0	50	0.3367224	0.4938312	-9.045181	
09:21:52	0	0	0	0.04061261	-10.73362	0	3	100	0	50	0.3380507	0.4975816	-9.058049	
09:21:52	0	0	0	0.04061261	-10.73362	0	3	100	0	50	0.3371983	0.5019493	-9.05031	
09:21:52	0	0	0	0.04061261	-10.73362	0	3	100	0	50	0.3423162	0.5132046	-9.064504	
09:21:52	0	0	0	-0.2122107	-19.27472	0	3	100	0	50	0.3361658	0.5076146	-9.079721	
09:21:53	0	0	0	-0.2122107	-19.27472	0	3	100	0	50	0.337592	0.5027925	-9.085867	
09:21:53	0	0	0	-0.2122107	-19.27472	0	3	100	0	50	0.3362019	0.4940176	-9.081949	
09:21:53	0	0	0	-0.2122107	-19.27472	0	3	100	0	50	0.3478394	0.5126258	-9.095914	
09:21:53	0	0	0	-0.2122107	-19.27472	0	3	100	0	50	0.349948	0.523785	-9.095077	
09:21:53	0	0	0	-0.1555951	-9.44424	0	3	100	0	50	0.3549038	0.5262337	-9.098908	
09:21:54	0	0	0	-0.1555951	-9.44424	0	3	100	0	50	0.358103	0.5321226	-9.096515	
09:21:54	0	0	0	-0.1555951	-9.44424	0	3	100	0	50	0.351013	0.5363986	-9.073203	
09:21:54	0	0	0	-0.1555951	-9.44424	0	3	100	0	50	0.3491198	0.5366352	-9.035838	
09:21:54	0	0	0	-0.1555951	-9.44424	0	3	100	0	50	0.3591842	0.5493057	-9.055046	
09:21:54	0	0	0	0.1222634	4.086766	0	3	100	0	50	0.3515855	0.5484552	-9.066382	
09:21:55	0	0	0	0.1222634	4.086766	0	3	100	0	50	0.3532289	0.5408632	-9.05896	
09:21:55	0	0	0	0.1222634	4.086766	0	3	100	0	50	0.3574554	0.5193388	-9.031433	
09:21:55	0	0	0	0.1222634	4.086766	0	3	100	0	50	0.3660413	0.5269905	-9.019372	
09:21:55	0	0	0	0.1222634	4.086766	0	3	100	0	50	0.3722046	0.5343456	-8.986061	
09:21:55	0	0	0	-0.004829685	-4.440474	0	3	100	0	50	0.3787265	0.5408533	-8.952627	
09:21:56	0	0	0	-0.004829685	-4.440474	0	3	100	0	50	0.3818963	0.5513546	-8.956418	
09:21:56	0	0	0	-0.004829685	-4.440474	0	3	100	0	50	0.3911529	0.5534728	-8.926959	
09:21:56	0	0	0	-0.004829685	-4.440474	0	3	100	0	50	0.384826	0.5644587	-8.925151	
09:21:56	0	0	0	-0.004829685	-4.440474	0	3	100	0	50	0.3787816	0.5557896	-8.956781	
09:21:56	0	0	0	-0.3191834	-15.61328	0	3	100	0	50	0.3869347	0.5675495	-8.972271	
09:21:57	0	0	0	-0.3191834	-15.61328	0	3	100	0	50	0.384479	0.567013	-9.016908	
09:21:57	0	0	0	-0.3191834	-15.61328	0	3	100	0	50	0.3885183	0.538606	-9.032142	
09:21:57	0	0	0	-0.3191834	-15.61328	0	3	100	0	50	0.3869222	0.5446979	-9.055018	
09:21:57	0	0	0	-0.3191834	-15.61328	0	3	100	0	50	0.3691543	0.5305788	-9.063691	
09:21:57	0	0	0	-0.2953358	-8.519607	0	3	100	0	50	0.3621118	0.5206382	-9.068357	
09:21:58	0	0	0	-0.2953358	-8.519607	0	3	100	0	50	0.3619299	0.5166143	-9.07299	
09:21:58	0	0	0	-0.2953358	-8.519607	0	3	100	0	50	0.3493779	0.5115104	-9.06778	
09:21:58	0	0	0	-0.2953358	-8.519607	0	3	100	0	50	0.3515033	0.5215475	-9.056207	
09:21:58	0	0	0	-0.2953358	-8.519607	0	3	100	0	50	0.3491798	0.5380379	-9.068085	
09:21:58	0	0	0	-0.1335451	-0.257606	0	3	100	0	50	0.3524851	0.5497595	-9.055444	
09:21:59	0	0	0	-0.1335451	-0.257606	0	3	100	0	50	0.3649065	0.5504684	-9.078303	
09:21:59	0	0	0	-0.1335451	-0.257606	0	3	100	0	50	0.3737662	0.5569409	-9.063157	
09:21:59	0	0	0	-0.1335451	-0.257606	0	3	100	0	50	0.3664525	0.5392879	-9.0425	
09:21:59	0	0	0	-0.1335451	-0.257606	0	3	100	0	50	0.3740504	0.5312148	-8.992722	
09:21:59	0	0	0	-0.4099503	-13.42696	0	3	100	0	50	0.3816806	0.5213193	-8.968911	
09:22:00	0	0	0	-0.4099503	-13.42696	0	3	100	0	50	0.3790763	0.5304645	-8.958535	
09:22:00	0	0	0	-0.4099503	-13.42696	0	3	100	0	50	0.3693981	0.5288455	-8.948153	
09:22:00	0	0	0	-0.4099503	-13.42696	0	3	100	0	50	0.3611943	0.5191948	-8.940255	
09:22:00	0	0	0	-0.4099503	-13.42696	0	3	100	0	50	0.3564264	0.5336671	-8.946684	
09:22:00	0	0	0	-0.5592339	-14.29652	0	3	100	0	50	0.365798	0.5433983	-8.961006	
09:22:01	0	0	0	-0.5592339	-14.29652	0	3	100	0	50	0.3684142	0.5474981	-8.923015	
09:22:01	0	0	0	-0.5592339	-14.29652	0	3	100	0	50	0.3725656	0.5323057	-8.890984	
09:22:01	0	0	0	-0.5592339	-14.29652	0	3	100	0	50	0.3740239	0.5363773	-8.883945	
09:22:01	0	0	0	-0.5592339	-14.29652	0	3	100	0	50	0.3729606	0.5379382	-8.897441	
09:22:01	0	0	0	-0.386672	-1.534631	0	3	100	0	50	0.3740135	0.5545294	-8.930223	
09:22:02	0	0	0	-0.386672	-1.534631	0	3	100	0	50	0.3766165	0.5754097	-8.940135	
09:22:02	0	0	0	-0.386672	-1.534631	0	3	100	0	50	0.3775396	0.5946801	-8.938026	
09:22:02	0	0	0	-0.386672	-1.534631	0	3	100	0	50	0.3670819	0.595623	-8.968206	
09:22:02	0	0	0	-0.386672	-1.534631	0	3	100	0	50	0.3715459	0.5967035	-9.012517	
09:22:02	0	0	0	-0.2315089	4.683765	0	3	100	0	50	0.3670094	0.5916749	-9.03685	
09:22:03	0	0	0	-0.2315089	4.683765	0	3	100	0	50	0.3624933	0.5894034	-9.022352	
09:22:03	0	0	0	-0.2315089	4.683765	0	3	100	0	50	0.3702362	0.5963488	-8.979404	
09:22:03	0	0	0	-0.2315089	4.683765	0	3	100	0	50	0.3728528	0.6072254	-8.930882	
09:22:03	0	0	0	-0.2315089	4.683765	0	3	100	0	50	0.3786425	0.6149902	-8.911671	
09:22:03	0	0	0	-0.1192778	6.804094	0	3	100	0	50	0.377003	0.6142356	-8.886408	
09:22:04	0	0	0	-0.1192778	6.804094	0	3	100	0	50	0.3809174	0.613874	-8.854317	
09:22:04	0	0	0	-0.1192778	6.804094	0	3	100	0	50	0.3981888	0.6239795	-8.846684	
09:22:04	0	0	0	-0.1192778	6.804094	0	3	100	0	50	0.3966759	0.6268436	-8.838589	
09:22:04	0	0	0	-0.1192778	6.804094	0	3	100	0	50	0.4023354	0.6314034	-8.838296	
09:22:04	0	0	0	0.03308753	8.896356	0	3	100	0	50	0.4012578	0.641454	-8.836728	
09:22:05	0	0	0	0.03308753	8.896356	0	3	100	0	50	0.4004225	0.645293	-8.81511	
09:22:05	0	0	0	0.03308753	8.896356	0	3	100	0	50	0.3923356	0.6418979	-8.830002	
09:22:05	0	0	0	0.03308753	8.896356	0	3	100	0	50	0.3963422	0.6454948	-8.841926	
09:22:05	0	0	0	0.03308753	8.896356	0	3	100	0	50	0.3952386	0.6511462	-8.848189	
09:22:06	0	0	0	-0.01624417	2.311782	0	3	100	0	50	0.3883512	0.6426782	-8.887681	
09:22:06	0	0	0	-0.01624417	2.311782	0	3	100	0	50	0.3939967	0.6540319	-8.893807	
09:22:06	0	0	0	-0.01624417	2.311782	0	3	100	0	50	0.3997875	0.6486873	-8.89149	
09:22:06	0	0	0	-0.01624417	2.311782	0	3	100	0	50	0.4024878	0.6361585	-8.890334	
09:22:06	0	0	0	-0.01624417	2.311782	0	3	100	0	50	0.3895465	0.6172537	-8.902555	
09:22:07	0	0	0	-0.07767057	-1.661875	0	3	100	0	50	0.3941475	0.6075473	-8.896082	
09:22:07	0	0	0	-0.07767057	-1.661875	0	3	100	0	50	0.3875413	0.6135946	-8.884386	
09:22:07	0	0	0	-0.07767057	-1.661875	0	3	100	0	50	0.3826773	0.6029965	-8.879362	
09:22:07	0	0	0	-0.07767057	-1.661875	0	3	100	0	50	0.3905104	0.6117848	-8.847832	
09:22:07	0	0	0	-0.07767057	-1.661875	0	3	100	0	50	0.3934588	0.6120311	-8.831252	
09:22:08	0	0	0	-0.3181414	-11.68013	0	3	100	0	50	0.3890504	0.6007598	-8.849073	
09:22:08	0	0	0	-0.3181414	-11.68013	0	3	100	0	50	0.3806894	0.5880241	-8.846284	
09:22:08	0	0	0	-0.3181414	-11.68013	0	3	100	0	50	0.3675206	0.5738614	-8.84403	
09:22:08	0	0	0	-0.3181414	-11.68013	0	3	100	0	50	0.3602147	0.5800363	-8.849006	
09:22:08	0	0	0	-0.3181414	-11.68013	0	3	100	0	50	0.3496986	0.570291	-8.856265	
09:22:09	0	0	0	-0.3105987	-8.030151	0	3	100	0	50	0.3503311	0.5602697	-8.8535	
09:22:09	0	0	0	-0.3105987	-8.030151	0	3	100	0	50	0.3555935	0.5790801	-8.858508	
09:22:09	0	0	0	-0.3105987	-8.030151	0	3	100	0	50	0.3662362	0.5779948	-8.87387	
09:22:09	0	0	0	-0.3105987	-8.030151	0	3	100	0	50	0.373506	0.5950071	-8.854547	
09:22:09	0	0	0	-0.3105987	-8.030151	0	3	100	0	50	0.3701231	0.5986382	-8.850725	
09:22:10	0	0	0	-0.3255681	-5.952025	0	3	100	0	50	0.3629382	0.5891988	-8.885958	
09:22:10	0	0	0	-0.3255681	-5.952025	0	3	100	0	50	0.3636153	0.5842381	-8.879775	
09:22:10	0	0	0	-0.3255681	-5.952025	0	3	100	0	50	0.3544245	0.5909777	-8.879122	
09:22:10	0	0	0	-0.3255681	-5.952025	0	3	100	0	50	0.3608547	0.5969477	-8.870646	
09:22:10	0	0	0	-0.3255681	-5.952025	0	3	100	0	50	0.3529578	0.5946528	-8.841536	
09:22:11	0	0	0	-0.4111976	-7.525626	0	3	100	0	50	0.3546132	0.5952225	-8.876318	
09:22:11	0	0	0	-0.4111976	-7.525626	0	3	100	0	50	0.3498143	0.6004515	-8.901837	
09:22:11	0	0	0	-0.4111976	-7.525626	0	3	100	0	50	0.3544028	0.6159576	-8.933204	
09:22:11	0	0	0	-0.4111976	-7.525626	0	3	100	0	50	0.3597563	0.6183509	-8.96976	
09:22:11	0	0	0	-0.4111976	-7.525626	0	3	100	0	50	0.3649378	0.6299729	-8.972995	
09:22:12	0	0	0	-0.4532581	-7.027577	0	3	100	0	50	0.3562303	0.6216404	-8.961212	
09:22:12	0	0	0	-0.4532581	-7.027577	0	3	100	0	50	0.3550011	0.6184244	-8.934593	
09:22:12	0	0	0	-0.4532581	-7.027577	0	3	100	0	50	0.3540683	0.6039634	-8.904796	
09:22:12	0	0	0	-0.4532581	-7.027577	0	3	100	0	50	0.354648	0.6141233	-8.895577	
09:22:12	0	0	0	-0.4532581	-7.027577	0	3	100	0	50	0.3462797	0.6135125	-8.871985	
09:22:13	0	0	0	-0.4781557	-5.063985	0	3	100	0	50	0.3377546	0.6081499	-8.8553	
09:22:13	0	0	0	-0.4781557	-5.063985	0	3	100	0	50	0.3335316	0.6090251	-8.884092	
09:22:13	0	0	0	-0.4781557	-5.063985	0	3	100	0	50	0.3388736	0.6240032	-8.878181	
09:22:13	0	0	0	-0.4781557	-5.063985	0	3	100	0	50	0.3326526	0.6263564	-8.85388	
09:22:13	0	0	0	-0.4781557	-5.063985	0	3	100	0	50	0.3291241	0.6447282	-8.825732	
09:22:14	0	0	0	-0.3440406	2.519928	0	3	100	0	50	0.3296645	0.6439356	-8.825271	
09:22:14	0	0	0	-0.3440406	2.519928	0	3	100	0	50	0.3336174	0.6420416	-8.826339	
09:22:14	0	0	0	-0.3440406	2.519928	0	3	100	0	50	0.3335415	0.636823	-8.797501	
09:22:14	0	0	0	-0.3440406	2.519928	0	3	100	0	50	0.3416735	0.6488177	-8.805848	
09:22:14	0	0	0	-0.3440406	2.519928	0	3	100	0	50	0.3461696	0.6491294	-8.819731	
09:22:15	0	0	0	-0.3151222	1.553835	0	3	100	0	50	0.340214	0.6272819	-8.836617	
09:22:15	0	0	0	-0.3151222	1.553835	0	3	100	0	50	0.3285517	0.6128232	-8.8284	
09:22:15	0	0	0	-0.3151222	1.553835	0	3	100	0	50	0.3254544	0.6096128	-8.836302	
09:22:15	0	0	0	-0.3151222	1.553835	0	3	100	0	50	0.3242591	0.6075174	-8.827579	
09:22:15	0	0	0	-0.3151222	1.553835	0	3	100	0	50	0.3173733	0.6075792	-8.842954	
09:22:16	0	0	0	-0.3136392	2.371227	0	3	100	0	50	0.3221457	0.6273282	-8.830181	
09:22:16	0	0	0	-0.3136392	2.371227	0	3	100	0	50	0.3236071	0.6229238	-8.84878	
09:22:16	0	0	0	-0.3136392	2.371227	0	3	100	0	50	0.3238104	0.6267656	-8.853187	
09:22:16	0	0	0	-0.3136392	2.371227	0	3	100	0	50	0.331437	0.6285415	-8.893015	
09:22:16	0	0	0	-0.3136392	2.371227	0	3	100	0	50	0.3322847	0.6344577	-8.881985	
09:22:17	0	0	0	-0.3920133	-5.426846	0	3	100	0	50	0.3339196	0.6374302	-8.895535	
09:22:17	0	0	0	-0.3920133	-5.426846	0	3	100	0	50	0.3272049	0.6453792	-8.893392	
09:22:17	0	0	0	-0.3920133	-5.426846	0	3	100	0	50	0.3306852	0.6431543	-8.905648	
09:22:17	0	0	0	-0.3920133	-5.426846	0	3	100	0	50	0.3425571	0.6527899	-8.891818	
09:22:17	0	0	0	-0.3920133	-5.426846	0	3	100	0	50	0.3537065	0.6629891	-8.889327	
09:22:18	0	0	0	-0.4919505	-6.910753	0	3	100	0	50	0.351125	0.6550775	-8.907426	
09:22:18	0	0	0	-0.4919505	-6.910753	0	3	100	0	50	0.3464221	0.6614617	-8.90745	
09:22:18	0	0	0	-0.4919505	-6.910753	0	3	100	0	50	0.3467695	0.6701565	-8.902874	
09:22:18	0	0	0	-0.4919505	-6.910753	0	3	100	0	50	0.3447722	0.6663646	-8.899804	
09:22:18	0	0	0	-0.4919505	-6.910753	0	3	100	0	50	0.3500521	0.6572912	-8.916297	
09:22:19	0	0	0	-0.5840139	-8.651929	0	3	100	0	50	0.3488958	0.6531727	-8.912778	
09:22:19	0	0	0	-0.5840139	-8.651929	0	3	100	0	50	0.3662763	0.6628407	-8.942536	
09:22:19	0	0	0	-0.5840139	-8.651929	0	3	100	0	50	0.3710735	0.6644891	-8.923282	
09:22:19	0	0	0	-0.5840139	-8.651929	0	3	100	0	50	0.3809118	0.6704882	-8.938228	
09:22:20	0	0	0	-0.5840139	-8.651929	0	3	100	0	50	0.288769	0.6751162	-8.972128	
09:22:20	0	0	0	-0.5437046	-2.753076	0	3	100	0	50	0.2927872	0.6534437	-8.975808	
09:22:20	0	0	0	-0.5437046	-2.753076	0	3	100	0	50	0.2830152	0.6659585	-8.945518	
09:22:20	0	0	0	-0.5437046	-2.753076	0	3	100	0	50	0.2773201	0.654071	-8.93217	
09:22:20	0	0	0	-0.5437046	-2.753076	0	3	100	0	50	0.2752579	0.651229	-8.940201	
09:22:21	0	0	0	-0.5437046	-2.753076	0	3	100	0	50	0.2740242	0.6419502	-8.935514	
09:22:21	0	0	0	-0.2049184	11.54582	0	3	100	0	50	0.2574469	0.6530932	-8.925245	
09:22:21	0	0	0	-0.2049184	11.54582	0	3	100	0	50	-4.872367	0.09685049	-10.65317	
09:22:21	0	0	0	-0.2049184	11.54582	0	3	100	0	50	-22.46513	-0.0598928	-12.35716	
09:22:21	0	0	0	-0.2049184	11.54582	0	3	100	0	50	3.441933	-4.785209	-7.801037	
09:22:22	0	0	0	-0.2049184	11.54582	0	3	100	0	50	20.1966	-2.674296	-7.436817	
09:22:22	0	0	0	-0.09947456	7.467593	0	3	100	0	50	8.192535	-3.818635	-9.679605	
09:22:22	0	0	0	-0.09947456	7.467593	0	3	100	0	50	-20.41739	-0.5680881	-10.86723	
09:22:22	0	0	0	-0.09947456	7.467593	0	3	100	0	50	-15.26279	-0.255806	-8.51746	
09:22:22	0	0	0	-0.09947456	7.467593	0	3	100	0	50	21.08767	-1.438931	-4.959049	
09:22:23	0	0	0	-0.09947456	7.467593	0	3	100	0	50	28.76407	-1.932778	-4.685515	
09:22:23	0	0	0	0.02782787	-13.72734	0	3	100	0	50	6.531905	-2.620651	-10.37121	
09:22:23	0	0	0	0.02782787	-13.72734	0	3	100	0	50	-4.77369	-0.9739744	-10.24458	
09:22:23	0	0	0	0.02782787	-13.72734	0	3	100	0	50	1.687068	2.616936	-11.71874	
09:22:23	0	0	0	0.02782787	-13.72734	0	3	100	0	50	1.924969	2.385343	-11.96184	
09:22:24	0	0	0	0.02782787	-13.72734	0	3	100	0	50	1.805656	2.304616	-12.20918	
09:22:24	0	0	0	-0.1887094	-26.14299	0	3	100	0	50	1.691268	2.267917	-12.40805	
09:22:24	0	0	0	-0.1887094	-26.14299	0	3	100	0	50	1.614348	2.208351	-12.58604	
09:22:24	0	0	0	-0.1887094	-26.14299	0	3	100	0	50	1.547969	2.140862	-12.75237	
09:22:24	0	0	0	-0.1887094	-26.14299	0	3	100	0	50	1.487431	2.075033	-12.92935	
09:22:25	0	0	0	-0.1887094	-26.14299	0	3	100	0	50	1.42129	2.015695	-13.0736	
09:22:25	0	0	0	-0.4111173	-24.5794	0	3	100	0	50	1.363781	1.958299	-13.25571	
09:22:25	0	0	0	-0.4111173	-24.5794	0	3	100	0	50	1.311546	1.915562	-13.39282	
09:22:25	0	0	0	-0.4111173	-24.5794	0	3	100	0	50	1.260222	1.859446	-13.50991	
09:22:25	0	0	0	-0.4111173	-24.5794	0	3	100	0	50	1.195278	1.817454	-13.64395	
09:22:26	0	0	0	-0.4111173	-24.5794	0	3	100	0	50	1.13699	1.772838	-13.73354	
09:22:26	0	0	0	-0.4008498	-12.70567	0	3	100	0	50	1.090283	1.729231	-13.80962	
09:22:26	0	0	0	-0.4008498	-12.70567	0	3	100	0	50	1.047296	1.700936	-13.896	
09:22:26	0	0	0	-0.4008498	-12.70567	0	3	100	0	50	1.000831	1.640846	-13.94958	
09:22:26	0	0	0	-0.4008498	-12.70567	0	3	100	0	50	0.8509167	1.589595	-14.0309	
09:22:27	0	0	0	-0.4008498	-12.70567	0	3	100	0	50	15.39137	-3.302554	-14.87341	
09:22:27	0	0	0	-0.3326739	-1.164006	0	3	100	0	50	39.16401	-5.03923	-19.57727	
09:22:27	0	0	0	-0.3326739	-1.164006	0	3	100	0	50	48.42036	-2.625705	-22.17381	
09:22:27	0	0	0	-0.3326739	-1.164006	0	3	100	0	50	66.89955	-2.304551	-23.34759	
09:22:27	0	0	0	-0.3326739	-1.164006	0	3	100	0	50	63.33904	0.7896014	-23.64722	
09:22:28	0	0	0	-0.3326739	-1.164006	0	3	100	0	50	13.13354	7.40917	-30.55763	
09:22:28	0	0	0	-0.2291259	-4.865318	0	3	100	0	50	-32.69353	13.79438	-28.93301	
09:22:28	0	0	0	-0.2291259	-4.865318	0	3	100	0	50	-64.70245	24.47539	-25.21201	
09:22:28	0	0	0	-0.2291259	-4.865318	0	3	100	0	50	-110.8477	32.2125	-44.83062	
09:22:28	0	0	0	-0.2291259	-4.865318	0	3	100	0	50	-133.3541	28.38696	-55.35611	
09:22:29	0	0	0	-0.2291259	-4.865318	0	3	100	0	50	-144.6711	23.91342	-60.28953	
09:22:29	0	0	0	-0.184046	-6.101627	0	3	100	0	50	-152.5641	20.00441	-63.57229	
09:22:29	0	0	0	-0.184046	-6.101627	0	3	100	0	50	-155.2992	16.77651	-62.90104	
09:22:29	0	0	0	-0.184046	-6.101627	0	3	100	0	50	-159.4274	11.55667	-63.14817	
09:22:29	0	0	0	-0.184046	-6.101627	0	3	100	0	50	-161.287	10.07186	-62.23127	
09:22:30	0	0	0	-0.184046	-6.101627	0	3	100	0	50	-161.6227	8.429103	-61.24177	
09:22:30	0	0	0	0.04618606	29.0484	0	3	100	0	50	-161.7462	7.53446	-60.23718	
09:22:30	0	0	0	0.04618606	29.0484	0	3	100	0	50	-162.1324	6.52387	-59.26268	
09:22:30	0	0	0	0.04618606	29.0484	0	3	100	0	50	-163.3482	5.473577	-58.577	
09:22:30	0	0	0	0.04618606	29.0484	0	3	100	0	50	-168.0696	3.646374	-61.28799	
09:22:31	0	0	0	0.04618606	29.0484	0	3	100	0	50	-171.7545	2.525102	-65.5487	
09:22:31	0	0	0	0.4761336	63.36731	0	3	100	0	50	-179.2845	0.5091327	-72.14654	
09:22:31	0	0	0	0.4761336	63.36731	0	3	100	0	50	173.8533	-0.4521183	-76.68225	
09:22:31	0	0	0	0.4761336	63.36731	0	3	100	0	50	170.7111	-1.412861	-77.69489	
09:22:31	0	0	0	0.4761336	63.36731	0	3	100	0	50	170.5664	-2.032066	-77.31584	
09:22:32	0	0	0	0.4761336	63.36731	0	3	100	0	50	170.7423	-2.314292	-77.32177	
09:22:32	0	0	0	0.5505204	67.08116	0	3	100	0	50	172.2118	-2.324488	-77.73598	
09:22:32	0	0	0	0.5505204	67.08116	0	3	100	0	50	175.0921	-1.564638	-78.39569	
09:22:32	0	0	0	0.5505204	67.08116	0	3	100	0	50	-174.6203	-0.4020969	-79.54391	
09:22:33	0	0	0	0.5505204	67.08116	0	3	100	0	50	179.3204	-3.927918	-77.19213	
09:22:33	0	0	0	0.5505204	67.08116	0	3	100	0	50	173.7346	-4.713953	-76.42995	
09:22:33	0	0	0	0.7084435	71.49525	0	3	100	0	50	-159.8812	-2.941248	-80.14127	
09:22:33	0	0	0	0.7084435	71.49525	0	3	100	0	50	-163.3601	-1.139028	-78.4798	
09:22:33	0	0	0	0.7084435	71.49525	0	3	100	0	50	178.5935	-4.89355	-75.21537	
09:22:34	0	0	0	0.7084435	71.49525	0	3	100	0	50	169.0031	-3.916726	-78.11872	
09:22:34	0	0	0	0.7084435	71.49525	0	3	100	0	50	-171.5001	-5.012804	-81.05836	
09:22:34	0	0	0	0.673848	71.41152	0	3	100	0	50	-166.1051	-3.125308	-83.86726	
09:22:34	0	0	0	0.673848	71.41152	0	3	100	0	50	173.3265	-7.295524	-81.29582	
09:22:34	0	0	0	0.673848	71.41152	0	3	100	0	50	164.7049	-6.692461	-82.29636	
09:22:35	0	0	0	0.673848	71.41152	0	3	100	0	50	167.16	-6.699035	-83.48419	
09:22:35	0	0	0	0.673848	71.41152	0	3	100	0	50	-163.925	-2.975543	-88.92168	
09:22:35	0	0	0	0.7959499	75.83641	0	3	100	0	50	-162.3087	-2.05462	-88.87907	
09:22:35	0	0	0	0.7959499	75.83641	0	3	100	0	50	177.7983	-8.91255	-84.14922	
09:22:35	0	0	0	0.7959499	75.83641	0	3	100	0	50	169.2294	-8.59853	-84.57247	
09:22:36	0	0	0	0.7959499	75.83641	0	3	100	0	50	161.9159	-10.61695	-85.87517	
09:22:36	0	0	0	0.7959499	75.83641	0	3	100	0	50	158.3345	-10.33894	-86.49557	
09:22:36	0	0	0	0.7400897	70.80746	0	3	100	0	50	156.7419	-10.92238	-87.28927	
09:22:36	0	0	0	0.7400897	70.80746	0	3	100	0	50	158.8612	-10.35192	-88.45889	
09:22:36	0	0	0	0.7400897	70.80746	0	3	100	0	50	179.6379	-11.45613	-89.67865	
09:22:37	0	0	0	0.7400897	70.80746	0	3	100	0	50	-172.8214	-8.994252	-91.49197	
09:22:37	0	0	0	0.7400897	70.80746	0	3	100	0	50	-168.1315	-7.870214	-92.47646	
09:22:37	0	0	0	0.5013602	61.20942	0	3	100	0	50	-163.9847	-6.348537	-93.99979	
09:22:37	0	0	0	0.5013602	61.20942	0	3	100	0	50	-160.7601	-6.845744	-93.5591	
09:22:37	0	0	0	0.5013602	61.20942	0	3	100	0	50	-177.288	-10.33105	-88.91088	
09:22:38	0	0	0	0.5013602	61.20942	0	3	100	0	50	170.1478	-8.55932	-90.18205	
09:22:38	0	0	0	0.5013602	61.20942	0	3	100	0	50	159.1339	-7.729366	-89.5985	
09:22:38	0	0	0	0.3569883	51.16032	0	3	100	0	50	152.7703	-5.510314	-86.87119	
09:22:38	0	0	0	0.3569883	51.16032	0	3	100	0	50	150.3435	-5.827158	-85.89611	
09:22:38	0	0	0	0.3569883	51.16032	0	3	100	0	50	147.3401	-5.947569	-84.66527	
09:22:39	0	0	0	0.3569883	51.16032	0	3	100	0	50	145.7534	-6.257863	-83.52971	
09:22:39	0	0	0	0.3569883	51.16032	0	3	100	0	50	145.9037	-7.515932	-83.22697	
09:22:39	0	0	0	0.2112124	46.04611	0	3	100	0	50	178.7371	-3.561941	-84.5966	
09:22:39	0	0	0	0.2112124	46.04611	0	3	100	0	50	-156.4149	0.639645	-81.84244	
09:22:39	0	0	0	0.2112124	46.04611	0	3	100	0	50	-106.2704	16.63796	-66.93538	
09:22:40	0	0	0	0.2112124	46.04611	0	3	100	0	50	-31.96286	25.60614	-28.474	
09:22:40	0	0	0	0.2112124	46.04611	0	3	100	0	50	-5.471224	12.37625	-7.757183	
09:22:40	0	0	0	-0.02878164	0.7407892	0	3	100	0	50	4.065402	15.16298	-4.770775	
09:22:40	0	0	0	-0.02878164	0.7407892	0	3	100	0	50	1.348203	21.06377	0.4433906	
09:22:40	0	0	0	-0.02878164	0.7407892	0	3	100	0	50	0.06890097	16.65091	4.101922	
09:22:41	0	0	0	-0.02878164	0.7407892	0	3	100	0	50	-8.198582	13.77389	7.80062	
09:22:41	0	0	0	-0.02878164	0.7407892	0	3	100	0	50	-7.285468	12.12469	12.64902	
09:22:41	0	0	0	-0.315434	-28.23321	0	3	100	0	50	-6.958555	11.70023	12.8509	
09:22:41	0	0	0	-0.315434	-28.23321	0	3	100	0	50	-6.710561	11.22135	13.00023	
09:22:41	0	0	0	-0.315434	-28.23321	0	3	100	0	50	-6.463737	10.79841	13.06558	
09:22:42	0	0	0	-0.315434	-28.23321	0	3	100	0	50	-6.256848	10.35283	13.13331	
09:22:42	0	0	0	-0.315434	-28.23321	0	3	100	0	50	-6.034523	9.978864	13.13615	
09:22:42	0	0	0	-0.6464336	-56.12098	0	3	100	0	50	-5.829949	9.604141	13.07115	
09:22:42	0	0	0	-0.6464336	-56.12098	0	3	100	0	50	-5.637725	9.246564	12.9734	
09:22:42	0	0	0	-0.6464336	-56.12098	0	3	100	0	50	-5.446559	8.887749	12.86074	
09:22:43	0	0	0	-0.6464336	-56.12098	0	3	100	0	50	-5.374813	8.458465	12.79397	
09:22:43	0	0	0	-0.6464336	-56.12098	0	3	100	0	50	-2.604001	7.900608	16.50305	
09:22:43	0	0	0	-0.6774344	-56.47045	0	3	100	0	50	-4.508165	8.170947	19.11749	
09:22:43	0	0	0	-0.6774344	-56.47045	0	3	100	0	50	-4.343386	7.867754	18.86999	
09:22:43	0	0	0	-0.6774344	-56.47045	0	3	100	0	50	-4.222705	7.618029	18.64557	
09:22:44	0	0	0	-0.6774344	-56.47045	0	3	100	0	50	-4.082549	7.35802	18.3776	
09:22:44	0	0	0	-0.6774344	-56.47045	0	3	100	0	50	-3.962817	7.106514	18.09893	
09:22:44	0	0	0	-0.5731152	-44.12044	0	3	100	0	50	-3.837811	6.832067	17.84013	
09:22:44	0	0	0	-0.5731152	-44.12044	0	3	100	0	50	-4.009689	6.142519	17.6592	
09:22:44	0	0	0	-0.5731152	-44.12044	0	3	100	0	50	-3.957526	5.674022	17.42311	
09:22:45	0	0	0	-0.5731152	-44.12044	0	3	100	0	50	-3.892371	5.327036	17.22973	
09:22:45	0	0	0	-0.5731152	-44.12044	0	3	100	0	50	-3.890678	5.114042	16.99667	
09:22:45	0	0	0	-0.6067017	-38.86526	0	3	100	0	50	-3.734342	4.903017	16.72717	
09:22:45	0	0	0	-0.6067017	-38.86526	0	3	100	0	50	-3.030382	5.14093	16.1581	
09:22:46	0	0	0	-0.6067017	-38.86526	0	3	100	0	50	-2.84229	4.830141	15.84827	
09:22:46	0	0	0	-0.6067017	-38.86526	0	3	100	0	50	-2.743885	4.627119	15.50329	
09:22:46	0	0	0	-0.6067017	-38.86526	0	3	100	0	50	-2.63213	4.422187	15.1198	
09:22:46	0	0	0	-0.5316045	-29.46352	0	3	100	0	50	-2.524839	4.230341	14.72659	
09:22:46	0	0	0	-0.5316045	-29.46352	0	3	100	0	50	-2.415196	4.02749	14.37389	
09:22:47	0	0	0	-0.5316045	-29.46352	0	3	100	0	50	-2.297024	3.852676	14.02314	
09:22:47	0	0	0	-0.5316045	-29.46352	0	3	100	0	50	-2.204184	3.65851	13.71324	
09:22:47	0	0	0	-0.5316045	-29.46352	0	3	100	0	50	-2.098059	3.487621	13.40075	
09:22:47	0	0	0	-0.4443388	-20.8202	0	3	100	0	50	-2.013532	3.314209	13.10102	
09:22:47	0	0	0	-0.4443388	-20.8202	0	3	100	0	50	-1.946635	3.13182	12.75458	
09:22:48	0	0	0	-0.4443388	-20.8202	0	3	100	0	50	-1.854349	2.970046	12.44117	
09:22:48	0	0	0	-0.4443388	-20.8202	0	3	100	0	50	-1.777769	2.821443	12.11813	
09:22:48	0	0	0	-0.4443388	-20.8202	0	3	100	0	50	-1.700796	2.6602	11.79822	
09:22:48	0	0	0	-0.427737	-18.57051	0	3	100	0	50	-1.645544	2.485568	11.48528	
09:22:48	0	0	0	-0.427737	-18.57051	0	3	100	0	50	-1.571261	2.352652	11.18349	
09:22:49	0	0	0	-0.427737	-18.57051	0	3	100	0	50	-1.500784	2.234666	10.89544	
09:22:49	0	0	0	-0.427737	-18.57051	0	3	100	0	50	-1.425675	2.1067	10.60837	
09:22:49	0	0	0	-0.427737	-18.57051	0	3	100	0	50	-1.369476	1.994476	10.30315	
09:22:49	0	0	0	-0.7228396	-30.82631	0	3	100	0	50	-1.316494	1.880839	10.0065	
09:22:49	0	0	0	-0.7228396	-30.82631	0	3	100	0	50	-1.253913	1.7794	9.69351	
09:22:50	0	0	0	-0.7228396	-30.82631	0	3	100	0	50	-1.196408	1.690005	9.40776	
09:22:50	0	0	0	-0.7228396	-30.82631	0	3	100	0	50	-1.133086	1.615887	9.139852	
09:22:50	0	0	0	-0.7228396	-30.82631	0	3	100	0	50	-1.073715	1.527168	8.870907	
09:22:50	0	0	0	-0.877044	-29.5318	0	3	100	0	50	-1.001314	1.444185	8.579576	
09:22:50	0	0	0	-0.877044	-29.5318	0	3	100	0	50	-0.9237372	1.359693	8.241758	
09:22:51	0	0	0	-0.877044	-29.5318	0	3	100	0	50	-0.8491901	1.273113	7.916978	
09:22:51	0	0	0	-0.877044	-29.5318	0	3	100	0	50	-0.7811573	1.192609	7.594707	
09:22:51	0	0	0	-0.877044	-29.5318	0	3	100	0	50	-0.719807	1.120149	7.25733	
09:22:51	0	0	0	-0.5195255	-7.246149	0	3	100	0	50	-0.6532857	1.043692	6.978441	
09:22:51	0	0	0	-0.5195255	-7.246149	0	3	100	0	50	-0.5938562	0.955824	6.686532	
09:22:52	0	0	0	-0.5195255	-7.246149	0	3	100	0	50	-0.5286229	0.8908877	6.383799	
09:22:52	0	0	0	-0.5195255	-7.246149	0	3	100	0	50	-0.466923	0.8476074	6.102674	
09:22:52	0	0	0	-0.5195255	-7.246149	0	3	100	0	50	-0.4109102	0.7778267	5.801231	
09:22:52	0	0	0	-0.4121789	-4.087121	0	3	100	0	50	-0.3620737	0.7085462	5.547469	
09:22:52	0	0	0	-0.4121789	-4.087121	0	3	100	0	50	-0.3095805	0.6552196	5.303411	
09:22:53	0	0	0	-0.4121789	-4.087121	0	3	100	0	50	-0.2617931	0.5914163	5.037188	
09:22:53	0	0	0	-0.4121789	-4.087121	0	3	100	0	50	-0.2066253	0.5352633	4.782022	
09:22:53	0	0	0	-0.4121789	-4.087121	0	3	100	0	50	-0.1531398	0.4945361	4.545272	
09:22:53	0	0	0	-0.400378	-6.618114	0	3	100	0	50	-0.1051469	0.4416023	4.292174	
09:22:53	0	0	0	-0.400378	-6.618114	0	3	100	0	50	-0.05445048	0.3933859	4.045742	
09:22:54	0	0	0	-0.400378	-6.618114	0	3	100	0	50	-0.008546028	0.3378319	3.829824	
09:22:54	0	0	0	-0.400378	-6.618114	0	3	100	0	50	0.03281859	0.2847405	3.5956	
09:22:54	0	0	0	-0.400378	-6.618114	0	3	100	0	50	0.07395236	0.2519519	3.397016	
09:22:54	0	0	0	-0.4864261	-12.92045	0	3	100	0	50	0.114009	0.217346	3.178745	
09:22:54	0	0	0	-0.4864261	-12.92045	0	3	100	0	50	0.1536192	0.1877375	2.985055	
09:22:55	0	0	0	-0.4864261	-12.92045	0	3	100	0	50	0.2007551	0.1616626	2.762053	
09:22:55	0	0	0	-0.4864261	-12.92045	0	3	100	0	50	0.2359315	0.1403175	2.582094	
09:22:55	0	0	0	-0.4864261	-12.92045	0	3	100	0	50	0.2616915	0.09367282	2.376289	
09:22:55	0	0	0	-0.5675818	-14.83408	0	3	100	0	50	0.2851391	0.04689943	2.174877	
09:22:55	0	0	0	-0.5675818	-14.83408	0	3	100	0	50	0.3217287	0.02190858	1.957641	
09:22:56	0	0	0	-0.5675818	-14.83408	0	3	100	0	50	0.3778138	0.04307913	1.764329	
09:22:56	0	0	0	-0.5675818	-14.83408	0	3	100	0	50	0.3848696	-0.01410084	1.575389	
09:22:56	0	0	0	-0.5675818	-14.83408	0	3	100	0	50	0.4235655	-0.05102432	1.392449	
09:22:56	0	0	0	-0.3917758	-5.196887	0	3	100	0	50	0.4598947	-0.07600196	1.205658	
09:22:56	0	0	0	-0.3917758	-5.196887	0	3	100	0	50	0.4928849	-0.1055713	1.035394	
09:22:57	0	0	0	-0.3917758	-5.196887	0	3	100	0	50	0.5313458	-0.1157227	0.8882843	
09:22:57	0	0	0	-0.3917758	-5.196887	0	3	100	0	50	0.5584049	-0.1452522	0.7143059	
09:22:57	0	0	0	-0.3917758	-5.196887	0	3	100	0	50	0.5779874	-0.1615606	0.5469533	
09:22:57	0	0	0	-0.4064561	-8.370563	0	3	100	0	50	0.6059288	-0.1708733	0.4040881	
09:22:58	0	0	0	-0.4064561	-8.370563	0	3	100	0	50	0.638512	-0.1793416	0.2281512	
09:22:58	0	0	0	-0.4064561	-8.370563	0	3	100	0	50	0.6682495	-0.1765919	0.04419074	
09:22:58	0	0	0	-0.4064561	-8.370563	0	3	100	0	50	0.6956092	-0.1970512	-0.1247332	
09:22:58	0	0	0	-0.4064561	-8.370563	0	3	100	0	50	0.7153208	-0.2039213	-0.2916553	
09:22:58	0	0	0	-0.4534408	-9.536089	0	3	100	0	50	0.7472279	-0.2102621	-0.4399972	
09:22:59	0	0	0	-0.4534408	-9.536089	0	3	100	0	50	0.7644032	-0.229837	-0.6084494	
09:22:59	0	0	0	-0.4534408	-9.536089	0	3	100	0	50	0.7824234	-0.2464165	-1.254533	
09:22:59	0	0	0	-0.4534408	-9.536089	0	3	100	0	50	0.7890665	-0.2782142	-1.390778	
09:22:59	0	0	0	-0.4534408	-9.536089	0	3	100	0	50	0.7913904	-0.2980113	-1.475174	
09:22:59	0	0	0	-0.4679725	-9.688692	0	3	100	0	50	0.8142284	-0.2972561	-1.589871	
09:23:00	0	0	0	-0.4679725	-9.688692	0	3	100	0	50	0.8077246	-0.3460011	-1.682988	
09:23:00	0	0	0	-0.4679725	-9.688692	0	3	100	0	50	0.8213006	-0.3542371	-1.790765	
09:23:00	0	0	0	-0.4679725	-9.688692	0	3	100	0	50	0.8290751	-0.3685554	-1.854773	
09:23:00	0	0	0	-0.4679725	-9.688692	0	3	100	0	50	0.8414915	-0.3816635	-1.928806	
09:23:00	0	0	0	-0.6418074	-15.48704	0	3	100	0	50	0.8606259	-0.3760171	-1.998585	
09:23:01	0	0	0	-0.6418074	-15.48704	0	3	100	0	50	0.8722423	-0.3504897	-2.078971	
09:23:01	0	0	0	-0.6418074	-15.48704	0	3	100	0	50	0.8736302	-0.3381415	-2.146389	
09:23:01	0	0	0	-0.6418074	-15.48704	0	3	100	0	50	0.8848865	-0.3360282	-2.201758	
09:23:01	0	0	0	-0.6418074	-15.48704	0	3	100	0	50	0.8863948	-0.3515547	-2.225219	
09:23:01	0	0	0	-0.7562356	-17.03444	0	3	100	0	50	0.8981158	-0.3338682	-2.311919	
09:23:02	0	0	0	-0.7562356	-17.03444	0	3	100	0	50	0.9120588	-0.3381454	-2.379359	
09:23:02	0	0	0	-0.7562356	-17.03444	0	3	100	0	50	0.7917385	-0.6645144	-2.468851	
09:23:02	0	0	0	-0.7562356	-17.03444	0	3	100	0	50	0.7624899	-0.7601275	-2.536505	
09:23:02	0	0	0	-0.7562356	-17.03444	0	3	100	0	50	0.8108122	-0.7718732	-2.583914	
09:23:02	0	0	0	-0.654809	-9.48772	0	3	100	0	50	0.8730814	-0.7832204	-2.635903	
09:23:03	0	0	0	-0.654809	-9.48772	0	3	100	0	50	0.8766286	-0.7897803	-2.678131	
09:23:03	0	0	0	-0.654809	-9.48772	0	3	100	0	50	0.8760689	-0.7615607	-2.718458	
09:23:03	0	0	0	-0.654809	-9.48772	0	3	100	0	50	0.8844712	-0.7461967	-2.766905	
09:23:03	0	0	0	-0.654809	-9.48772	0	3	100	0	50	0.9055334	-0.7302458	-2.807356	
09:23:03	0	0	0	-0.5436272	-4.81474	0	3	100	0	50	0.9204711	-0.7269166	-2.860351	
09:23:04	0	0	0	-0.5436272	-4.81474	0	3	100	0	50	0.9210399	-0.714994	-2.907765	
09:23:04	0	0	0	-0.5436272	-4.81474	0	3	100	0	50	0.914766	-0.7033149	-2.994801	
09:23:04	0	0	0	-0.5436272	-4.81474	0	3	100	0	50	0.9304456	-0.7103344	-3.042922	
09:23:04	0	0	0	-0.5436272	-4.81474	0	3	100	0	50	0.9381672	-0.697968	-3.088212	
09:23:04	0	0	0	-0.4111049	-0.6855749	0	3	100	0	50	0.9474297	-0.693083	-3.121014	
09:23:05	0	0	0	-0.4111049	-0.6855749	0	3	100	0	50	0.9604534	-0.6780865	-3.17384	
09:23:05	0	0	0	-0.4111049	-0.6855749	0	3	100	0	50	0.9618152	-0.6801445	-3.200144	
09:23:05	0	0	0	-0.4111049	-0.6855749	0	3	100	0	50	0.9737924	-0.6640028	-3.240707	
09:23:05	0	0	0	-0.4111049	-0.6855749	0	3	100	0	50	0.9736986	-0.6743063	-3.269524	
09:23:05	0	0	0	-0.4242989	-3.647626	0	3	100	0	50	0.9792078	-0.6514693	-3.302115	
09:23:06	0	0	0	-0.4242989	-3.647626	0	3	100	0	50	0.9871331	-0.6290318	-3.291725	
09:23:06	0	0	0	-0.4242989	-3.647626	0	3	100	0	50	0.9865901	-0.6172773	-3.338796	
09:23:06	0	0	0	-0.4242989	-3.647626	0	3	100	0	50	0.978053	-0.5951309	-3.345325	
09:23:06	0	0	0	-0.4242989	-3.647626	0	3	100	0	50	0.9984159	-0.6035126	-3.35481	
09:23:06	0	0	0	-0.3515559	-0.006497605	0	3	100	0	50	0.9878082	-0.5934513	-3.373116	
09:23:07	0	0	0	-0.3515559	-0.006497605	0	3	100	0	50	0.9846835	-0.5692011	-3.382106	
09:23:07	0	0	0	-0.3515559	-0.006497605	0	3	100	0	50	0.9849706	-0.5670556	-3.373083	
09:23:07	0	0	0	-0.3515559	-0.006497605	0	3	100	0	50	0.9780516	-0.5691628	-3.365912	
09:23:07	0	0	0	-0.3515559	-0.006497605	0	3	100	0	50	0.9780284	-0.5536307	-3.38577	
09:23:07	0	0	0	-0.1694288	5.2666	0	3	100	0	50	0.9818558	-0.5368182	-3.414257	
09:23:08	0	0	0	-0.1694288	5.2666	0	3	100	0	50	0.9852668	-0.5204235	-3.424661	
09:23:08	0	0	0	-0.1694288	5.2666	0	3	100	0	50	1.002502	-0.4980127	-3.399367	
09:23:08	0	0	0	-0.1694288	5.2666	0	3	100	0	50	1.013324	-0.4748831	-3.402625	
09:23:08	0	0	0	-0.1694288	5.2666	0	3	100	0	50	1.005801	-0.4450906	-3.397342	
09:23:08	0	0	0	-0.3188932	-6.299024	0	3	100	0	50	0.9913843	-0.4212325	-3.378779	
09:23:09	0	0	0	-0.3188932	-6.299024	0	3	100	0	50	1.002921	-0.4093866	-3.354223	
09:23:09	0	0	0	-0.3188932	-6.299024	0	3	100	0	50	0.9996213	-0.4067832	-3.371732	
09:23:09	0	0	0	-0.3188932	-6.299024	0	3	100	0	50	0.9936721	-0.392415	-3.375211	
09:23:09	0	0	0	-0.3188932	-6.299024	0	3	100	0	50	0.9984867	-0.3920821	-3.378903	
09:23:10	0	0	0	-0.5569206	-15.40576	0	3	100	0	50	1.001375	-0.3807875	-3.403347	
09:23:10	0	0	0	-0.5569206	-15.40576	0	3	100	0	50	0.9910917	-0.3665543	-3.42151	
09:23:10	0	0	0	-0.5569206	-15.40576	0	3	100	0	50	0.9935577	-0.3622651	-3.448891	
09:23:10	0	0	0	-0.5569206	-15.40576	0	3	100	0	50	0.9975907	-0.3618453	-3.444455	
09:23:10	0	0	0	-0.5569206	-15.40576	0	3	100	0	50	0.9975736	-0.3603829	-3.410812	
09:23:11	0	0	0	-0.6577981	-14.04773	0	3	100	0	50	0.9974735	-0.3602081	-3.396866	
09:23:11	0	0	0	-0.6577981	-14.04773	0	3	100	0	50	0.9969316	-0.3472955	-3.33692	
09:23:11	0	0	0	-0.6577981	-14.04773	0	3	100	0	50	0.9817015	-0.3274007	-3.284849	
09:23:11	0	0	0	-0.6577981	-14.04773	0	3	100	0	50	0.9762904	-0.3291555	-3.232145	
09:23:11	0	0	0	-0.6577981	-14.04773	0	3	100	0	50	0.9859959	-0.302407	-3.188774	
09:23:12	0	0	0	-0.8109434	-15.89237	0	3	100	0	50	0.9875434	-0.2799222	-3.15404	
09:23:12	0	0	0	-0.8109434	-15.89237	0	3	100	0	50	0.9850044	-0.2704143	-3.134059	
09:23:12	0	0	0	-0.8109434	-15.89237	0	3	100	0	50	0.9760689	-0.2617551	-3.102507	
09:23:12	0	0	0	-0.8109434	-15.89237	0	3	100	0	50	0.9784833	-0.2555702	-3.017742	
09:23:12	0	0	0	-0.8109434	-15.89237	0	3	100	0	50	0.9651825	-0.2486873	-2.96834	
09:23:13	0	0	0	-0.3789073	9.558365	0	3	100	0	50	0.9768211	-0.2162722	-2.938214	
09:23:13	0	0	0	-0.3789073	9.558365	0	3	100	0	50	0.9688638	-0.2125364	-2.89691	
09:23:13	0	0	0	-0.3789073	9.558365	0	3	100	0	50	0.9613991	-0.2036747	-2.879407	
09:23:13	0	0	0	-0.3789073	9.558365	0	3	100	0	50	0.955534	-0.1903763	-2.861264	
09:23:13	0	0	0	-0.3789073	9.558365	0	3	100	0	50	0.949312	-0.1968086	-2.864355	
09:23:14	0	0	0	-0.3192104	5.333726	0	3	100	0	50	0.946367	-0.1882623	-2.830327	
09:23:14	0	0	0	-0.3192104	5.333726	0	3	100	0	50	0.9432359	-0.1795237	-2.832791	
09:23:14	0	0	0	-0.3192104	5.333726	0	3	100	0	50	0.9521522	-0.1521373	-2.829448	
09:23:14	0	0	0	-0.3192104	5.333726	0	3	100	0	50	0.9423653	-0.1480107	-2.825168	
09:23:14	0	0	0	-0.3192104	5.333726	0	3	100	0	50	0.9459792	-0.1503172	-2.798347	
09:23:15	0	0	0	-0.586107	-8.424399	0	3	100	0	50	0.9442255	-0.1178595	-2.801418	
09:23:15	0	0	0	-0.586107	-8.424399	0	3	100	0	50	0.937563	-0.09205426	-2.778527	
09:23:15	0	0	0	-0.586107	-8.424399	0	3	100	0	50	0.9382735	-0.09570498	-2.766886	
09:23:15	0	0	0	-0.586107	-8.424399	0	3	100	0	50	0.9365067	-0.08695785	-2.74582	
09:23:15	0	0	0	-0.586107	-8.424399	0	3	100	0	50	0.9406358	-0.06975981	-2.720895	
09:23:16	0	0	0	-0.5492691	-4.807988	0	3	100	0	50	0.9309457	-0.07026289	-2.687891	
09:23:16	0	0	0	-0.5492691	-4.807988	0	3	100	0	50	0.9310746	-0.05756252	-2.637956	
09:23:16	0	0	0	-0.5492691	-4.807988	0	3	100	0	50	0.9183471	-0.03203617	-2.598249	
09:23:16	0	0	0	-0.5492691	-4.807988	0	3	100	0	50	0.9107224	-0.009828098	-2.561535	
09:23:16	0	0	0	-0.5492691	-4.807988	0	3	100	0	50	0.917905	-0.003343681	-2.524603	
09:23:17	0	0	0	-0.4748051	-0.1430546	0	3	100	0	50	0.899605	0.006501335	-2.484264	
09:23:17	0	0	0	-0.4748051	-0.1430546	0	3	100	0	50	0.8829318	0.01467993	-2.440524	
09:23:17	0	0	0	-0.4748051	-0.1430546	0	3	100	0	50	0.8735086	0.02298138	-2.379023	
09:23:17	0	0	0	-0.4748051	-0.1430546	0	3	100	0	50	0.8584181	0.01577506	-2.353822	
09:23:17	0	0	0	-0.4748051	-0.1430546	0	3	100	0	50	0.8424596	0.01855354	-2.303638	
09:23:18	0	0	0	-0.2733301	7.204646	0	3	100	0	50	0.8465217	0.02512177	-2.277105	
09:23:18	0	0	0	-0.2733301	7.204646	0	3	100	0	50	0.8423958	0.04916022	-2.255137	
09:23:18	0	0	0	-0.2733301	7.204646	0	3	100	0	50	0.836944	0.09449783	-2.191674	
09:23:18	0	0	0	-0.2733301	7.204646	0	3	100	0	50	0.838716	0.096591	-2.158651	
09:23:18	0	0	0	-0.2733301	7.204646	0	3	100	0	50	0.8305427	0.0998932	-2.136922	
09:23:19	0	0	0	-0.4503648	-3.235808	0	3	100	0	50	0.8312983	0.1015041	-2.112125	
09:23:19	0	0	0	-0.4503648	-3.235808	0	3	100	0	50	0.8229579	0.1004241	-2.071893	
09:23:19	0	0	0	-0.4503648	-3.235808	0	3	100	0	50	0.814819	0.1239172	-2.037829	
09:23:19	0	0	0	-0.4503648	-3.235808	0	3	100	0	50	0.8186376	0.1270609	-2.002028	
09:23:19	0	0	0	-0.4503648	-3.235808	0	3	100	0	50	0.8200564	0.1344212	-1.983761	
09:23:20	0	0	0	-0.4812113	-4.403215	0	3	100	0	50	0.8177765	0.1405574	-1.966521	
09:23:20	0	0	0	-0.4812113	-4.403215	0	3	100	0	50	0.8151591	0.1330359	-1.927716	
09:23:20	0	0	0	-0.4812113	-4.403215	0	3	100	0	50	0.8052251	0.1538854	-1.848077	
09:23:20	0	0	0	-0.4812113	-4.403215	0	3	100	0	50	0.8047643	0.1544934	-1.793826	
09:23:20	0	0	0	-0.4812113	-4.403215	0	3	100	0	50	0.8149066	0.1678769	-1.757278	
09:23:21	0	0	0	-0.5924383	-9.199003	0	3	100	0	50	0.7994414	0.1638376	-1.753194	
09:23:21	0	0	0	-0.5924383	-9.199003	0	3	100	0	50	0.7944167	0.1786454	-1.676908	
09:23:21	0	0	0	-0.5924383	-9.199003	0	3	100	0	50	0.7885766	0.207647	-1.642542	
09:23:21	0	0	0	-0.5924383	-9.199003	0	3	100	0	50	0.7821513	0.2219986	-1.62641	
09:23:21	0	0	0	-0.5924383	-9.199003	0	3	100	0	50	0.7696016	0.2490391	-1.612848	
09:23:22	0	0	0	-0.7650776	-12.26054	0	3	100	0	50	0.7667696	0.2685545	-1.585847	
09:23:22	0	0	0	-0.7650776	-12.26054	0	3	100	0	50	0.7526888	0.2750761	-1.526466	
09:23:22	0	0	0	-0.7650776	-12.26054	0	3	100	0	50	0.7443843	0.2727439	-1.44092	
09:23:22	0	0	0	-0.7650776	-12.26054	0	3	100	0	50	0.7256964	0.2896002	-1.385948	
09:23:23	0	0	0	-0.7650776	-12.26054	0	3	100	0	50	0.7390479	0.2891124	-1.326561	
09:23:23	0	0	0	-0.9063334	-12.95321	0	3	100	0	50	0.7370219	0.2720761	-1.282371	
09:23:23	0	0	0	-0.9063334	-12.95321	0	3	100	0	50	0.7317226	0.2725139	-1.23049	
09:23:23	0	0	0	-0.9063334	-12.95321	0	3	100	0	50	0.7379395	0.2750354	-1.178511	
09:23:23	0	0	0	-0.9063334	-12.95321	0	3	100	0	50	0.7220203	0.2785731	-1.149773	
09:23:24	0	0	0	-0.9063334	-12.95321	0	3	100	0	50	0.7200824	0.2653808	-1.113365	
09:23:24	0	0	0	-0.8954446	-8.424747	0	3	100	0	50	0.7427706	0.2865489	-1.063632	
09:23:24	0	0	0	-0.8954446	-8.424747	0	3	100	0	50	0.7514113	0.2987848	-1.013658	
09:23:24	0	0	0	-0.8954446	-8.424747	0	3	100	0	50	0.7540436	0.3105832	-0.9634957	
09:23:24	0	0	0	-0.8954446	-8.424747	0	3	100	0	50	0.745963	0.3177162	-0.8920848	
09:23:25	0	0	0	-0.8954446	-8.424747	0	3	100	0	50	0.7438212	0.337002	-0.8671164	
09:23:25	0	0	0	-0.760105	0.7411066	0	3	100	0	50	0.740908	0.3503102	-0.8492276	
09:23:25	0	0	0	-0.760105	0.7411066	0	3	100	0	50	0.7453234	0.3695749	-0.8533895	
09:23:25	0	0	0	-0.760105	0.7411066	0	3	100	0	50	0.7540373	0.3891698	-0.8168396	
09:23:25	0	0	0	-0.760105	0.7411066	0	3	100	0	50	0.7417995	0.3934998	-0.8233645	
09:23:26	0	0	0	-0.760105	0.7411066	0	3	100	0	50	0.7298894	0.394697	-0.81813	
09:23:26	0	0	0	-0.5464415	10.27884	0	3	100	0	50	0.7323723	0.4093455	-0.8211243	
09:23:26	0	0	0	-0.5464415	10.27884	0	3	100	0	50	0.7229025	0.425127	-0.8022267	
09:23:26	0	0	0	-0.5464415	10.27884	0	3	100	0	50	0.7229849	0.4353341	-0.7769007	
09:23:26	0	0	0	-0.5464415	10.27884	0	3	100	0	50	0.7236728	0.4396795	-0.7245268	
09:23:27	0	0	0	-0.5464415	10.27884	0	3	100	0	50	0.7067609	0.442857	-0.66886	
09:23:27	0	0	0	-0.4430598	9.686526	0	3	100	0	50	0.6989623	0.458599	-0.6306106	
09:23:27	0	0	0	-0.4430598	9.686526	0	3	100	0	50	0.6937455	0.4634449	-0.5955823	
09:23:27	0	0	0	-0.4430598	9.686526	0	3	100	0	50	0.6857218	0.4678555	-0.5698306	
09:23:27	0	0	0	-0.4430598	9.686526	0	3	100	0	50	0.6751432	0.4709172	-0.5669314	
09:23:28	0	0	0	-0.4430598	9.686526	0	3	100	0	50	0.6600162	0.4619896	-0.532211	
09:23:28	0	0	0	-0.4628964	4.725592	0	3	100	0	50	0.6511082	0.4768585	-0.5161501	
09:23:28	0	0	0	-0.4628964	4.725592	0	3	100	0	50	0.6500416	0.4759564	-0.4878818	
09:23:28	0	0	0	-0.4628964	4.725592	0	3	100	0	50	0.6525967	0.4831602	-0.4995725	
09:23:28	0	0	0	-0.4628964	4.725592	0	3	100	0	50	0.6443388	0.4900139	-0.4739366	
09:23:29	0	0	0	-0.4628964	4.725592	0	3	100	0	50	0.6457667	0.5074235	-0.4794013	
09:23:29	0	0	0	-0.4845355	2.74758	0	3	100	0	50	0.647376	0.5214612	-0.4441114	
09:23:29	0	0	0	-0.4845355	2.74758	0	3	100	0	50	0.6366509	0.5147573	-0.4487695	
09:23:29	0	0	0	-0.4845355	2.74758	0	3	100	0	50	0.6418915	0.5218107	-0.4144721	
09:23:29	0	0	0	-0.4845355	2.74758	0	3	100	0	50	0.6360691	0.5203878	-0.3930134	
09:23:30	0	0	0	-0.4845355	2.74758	0	3	100	0	50	0.6281534	0.515806	-0.3657761	
09:23:30	0	0	0	-0.4371929	4.087655	0	3	100	0	50	0.6203004	0.5093783	-0.3574966	
09:23:30	0	0	0	-0.4371929	4.087655	0	3	100	0	50	0.6156247	0.5123187	-0.3247949	
09:23:30	0	0	0	-0.4371929	4.087655	0	3	100	0	50	0.6110056	0.5200613	-0.2913083	
09:23:30	0	0	0	-0.4371929	4.087655	0	3	100	0	50	0.6087372	0.5213578	-0.2579494	
09:23:31	0	0	0	-0.4371929	4.087655	0	3	100	0	50	0.6022557	0.5244839	-0.2571539	
09:23:31	0	0	0	-0.2768493	9.297666	0	3	100	0	50	0.6023099	0.5371709	-0.2491179	
09:23:31	0	0	0	-0.2768493	9.297666	0	3	100	0	50	0.603614	0.535056	-0.2152684	
09:23:31	0	0	0	-0.2768493	9.297666	0	3	100	0	50	0.602005	0.5414238	-0.1740271	
09:23:31	0	0	0	-0.2768493	9.297666	0	3	100	0	50	0.5997229	0.5513104	-0.1397007	
09:23:32	0	0	0	-0.2768493	9.297666	0	3	100	0	50	0.595975	0.5443838	-0.1003887	
09:23:32	0	0	0	-0.1095669	13.05796	0	3	100	0	50	0.5805024	0.5380743	-0.04822076	
09:23:32	0	0	0	-0.1095669	13.05796	0	3	100	0	50	0.5755207	0.5366432	0.0005761153	
09:23:32	0	0	0	-0.1095669	13.05796	0	3	100	0	50	0.579797	0.5498789	0.04682076	
09:23:32	0	0	0	-0.1095669	13.05796	0	3	100	0	50	0.5873826	0.5696934	0.07359069	
09:23:33	0	0	0	-0.1095669	13.05796	0	3	100	0	50	0.5852503	0.595829	0.08220717	
09:23:33	0	0	0	0.1172143	18.08775	0	3	100	0	50	0.5889553	0.6160089	0.1026476	
09:23:33	0	0	0	0.1172143	18.08775	0	3	100	0	50	0.5865349	0.6228471	0.08920339	
09:23:33	0	0	0	0.1172143	18.08775	0	3	100	0	50	0.5830021	0.6249212	0.09103987	
09:23:33	0	0	0	0.1172143	18.08775	0	3	100	0	50	0.5806816	0.6293033	0.09703729	
09:23:34	0	0	0	0.1172143	18.08775	0	3	100	0	50	0.5852985	0.6435835	0.1210719	
09:23:34	0	0	0	0.1670204	12.53212	0	3	100	0	50	0.579424	0.6385821	0.1562006	
09:23:34	0	0	0	0.1670204	12.53212	0	3	100	0	50	0.5804112	0.6471184	0.2098867	
09:23:34	0	0	0	0.1670204	12.53212	0	3	100	0	50	0.5836731	0.6679473	0.230233	
09:23:34	0	0	0	0.1670204	12.53212	0	3	100	0	50	0.591054	0.676272	0.2813123	
09:23:35	0	0	0	0.1670204	12.53212	0	3	100	0	50	0.5899495	0.6687667	0.2975328	
09:23:35	0	0	0	0.212331	9.715044	0	3	100	0	50	0.5860694	0.6435161	0.3330366	
09:23:35	0	0	0	0.212331	9.715044	0	3	100	0	50	0.5840136	0.6507514	0.3300115	
09:23:35	0	0	0	0.212331	9.715044	0	3	100	0	50	0.575731	0.6681821	0.3330736	
09:23:36	0	0	0	0.212331	9.715044	0	3	100	0	50	0.568384	0.6647049	0.3817404	
09:23:36	0	0	0	0.212331	9.715044	0	3	100	0	50	0.5595096	0.6730203	0.4373008	
09:23:36	0	0	0	-0.01705899	-4.424813	0	3	100	0	50	0.5467002	0.6595269	0.4774876	
09:23:36	0	0	0	-0.01705899	-4.424813	0	3	100	0	50	0.5331931	0.648523	0.480539	
09:23:36	0	0	0	-0.01705899	-4.424813	0	3	100	0	50	0.5230196	0.6515753	0.5250444	
09:23:37	0	0	0	-0.01705899	-4.424813	0	3	100	0	50	0.5165723	0.6620659	0.5464217	
09:23:37	0	0	0	-0.01705899	-4.424813	0	3	100	0	50	0.5018285	0.6459166	0.5622635	
09:23:37	0	0	0	-0.01721633	-4.874259	0	3	100	0	50	0.4498271	0.645165	0.5576981	
09:23:37	0	0	0	-0.01721633	-4.874259	0	3	100	0	50	0.4555186	0.6697168	0.6045322	
09:23:37	0	0	0	-0.01721633	-4.874259	0	3	100	0	50	0.4727466	0.6678732	0.6432731	
09:23:38	0	0	0	-0.01721633	-4.874259	0	3	100	0	50	0.5295236	0.6635459	0.6888029	
09:23:38	0	0	0	-0.01721633	-4.874259	0	3	100	0	50	0.5467369	0.6495421	0.7091836	
09:23:38	0	0	0	-0.008826926	-3.409882	0	3	100	0	50	0.5344325	0.6581928	0.7173375	
09:23:38	0	0	0	-0.008826926	-3.409882	0	3	100	0	50	0.5361519	0.6710775	0.7070367	
09:23:38	0	0	0	-0.008826926	-3.409882	0	3	100	0	50	0.5289977	0.6800088	0.6991528	
09:23:39	0	0	0	-0.008826926	-3.409882	0	3	100	0	50	0.5125353	0.676329	0.7267131	
09:23:39	0	0	0	-0.008826926	-3.409882	0	3	100	0	50	0.5299839	0.6588488	0.7560332	
09:23:39	0	0	0	-0.1552078	-7.445548	0	3	100	0	50	0.5274931	0.6549503	0.7294594	
09:23:39	0	0	0	-0.1552078	-7.445548	0	3	100	0	50	0.5156769	0.6494593	0.7214698	
09:23:39	0	0	0	-0.1552078	-7.445548	0	3	100	0	50	0.5076525	0.6513916	0.7384134	
09:23:40	0	0	0	-0.1552078	-7.445548	0	3	100	0	50	0.4955336	0.6667429	0.7387204	
09:23:40	0	0	0	-0.1552078	-7.445548	0	3	100	0	50	0.4897002	0.6718013	0.7472687	
09:23:40	0	0	0	-0.3255481	-11.67684	0	3	100	0	50	0.499714	0.6734787	0.7674153	
09:23:40	0	0	0	-0.3255481	-11.67684	0	3	100	0	50	0.5016488	0.6804579	0.7571055	
09:23:40	0	0	0	-0.3255481	-11.67684	0	3	100	0	50	0.5084255	0.6843446	0.7457268	
09:23:41	0	0	0	-0.3255481	-11.67684	0	3	100	0	50	0.4799984	0.668501	0.7364204	
09:23:41	0	0	0	-0.3255481	-11.67684	0	3	100	0	50	0.4865861	0.6563715	0.7236062	
09:23:41	0	0	0	-0.2598523	-4.388702	0	3	100	0	50	0.5034773	0.6850427	0.7189847	
09:23:41	0	0	0	-0.2598523	-4.388702	0	3	100	0	50	0.4742864	0.6766511	0.7303032	
09:23:41	0	0	0	-0.2598523	-4.388702	0	3	100	0	50	0.4527344	0.6720098	0.748273	
09:23:42	0	0	0	-0.2598523	-4.388702	0	3	100	0	50	0.4789309	0.6818061	0.7885758	
09:23:42	0	0	0	-0.2598523	-4.388702	0	3	100	0	50	0.4682187	0.696761	0.8135799	
09:23:42	0	0	0	-0.2358863	-0.5031304	0	3	100	0	50	0.4609692	0.7155131	0.8335667	
09:23:42	0	0	0	-0.2358863	-0.5031304	0	3	100	0	50	0.4621297	0.7169476	0.8319498	
09:23:42	0	0	0	-0.2358863	-0.5031304	0	3	100	0	50	0.4456924	0.7380928	0.8457826	
09:23:43	0	0	0	-0.2358863	-0.5031304	0	3	100	0	50	0.4216743	0.7426958	0.8409041	
09:23:43	0	0	0	-0.2358863	-0.5031304	0	3	100	0	50	0.4054509	0.7578796	0.865381	
09:23:43	0	0	0	-0.009298363	9.435016	0	3	100	0	50	0.3943621	0.7655911	0.9025379	
09:23:43	0	0	0	-0.009298363	9.435016	0	3	100	0	50	0.3962993	0.7609892	0.907709	
09:23:43	0	0	0	-0.009298363	9.435016	0	3	100	0	50	0.4027779	0.7662653	0.9485593	
09:23:44	0	0	0	-0.009298363	9.435016	0	3	100	0	50	0.4007936	0.7566918	0.9855911	
09:23:44	0	0	0	-0.009298363	9.435016	0	3	100	0	50	0.3978674	0.7434798	1.029328	
09:23:44	0	0	0	0.06451911	9.492139	0	3	100	0	50	0.4016515	0.734286	1.080918	
09:23:44	0	0	0	0.06451911	9.492139	0	3	100	0	50	0.3902518	0.734742	1.08256	
09:23:44	0	0	0	0.06451911	9.492139	0	3	100	0	50	0.3976672	0.736639	1.114183	
09:23:45	0	0	0	0.06451911	9.492139	0	3	100	0	50	0.4025847	0.7271312	1.174094	
09:23:45	0	0	0	0.06451911	9.492139	0	3	100	0	50	0.4065272	0.730195	1.165616	
09:23:45	0	0	0	0.2049458	11.68642	0	3	100	0	50	0.398426	0.7237731	1.138263	
09:23:45	0	0	0	0.2049458	11.68642	0	3	100	0	50	0.3813722	0.7407542	1.119962	
09:23:45	0	0	0	0.2049458	11.68642	0	3	100	0	50	0.3954558	0.7233565	1.122275	
09:23:46	0	0	0	0.2049458	11.68642	0	3	100	0	50	0.4131247	0.740099	1.176641	
09:23:46	0	0	0	0.2049458	11.68642	0	3	100	0	50	0.4048015	0.7411147	1.203743	
09:23:46	0	0	0	0.1905303	4.489526	0	3	100	0	50	0.3909116	0.7409164	1.206549	
09:23:46	0	0	0	0.1905303	4.489526	0	3	100	0	50	0.3974781	0.7644479	1.234993	
09:23:46	0	0	0	0.1905303	4.489526	0	3	100	0	50	0.4102952	0.7778237	1.285239	
09:23:47	0	0	0	0.1905303	4.489526	0	3	100	0	50	0.4114197	0.7677302	1.327405	
09:23:47	0	0	0	0.1905303	4.489526	0	3	100	0	50	0.4085507	0.7453116	1.359412	
09:23:47	0	0	0	0.05415189	-2.928721	0	3	100	0	50	0.3966798	0.7484121	1.33878	
09:23:47	0	0	0	0.05415189	-2.928721	0	3	100	0	50	0.3962674	0.7350167	1.372221	
09:23:48	0	0	0	0.05415189	-2.928721	0	3	100	0	50	0.3980898	0.7189369	1.396028	
09:23:48	0	0	0	0.05415189	-2.928721	0	3	100	0	50	0.4119343	0.7200741	1.424125	
09:23:48	0	0	0	0.05415189	-2.928721	0	3	100	0	50	0.4126668	0.7152207	1.41559	
09:23:48	0	0	0	-0.08616154	-7.52741	0	3	100	0	50	0.4057918	0.7311298	1.436335	
09:23:48	0	0	0	-0.08616154	-7.52741	0	3	100	0	50	0.2975764	0.7549216	1.46022	
09:23:49	0	0	0	-0.08616154	-7.52741	0	3	100	0	50	0.2731965	0.7296785	1.516212	
09:23:49	0	0	0	-0.08616154	-7.52741	0	3	100	0	50	0.2713929	0.7334234	1.539826	
09:23:49	0	0	0	-0.08616154	-7.52741	0	3	100	0	50	0.2740047	0.7200537	1.526621	
09:23:49	0	0	0	-0.1226667	-4.375453	0	3	100	0	50	0.2820001	0.7390566	1.548423	
09:23:49	0	0	0	-0.1226667	-4.375453	0	3	100	0	50	0.2776878	0.7456019	1.549955	
09:23:50	0	0	0	-0.1226667	-4.375453	0	3	100	0	50	0.2690772	0.7397518	1.57176	
09:23:50	0	0	0	-0.1226667	-4.375453	0	3	100	0	50	0.2677428	0.7351751	1.597964	
09:23:50	0	0	0	-0.1226667	-4.375453	0	3	100	0	50	0.2527654	0.726795	1.642817	
09:23:50	0	0	0	0.0458206	3.681019	0	3	100	0	50	0.2492134	0.7190436	1.635817	
09:23:50	0	0	0	0.0458206	3.681019	0	3	100	0	50	0.2508694	0.7150955	1.652712	
09:23:51	0	0	0	0.0458206	3.681019	0	3	100	0	50	0.2553409	0.7191814	1.661463	
09:23:51	0	0	0	0.0458206	3.681019	0	3	100	0	50	0.2595261	0.716086	1.649695	
09:23:51	0	0	0	0.0458206	3.681019	0	3	100	0	50	0.2594883	0.715084	1.62634	
09:23:51	0	0	0	0.005880484	-0.4046051	0	3	100	0	50	0.2611722	0.7259043	1.628367	
09:23:51	0	0	0	0.005880484	-0.4046051	0	3	100	0	50	0.2615531	0.743606	1.618972	
09:23:52	0	0	0	0.005880484	-0.4046051	0	3	100	0	50	0.2649467	0.7547042	1.626606	
09:23:52	0	0	0	0.005880484	-0.4046051	0	3	100	0	50	0.27513	0.7711875	1.607878	
09:23:52	0	0	0	0.005880484	-0.4046051	0	3	100	0	50	0.2765836	0.7630554	1.617667	
09:23:52	0	0	0	-0.1523027	-6.88064	0	3	100	0	50	0.2762802	0.7522952	1.625734	
09:23:52	0	0	0	-0.1523027	-6.88064	0	3	100	0	50	0.2840323	0.7649469	1.638136	
09:23:53	0	0	0	-0.1523027	-6.88064	0	3	100	0	50	0.2936078	0.7651153	1.652745	
09:23:53	0	0	0	-0.1523027	-6.88064	0	3	100	0	50	0.3052385	0.782261	1.700765	
09:23:53	0	0	0	-0.1523027	-6.88064	0	3	100	0	50	0.2952367	0.7709429	1.724872	
09:23:53	0	0	0	-0.3143671	-12.3748	0	3	100	0	50	0.2941956	0.7759035	1.759334	
09:23:53	0	0	0	-0.3143671	-12.3748	0	3	100	0	50	0.2960494	0.7705054	1.793774	
09:23:54	0	0	0	-0.3143671	-12.3748	0	3	100	0	50	0.3039551	0.7772799	1.82567	
09:23:54	0	0	0	-0.3143671	-12.3748	0	3	100	0	50	0.3919495	0.8256963	1.838285	
09:23:54	0	0	0	-0.3143671	-12.3748	0	3	100	0	50	0.4501436	0.8301756	1.843858	
09:23:54	0	0	0	-0.3250068	-6.782935	0	3	100	0	50	0.4433546	0.8340536	1.844321	
09:23:54	0	0	0	-0.3250068	-6.782935	0	3	100	0	50	0.434074	0.8162472	1.852743	
09:23:55	0	0	0	-0.3250068	-6.782935	0	3	100	0	50	0.4243125	0.8052513	1.857993	
09:23:55	0	0	0	-0.3250068	-6.782935	0	3	100	0	50	0.424166	0.8128873	1.853985	
09:23:55	0	0	0	-0.3250068	-6.782935	0	3	100	0	50	0.424792	0.8181829	1.847977	
09:23:55	0	0	0	-0.4339951	-10.44607	0	3	100	0	50	0.4327063	0.819103	1.842963	
09:23:55	0	0	0	-0.4339951	-10.44607	0	3	100	0	50	0.4293275	0.8089942	1.818354	
09:23:56	0	0	0	-0.4339951	-10.44607	0	3	100	0	50	0.4258646	0.8038151	1.800628	
