Date	Latitude(deg) 	Longitude(deg)	hamsl(m)	hafl(m)	climbrate(cm/s)	GroundSpeed(m/s)	Airspeed(m/s)	Mav_Link(%)	Rssi_Link(%)	Throttle	Roll(deg)	Pitch(deg)	Yaw(deg)
09:42:02	0	0	0	0	0	0	0	100	0	0	0	0	0	
09:42:03	0	0	0	0	0	0	0	100	0	0	-0.6788689	0.5371844	95.96406	
09:42:03	0	0	0	0	0	0	0	100	0	0	-0.6820349	0.5244846	95.97742	
09:42:03	0	0	0	0	0	0	0	100	0	0	-0.6793897	0.5145158	95.98484	
09:42:03	0	0	0	-0.6395146	-36.60998	0	3	100	0	50	-0.6808162	0.5223047	95.98479	
09:42:03	0	0	0	-0.6395146	-36.60998	0	3	100	0	50	-0.6853528	0.5038264	95.99079	
09:42:04	0	0	0	-0.6395146	-36.60998	0	3	100	0	50	-0.6877904	0.4901499	95.99541	
09:42:04	0	0	0	-0.6395146	-36.60998	0	3	100	0	50	-0.6972682	0.4906741	95.99528	
09:42:04	0	0	0	-0.6395146	-36.60998	0	3	100	0	50	-0.6957753	0.4961716	96.00343	
09:42:04	0	0	0	-1.01279	-48.7436	0	3	100	0	50	-0.6902031	0.516749	96.02158	
09:42:04	0	0	0	-1.01279	-48.7436	0	3	100	0	50	-0.6838733	0.5254831	96.02004	
09:42:05	0	0	0	-1.01279	-48.7436	0	3	100	0	50	-0.6899139	0.51023	96.03754	
09:42:05	0	0	0	-1.01279	-48.7436	0	3	100	0	50	-0.6925457	0.4957868	96.03239	
09:42:05	0	0	0	-1.01279	-48.7436	0	3	100	0	50	-0.7095255	0.4890097	96.0224	
09:42:05	0	0	0	-0.5121409	-21.42679	0	3	100	0	50	-0.7146165	0.4800726	96.03299	
09:42:05	0	0	0	-0.5121409	-21.42679	0	3	100	0	50	-0.7188557	0.4744304	96.03817	
09:42:06	0	0	0	-0.5121409	-21.42679	0	3	100	0	50	-0.7302653	0.4527705	96.02997	
09:42:06	0	0	0	-0.5121409	-21.42679	0	3	100	0	50	-0.7241344	0.4732288	96.04649	
09:42:06	0	0	0	-0.5121409	-21.42679	0	3	100	0	50	-0.7220106	0.4678067	96.04429	
09:42:06	0	0	0	-0.2840189	-17.92601	0	3	100	0	50	-0.7265248	0.4547545	96.04134	
09:42:06	0	0	0	-0.2840189	-17.92601	0	3	100	0	50	-0.723041	0.4604029	96.04711	
09:42:07	0	0	0	-0.2840189	-17.92601	0	3	100	0	50	-0.7224262	0.4502093	96.03899	
09:42:07	0	0	0	-0.2840189	-17.92601	0	3	100	0	50	-0.7100258	0.4772516	96.0406	
09:42:07	0	0	0	-0.2840189	-17.92601	0	3	100	0	50	-0.7160229	0.477372	96.03932	
09:42:07	0	0	0	-0.4129975	-28.7619	0	3	100	0	50	-0.7216911	0.4635372	96.0396	
09:42:07	0	0	0	-0.4129975	-28.7619	0	3	100	0	50	-0.7238935	0.4461313	96.03928	
09:42:08	0	0	0	-0.4129975	-28.7619	0	3	100	0	50	-0.7238744	0.4423803	96.0383	
09:42:08	0	0	0	-0.4129975	-28.7619	0	3	100	0	50	-0.7130316	0.4590531	96.0406	
09:42:08	0	0	0	-0.4129975	-28.7619	0	3	100	0	50	-0.7061763	0.4665833	96.03978	
09:42:08	0	0	0	-0.5679761	-35.82178	0	3	100	0	50	-0.7094947	0.4747249	96.04398	
09:42:08	0	0	0	-0.5679761	-35.82178	0	3	100	0	50	-0.7107427	0.4702301	96.04856	
09:42:09	0	0	0	-0.5679761	-35.82178	0	3	100	0	50	-0.7104851	0.469723	96.04434	
09:42:09	0	0	0	-0.5679761	-35.82178	0	3	100	0	50	-0.7152002	0.4621961	96.06223	
09:42:09	0	0	0	-0.5679761	-35.82178	0	3	100	0	50	-0.7132621	0.4682197	96.06068	
09:42:09	0	0	0	-0.6816654	-37.22111	0	3	100	0	50	-0.7133727	0.4741944	96.07188	
09:42:09	0	0	0	-0.6816654	-37.22111	0	3	100	0	50	-0.7044823	0.4914234	96.08052	
09:42:10	0	0	0	-0.6816654	-37.22111	0	3	100	0	50	-0.7015029	0.4938551	96.08259	
09:42:10	0	0	0	-0.6816654	-37.22111	0	3	100	0	50	-0.6996011	0.4934502	96.08952	
09:42:10	0	0	0	-0.6816654	-37.22111	0	3	100	0	50	-0.6895785	0.4908893	96.10179	
09:42:10	0	0	0	-0.6434639	-29.75982	0	3	100	0	50	-0.6867657	0.50157	96.09998	
09:42:10	0	0	0	-0.6434639	-29.75982	0	3	100	0	50	-0.6821705	0.5127059	96.09237	
09:42:11	0	0	0	-0.6434639	-29.75982	0	3	100	0	50	-0.6793838	0.5240393	96.10239	
09:42:11	0	0	0	-0.6434639	-29.75982	0	3	100	0	50	-0.6762414	0.5327236	96.10964	
09:42:11	0	0	0	-0.6434639	-29.75982	0	3	100	0	50	-0.6836598	0.5206316	96.10768	
09:42:11	0	0	0	-0.4664086	-20.69361	0	3	100	0	50	-0.6787153	0.5308774	96.11604	
09:42:11	0	0	0	-0.4664086	-20.69361	0	3	100	0	50	-0.6760805	0.5343201	96.12531	
09:42:12	0	0	0	-0.4664086	-20.69361	0	3	100	0	50	-0.6725429	0.5450143	96.13571	
09:42:12	0	0	0	-0.4664086	-20.69361	0	3	100	0	50	-0.6689764	0.5465344	96.14423	
09:42:12	0	0	0	-0.4664086	-20.69361	0	3	100	0	50	-0.664489	0.5484568	96.15585	
09:42:12	0	0	0	-0.4029137	-19.45509	0	3	100	0	50	-0.6672053	0.547527	96.15591	
09:42:12	0	0	0	-0.4029137	-19.45509	0	3	100	0	50	-0.6721557	0.5256637	96.15034	
09:42:13	0	0	0	-0.4029137	-19.45509	0	3	100	0	50	-0.6716496	0.5227714	96.14993	
09:42:13	0	0	0	-0.4029137	-19.45509	0	3	100	0	50	-0.6816394	0.5171922	96.15497	
09:42:13	0	0	0	-0.4029137	-19.45509	0	3	100	0	50	-0.67872	0.5258799	96.16752	
09:42:13	0	0	0	-0.2637907	-14.86729	0	3	100	0	50	-0.6883964	0.5048754	96.16525	
09:42:13	0	0	0	-0.2637907	-14.86729	0	3	100	0	50	-0.6851435	0.5216957	96.16902	
09:42:14	0	0	0	-0.2637907	-14.86729	0	3	100	0	50	-0.6908337	0.5277366	96.1604	
09:42:14	0	0	0	-0.2637907	-14.86729	0	3	100	0	50	-0.6931944	0.5247281	96.15571	
09:42:14	0	0	0	-0.2637907	-14.86729	0	3	100	0	50	-0.6974258	0.504334	96.15469	
09:42:14	0	0	0	-0.2580443	-16.02845	0	3	100	0	50	-0.6869784	0.5033897	96.16433	
09:42:14	0	0	0	-0.2580443	-16.02845	0	3	100	0	50	-0.6834917	0.5041047	96.17215	
09:42:15	0	0	0	-0.2580443	-16.02845	0	3	100	0	50	-0.6708717	0.4963185	96.18258	
09:42:15	0	0	0	-0.2580443	-16.02845	0	3	100	0	50	-0.6740733	0.5000641	96.1843	
09:42:15	0	0	0	-0.2580443	-16.02845	0	3	100	0	50	-0.6714242	0.5083329	96.18886	
09:42:15	0	0	0	-0.3926526	-22.22324	0	3	100	0	50	-0.6693839	0.5227444	96.18714	
09:42:16	0	0	0	-0.3926526	-22.22324	0	3	100	0	50	-0.6700302	0.5278345	96.18443	
09:42:16	0	0	0	-0.3926526	-22.22324	0	3	100	0	50	-0.6703321	0.5305406	96.17804	
09:42:16	0	0	0	-0.3926526	-22.22324	0	3	100	0	50	-0.6765693	0.5328006	96.186	
09:42:16	0	0	0	-0.3926526	-22.22324	0	3	100	0	50	-0.6895009	0.5162212	96.18707	
09:42:16	0	0	0	-0.4677059	-23.08179	0	3	100	0	50	-0.6812254	0.5157709	96.18422	
09:42:17	0	0	0	-0.4677059	-23.08179	0	3	100	0	50	-0.6784891	0.5252219	96.19315	
09:42:17	0	0	0	-0.4677059	-23.08179	0	3	100	0	50	-0.6712825	0.5126244	96.18472	
09:42:17	0	0	0	-0.4677059	-23.08179	0	3	100	0	50	-0.6721548	0.5161645	96.17839	
09:42:17	0	0	0	-0.4677059	-23.08179	0	3	100	0	50	-0.6724837	0.5183319	96.17908	
09:42:17	0	0	0	-0.3297296	-15.11704	0	3	100	0	50	-0.6721545	0.52504	96.16909	
09:42:18	0	0	0	-0.3297296	-15.11704	0	3	100	0	50	-0.6746991	0.5296175	96.15896	
09:42:18	0	0	0	-0.3297296	-15.11704	0	3	100	0	50	-0.6792179	0.5144407	96.16113	
09:42:18	0	0	0	-0.3297296	-15.11704	0	3	100	0	50	-0.6839919	0.5069547	96.16777	
09:42:18	0	0	0	-0.3297296	-15.11704	0	3	100	0	50	-0.6831556	0.5149699	96.16508	
09:42:19	0	0	0	-0.5111457	-24.65923	0	3	100	0	50	-0.6795371	0.5240928	96.14861	
09:42:19	0	0	0	-0.5111457	-24.65923	0	3	100	0	50	-0.6869016	0.5343777	96.14473	
09:42:19	0	0	0	-0.5111457	-24.65923	0	3	100	0	50	-0.6955239	0.5392291	96.14812	
09:42:19	0	0	0	-0.5111457	-24.65923	0	3	100	0	50	-0.6977479	0.5353934	96.15603	
09:42:19	0	0	0	-0.5111457	-24.65923	0	3	100	0	50	-0.7005355	0.519111	96.15495	
09:42:19	0	0	0	-0.6820511	-29.62379	0	3	100	0	50	-0.7023194	0.5167955	96.15581	
09:42:20	0	0	0	-0.6820511	-29.62379	0	3	100	0	50	-0.6958823	0.5253016	96.16599	
09:42:20	0	0	0	-0.6820511	-29.62379	0	3	100	0	50	-0.6988985	0.5300952	96.17594	
09:42:20	0	0	0	-0.6820511	-29.62379	0	3	100	0	50	-0.6987799	0.5355706	96.18788	
09:42:20	0	0	0	-0.6820511	-29.62379	0	3	100	0	50	-0.7052819	0.532786	96.19372	
09:42:20	0	0	0	-0.6365751	-21.49981	0	3	100	0	50	-0.7065228	0.5340377	96.19054	
09:42:21	0	0	0	-0.6365751	-21.49981	0	3	100	0	50	-0.704249	0.5241669	96.18898	
09:42:21	0	0	0	-0.6365751	-21.49981	0	3	100	0	50	-0.7107502	0.5336579	96.20141	
09:42:21	0	0	0	-0.6365751	-21.49981	0	3	100	0	50	-0.7058195	0.5353504	96.21769	
09:42:21	0	0	0	-0.6365751	-21.49981	0	3	100	0	50	-0.702968	0.5360568	96.23259	
09:42:21	0	0	0	-0.6233008	-18.62725	0	3	100	0	50	-0.6946246	0.5115919	96.22935	
09:42:22	0	0	0	-0.6233008	-18.62725	0	3	100	0	50	-0.6867949	0.5217471	96.24557	
09:42:22	0	0	0	-0.6233008	-18.62725	0	3	100	0	50	-0.6924366	0.497719	96.24069	
09:42:22	0	0	0	-0.6233008	-18.62725	0	3	100	0	50	-0.6944185	0.4914395	96.22906	
09:42:22	0	0	0	-0.6233008	-18.62725	0	3	100	0	50	-0.6864633	0.5001415	96.2403	
09:42:22	0	0	0	-0.5615714	-14.66334	0	3	100	0	50	-0.6901783	0.4868544	96.22417	
09:42:23	0	0	0	-0.5615714	-14.66334	0	3	100	0	50	-0.6812255	0.4926485	96.21995	
09:42:23	0	0	0	-0.5615714	-14.66334	0	3	100	0	50	-0.6708321	0.4934377	96.2002	
09:42:23	0	0	0	-0.5615714	-14.66334	0	3	100	0	50	-0.6662292	0.4755427	96.1932	
09:42:23	0	0	0	-0.5615714	-14.66334	0	3	100	0	50	-0.6672729	0.4750198	96.19526	
09:42:23	0	0	0	-0.7397232	-21.97806	0	3	100	0	50	-0.6650681	0.4784065	96.20409	
09:42:24	0	0	0	-0.7397232	-21.97806	0	3	100	0	50	-0.6691865	0.4906752	96.2046	
09:42:24	0	0	0	-0.7397232	-21.97806	0	3	100	0	50	-0.6656042	0.5077495	96.20715	
09:42:24	0	0	0	-0.7397232	-21.97806	0	3	100	0	50	-0.6623425	0.5240468	96.19775	
09:42:24	0	0	0	-0.7397232	-21.97806	0	3	100	0	50	-0.6622205	0.5116343	96.19496	
09:42:24	0	0	0	-0.926357	-24.47619	0	3	100	0	50	-0.6473415	0.5248309	96.19363	
09:42:25	0	0	0	-0.926357	-24.47619	0	3	100	0	50	-0.6481148	0.5263662	96.20569	
09:42:25	0	0	0	-0.926357	-24.47619	0	3	100	0	50	-0.6514546	0.5227801	96.19855	
09:42:25	0	0	0	-0.926357	-24.47619	0	3	100	0	50	-0.658657	0.5258815	96.19746	
09:42:25	0	0	0	-0.926357	-24.47619	0	3	100	0	50	-0.6677193	0.525301	96.19614	
09:42:25	0	0	0	-0.8373761	-15.25695	0	3	100	0	50	-0.6729193	0.5225496	96.18742	
09:42:26	0	0	0	-0.8373761	-15.25695	0	3	100	0	50	-0.6708436	0.5136838	96.17901	
09:42:26	0	0	0	-0.8373761	-15.25695	0	3	100	0	50	-0.6593289	0.4977183	96.17982	
09:42:26	0	0	0	-0.8373761	-15.25695	0	3	100	0	50	-0.6585894	0.4993702	96.17556	
09:42:26	0	0	0	-0.8373761	-15.25695	0	3	100	0	50	-0.6758076	0.4711596	96.17267	
09:42:26	0	0	0	-0.6589525	-5.741382	0	3	100	0	50	-0.6787478	0.4787038	96.17386	
09:42:27	0	0	0	-0.6589525	-5.741382	0	3	100	0	50	-0.6752139	0.4896646	96.16865	
09:42:27	0	0	0	-0.6589525	-5.741382	0	3	100	0	50	-0.8655168	0.4671576	97.29694	
09:42:27	0	0	0	-0.6589525	-5.741382	0	3	100	0	50	-16.68928	-1.495878	94.58083	
09:42:27	0	0	0	-0.6589525	-5.741382	0	3	100	0	50	-9.971836	-5.022408	96.85231	
09:42:27	0	0	0	-0.7240978	-22.44504	0	3	100	0	50	3.183542	-4.384541	96.6748	
09:42:28	0	0	0	-0.7240978	-22.44504	0	3	100	0	50	-13.36188	-6.088165	95.99197	
09:42:28	0	0	0	-0.7240978	-22.44504	0	3	100	0	50	-23.68919	-5.822998	95.643	
09:42:28	0	0	0	-0.7240978	-22.44504	0	3	100	0	50	-1.353238	-6.916274	95.8065	
09:42:28	0	0	0	-0.7240978	-22.44504	0	3	100	0	50	9.094724	-1.951018	96.39358	
09:42:28	0	0	0	-0.5985437	-4.566664	0	3	100	0	50	9.649903	-1.854637	96.66109	
09:42:29	0	0	0	-0.5985437	-4.566664	0	3	100	0	50	-7.378868	-7.049637	94.89634	
09:42:29	0	0	0	-0.5985437	-4.566664	0	3	100	0	50	-21.14497	-6.829795	93.26705	
09:42:29	0	0	0	-0.5985437	-4.566664	0	3	100	0	50	-9.23348	-4.997363	92.61988	
09:42:29	0	0	0	-0.5985437	-4.566664	0	3	100	0	50	-1.536862	-0.6102136	92.34312	
09:42:30	0	0	0	-0.9082681	-79.42343	0	3	100	0	50	-1.670707	-0.5011581	93.18681	
09:42:30	0	0	0	-0.9082681	-79.42343	0	3	100	0	50	-1.64808	-0.4726277	93.24744	
09:42:30	0	0	0	-0.9082681	-79.42343	0	3	100	0	50	-1.49298	-0.4479389	93.90051	
09:42:30	0	0	0	-0.9082681	-79.42343	0	3	100	0	50	-1.702991	-0.4026148	97.90282	
09:42:30	0	0	0	-0.9082681	-79.42343	0	3	100	0	50	-2.078333	-0.2628406	100.8783	
09:42:31	0	0	0	-1.038703	-87.36317	0	3	100	0	50	-2.226015	-0.1725164	102.7198	
09:42:31	0	0	0	-1.038703	-87.36317	0	3	100	0	50	-2.11375	-0.1915521	103.7915	
09:42:31	0	0	0	-1.038703	-87.36317	0	3	100	0	50	-2.081148	-0.06793802	104.5697	
09:42:31	0	0	0	-1.038703	-87.36317	0	3	100	0	50	-2.066239	-0.03376029	105.1124	
09:42:31	0	0	0	-1.038703	-87.36317	0	3	100	0	50	-1.957455	-0.01717499	105.2508	
09:42:32	0	0	0	-0.939714	-45.14339	0	3	100	0	50	-2.000779	0.02612045	105.3638	
09:42:32	0	0	0	-0.939714	-45.14339	0	3	100	0	50	-2.03188	0.06714066	105.4784	
09:42:32	0	0	0	-0.939714	-45.14339	0	3	100	0	50	-2.002599	0.0870671	105.5737	
09:42:32	0	0	0	-0.939714	-45.14339	0	3	100	0	50	-1.95971	0.1296385	105.666	
09:42:32	0	0	0	-0.939714	-45.14339	0	3	100	0	50	-1.668793	0.05838718	103.7484	
09:42:33	0	0	0	-0.7254574	16.21171	0	3	100	0	50	-1.809127	0.1193327	100.175	
09:42:33	0	0	0	-0.7254574	16.21171	0	3	100	0	50	-1.51131	0.06309409	98.11652	
09:42:33	0	0	0	-0.7254574	16.21171	0	3	100	0	50	-1.339261	0.1977606	96.63885	
09:42:33	0	0	0	-0.7254574	16.21171	0	3	100	0	50	-1.540851	0.04934807	95.38654	
09:42:33	0	0	0	-0.7254574	16.21171	0	3	100	0	50	-1.383365	0.07588475	94.18324	
09:42:34	0	0	0	-0.3372687	22.68155	0	3	100	0	50	-1.23745	0.02273073	92.77109	
09:42:34	0	0	0	-0.3372687	22.68155	0	3	100	0	50	-1.340103	0.00785703	91.44433	
09:42:34	0	0	0	-0.3372687	22.68155	0	3	100	0	50	-1.113164	-0.01313246	89.82793	
09:42:34	0	0	0	-0.3372687	22.68155	0	3	100	0	50	-0.9904252	0.00215072	88.64187	
09:42:34	0	0	0	-0.3372687	22.68155	0	3	100	0	50	-1.251271	0.0539002	87.09406	
09:42:35	0	0	0	-0.2293217	15.06092	0	3	100	0	50	-1.079722	0.07976535	84.70545	
09:42:35	0	0	0	-0.2293217	15.06092	0	3	100	0	50	-0.8131048	0.1538775	82.09102	
09:42:35	0	0	0	-0.2293217	15.06092	0	3	100	0	50	-0.5301097	0.3178583	77.79297	
09:42:35	0	0	0	-0.2293217	15.06092	0	3	100	0	50	-0.3774922	0.4231493	72.7563	
09:42:35	0	0	0	-0.2293217	15.06092	0	3	100	0	50	-0.1442173	0.5147861	67.08215	
09:42:36	0	0	0	-0.1549337	36.42783	0	3	100	0	50	0.3284521	0.7057185	59.7281	
09:42:36	0	0	0	-0.1549337	36.42783	0	3	100	0	50	0.4485714	0.9495424	52.99725	
09:42:36	0	0	0	-0.1549337	36.42783	0	3	100	0	50	0.5125453	1.151715	48.21672	
09:42:36	0	0	0	-0.1549337	36.42783	0	3	100	0	50	0.6525906	1.369814	43.67744	
09:42:36	0	0	0	-0.1549337	36.42783	0	3	100	0	50	0.6878749	1.567042	41.15845	
09:42:37	0	0	0	-0.2390923	11.66967	0	3	100	0	50	0.7922514	1.761191	34.86317	
09:42:37	0	0	0	-0.2390923	11.66967	0	3	100	0	50	0.43959	1.94602	27.42107	
09:42:37	0	0	0	-0.2390923	11.66967	0	3	100	0	50	0.396743	2.028385	23.11345	
09:42:37	0	0	0	-0.2390923	11.66967	0	3	100	0	50	0.3443958	2.094342	17.63236	
09:42:37	0	0	0	-0.2390923	11.66967	0	3	100	0	50	-0.2863916	2.009569	13.41249	
09:42:38	0	0	0	-0.3436926	-25.50049	0	3	100	0	50	-0.3026411	2.088228	9.184918	
09:42:38	0	0	0	-0.3436926	-25.50049	0	3	100	0	50	-0.15451	1.978961	3.637938	
09:42:38	0	0	0	-0.3436926	-25.50049	0	3	100	0	50	-0.07653771	2.067096	-1.454994	
09:42:38	0	0	0	-0.3436926	-25.50049	0	3	100	0	50	-0.2581789	2.029926	-4.658893	
09:42:38	0	0	0	-0.3436926	-25.50049	0	3	100	0	50	-0.03281321	2.074414	-7.986502	
09:42:39	0	0	0	-0.1295608	-8.160966	0	3	100	0	50	-0.09423891	2.048424	-12.18118	
09:42:39	0	0	0	-0.1295608	-8.160966	0	3	100	0	50	-0.4979771	2.049705	-14.39323	
09:42:39	0	0	0	-0.1295608	-8.160966	0	3	100	0	50	-0.1682048	2.078972	-15.2244	
09:42:39	0	0	0	-0.1295608	-8.160966	0	3	100	0	50	-0.2707927	2.041826	-15.10741	
09:42:39	0	0	0	-0.1295608	-8.160966	0	3	100	0	50	-0.4015084	2.002839	-14.69604	
09:42:40	0	0	0	-0.4881358	-24.06922	0	3	100	0	50	-0.4510958	1.962989	-14.43513	
09:42:40	0	0	0	-0.4881358	-24.06922	0	3	100	0	50	-0.4663917	1.909334	-14.8707	
09:42:40	0	0	0	-0.4881358	-24.06922	0	3	100	0	50	-0.540406	1.84857	-14.51101	
09:42:40	0	0	0	-0.4881358	-24.06922	0	3	100	0	50	-0.5791373	1.768029	-13.65883	
09:42:40	0	0	0	-0.4881358	-24.06922	0	3	100	0	50	-0.7336122	1.668254	-10.49262	
09:42:41	0	0	0	-0.5618621	-10.05772	0	3	100	0	50	-0.9083998	1.622505	-7.721789	
09:42:41	0	0	0	-0.5618621	-10.05772	0	3	100	0	50	-0.9353871	1.555791	-7.144893	
09:42:41	0	0	0	-0.5618621	-10.05772	0	3	100	0	50	-1.069898	1.505916	-3.875632	
09:42:41	0	0	0	-0.5618621	-10.05772	0	3	100	0	50	-1.237134	1.48898	0.8300843	
09:42:42	0	0	0	-0.5618621	-10.05772	0	3	100	0	50	-1.228846	1.474873	1.076062	
09:42:42	0	0	0	-0.4710638	-5.343324	0	3	100	0	50	-1.258037	1.435018	1.34867	
09:42:42	0	0	0	-0.4710638	-5.343324	0	3	100	0	50	-1.338058	1.405088	1.699082	
09:42:42	0	0	0	-0.4710638	-5.343324	0	3	100	0	50	-1.339127	1.385123	1.817238	
09:42:42	0	0	0	-0.4710638	-5.343324	0	3	100	0	50	-1.353262	1.346532	1.945382	
09:42:43	0	0	0	-0.4710638	-5.343324	0	3	100	0	50	-1.358377	1.319347	2.074193	
09:42:43	0	0	0	-0.2142199	6.889467	0	3	100	0	50	-1.362982	1.287293	2.182747	
09:42:43	0	0	0	-0.2142199	6.889467	0	3	100	0	50	-1.382669	1.24644	2.302332	
09:42:43	0	0	0	-0.2142199	6.889467	0	3	100	0	50	-1.383653	1.214169	2.426037	
09:42:43	0	0	0	-0.2142199	6.889467	0	3	100	0	50	-1.377836	1.207991	2.529648	
09:42:44	0	0	0	-0.2142199	6.889467	0	3	100	0	50	-1.373961	1.183551	2.625367	
09:42:44	0	0	0	-0.3196832	0.2262559	0	3	100	0	50	-1.373165	1.165783	2.720847	
09:42:44	0	0	0	-0.3196832	0.2262559	0	3	100	0	50	-1.38035	1.141878	2.816095	
09:42:44	0	0	0	-0.3196832	0.2262559	0	3	100	0	50	-1.375195	1.132712	2.907693	
09:42:44	0	0	0	-0.3196832	0.2262559	0	3	100	0	50	-1.376888	1.13168	2.993938	
09:42:45	0	0	0	-0.3196832	0.2262559	0	3	100	0	50	-1.371051	1.099854	3.077056	
09:42:45	0	0	0	-0.3335799	0.7538205	0	3	100	0	50	-1.364917	1.091905	3.155894	
09:42:45	0	0	0	-0.3335799	0.7538205	0	3	100	0	50	-1.33459	1.096915	3.230173	
09:42:45	0	0	0	-0.3335799	0.7538205	0	3	100	0	50	-1.299111	1.103381	3.28705	
09:42:45	0	0	0	-0.3335799	0.7538205	0	3	100	0	50	-1.2667	1.104953	3.188125	
09:42:46	0	0	0	-0.3335799	0.7538205	0	3	100	0	50	-1.326479	1.059315	3.084656	
09:42:46	0	0	0	-0.06407107	12.75862	0	3	100	0	50	-1.349051	1.024423	2.967494	
09:42:46	0	0	0	-0.06407107	12.75862	0	3	100	0	50	-1.350433	0.999976	2.996639	
09:42:46	0	0	0	-0.06407107	12.75862	0	3	100	0	50	-1.355658	0.9954804	3.034272	
09:42:46	0	0	0	-0.06407107	12.75862	0	3	100	0	50	-1.350161	1.004136	3.072814	
09:42:47	0	0	0	-0.06407107	12.75862	0	3	100	0	50	-1.341219	1.003334	3.118673	
09:42:47	0	0	0	-0.006750578	8.897942	0	3	100	0	50	-1.322624	1.009528	3.149479	
09:42:47	0	0	0	-0.006750578	8.897942	0	3	100	0	50	-1.338271	1.007471	3.158611	
09:42:47	0	0	0	-0.006750578	8.897942	0	3	100	0	50	-1.347455	0.990038	3.208217	
09:42:47	0	0	0	-0.006750578	8.897942	0	3	100	0	50	-1.329693	0.9980186	3.257862	
09:42:48	0	0	0	-0.006750578	8.897942	0	3	100	0	50	-1.317348	0.9885685	3.272974	
09:42:48	0	0	0	-0.3098193	-6.399581	0	3	100	0	50	-1.269467	0.990193	3.311782	
09:42:48	0	0	0	-0.3098193	-6.399581	0	3	100	0	50	-1.304272	0.9559609	3.198052	
09:42:48	0	0	0	-0.3098193	-6.399581	0	3	100	0	50	-1.304822	0.9466034	3.091854	
09:42:48	0	0	0	-0.3098193	-6.399581	0	3	100	0	50	-1.323077	0.9208422	3.052547	
09:42:49	0	0	0	-0.3098193	-6.399581	0	3	100	0	50	-1.329411	0.8959901	2.912058	
09:42:49	0	0	0	-0.4334756	-7.940808	0	3	100	0	50	-1.307305	0.867874	2.666276	
09:42:49	0	0	0	-0.4334756	-7.940808	0	3	100	0	50	-1.295234	0.848547	2.210246	
09:42:49	0	0	0	-0.4334756	-7.940808	0	3	100	0	50	-1.282986	0.8348613	1.876095	
09:42:49	0	0	0	-0.4334756	-7.940808	0	3	100	0	50	-1.291956	0.8165075	1.69691	
09:42:50	0	0	0	-0.4334756	-7.940808	0	3	100	0	50	-1.304828	0.7858546	1.088911	
09:42:50	0	0	0	-0.340027	-0.1696472	0	3	100	0	50	-1.331633	0.756587	0.9942236	
09:42:50	0	0	0	-0.340027	-0.1696472	0	3	100	0	50	-1.33196	0.7260904	1.042695	
09:42:50	0	0	0	-0.340027	-0.1696472	0	3	100	0	50	-1.333281	0.716379	1.063935	
09:42:50	0	0	0	-0.340027	-0.1696472	0	3	100	0	50	-1.3345	0.711144	1.10562	
09:42:51	0	0	0	-0.340027	-0.1696472	0	3	100	0	50	-1.342175	0.7182166	1.138835	
09:42:51	0	0	0	-0.2467624	1.171006	0	3	100	0	50	-1.354364	0.6883349	1.181045	
09:42:51	0	0	0	-0.2467624	1.171006	0	3	100	0	50	-1.358796	0.6726583	1.215168	
09:42:51	0	0	0	-0.2467624	1.171006	0	3	100	0	50	-1.361574	0.6659946	1.266097	
09:42:51	0	0	0	-0.2467624	1.171006	0	3	100	0	50	-1.388457	0.6713933	1.539839	
09:42:52	0	0	0	-0.2467624	1.171006	0	3	100	0	50	-1.434615	0.6813936	2.198686	
09:42:52	0	0	0	-0.3565395	0.1359802	0	3	100	0	50	-1.499495	0.682296	2.742786	
09:42:52	0	0	0	-0.3565395	0.1359802	0	3	100	0	50	-1.618186	0.6784344	5.672449	
09:42:52	0	0	0	-0.3565395	0.1359802	0	3	100	0	50	-1.772206	0.7641279	10.61712	
09:42:53	0	0	0	-0.3565395	0.1359802	0	3	100	0	50	-1.835593	0.7764899	13.2897	
09:42:53	0	0	0	-0.3565395	0.1359802	0	3	100	0	50	-1.947572	0.7891527	14.44309	
09:42:53	0	0	0	-0.2502424	10.16498	0	3	100	0	50	-1.954628	0.7900059	15.42456	
09:42:53	0	0	0	-0.2502424	10.16498	0	3	100	0	50	-1.958724	0.7758281	15.44001	
09:42:53	0	0	0	-0.2502424	10.16498	0	3	100	0	50	-1.931707	0.7744787	15.45734	
09:42:54	0	0	0	-0.2502424	10.16498	0	3	100	0	50	-1.916996	0.7510648	15.46763	
09:42:54	0	0	0	-0.2502424	10.16498	0	3	100	0	50	-1.880623	0.7270471	15.48239	
09:42:54	0	0	0	-0.1890759	8.10595	0	3	100	0	50	-1.852968	0.7182914	15.4915	
09:42:54	0	0	0	-0.1890759	8.10595	0	3	100	0	50	-1.840011	0.7164772	15.49839	
09:42:54	0	0	0	-0.1890759	8.10595	0	3	100	0	50	-1.818594	0.7202987	15.50926	
09:42:55	0	0	0	-0.1890759	8.10595	0	3	100	0	50	-1.793263	0.7078502	15.51919	
09:42:55	0	0	0	-0.1890759	8.10595	0	3	100	0	50	-1.779664	0.6816266	15.53658	
09:42:55	0	0	0	-0.4187242	-3.818245	0	3	100	0	50	-1.759754	0.6738061	15.54133	
09:42:55	0	0	0	-0.4187242	-3.818245	0	3	100	0	50	-1.73326	0.660586	15.54594	
09:42:55	0	0	0	-0.4187242	-3.818245	0	3	100	0	50	-1.718731	0.679458	15.54963	
09:42:56	0	0	0	-0.4187242	-3.818245	0	3	100	0	50	-1.702713	0.68361	15.55637	
09:42:56	0	0	0	-0.4187242	-3.818245	0	3	100	0	50	-1.687842	0.686549	15.56626	
09:42:56	0	0	0	-0.311855	3.296361	0	3	100	0	50	-1.678674	0.6689834	15.57119	
09:42:56	0	0	0	-0.311855	3.296361	0	3	100	0	50	-1.642952	0.656036	15.55886	
09:42:56	0	0	0	-0.311855	3.296361	0	3	100	0	50	-1.634875	0.6694964	15.57772	
09:42:57	0	0	0	-0.311855	3.296361	0	3	100	0	50	-1.630476	0.6767086	15.58296	
09:42:57	0	0	0	-0.311855	3.296361	0	3	100	0	50	-1.618041	0.6605946	15.57994	
09:42:57	0	0	0	-0.1761976	7.174406	0	3	100	0	50	-1.614453	0.6576189	15.58146	
09:42:57	0	0	0	-0.1761976	7.174406	0	3	100	0	50	-1.598649	0.6580456	15.57387	
09:42:57	0	0	0	-0.1761976	7.174406	0	3	100	0	50	-1.584271	0.6571923	15.57097	
09:42:58	0	0	0	-0.1761976	7.174406	0	3	100	0	50	-1.599025	0.6501974	15.56335	
09:42:58	0	0	0	-0.1761976	7.174406	0	3	100	0	50	-1.586177	0.6591722	15.54341	
09:42:58	0	0	0	-0.3815271	-4.936282	0	3	100	0	50	-1.569725	0.6743793	15.52831	
09:42:58	0	0	0	-0.3815271	-4.936282	0	3	100	0	50	-1.557727	0.681466	15.51182	
09:42:58	0	0	0	-0.3815271	-4.936282	0	3	100	0	50	-1.530853	0.6798057	15.49944	
09:42:59	0	0	0	-0.3815271	-4.936282	0	3	100	0	50	-1.507309	0.6785781	15.48894	
09:42:59	0	0	0	-0.3815271	-4.936282	0	3	100	0	50	-1.507544	0.6701985	15.4698	
09:42:59	0	0	0	-0.3905057	-2.423332	0	3	100	0	50	-1.483902	0.6727511	15.45292	
09:42:59	0	0	0	-0.3905057	-2.423332	0	3	100	0	50	-1.409761	0.6642264	15.4343	
09:42:59	0	0	0	-0.3905057	-2.423332	0	3	100	0	50	-1.460171	0.6795167	15.42373	
09:43:00	0	0	0	-0.3905057	-2.423332	0	3	100	0	50	-1.448458	0.6789974	15.41073	
09:43:00	0	0	0	-0.3905057	-2.423332	0	3	100	0	50	-1.422526	0.693739	15.40351	
09:43:00	0	0	0	-0.1794741	7.536893	0	3	100	0	50	-1.404306	0.6852296	15.38946	
09:43:00	0	0	0	-0.1794741	7.536893	0	3	100	0	50	-1.392949	0.6894274	15.36232	
09:43:00	0	0	0	-0.1794741	7.536893	0	3	100	0	50	-1.391237	0.6879727	15.34316	
09:43:01	0	0	0	-0.1794741	7.536893	0	3	100	0	50	-1.385889	0.7008075	15.33379	
09:43:01	0	0	0	-0.1794741	7.536893	0	3	100	0	50	-1.380889	0.7095983	15.32438	
09:43:01	0	0	0	-0.08319606	8.849822	0	3	100	0	50	-1.383674	0.7039745	15.30932	
09:43:01	0	0	0	-0.08319606	8.849822	0	3	100	0	50	-1.383258	0.6999038	15.28882	
09:43:01	0	0	0	-0.08319606	8.849822	0	3	100	0	50	-1.367609	0.6975172	15.27027	
09:43:02	0	0	0	-0.08319606	8.849822	0	3	100	0	50	-1.360712	0.6948868	15.24863	
09:43:02	0	0	0	-0.08319606	8.849822	0	3	100	0	50	-1.35846	0.6964604	15.23857	
09:43:02	0	0	0	-0.2542398	-1.888509	0	3	100	0	50	-1.358073	0.6919417	15.2243	
09:43:02	0	0	0	-0.2542398	-1.888509	0	3	100	0	50	-1.367672	0.6720366	15.20962	
09:43:02	0	0	0	-0.2542398	-1.888509	0	3	100	0	50	-1.367666	0.6644408	15.20692	
09:43:03	0	0	0	-0.2542398	-1.888509	0	3	100	0	50	-1.368108	0.6850696	15.20384	
09:43:03	0	0	0	-0.2542398	-1.888509	0	3	100	0	50	-1.363589	0.6857302	15.1925	
09:43:03	0	0	0	-0.3565721	-5.182962	0	3	100	0	50	-1.349512	0.6922137	15.17417	
09:43:03	0	0	0	-0.3565721	-5.182962	0	3	100	0	50	-1.353359	0.6960215	15.16314	
09:43:04	0	0	0	-0.3565721	-5.182962	0	3	100	0	50	-1.339399	0.710371	15.14269	
09:43:04	0	0	0	-0.3565721	-5.182962	0	3	100	0	50	-1.31574	0.7234267	15.1102	
09:43:04	0	0	0	-0.3565721	-5.182962	0	3	100	0	50	-1.315341	0.6985162	15.08462	
09:43:04	0	0	0	-0.2610642	0.6070032	0	3	100	0	50	-1.306792	0.6971388	15.06355	
09:43:04	0	0	0	-0.2610642	0.6070032	0	3	100	0	50	-1.303483	0.6951075	15.03397	
09:43:05	0	0	0	-0.2610642	0.6070032	0	3	100	0	50	-1.293371	0.70507	15.01676	
09:43:05	0	0	0	-0.2610642	0.6070032	0	3	100	0	50	-1.290797	0.6856976	14.99544	
09:43:05	0	0	0	-0.2610642	0.6070032	0	3	100	0	50	-1.284081	0.685485	14.97363	
09:43:05	0	0	0	-0.0826543	7.895794	0	3	100	0	50	-1.282093	0.6918989	14.95748	
09:43:05	0	0	0	-0.0826543	7.895794	0	3	100	0	50	-1.28729	0.6949106	14.9282	
09:43:06	0	0	0	-0.0826543	7.895794	0	3	100	0	50	-1.279129	0.6981469	14.91407	
09:43:06	0	0	0	-0.0826543	7.895794	0	3	100	0	50	-1.26565	0.6960997	14.89305	
09:43:06	0	0	0	-0.0826543	7.895794	0	3	100	0	50	-1.272514	0.6994914	14.86918	
09:43:06	0	0	0	-0.07018366	4.826493	0	3	100	0	50	-1.263134	0.6888854	14.85374	
09:43:06	0	0	0	-0.07018366	4.826493	0	3	100	0	50	-1.265605	0.6851043	14.82395	
09:43:07	0	0	0	-0.07018366	4.826493	0	3	100	0	50	-1.274827	0.6796476	14.81095	
09:43:07	0	0	0	-0.07018366	4.826493	0	3	100	0	50	-1.274269	0.6662648	14.80176	
09:43:07	0	0	0	-0.07018366	4.826493	0	3	100	0	50	-1.258213	0.6844537	14.78569	
09:43:07	0	0	0	-0.2446806	-5.527233	0	3	100	0	50	-1.241539	0.6977223	14.77405	
09:43:07	0	0	0	-0.2446806	-5.527233	0	3	100	0	50	-1.225114	0.6982436	14.75531	
09:43:08	0	0	0	-0.2446806	-5.527233	0	3	100	0	50	-1.221485	0.6861186	14.74136	
09:43:08	0	0	0	-0.2446806	-5.527233	0	3	100	0	50	-1.332266	0.6994154	14.74679	
09:43:08	0	0	0	-0.2446806	-5.527233	0	3	100	0	50	-1.337354	0.7021631	14.74637	
09:43:08	0	0	0	-0.2691872	-4.99869	0	3	100	0	50	-1.338222	0.719758	14.7208	
09:43:08	0	0	0	-0.2691872	-4.99869	0	3	100	0	50	-1.347885	0.725956	14.69748	
09:43:09	0	0	0	-0.2691872	-4.99869	0	3	100	0	50	-1.350197	0.7181721	14.68622	
09:43:09	0	0	0	-0.2691872	-4.99869	0	3	100	0	50	-1.339185	0.7433324	14.67562	
09:43:09	0	0	0	-0.2691872	-4.99869	0	3	100	0	50	-1.311848	0.7474051	14.67134	
09:43:09	0	0	0	-0.4502192	-10.14943	0	3	100	0	50	-1.30339	0.7540776	14.65426	
09:43:09	0	0	0	-0.4502192	-10.14943	0	3	100	0	50	-1.301953	0.7470694	14.6373	
09:43:10	0	0	0	-0.4502192	-10.14943	0	3	100	0	50	-1.302233	0.7568312	14.63054	
09:43:10	0	0	0	-0.4502192	-10.14943	0	3	100	0	50	-1.289011	0.7443599	14.62211	
09:43:10	0	0	0	-0.4502192	-10.14943	0	3	100	0	50	-1.252859	0.7403417	14.60247	
09:43:10	0	0	0	-0.7068547	-17.66826	0	3	100	0	50	-1.259699	0.7414804	14.5773	
09:43:10	0	0	0	-0.7068547	-17.66826	0	3	100	0	50	-1.191807	0.7245966	14.5517	
09:43:11	0	0	0	-0.7068547	-17.66826	0	3	100	0	50	-1.165596	0.731159	14.53486	
09:43:11	0	0	0	-0.7068547	-17.66826	0	3	100	0	50	-1.16437	0.7287449	14.52102	
09:43:11	0	0	0	-0.7068547	-17.66826	0	3	100	0	50	-1.177402	0.7218891	14.50912	
09:43:11	0	0	0	-0.6527551	-7.226053	0	3	100	0	50	-1.18094	0.7271909	14.51688	
09:43:11	0	0	0	-0.6527551	-7.226053	0	3	100	0	50	-1.394853	0.7147011	14.5513	
09:43:12	0	0	0	-0.6527551	-7.226053	0	3	100	0	50	-1.448123	0.7036913	14.58469	
09:43:12	0	0	0	-0.6527551	-7.226053	0	3	100	0	50	-1.446513	0.7113203	14.59526	
09:43:12	0	0	0	-0.6527551	-7.226053	0	3	100	0	50	-1.43135	0.7140015	14.61484	
09:43:12	0	0	0	-0.5866113	-3.285021	0	3	100	0	50	-1.419243	0.7035816	14.63395	
09:43:12	0	0	0	-0.5866113	-3.285021	0	3	100	0	50	-1.410368	0.7081394	14.6472	
09:43:13	0	0	0	-0.5866113	-3.285021	0	3	100	0	50	-1.390909	0.7120533	14.66358	
09:43:13	0	0	0	-0.5866113	-3.285021	0	3	100	0	50	-1.383924	0.7309759	14.68368	
09:43:13	0	0	0	-0.5866113	-3.285021	0	3	100	0	50	-1.374636	0.7480721	14.69675	
09:43:13	0	0	0	-0.4861419	4.064395	0	3	100	0	50	-1.360246	0.7476509	14.7034	
09:43:13	0	0	0	-0.4861419	4.064395	0	3	100	0	50	-1.346808	0.7457986	14.70066	
09:43:14	0	0	0	-0.4861419	4.064395	0	3	100	0	50	-1.339165	0.7298378	14.70075	
09:43:14	0	0	0	-0.4861419	4.064395	0	3	100	0	50	-1.317072	0.7269862	14.69486	
09:43:14	0	0	0	-0.4861419	4.064395	0	3	100	0	50	-1.29221	0.77232	14.70257	
09:43:14	0	0	0	-0.2510322	11.28756	0	3	100	0	50	-1.268863	0.7769365	14.70328	
09:43:14	0	0	0	-0.2510322	11.28756	0	3	100	0	50	-1.263822	0.773705	14.69756	
09:43:15	0	0	0	-0.2510322	11.28756	0	3	100	0	50	-1.253754	0.7865735	14.70424	
09:43:15	0	0	0	-0.2510322	11.28756	0	3	100	0	50	-1.242499	0.7928441	14.70879	
09:43:15	0	0	0	-0.2510322	11.28756	0	3	100	0	50	-1.236962	0.7962362	14.72069	
09:43:15	0	0	0	-0.2284598	6.635967	0	3	100	0	50	-1.240036	0.7928832	14.71498	
09:43:15	0	0	0	-0.2284598	6.635967	0	3	100	0	50	-1.231058	0.7795905	14.70869	
09:43:16	0	0	0	-0.2284598	6.635967	0	3	100	0	50	-1.214374	0.7970086	14.70566	
09:43:16	0	0	0	-0.2284598	6.635967	0	3	100	0	50	-1.208808	0.7902153	14.71385	
09:43:16	0	0	0	-0.2284598	6.635967	0	3	100	0	50	-1.199919	0.7981949	14.71203	
09:43:16	0	0	0	-0.1529077	7.594477	0	3	100	0	50	-1.198286	0.8097594	14.70398	
09:43:17	0	0	0	-0.1529077	7.594477	0	3	100	0	50	-1.184968	0.8096939	14.69792	
09:43:17	0	0	0	-0.1529077	7.594477	0	3	100	0	50	-1.183785	0.80397	14.69541	
09:43:17	0	0	0	-0.1529077	7.594477	0	3	100	0	50	-1.177839	0.802382	14.68979	
09:43:17	0	0	0	-0.1529077	7.594477	0	3	100	0	50	-1.176648	0.7931412	14.68822	
09:43:17	0	0	0	0.06841479	14.87499	0	3	100	0	50	-1.177615	0.7782043	14.68447	
09:43:18	0	0	0	0.06841479	14.87499	0	3	100	0	50	-1.178765	0.779429	14.68538	
09:43:18	0	0	0	0.06841479	14.87499	0	3	100	0	50	-1.157162	0.7845005	14.68579	
09:43:18	0	0	0	0.06841479	14.87499	0	3	100	0	50	-0.9783707	0.755028	14.69884	
09:43:18	0	0	0	0.06841479	14.87499	0	3	100	0	50	-0.882072	0.7323181	15.32534	
09:43:18	0	0	0	-0.09765758	3.25925	0	3	100	0	50	-0.8393513	0.7692771	15.28354	
09:43:19	0	0	0	-0.09765758	3.25925	0	3	100	0	50	-0.841054	0.7842109	15.24916	
09:43:19	0	0	0	-0.09765758	3.25925	0	3	100	0	50	-0.8532706	0.7966534	15.21469	
09:43:19	0	0	0	-0.09765758	3.25925	0	3	100	0	50	-0.8662443	0.7828265	15.17646	
09:43:19	0	0	0	-0.09765758	3.25925	0	3	100	0	50	-0.8859046	0.7796707	15.14415	
09:43:19	0	0	0	-0.2531358	-4.529683	0	3	100	0	50	-0.889089	0.7982509	15.11016	
09:43:20	0	0	0	-0.2531358	-4.529683	0	3	100	0	50	-0.8993967	0.7866493	15.07633	
09:43:20	0	0	0	-0.2531358	-4.529683	0	3	100	0	50	-0.892298	0.7968453	15.04173	
09:43:20	0	0	0	-0.2531358	-4.529683	0	3	100	0	50	-0.9021445	0.8046212	15.0229	
09:43:20	0	0	0	-0.2531358	-4.529683	0	3	100	0	50	-0.9165302	0.7990265	14.9959	
09:43:20	0	0	0	0.1195939	19.66499	0	3	100	0	50	-1.759284	1.052061	16.10694	
09:43:21	0	0	0	0.1195939	19.66499	0	3	100	0	50	-1.802552	1.06274	16.13567	
09:43:21	0	0	0	0.1195939	19.66499	0	3	100	0	50	-2.582961	0.661752	9.027101	
09:43:21	0	0	0	0.1195939	19.66499	0	3	100	0	50	0.3782323	-2.214939	-6.728567	
09:43:21	0	0	0	0.1195939	19.66499	0	3	100	0	50	3.962017	-0.7811964	-21.32212	
09:43:21	0	0	0	0.04618207	3.059241	0	3	100	0	50	8.318143	-5.103229	-35.88567	
09:43:22	0	0	0	0.04618207	3.059241	0	3	100	0	50	11.71084	-9.674273	-47.66398	
09:43:22	0	0	0	0.04618207	3.059241	0	3	100	0	50	15.89319	-11.80445	-56.99512	
09:43:22	0	0	0	0.04618207	3.059241	0	3	100	0	50	21.3324	-14.48781	-63.54849	
09:43:22	0	0	0	0.04618207	3.059241	0	3	100	0	50	22.01212	-13.74167	-76.20317	
09:43:22	0	0	0	-0.04545587	-7.376535	0	3	100	0	50	20.26855	-12.31668	-91.69639	
09:43:23	0	0	0	-0.04545587	-7.376535	0	3	100	0	50	20.48999	-9.841168	-98.90991	
09:43:23	0	0	0	-0.04545587	-7.376535	0	3	100	0	50	20.95224	-8.497787	-103.5228	
09:43:23	0	0	0	-0.04545587	-7.376535	0	3	100	0	50	22.78596	-7.417347	-107.5869	
09:43:23	0	0	0	-0.04545587	-7.376535	0	3	100	0	50	24.82843	-8.246915	-111.8519	
09:43:23	0	0	0	-0.00527475	3.54829	0	3	100	0	50	24.91898	-7.863082	-115.6025	
09:43:24	0	0	0	-0.00527475	3.54829	0	3	100	0	50	24.99646	-6.451271	-119.9218	
09:43:24	0	0	0	-0.00527475	3.54829	0	3	100	0	50	26.70141	-3.304711	-122.4067	
09:43:24	0	0	0	-0.00527475	3.54829	0	3	100	0	50	26.96394	-0.8230332	-125.0168	
09:43:24	0	0	0	-0.00527475	3.54829	0	3	100	0	50	26.62399	1.437052	-128.6093	
09:43:24	0	0	0	-0.04335733	1.57591	0	3	100	0	50	25.97732	3.47457	-131.9289	
09:43:25	0	0	0	-0.04335733	1.57591	0	3	100	0	50	25.29746	6.003186	-133.8579	
09:43:25	0	0	0	-0.04335733	1.57591	0	3	100	0	50	25.33049	7.832104	-133.4808	
09:43:25	0	0	0	-0.04335733	1.57591	0	3	100	0	50	23.8243	8.38812	-133.0086	
09:43:25	0	0	0	-0.04335733	1.57591	0	3	100	0	50	23.35582	8.371065	-132.8547	
09:43:25	0	0	0	-0.275372	-6.760531	0	3	100	0	50	22.91757	8.323504	-132.3559	
09:43:26	0	0	0	-0.275372	-6.760531	0	3	100	0	50	22.13247	8.391688	-132.2069	
09:43:26	0	0	0	-0.275372	-6.760531	0	3	100	0	50	16.81046	8.788521	-136.1035	
09:43:26	0	0	0	-0.275372	-6.760531	0	3	100	0	50	17.90017	7.942911	-137.4649	
09:43:26	0	0	0	-0.275372	-6.760531	0	3	100	0	50	23.42955	7.433741	-136.6385	
09:43:26	0	0	0	-0.2954287	-2.04764	0	3	100	0	50	27.40001	6.792589	-135.7112	
09:43:27	0	0	0	-0.2954287	-2.04764	0	3	100	0	50	27.3866	6.524447	-135.1552	
09:43:27	0	0	0	-0.2954287	-2.04764	0	3	100	0	50	21.59809	6.091673	-127.8334	
09:43:27	0	0	0	-0.2954287	-2.04764	0	3	100	0	50	30.49947	3.475307	-116.5491	
09:43:27	0	0	0	-0.2954287	-2.04764	0	3	100	0	50	36.92209	-6.450745	-104.8106	
09:43:28	0	0	0	-0.120181	15.56254	0	3	100	0	50	39.56568	-13.52082	-88.79694	
09:43:28	0	0	0	-0.120181	15.56254	0	3	100	0	50	40.24562	-19.74159	-73.76501	
09:43:28	0	0	0	-0.120181	15.56254	0	3	100	0	50	39.81662	-22.85493	-55.06189	
09:43:28	0	0	0	-0.120181	15.56254	0	3	100	0	50	38.88156	-23.58805	-39.12862	
09:43:28	0	0	0	-0.120181	15.56254	0	3	100	0	50	34.82289	-27.04086	-23.14038	
09:43:29	0	0	0	0.02012748	14.26649	0	3	100	0	50	27.91306	-27.35078	-6.539534	
09:43:29	0	0	0	0.02012748	14.26649	0	3	100	0	50	20.84899	-28.34576	6.215096	
09:43:29	0	0	0	0.02012748	14.26649	0	3	100	0	50	15.76845	-29.96752	15.7159	
09:43:29	0	0	0	0.02012748	14.26649	0	3	100	0	50	10.76424	-30.65481	26.44065	
09:43:29	0	0	0	0.02012748	14.26649	0	3	100	0	50	3.13377	-29.63379	37.54618	
09:43:30	0	0	0	-0.1991858	-6.580945	0	3	100	0	50	-5.110314	-27.71209	49.1004	
09:43:30	0	0	0	-0.1991858	-6.580945	0	3	100	0	50	-11.21295	-23.33595	58.20873	
09:43:30	0	0	0	-0.1991858	-6.580945	0	3	100	0	50	-10.83	-17.92095	63.08851	
09:43:30	0	0	0	-0.1991858	-6.580945	0	3	100	0	50	-12.09126	-15.49693	65.3327	
09:43:30	0	0	0	-0.1991858	-6.580945	0	3	100	0	50	-10.05116	-7.210991	63.40007	
09:43:31	0	0	0	-0.1639644	-4.463033	0	3	100	0	50	-8.068826	-4.731081	65.47573	
09:43:31	0	0	0	-0.1639644	-4.463033	0	3	100	0	50	0.9384906	-0.06566185	67.38628	
09:43:31	0	0	0	-0.1639644	-4.463033	0	3	100	0	50	0.7699998	-0.2013565	67.05462	
09:43:31	0	0	0	-0.1639644	-4.463033	0	3	100	0	50	0.8795344	-0.2443314	66.58448	
09:43:31	0	0	0	-0.1639644	-4.463033	0	3	100	0	50	0.8505841	-0.2227264	66.14616	
09:43:32	0	0	0	-0.3521489	-20.89018	0	3	100	0	50	0.7499235	-0.210725	65.71442	
09:43:32	0	0	0	-0.3521489	-20.89018	0	3	100	0	50	0.6619747	-0.1825585	65.3089	
09:43:32	0	0	0	-0.3521489	-20.89018	0	3	100	0	50	0.5854248	-0.1340516	64.92004	
09:43:32	0	0	0	-0.3521489	-20.89018	0	3	100	0	50	0.5171261	-0.08596073	64.55664	
09:43:32	0	0	0	-0.3521489	-20.89018	0	3	100	0	50	0.4509583	-0.04694336	64.20074	
09:43:33	0	0	0	-0.5764776	-21.03012	0	3	100	0	50	0.3895483	-0.03016191	63.88104	
09:43:33	0	0	0	-0.5764776	-21.03012	0	3	100	0	50	0.3217891	-0.008197344	63.57179	
09:43:33	0	0	0	-0.5764776	-21.03012	0	3	100	0	50	0.2589218	0.02646061	63.27978	
09:43:33	0	0	0	-0.5764776	-21.03012	0	3	100	0	50	0.1803887	0.0412152	63.00748	
09:43:33	0	0	0	-0.5764776	-21.03012	0	3	100	0	50	0.1190945	0.0610304	62.73239	
09:43:34	0	0	0	-0.3575365	-4.284706	0	3	100	0	50	0.0602762	0.07254982	62.48044	
09:43:34	0	0	0	-0.3575365	-4.284706	0	3	100	0	50	0.002727357	0.0971573	62.23825	
09:43:34	0	0	0	-0.3575365	-4.284706	0	3	100	0	50	-0.05778189	0.1292448	62.02407	
09:43:34	0	0	0	-0.3575365	-4.284706	0	3	100	0	50	-0.1040912	0.1475226	61.81524	
09:43:34	0	0	0	-0.3575365	-4.284706	0	3	100	0	50	-0.1481797	0.1582865	61.62054	
09:43:35	0	0	0	-0.3797868	-3.065108	0	3	100	0	50	-0.1950973	0.1895853	61.42806	
09:43:35	0	0	0	-0.3797868	-3.065108	0	3	100	0	50	-0.2434894	0.1904013	61.24769	
09:43:35	0	0	0	-0.3797868	-3.065108	0	3	100	0	50	-0.2814826	0.2292621	61.08865	
09:43:35	0	0	0	-0.3797868	-3.065108	0	3	100	0	50	-0.3217885	0.2402115	60.93168	
09:43:35	0	0	0	-0.3797868	-3.065108	0	3	100	0	50	-0.3672461	0.2512662	60.78457	
09:43:36	0	0	0	-0.3643581	-1.018452	0	3	100	0	50	-0.3993889	0.2617758	60.64297	
09:43:36	0	0	0	-0.3643581	-1.018452	0	3	100	0	50	-0.4362836	0.2651341	60.51395	
09:43:36	0	0	0	-0.3643581	-1.018452	0	3	100	0	50	-0.468926	0.2852908	60.3823	
09:43:36	0	0	0	-0.3643581	-1.018452	0	3	100	0	50	-0.5034991	0.3031275	60.21349	
09:43:36	0	0	0	-0.3643581	-1.018452	0	3	100	0	50	-0.5532243	0.3047932	60.03235	
09:43:37	0	0	0	-0.4085831	-2.412402	0	3	100	0	50	-0.5949835	0.3101812	59.848	
09:43:37	0	0	0	-0.4085831	-2.412402	0	3	100	0	50	-0.6288802	0.3368331	59.68372	
09:43:37	0	0	0	-0.4085831	-2.412402	0	3	100	0	50	-0.6618528	0.35418	59.53648	
09:43:37	0	0	0	-0.4085831	-2.412402	0	3	100	0	50	-0.7071491	0.3612612	59.39753	
09:43:38	0	0	0	-0.4085831	-2.412402	0	3	100	0	50	-0.7442613	0.3853493	59.25777	
09:43:38	0	0	0	-0.2978933	3.399324	0	3	100	0	50	-0.7813146	0.4113136	59.13137	
09:43:38	0	0	0	-0.2978933	3.399324	0	3	100	0	50	-0.8142534	0.424071	59.01091	
09:43:38	0	0	0	-0.2978933	3.399324	0	3	100	0	50	-0.8456018	0.4241001	58.89708	
09:43:38	0	0	0	-0.2978933	3.399324	0	3	100	0	50	-0.8860426	0.4424662	58.79072	
09:43:39	0	0	0	-0.2978933	3.399324	0	3	100	0	50	-0.9169888	0.4569557	58.68983	
09:43:39	0	0	0	-0.319904	1.857232	0	3	100	0	50	-0.9398062	0.4636289	58.58757	
09:43:39	0	0	0	-0.319904	1.857232	0	3	100	0	50	-0.9618238	0.4795352	58.50218	
09:43:39	0	0	0	-0.319904	1.857232	0	3	100	0	50	-0.9831182	0.4739119	58.40887	
09:43:39	0	0	0	-0.319904	1.857232	0	3	100	0	50	-1.000481	0.4907825	58.3219	
09:43:40	0	0	0	-0.319904	1.857232	0	3	100	0	50	-1.020974	0.5004398	58.25203	
09:43:40	0	0	0	-0.3126843	0.4167357	0	3	100	0	50	-1.041025	0.5036567	58.17951	
09:43:40	0	0	0	-0.3126843	0.4167357	0	3	100	0	50	-1.063974	0.5095614	58.11488	
