Date	Latitude(deg) 	Longitude(deg)	hamsl(m)	hafl(m)	climbrate(cm/s)	GroundSpeed(m/s)	Airspeed(m/s)	Mav_Link(%)	Rssi_Link(%)	Throttle	Roll(deg)	Pitch(deg)	Yaw(deg)
14:35:15	0	0	0	0	0	0	0	100	0	0	-1.246217	0.7856241	-16.80181	
14:35:15	0	0	0	0	0	0	0	100	0	0	-1.244101	0.7904427	-16.75296	
14:35:15	0	0	0	1.341432	-2.37317	0	3	100	0	50	-1.24483	0.789906	-16.72068	
14:35:15	0	0	0	1.341432	-2.37317	0	3	100	0	50	-1.244668	0.790533	-16.68422	
14:35:15	0	0	0	1.341432	-2.37317	0	3	100	0	50	-1.249334	0.791819	-16.63152	
14:35:16	0	0	0	1.341432	-2.37317	0	3	100	0	50	-1.25537	0.7960445	-16.60353	
14:35:16	0	0	0	1.341432	-2.37317	0	3	100	0	50	-1.248369	0.7974752	-16.62409	
14:35:16	0	0	0	0.6200789	-16.90201	0	3	100	0	50	-1.249865	0.7960244	-16.61748	
14:35:16	0	0	0	0.6200789	-16.90201	0	3	100	0	50	-1.248974	0.7990099	-16.67462	
14:35:16	0	0	0	0.6200789	-16.90201	0	3	100	0	50	-1.253007	0.7993274	-16.65723	
14:35:17	0	0	0	0.6200789	-16.90201	0	3	100	0	50	-1.250067	0.7966871	-16.62708	
14:35:17	0	0	0	0.6200789	-16.90201	0	3	100	0	50	-1.251648	0.795051	-16.59778	
14:35:17	0	0	0	1.293581	27.30387	0	3	100	0	50	-1.250839	0.7930281	-16.59019	
14:35:17	0	0	0	1.293581	27.30387	0	3	100	0	50	-1.246965	0.7937196	-16.53809	
14:35:17	0	0	0	1.293581	27.30387	0	3	100	0	50	-1.255347	0.7948328	-16.53831	
14:35:18	0	0	0	1.293581	27.30387	0	3	100	0	50	-1.255118	0.7914869	-16.56696	
14:35:18	0	0	0	1.293581	27.30387	0	3	100	0	50	-1.258831	0.7954354	-16.51439	
14:35:18	0	0	0	1.498585	34.37902	0	3	100	0	50	-1.260377	0.7963166	-16.48752	
14:35:18	0	0	0	1.498585	34.37902	0	3	100	0	50	-1.258976	0.7920828	-16.52259	
14:35:19	0	0	0	1.498585	34.37902	0	3	100	0	50	-1.259015	0.7894237	-16.58983	
14:35:19	0	0	0	1.498585	34.37902	0	3	100	0	50	-1.262766	0.7901222	-16.63586	
14:35:19	0	0	0	1.498585	34.37902	0	3	100	0	50	-1.265236	0.7883091	-16.66954	
14:35:19	0	0	0	1.72998	38.38391	0	3	100	0	50	-1.26602	0.7883024	-16.65861	
14:35:19	0	0	0	1.72998	38.38391	0	3	100	0	50	-1.265851	0.7910376	-16.65703	
14:35:20	0	0	0	1.72998	38.38391	0	3	100	0	50	-1.265184	0.7916173	-16.59361	
14:35:20	0	0	0	1.72998	38.38391	0	3	100	0	50	-1.269637	0.7941643	-16.57184	
14:35:20	0	0	0	1.72998	38.38391	0	3	100	0	50	-1.272687	0.8002195	-16.56575	
14:35:20	0	0	0	1.726029	29.20928	0	3	100	0	50	-1.270817	0.7979808	-16.56937	
14:35:20	0	0	0	1.726029	29.20928	0	3	100	0	50	-1.267524	0.7972198	-16.58227	
14:35:21	0	0	0	1.726029	29.20928	0	3	100	0	50	-1.267923	0.8003907	-16.55307	
14:35:21	0	0	0	1.726029	29.20928	0	3	100	0	50	-1.269962	0.803045	-16.59417	
14:35:21	0	0	0	1.726029	29.20928	0	3	100	0	50	-1.263054	0.8012159	-16.59642	
14:35:21	0	0	0	1.592235	19.95827	0	3	100	0	50	-1.256398	0.8041861	-16.48318	
14:35:21	0	0	0	1.592235	19.95827	0	3	100	0	50	-1.254477	0.8030277	-16.46895	
14:35:22	0	0	0	1.592235	19.95827	0	3	100	0	50	-1.24961	0.8025889	-16.50066	
14:35:22	0	0	0	1.592235	19.95827	0	3	100	0	50	-1.253048	0.804314	-16.5115	
14:35:22	0	0	0	1.592235	19.95827	0	3	100	0	50	-1.251328	0.7990621	-16.49641	
14:35:22	0	0	0	1.513987	15.48644	0	3	100	0	50	-1.245573	0.7959729	-16.50594	
14:35:22	0	0	0	1.513987	15.48644	0	3	100	0	50	-1.242235	0.7850751	-16.53868	
14:35:23	0	0	0	1.513987	15.48644	0	3	100	0	50	-1.24307	0.7819518	-16.54631	
14:35:23	0	0	0	1.513987	15.48644	0	3	100	0	50	-1.239126	0.7803159	-16.54042	
14:35:23	0	0	0	1.513987	15.48644	0	3	100	0	50	-1.23638	0.7795359	-16.5356	
14:35:23	0	0	0	1.540285	17.91797	0	3	100	0	50	-1.238848	0.7821026	-16.56901	
14:35:23	0	0	0	1.540285	17.91797	0	3	100	0	50	-1.240821	0.7776517	-16.597	
14:35:24	0	0	0	1.540285	17.91797	0	3	100	0	50	-1.237736	0.7747186	-16.61189	
14:35:24	0	0	0	1.540285	17.91797	0	3	100	0	50	-1.238993	0.7739251	-16.64787	
14:35:24	0	0	0	1.540285	17.91797	0	3	100	0	50	-1.235893	0.7679118	-16.68579	
14:35:24	0	0	0	1.689414	24.57894	0	3	100	0	50	-1.238113	0.7685109	-16.68791	
14:35:24	0	0	0	1.689414	24.57894	0	3	100	0	50	-1.238912	0.7681637	-16.70661	
14:35:25	0	0	0	1.689414	24.57894	0	3	100	0	50	-1.239785	0.7618085	-16.72146	
14:35:25	0	0	0	1.689414	24.57894	0	3	100	0	50	-1.243755	0.7661933	-16.67336	
14:35:25	0	0	0	1.689414	24.57894	0	3	100	0	50	-1.243015	0.7666619	-16.63879	
14:35:25	0	0	0	1.522812	12.36881	0	3	100	0	50	-1.243986	0.7657381	-16.66258	
14:35:25	0	0	0	1.522812	12.36881	0	3	100	0	50	-1.244514	0.7637612	-16.7118	
14:35:26	0	0	0	1.522812	12.36881	0	3	100	0	50	-1.240448	0.7592308	-16.6995	
14:35:26	0	0	0	1.522812	12.36881	0	3	100	0	50	-1.237959	0.754397	-16.69441	
14:35:26	0	0	0	1.522812	12.36881	0	3	100	0	50	-1.237587	0.7512348	-16.66276	
14:35:26	0	0	0	1.45022	11.53829	0	3	100	0	50	-1.242883	0.7540337	-16.6463	
14:35:26	0	0	0	1.45022	11.53829	0	3	100	0	50	-1.244166	0.7556149	-16.67317	
14:35:27	0	0	0	1.45022	11.53829	0	3	100	0	50	-1.244193	0.7572089	-16.66519	
14:35:27	0	0	0	1.45022	11.53829	0	3	100	0	50	-1.245922	0.7552793	-16.72358	
14:35:27	0	0	0	1.45022	11.53829	0	3	100	0	50	-1.246554	0.7549472	-16.71922	
14:35:27	0	0	0	1.484535	13.51497	0	3	100	0	50	-1.246454	0.7518078	-16.78878	
14:35:27	0	0	0	1.484535	13.51497	0	3	100	0	50	-1.245713	0.750289	-16.82368	
14:35:28	0	0	0	1.484535	13.51497	0	3	100	0	50	-1.252568	0.7506869	-16.81266	
14:35:28	0	0	0	1.484535	13.51497	0	3	100	0	50	-1.255509	0.7488978	-16.84636	
14:35:28	0	0	0	1.484535	13.51497	0	3	100	0	50	-1.250015	0.7486791	-16.86827	
14:35:28	0	0	0	1.497514	13.34657	0	3	100	0	50	-1.251106	0.7538231	-16.85901	
14:35:28	0	0	0	1.497514	13.34657	0	3	100	0	50	-1.252496	0.7579275	-16.85983	
14:35:29	0	0	0	1.497514	13.34657	0	3	100	0	50	-1.249056	0.7531933	-16.86422	
14:35:29	0	0	0	1.497514	13.34657	0	3	100	0	50	-1.250897	0.7486347	-16.8916	
14:35:29	0	0	0	1.497514	13.34657	0	3	100	0	50	-1.247491	0.7474012	-16.98956	
14:35:29	0	0	0	1.391539	8.527248	0	3	100	0	50	-1.246445	0.7528829	-16.99228	
14:35:29	0	0	0	1.391539	8.527248	0	3	100	0	50	-1.24606	0.7534224	-16.99243	
14:35:30	0	0	0	1.391539	8.527248	0	3	100	0	50	-1.246725	0.7573568	-17.04168	
14:35:30	0	0	0	1.391539	8.527248	0	3	100	0	50	-1.243175	0.7559938	-17.02708	
14:35:30	0	0	0	1.391539	8.527248	0	3	100	0	50	-1.243258	0.7588159	-16.9905	
14:35:30	0	0	0	1.420835	4.795615	0	3	100	0	50	-1.204953	0.8060895	-16.6768	
14:35:30	0	0	0	1.420835	4.795615	0	3	100	0	50	-1.208718	0.8080545	-16.61396	
14:35:31	0	0	0	1.420835	4.795615	0	3	100	0	50	-1.220662	0.8040692	-16.64431	
14:35:31	0	0	0	1.420835	4.795615	0	3	100	0	50	-1.22031	0.7993107	-16.65124	
14:35:31	0	0	0	1.420835	4.795615	0	3	100	0	50	-1.22817	0.8012847	-16.65748	
14:35:31	0	0	0	1.355041	-0.05416349	0	3	100	0	50	-1.233987	0.7996033	-16.67222	
14:35:31	0	0	0	1.355041	-0.05416349	0	3	100	0	50	-1.229929	0.7981512	-16.72527	
14:35:32	0	0	0	1.355041	-0.05416349	0	3	100	0	50	-1.234756	0.8006266	-16.73483	
14:35:32	0	0	0	1.355041	-0.05416349	0	3	100	0	50	-1.231954	0.8018212	-16.80557	
14:35:32	0	0	0	1.355041	-0.05416349	0	3	100	0	50	-1.231998	0.8041978	-16.74845	
14:35:32	0	0	0	1.272962	-0.1902289	0	3	100	0	50	-1.23396	0.8033819	-16.71459	
14:35:32	0	0	0	1.272962	-0.1902289	0	3	100	0	50	-1.239382	0.800271	-16.71765	
14:35:33	0	0	0	1.272962	-0.1902289	0	3	100	0	50	-1.240397	0.8005502	-16.75174	
14:35:33	0	0	0	1.272962	-0.1902289	0	3	100	0	50	-1.239824	0.8089169	-16.76994	
14:35:33	0	0	0	1.272962	-0.1902289	0	3	100	0	50	-1.236046	0.8043687	-16.75294	
14:35:33	0	0	0	1.458344	11.93647	0	3	100	0	50	-1.235344	0.8020284	-16.75766	
14:35:33	0	0	0	1.458344	11.93647	0	3	100	0	50	-1.240456	0.8009996	-16.76619	
14:35:34	0	0	0	1.458344	11.93647	0	3	100	0	50	-1.249384	0.8404031	-16.64563	
14:35:34	0	0	0	1.458344	11.93647	0	3	100	0	50	-1.286175	0.8236992	-15.85893	
14:35:34	0	0	0	1.458344	11.93647	0	3	100	0	50	-1.345558	0.7179617	-19.50518	
14:35:34	0	0	0	1.325867	4.337379	0	3	100	0	50	-1.382387	0.5749938	-23.67499	
14:35:34	0	0	0	1.325867	4.337379	0	3	100	0	50	-1.352187	0.4562376	-28.19171	
14:35:35	0	0	0	1.325867	4.337379	0	3	100	0	50	-1.327092	0.3971914	-29.45758	
14:35:35	0	0	0	1.325867	4.337379	0	3	100	0	50	-1.325046	0.3220954	-29.71606	
14:35:35	0	0	0	1.325867	4.337379	0	3	100	0	50	-1.324354	0.3553167	-29.31906	
14:35:35	0	0	0	1.492828	7.926643	0	3	100	0	50	-1.305537	0.3672287	-28.85217	
14:35:35	0	0	0	1.492828	7.926643	0	3	100	0	50	-1.280152	0.3882049	-27.9744	
14:35:36	0	0	0	1.492828	7.926643	0	3	100	0	50	-1.244451	0.4167563	-27.42552	
14:35:36	0	0	0	1.492828	7.926643	0	3	100	0	50	-1.223934	0.4082992	-28.06002	
14:35:36	0	0	0	1.492828	7.926643	0	3	100	0	50	-1.206817	0.3708802	-30.58197	
14:35:36	0	0	0	1.574576	5.150583	0	3	100	0	50	-1.188838	0.3852867	-30.60471	
14:35:36	0	0	0	1.574576	5.150583	0	3	100	0	50	-1.184202	0.2987199	-33.52171	
14:35:37	0	0	0	1.574576	5.150583	0	3	100	0	50	-1.152584	0.3116114	-34.33733	
14:35:37	0	0	0	1.574576	5.150583	0	3	100	0	50	-1.137887	0.2010665	-33.89917	
14:35:37	0	0	0	1.574576	5.150583	0	3	100	0	50	-1.124251	-0.255924	-33.60866	
14:35:37	0	0	0	1.458012	2.383155	0	3	100	0	50	-1.105062	-0.4545179	-33.32857	
14:35:37	0	0	0	1.458012	2.383155	0	3	100	0	50	-1.121177	-1.057066	-34.57112	
14:35:38	0	0	0	1.458012	2.383155	0	3	100	0	50	-1.129499	-1.079041	-35.99651	
14:35:38	0	0	0	1.458012	2.383155	0	3	100	0	50	-1.175604	-1.370988	-35.54123	
14:35:38	0	0	0	1.458012	2.383155	0	3	100	0	50	-1.20512	-1.198018	-34.03807	
14:35:38	0	0	0	1.603914	6.517582	0	3	100	0	50	-1.232399	-1.171497	-32.67709	
14:35:38	0	0	0	1.603914	6.517582	0	3	100	0	50	-1.249675	-1.044762	-31.44031	
14:35:39	0	0	0	1.603914	6.517582	0	3	100	0	50	-1.293716	-0.5112731	-30.66928	
14:35:39	0	0	0	1.603914	6.517582	0	3	100	0	50	-1.303708	0.2768997	-30.74797	
14:35:39	0	0	0	1.603914	6.517582	0	3	100	0	50	-1.300294	0.3061755	-31.19258	
14:35:39	0	0	0	1.486503	-1.993009	0	3	100	0	50	-1.306583	0.3268209	-30.50439	
14:35:39	0	0	0	1.486503	-1.993009	0	3	100	0	50	-1.269476	0.06046686	-30.71551	
14:35:40	0	0	0	1.486503	-1.993009	0	3	100	0	50	-1.240418	0.3711725	-32.02439	
14:35:40	0	0	0	1.486503	-1.993009	0	3	100	0	50	-1.224034	0.3179658	-31.01231	
14:35:40	0	0	0	1.486503	-1.993009	0	3	100	0	50	-1.215467	0.321051	-30.08668	
14:35:40	0	0	0	1.525956	2.668358	0	3	100	0	50	-1.189859	0.3386493	-28.36551	
14:35:40	0	0	0	1.525956	2.668358	0	3	100	0	50	-1.158257	0.3268089	-26.73775	
14:35:41	0	0	0	1.525956	2.668358	0	3	100	0	50	-1.13212	0.3307864	-25.13952	
14:35:41	0	0	0	1.525956	2.668358	0	3	100	0	50	-1.115644	0.3925926	-23.58099	
14:35:41	0	0	0	1.525956	2.668358	0	3	100	0	50	-1.10502	0.4198849	-22.0508	
14:35:41	0	0	0	1.915055	24.0969	0	3	100	0	50	-1.086308	0.4388824	-20.58097	
14:35:41	0	0	0	1.915055	24.0969	0	3	100	0	50	-1.074515	0.4547597	-19.15291	
14:35:42	0	0	0	1.915055	24.0969	0	3	100	0	50	-1.052292	0.4811331	-17.78059	
14:35:42	0	0	0	1.915055	24.0969	0	3	100	0	50	-1.047636	0.5130023	-16.4334	
14:35:42	0	0	0	1.915055	24.0969	0	3	100	0	50	-1.03281	0.5226156	-15.00012	
14:35:42	0	0	0	2.066592	20.41484	0	3	100	0	50	-0.9795803	0.5890115	-11.66518	
14:35:43	0	0	0	2.066592	20.41484	0	3	100	0	50	-0.9857315	0.6532819	-7.192538	
14:35:43	0	0	0	2.066592	20.41484	0	3	100	0	50	-0.9567143	0.8219379	2.751661	
14:35:43	0	0	0	2.066592	20.41484	0	3	100	0	50	-0.977793	0.8809253	5.461548	
14:35:43	0	0	0	2.066592	20.41484	0	3	100	0	50	-0.9683039	0.8691743	5.989152	
14:35:43	0	0	0	1.885625	0.5571818	0	3	100	0	50	-0.9292712	0.8436855	6.357856	
14:35:44	0	0	0	1.885625	0.5571818	0	3	100	0	50	-0.9460429	0.8315235	7.573383	
14:35:44	0	0	0	1.885625	0.5571818	0	3	100	0	50	-0.9543453	0.8246834	8.683648	
14:35:44	0	0	0	1.885625	0.5571818	0	3	100	0	50	-0.9654422	0.8140154	9.699304	
14:35:44	0	0	0	1.885625	0.5571818	0	3	100	0	50	-0.956688	1.01273	1.329616	
14:35:44	0	0	0	1.584127	-10.38675	0	3	100	0	50	13.11204	4.323779	-18.18221	
14:35:45	0	0	0	1.584127	-10.38675	0	3	100	0	50	22.53296	6.315067	-30.39545	
14:35:45	0	0	0	1.584127	-10.38675	0	3	100	0	50	26.61222	7.63187	-35.10584	
14:35:45	0	0	0	1.584127	-10.38675	0	3	100	0	50	24.45896	-4.466234	-49.24245	
14:35:45	0	0	0	1.584127	-10.38675	0	3	100	0	50	21.10547	-15.05777	-66.21521	
14:35:45	0	0	0	1.344155	-27.83663	0	3	100	0	50	20.90866	-21.3332	-85.3572	
14:35:46	0	0	0	1.344155	-27.83663	0	3	100	0	50	12.98664	-23.33499	-100.6121	
14:35:46	0	0	0	1.344155	-27.83663	0	3	100	0	50	12.29912	-16.94407	-106.4369	
14:35:46	0	0	0	1.344155	-27.83663	0	3	100	0	50	10.12834	-12.94253	-107.369	
14:35:46	0	0	0	1.344155	-27.83663	0	3	100	0	50	13.11277	-8.991896	-112.7772	
14:35:46	0	0	0	1.234595	-27.08342	0	3	100	0	50	18.69728	-6.582152	-120.7198	
14:35:47	0	0	0	1.234595	-27.08342	0	3	100	0	50	18.68566	-5.054082	-124.8084	
14:35:47	0	0	0	1.234595	-27.08342	0	3	100	0	50	16.85551	-4.554815	-124.9466	
14:35:47	0	0	0	1.234595	-27.08342	0	3	100	0	50	8.774138	-3.448708	-121.4829	
14:35:47	0	0	0	1.234595	-27.08342	0	3	100	0	50	6.011539	-1.637487	-113.9389	
14:35:47	0	0	0	1.135576	-22.47388	0	3	100	0	50	-0.7758364	-0.1754355	-110.661	
14:35:48	0	0	0	1.135576	-22.47388	0	3	100	0	50	-21.80595	-5.367155	-112.5322	
14:35:48	0	0	0	1.135576	-22.47388	0	3	100	0	50	-25.86925	-5.594295	-110.8738	
14:35:48	0	0	0	1.135576	-22.47388	0	3	100	0	50	-22.35964	-4.123508	-109.5159	
14:35:48	0	0	0	1.135576	-22.47388	0	3	100	0	50	0.3418078	-0.271724	-108.4675	
14:35:48	0	0	0	1.305645	-2.587845	0	3	100	0	50	22.1426	1.810926	-108.0878	
14:35:49	0	0	0	1.305645	-2.587845	0	3	100	0	50	27.14976	1.83122	-108.0165	
14:35:49	0	0	0	1.305645	-2.587845	0	3	100	0	50	28.03929	1.623646	-107.7822	
14:35:49	0	0	0	1.305645	-2.587845	0	3	100	0	50	27.93925	1.534451	-107.5747	
14:35:49	0	0	0	1.305645	-2.587845	0	3	100	0	50	28.32473	1.427998	-107.3371	
14:35:49	0	0	0	1.470164	1.541219	0	3	100	0	50	27.59907	1.335087	-107.0354	
14:35:50	0	0	0	1.470164	1.541219	0	3	100	0	50	26.55546	1.244096	-106.8343	
14:35:50	0	0	0	1.470164	1.541219	0	3	100	0	50	22.13599	1.211304	-106.4817	
14:35:50	0	0	0	1.470164	1.541219	0	3	100	0	50	19.31184	1.089754	-106.0222	
14:35:50	0	0	0	1.470164	1.541219	0	3	100	0	50	11.65076	0.2814129	-106.2995	
14:35:50	0	0	0	1.394	-0.6691376	0	3	100	0	50	20.14607	0.8908097	-105.3851	
14:35:51	0	0	0	1.394	-0.6691376	0	3	100	0	50	40.85837	0.5924665	-104.3415	
14:35:51	0	0	0	1.394	-0.6691376	0	3	100	0	50	43.38918	0.1867745	-104.2955	
14:35:51	0	0	0	1.394	-0.6691376	0	3	100	0	50	18.13516	-1.08669	-106.9311	
14:35:51	0	0	0	1.394	-0.6691376	0	3	100	0	50	-21.69212	-8.016447	-112.7575	
14:35:51	0	0	0	1.617396	7.931237	0	3	100	0	50	-29.03325	-6.309528	-113.6164	
14:35:52	0	0	0	1.617396	7.931237	0	3	100	0	50	-15.50355	-6.368649	-111.6448	
14:35:52	0	0	0	1.617396	7.931237	0	3	100	0	50	14.24636	-2.044894	-109.6362	
14:35:52	0	0	0	1.617396	7.931237	0	3	100	0	50	17.09033	-1.457959	-108.4139	
14:35:52	0	0	0	1.617396	7.931237	0	3	100	0	50	-11.27872	-6.401627	-111.3729	
14:35:52	0	0	0	1.765636	10.39488	0	3	100	0	50	-19.3205	-6.346781	-111.5145	
14:35:53	0	0	0	1.765636	10.39488	0	3	100	0	50	-21.60406	-5.761183	-111.0603	
14:35:53	0	0	0	1.765636	10.39488	0	3	100	0	50	-21.90575	-5.18329	-110.085	
14:35:53	0	0	0	1.765636	10.39488	0	3	100	0	50	-10.38522	-0.6043059	-108.8776	
14:35:53	0	0	0	1.765636	10.39488	0	3	100	0	50	-5.836975	4.59184	-108.0714	
14:35:53	0	0	0	1.681797	1.70785	0	3	100	0	50	-5.192219	7.861095	-106.7509	
14:35:54	0	0	0	1.681797	1.70785	0	3	100	0	50	-5.173917	8.477267	-105.3495	
14:35:54	0	0	0	1.681797	1.70785	0	3	100	0	50	-5.406418	8.440416	-103.7449	
14:35:54	0	0	0	1.681797	1.70785	0	3	100	0	50	-5.775259	8.833366	-100.8329	
14:35:54	0	0	0	1.681797	1.70785	0	3	100	0	50	-5.842083	8.69355	-99.18959	
14:35:54	0	0	0	1.425348	-7.992591	0	3	100	0	50	-5.509509	3.794454	-100.387	
14:35:55	0	0	0	1.425348	-7.992591	0	3	100	0	50	-15.50408	-7.430662	-97.35899	
14:35:55	0	0	0	1.425348	-7.992591	0	3	100	0	50	-29.06963	2.994171	-85.74541	
14:35:55	0	0	0	1.425348	-7.992591	0	3	100	0	50	-22.49721	-1.727535	-78.35304	
14:35:55	0	0	0	1.425348	-7.992591	0	3	100	0	50	-4.888744	0.3882702	-77.79857	
14:35:55	0	0	0	1.520654	-1.139574	0	3	100	0	50	13.07656	0.7828497	-77.84412	
14:35:56	0	0	0	1.520654	-1.139574	0	3	100	0	50	-5.176814	-1.662673	-67.07708	
14:35:56	0	0	0	1.520654	-1.139574	0	3	100	0	50	-29.38894	0.8650781	-58.05259	
14:35:56	0	0	0	1.520654	-1.139574	0	3	100	0	50	-15.64183	0.60218	-58.17668	
14:35:56	0	0	0	1.520654	-1.139574	0	3	100	0	50	17.30107	3.034047	-55.02477	
14:35:56	0	0	0	1.536255	-5.185597	0	3	100	0	50	4.746135	0.1323532	-46.94699	
14:35:57	0	0	0	1.536255	-5.185597	0	3	100	0	50	-24.20267	-0.1596995	-36.29202	
14:35:57	0	0	0	1.536255	-5.185597	0	3	100	0	50	-33.7004	1.12265	-33.98423	
14:35:57	0	0	0	1.536255	-5.185597	0	3	100	0	50	-3.040614	5.109854	-31.00393	
14:35:57	0	0	0	1.536255	-5.185597	0	3	100	0	50	28.34266	4.349683	-23.7763	
14:35:57	0	0	0	1.664432	-6.172431	0	3	100	0	50	33.34286	-0.3636765	-19.23944	
14:35:58	0	0	0	1.664432	-6.172431	0	3	100	0	50	-9.34228	-4.816378	-5.938171	
14:35:58	0	0	0	1.664432	-6.172431	0	3	100	0	50	-32.14959	-2.901114	-3.416879	
14:35:58	0	0	0	1.664432	-6.172431	0	3	100	0	50	-10.68968	-0.8039853	-1.805765	
14:35:58	0	0	0	1.664432	-6.172431	0	3	100	0	50	18.572	1.475617	4.028398	
14:35:58	0	0	0	1.708435	-3.582108	0	3	100	0	50	27.82924	1.009092	7.336081	
14:35:59	0	0	0	1.708435	-3.582108	0	3	100	0	50	5.771899	-3.276717	14.34563	
14:35:59	0	0	0	1.708435	-3.582108	0	3	100	0	50	-11.09586	-4.653639	20.08096	
14:35:59	0	0	0	1.708435	-3.582108	0	3	100	0	50	-13.90735	-4.596315	22.14127	
14:35:59	0	0	0	1.708435	-3.582108	0	3	100	0	50	-12.9025	-4.16117	24.14312	
14:35:59	0	0	0	1.786193	2.147514	0	3	100	0	50	-12.5143	-3.896082	26.24274	
14:36:00	0	0	0	1.786193	2.147514	0	3	100	0	50	-11.72152	-3.6279	28.31782	
14:36:00	0	0	0	1.786193	2.147514	0	3	100	0	50	-11.03154	-3.311584	30.36585	
14:36:00	0	0	0	1.786193	2.147514	0	3	100	0	50	-10.85876	-3.076548	32.14458	
14:36:00	0	0	0	1.786193	2.147514	0	3	100	0	50	-10.99743	-2.776186	34.23176	
14:36:00	0	0	0	1.818226	5.327123	0	3	100	0	50	-10.98923	-2.529809	36.14195	
14:36:01	0	0	0	1.818226	5.327123	0	3	100	0	50	-10.52579	-2.221897	37.98018	
14:36:01	0	0	0	1.818226	5.327123	0	3	100	0	50	-5.312932	-0.9790096	38.86116	
14:36:01	0	0	0	1.818226	5.327123	0	3	100	0	50	7.149543	1.603123	40.50597	
14:36:01	0	0	0	1.818226	5.327123	0	3	100	0	50	-13.53187	-0.7189977	44.66945	
14:36:01	0	0	0	1.923969	10.3114	0	3	100	0	50	-19.82168	-0.86081	45.40848	
14:36:02	0	0	0	1.923969	10.3114	0	3	100	0	50	1.059555	2.169169	46.74488	
14:36:02	0	0	0	1.923969	10.3114	0	3	100	0	50	14.37105	4.298839	49.46099	
14:36:02	0	0	0	1.923969	10.3114	0	3	100	0	50	-2.979065	1.352801	53.92791	
14:36:02	0	0	0	1.923969	10.3114	0	3	100	0	50	-14.4268	-1.272425	54.13781	
14:36:02	0	0	0	1.927489	3.886198	0	3	100	0	50	-19.24515	-0.7516962	52.74524	
14:36:03	0	0	0	1.927489	3.886198	0	3	100	0	50	7.256975	2.992255	53.11515	
14:36:03	0	0	0	1.927489	3.886198	0	3	100	0	50	18.35747	2.878435	57.25565	
14:36:03	0	0	0	1.927489	3.886198	0	3	100	0	50	-3.974489	0.03259421	60.12431	
14:36:03	0	0	0	1.927489	3.886198	0	3	100	0	50	-16.43036	-1.260464	60.42953	
14:36:03	0	0	0	1.895767	1.673106	0	3	100	0	50	-8.436497	-0.339119	59.77168	
14:36:04	0	0	0	1.895767	1.673106	0	3	100	0	50	19.18708	2.74283	62.6045	
14:36:04	0	0	0	1.895767	1.673106	0	3	100	0	50	6.824007	0.3703567	65.84849	
14:36:04	0	0	0	1.895767	1.673106	0	3	100	0	50	-15.64884	-1.711688	66.281	
14:36:04	0	0	0	1.895767	1.673106	0	3	100	0	50	-4.049555	-0.4786069	64.44379	
14:36:04	0	0	0	1.656759	-12.24142	0	3	100	0	50	22.0675	3.127321	69.92699	
14:36:05	0	0	0	1.656759	-12.24142	0	3	100	0	50	8.344684	0.2664465	70.37833	
14:36:05	0	0	0	1.656759	-12.24142	0	3	100	0	50	-12.4247	-0.1574348	70.97141	
14:36:05	0	0	0	1.656759	-12.24142	0	3	100	0	50	-2.730064	0.4075697	69.54768	
14:36:05	0	0	0	1.656759	-12.24142	0	3	100	0	50	20.91152	3.683228	71.91592	
14:36:06	0	0	0	1.547505	-12.53298	0	3	100	0	50	1.566052	0.735832	74.16373	
14:36:06	0	0	0	1.547505	-12.53298	0	3	100	0	50	-10.25599	0.09513686	70.71258	
14:36:06	0	0	0	1.547505	-12.53298	0	3	100	0	50	-9.587365	-0.7017106	70.42669	
14:36:06	0	0	0	1.547505	-12.53298	0	3	100	0	50	19.11757	2.99577	72.69818	
14:36:06	0	0	0	1.547505	-12.53298	0	3	100	0	50	20.15061	1.211692	75.01222	
14:36:07	0	0	0	1.397425	-17.12072	0	3	100	0	50	23.22935	-0.09879544	76.0638	
14:36:07	0	0	0	1.397425	-17.12072	0	3	100	0	50	10.95638	-1.193496	77.54666	
14:36:07	0	0	0	1.397425	-17.12072	0	3	100	0	50	2.797064	-1.502726	76.78958	
14:36:07	0	0	0	1.397425	-17.12072	0	3	100	0	50	3.913176	-0.826022	77.8692	
14:36:07	0	0	0	1.397425	-17.12072	0	3	100	0	50	6.787401	17.94872	83.5612	
14:36:08	0	0	0	1.519972	-5.198178	0	3	100	0	50	0.1843902	27.65593	84.33595	
14:36:08	0	0	0	1.519972	-5.198178	0	3	100	0	50	-2.917665	19.88196	81.91915	
14:36:08	0	0	0	1.519972	-5.198178	0	3	100	0	50	-6.730441	8.68521	80.89111	
14:36:08	0	0	0	1.519972	-5.198178	0	3	100	0	50	-5.604933	-1.949296	74.00468	
14:36:08	0	0	0	1.519972	-5.198178	0	3	100	0	50	-5.603578	-6.94888	71.52191	
14:36:09	0	0	0	1.521644	-7.460957	0	3	100	0	50	-1.550738	-11.8314	71.28532	
14:36:09	0	0	0	1.521644	-7.460957	0	3	100	0	50	5.077526	-17.94453	70.13949	
14:36:09	0	0	0	1.521644	-7.460957	0	3	100	0	50	4.929348	-20.93556	71.31454	
14:36:09	0	0	0	1.521644	-7.460957	0	3	100	0	50	4.817702	-17.99016	74.2262	
14:36:09	0	0	0	1.521644	-7.460957	0	3	100	0	50	8.415631	5.157393	77.86671	
14:36:10	0	0	0	1.470285	-8.389027	0	3	100	0	50	4.497097	7.628572	80.3103	
14:36:10	0	0	0	1.470285	-8.389027	0	3	100	0	50	-6.239296	-6.119859	82.22918	
14:36:10	0	0	0	1.470285	-8.389027	0	3	100	0	50	4.537067	-17.30268	75.25362	
14:36:10	0	0	0	1.470285	-8.389027	0	3	100	0	50	11.04911	-24.44123	72.44881	
14:36:10	0	0	0	1.470285	-8.389027	0	3	100	0	50	8.800667	-26.94263	75.48791	
14:36:11	0	0	0	1.563315	-4.216671	0	3	100	0	50	7.156096	-28.00504	78.20445	
14:36:11	0	0	0	1.563315	-4.216671	0	3	100	0	50	-2.687558	-17.64965	87.30122	
14:36:11	0	0	0	1.563315	-4.216671	0	3	100	0	50	-14.05954	-0.2129793	94.47121	
14:36:11	0	0	0	1.563315	-4.216671	0	3	100	0	50	-25.16615	5.521337	93.49293	
14:36:11	0	0	0	1.563315	-4.216671	0	3	100	0	50	-15.60075	-1.708158	86.1091	
14:36:12	0	0	0	1.441427	-12.80714	0	3	100	0	50	33.58128	-8.90901	76.12278	
14:36:12	0	0	0	1.441427	-12.80714	0	3	100	0	50	22.74352	-9.834217	78.80398	
14:36:12	0	0	0	1.441427	-12.80714	0	3	100	0	50	-13.82973	-7.11201	85.06976	
14:36:12	0	0	0	1.441427	-12.80714	0	3	100	0	50	25.53749	-9.30906	79.03782	
14:36:12	0	0	0	1.441427	-12.80714	0	3	100	0	50	-3.510883	-8.553631	86.19579	
14:36:13	0	0	0	1.370634	-21.66545	0	3	100	0	50	26.97693	-9.091468	84.44467	
14:36:13	0	0	0	1.370634	-21.66545	0	3	100	0	50	-7.151792	-6.882096	88.99015	
14:36:13	0	0	0	1.370634	-21.66545	0	3	100	0	50	43.93668	-8.50638	85.9715	
14:36:13	0	0	0	1.370634	-21.66545	0	3	100	0	50	14.32601	-5.807389	87.8351	
14:36:13	0	0	0	1.370634	-21.66545	0	3	100	0	50	-11.98281	-4.761697	89.94084	
14:36:14	0	0	0	1.214005	-27.62652	0	3	100	0	50	35.65662	-4.906166	86.44581	
14:36:14	0	0	0	1.214005	-27.62652	0	3	100	0	50	40.33233	-6.740265	87.15443	
14:36:14	0	0	0	1.214005	-27.62652	0	3	100	0	50	-2.558982	-5.443805	94.94981	
14:36:14	0	0	0	1.214005	-27.62652	0	3	100	0	50	-16.84626	-7.931987	95.96053	
14:36:14	0	0	0	1.214005	-27.62652	0	3	100	0	50	10.53312	-8.884944	88.0579	
14:36:15	0	0	0	1.223054	-13.61741	0	3	100	0	50	28.87617	-7.627157	88.60887	
14:36:15	0	0	0	1.223054	-13.61741	0	3	100	0	50	-8.062266	-8.046187	98.04427	
14:36:15	0	0	0	1.223054	-13.61741	0	3	100	0	50	-24.4046	-8.02471	104.3459	
14:36:15	0	0	0	1.223054	-13.61741	0	3	100	0	50	-17.46877	-5.557064	100.9694	
14:36:15	0	0	0	1.223054	-13.61741	0	3	100	0	50	7.974713	0.2404079	85.43207	
14:36:16	0	0	0	1.017669	-18.52805	0	3	100	0	50	18.08498	1.568869	87.14047	
14:36:16	0	0	0	1.017669	-18.52805	0	3	100	0	50	-8.11587	-5.358286	92.94027	
14:36:16	0	0	0	1.017669	-18.52805	0	3	100	0	50	-7.138231	-12.81835	87.53572	
14:36:16	0	0	0	1.017669	-18.52805	0	3	100	0	50	-4.966457	-17.23254	87.97713	
14:36:16	0	0	0	1.017669	-18.52805	0	3	100	0	50	1.247884	-4.28301	91.33133	
14:36:17	0	0	0	1.232162	0.5038284	0	3	100	0	50	-4.282273	6.326715	97.3134	
14:36:17	0	0	0	1.232162	0.5038284	0	3	100	0	50	-6.436647	5.193405	94.30801	
14:36:17	0	0	0	1.232162	0.5038284	0	3	100	0	50	-17.656	2.887118	100.6818	
14:36:17	0	0	0	1.232162	0.5038284	0	3	100	0	50	-28.75959	6.094702	108.6729	
14:36:17	0	0	0	1.232162	0.5038284	0	3	100	0	50	-34.32168	11.73168	123.1549	
14:36:18	0	0	0	1.478981	14.68108	0	3	100	0	50	-34.86422	14.2104	135.8886	
14:36:18	0	0	0	1.478981	14.68108	0	3	100	0	50	-33.78787	17.21845	150.5935	
14:36:18	0	0	0	1.478981	14.68108	0	3	100	0	50	-30.7307	21.13808	165.7616	
14:36:18	0	0	0	1.478981	14.68108	0	3	100	0	50	-25.13317	22.54659	-179.6574	
14:36:18	0	0	0	1.478981	14.68108	0	3	100	0	50	-21.23668	23.64003	-170.3444	
14:36:19	0	0	0	1.982857	31.50965	0	3	100	0	50	-18.06021	24.01451	-161.1938	
14:36:19	0	0	0	1.982857	31.50965	0	3	100	0	50	-15.92413	24.32999	-153.5952	
14:36:19	0	0	0	1.982857	31.50965	0	3	100	0	50	-13.8071	24.01044	-148.547	
14:36:19	0	0	0	1.982857	31.50965	0	3	100	0	50	-12.99315	23.91585	-146.8113	
14:36:19	0	0	0	1.982857	31.50965	0	3	100	0	50	-12.03782	23.90878	-144.5937	
14:36:20	0	0	0	2.185527	29.22078	0	3	100	0	50	-11.16779	23.93485	-142.2744	
14:36:20	0	0	0	2.185527	29.22078	0	3	100	0	50	-10.58268	23.87836	-140.6043	
14:36:20	0	0	0	2.185527	29.22078	0	3	100	0	50	-9.663354	23.98057	-138.2274	
14:36:20	0	0	0	2.185527	29.22078	0	3	100	0	50	-8.77756	24.07256	-135.7617	
14:36:20	0	0	0	2.185527	29.22078	0	3	100	0	50	-7.992095	24.13742	-133.4178	
14:36:21	0	0	0	2.141237	13.62998	0	3	100	0	50	-7.317377	24.13569	-131.1606	
14:36:21	0	0	0	2.141237	13.62998	0	3	100	0	50	-6.448419	24.2049	-128.5187	
14:36:21	0	0	0	2.141237	13.62998	0	3	100	0	50	-5.670965	24.21591	-126.0375	
14:36:21	0	0	0	2.141237	13.62998	0	3	100	0	50	-4.9047	24.23288	-123.4672	
14:36:21	0	0	0	2.141237	13.62998	0	3	100	0	50	-4.200394	24.15892	-121.0045	
14:36:22	0	0	0	1.838786	-20.35364	0	3	100	0	50	-3.656437	24.08902	-118.7215	
14:36:22	0	0	0	1.838786	-20.35364	0	3	100	0	50	-2.884847	24.01433	-115.9731	
14:36:22	0	0	0	1.838786	-20.35364	0	3	100	0	50	-2.284357	23.91813	-113.4052	
14:36:22	0	0	0	1.838786	-20.35364	0	3	100	0	50	-1.639138	23.74168	-110.743	
14:36:22	0	0	0	1.838786	-20.35364	0	3	100	0	50	-0.9116105	23.62616	-107.8594	
14:36:23	0	0	0	1.36028	-58.49485	0	3	100	0	50	-0.1467109	23.50168	-104.8712	
14:36:23	0	0	0	1.36028	-58.49485	0	3	100	0	50	0.6435718	23.35692	-101.8351	
14:36:23	0	0	0	1.36028	-58.49485	0	3	100	0	50	1.378216	23.15518	-98.80599	
14:36:23	0	0	0	1.36028	-58.49485	0	3	100	0	50	1.960106	22.89536	-95.97949	
14:36:23	0	0	0	1.36028	-58.49485	0	3	100	0	50	2.626304	22.60471	-92.95122	
14:36:24	0	0	0	1.035923	-80.03795	0	3	100	0	50	3.128868	22.3076	-90.11721	
14:36:24	0	0	0	1.035923	-80.03795	0	3	100	0	50	3.519975	22.0004	-87.42482	
14:36:24	0	0	0	1.035923	-80.03795	0	3	100	0	50	3.983815	21.71857	-84.49953	
14:36:24	0	0	0	1.035923	-80.03795	0	3	100	0	50	4.411096	21.42356	-81.62874	
14:36:24	0	0	0	1.035923	-80.03795	0	3	100	0	50	4.758767	21.10829	-78.86458	
14:36:25	0	0	0	0.9938204	-86.12546	0	3	100	0	50	5.062964	20.74334	-76.15322	
14:36:25	0	0	0	0.9938204	-86.12546	0	3	100	0	50	5.368253	20.44165	-73.38457	
14:36:25	0	0	0	0.9938204	-86.12546	0	3	100	0	50	5.634773	20.117	-70.60976	
14:36:25	0	0	0	0.9938204	-86.12546	0	3	100	0	50	5.803706	19.77935	-67.53176	
14:36:25	0	0	0	0.9938204	-86.12546	0	3	100	0	50	5.993927	19.41215	-64.43315	
14:36:26	0	0	0	0.9042257	-91.79273	0	3	100	0	50	6.090698	19.07703	-61.38695	
14:36:26	0	0	0	0.9042257	-91.79273	0	3	100	0	50	6.252739	18.77915	-58.25553	
14:36:26	0	0	0	0.9042257	-91.79273	0	3	100	0	50	6.29115	18.50172	-55.42533	
14:36:26	0	0	0	0.9042257	-91.79273	0	3	100	0	50	6.264856	18.14214	-52.57842	
14:36:26	0	0	0	0.9042257	-91.79273	0	3	100	0	50	6.277124	17.82254	-49.71189	
14:36:27	0	0	0	0.7925832	-96.58057	0	3	100	0	50	6.122477	17.54937	-47.12371	
14:36:27	0	0	0	0.7925832	-96.58057	0	3	100	0	50	6.131434	17.28128	-44.25812	
14:36:27	0	0	0	0.7925832	-96.58057	0	3	100	0	50	5.990868	16.99882	-41.6745	
14:36:27	0	0	0	0.7925832	-96.58057	0	3	100	0	50	5.6323	16.74888	-39.39474	
14:36:27	0	0	0	0.7925832	-96.58057	0	3	100	0	50	4.9368	16.15048	-37.57109	
14:36:28	0	0	0	0.8420161	-82.78349	0	3	100	0	50	2.363551	16.44304	-46.49518	
14:36:28	0	0	0	0.8420161	-82.78349	0	3	100	0	50	-1.757687	22.11845	-63.27691	
14:36:28	0	0	0	0.8420161	-82.78349	0	3	100	0	50	-12.87066	24.12708	-88.74296	
14:36:28	0	0	0	0.8420161	-82.78349	0	3	100	0	50	-14.91286	21.04186	-102.5422	
14:36:28	0	0	0	0.8420161	-82.78349	0	3	100	0	50	-9.25795	19.23032	-110.0792	
14:36:29	0	0	0	1.202688	-69.50241	0	3	100	0	50	-2.054895	17.01349	-117.4596	
14:36:29	0	0	0	1.202688	-69.50241	0	3	100	0	50	0.6597255	17.93198	-123.245	
14:36:29	0	0	0	1.202688	-69.50241	0	3	100	0	50	1.110565	20.05138	-128.6134	
14:36:29	0	0	0	1.202688	-69.50241	0	3	100	0	50	5.069444	15.37581	-136.5107	
14:36:29	0	0	0	1.202688	-69.50241	0	3	100	0	50	8.467852	9.48795	-146.8342	
14:36:30	0	0	0	1.181592	-62.93604	0	3	100	0	50	7.615935	6.226334	-149.5466	
14:36:30	0	0	0	1.181592	-62.93604	0	3	100	0	50	9.882811	0.06243967	-146.8372	
14:36:30	0	0	0	1.181592	-62.93604	0	3	100	0	50	12.59844	3.894283	-141.3969	
14:36:30	0	0	0	1.181592	-62.93604	0	3	100	0	50	12.93845	6.491133	-148.7829	
14:36:30	0	0	0	1.181592	-62.93604	0	3	100	0	50	7.790745	9.419756	-157.9082	
14:36:31	0	0	0	1.243403	-42.96833	0	3	100	0	50	5.689729	15.21485	-155.4247	
14:36:31	0	0	0	1.243403	-42.96833	0	3	100	0	50	8.097418	12.70974	-160.1452	
14:36:31	0	0	0	1.243403	-42.96833	0	3	100	0	50	7.34661	13.79373	-164.9092	
14:36:31	0	0	0	1.243403	-42.96833	0	3	100	0	50	7.190335	13.70703	-171.6269	
14:36:32	0	0	0	1.243403	-42.96833	0	3	100	0	50	1.285502	6.087009	172.1002	
14:36:32	0	0	0	1.251375	-22.03477	0	3	100	0	50	4.141051	3.386302	172.6844	
14:36:32	0	0	0	1.251375	-22.03477	0	3	100	0	50	5.765192	1.750154	173.8667	
14:36:32	0	0	0	1.251375	-22.03477	0	3	100	0	50	6.038329	1.651027	172.8406	
14:36:32	0	0	0	1.251375	-22.03477	0	3	100	0	50	6.357919	1.528904	171.8334	
14:36:33	0	0	0	1.251375	-22.03477	0	3	100	0	50	6.653305	1.435018	170.7868	
14:36:33	0	0	0	1.450278	-1.017823	0	3	100	0	50	6.940601	1.346758	169.8506	
14:36:33	0	0	0	1.450278	-1.017823	0	3	100	0	50	7.207087	1.251328	168.9167	
14:36:33	0	0	0	1.450278	-1.017823	0	3	100	0	50	7.481266	1.16513	168.0599	
14:36:33	0	0	0	1.450278	-1.017823	0	3	100	0	50	7.727415	1.091837	167.0761	
14:36:34	0	0	0	1.450278	-1.017823	0	3	100	0	50	7.980844	1.040682	166.1012	
14:36:34	0	0	0	1.646682	11.35569	0	3	100	0	50	8.199192	0.9795873	165.1236	
14:36:34	0	0	0	1.646682	11.35569	0	3	100	0	50	8.395245	0.9172295	164.1369	
14:36:34	0	0	0	1.646682	11.35569	0	3	100	0	50	8.593884	0.8579748	163.1406	
14:36:34	0	0	0	1.646682	11.35569	0	3	100	0	50	8.784657	0.7832128	162.2466	
14:36:35	0	0	0	1.646682	11.35569	0	3	100	0	50	8.968911	0.715237	161.3405	
14:36:35	0	0	0	1.678937	11.39336	0	3	100	0	50	9.152989	0.6573881	160.423	
14:36:35	0	0	0	1.678937	11.39336	0	3	100	0	50	9.327233	0.6069602	159.5172	
14:36:35	0	0	0	1.678937	11.39336	0	3	100	0	50	9.493551	0.560459	158.6516	
14:36:35	0	0	0	1.678937	11.39336	0	3	100	0	50	9.655877	0.5095617	157.7894	
14:36:36	0	0	0	1.678937	11.39336	0	3	100	0	50	9.812097	0.4491048	156.9611	
14:36:36	0	0	0	1.667574	11.10577	0	3	100	0	50	9.953527	0.3899556	156.1569	
14:36:36	0	0	0	1.667574	11.10577	0	3	100	0	50	10.09175	0.3402374	155.3762	
14:36:36	0	0	0	1.667574	11.10577	0	3	100	0	50	10.2226	0.2860828	154.652	
14:36:36	0	0	0	1.667574	11.10577	0	3	100	0	50	10.35369	0.224835	153.9332	
14:36:37	0	0	0	1.667574	11.10577	0	3	100	0	50	10.48119	0.1762628	153.2066	
14:36:37	0	0	0	1.678819	11.85169	0	3	100	0	50	10.60859	0.1215931	152.5034	
14:36:37	0	0	0	1.678819	11.85169	0	3	100	0	50	10.72563	0.06601539	151.819	
14:36:37	0	0	0	1.678819	11.85169	0	3	100	0	50	10.83704	0.01731194	151.1245	
14:36:37	0	0	0	1.678819	11.85169	0	3	100	0	50	10.94782	-0.04991923	150.5423	
14:36:38	0	0	0	1.678819	11.85169	0	3	100	0	50	11.0467	-0.09732629	149.8904	
14:36:38	0	0	0	1.781554	18.39453	0	3	100	0	50	11.14647	-0.1382943	149.2656	
14:36:38	0	0	0	1.781554	18.39453	0	3	100	0	50	11.23978	-0.2105165	148.7165	
14:36:38	0	0	0	1.781554	18.39453	0	3	100	0	50	11.32423	-0.2644387	148.1584	
14:36:38	0	0	0	1.781554	18.39453	0	3	100	0	50	11.41251	-0.3389949	147.6834	
14:36:39	0	0	0	1.781554	18.39453	0	3	100	0	50	11.49345	-0.3994723	147.1328	
14:36:39	0	0	0	1.800021	18.52364	0	3	100	0	50	11.62012	-0.3982581	146.2263	
14:36:39	0	0	0	1.800021	18.52364	0	3	100	0	50	11.76395	-0.3830742	145.2646	
14:36:39	0	0	0	1.800021	18.52364	0	3	100	0	50	11.89627	-0.3713702	144.2983	
14:36:39	0	0	0	1.800021	18.52364	0	3	100	0	50	12.01622	-0.3635521	143.3978	
14:36:40	0	0	0	1.800021	18.52364	0	3	100	0	50	12.13267	-0.3536286	142.4897	
14:36:40	0	0	0	1.993885	25.6161	0	3	100	0	50	12.2518	-0.350838	141.6364	
14:36:40	0	0	0	1.993885	25.6161	0	3	100	0	50	12.3573	-0.3530605	140.7962	
14:36:40	0	0	0	1.993885	25.6161	0	3	100	0	50	12.46124	-0.3660832	140.0047	
14:36:40	0	0	0	1.993885	25.6161	0	3	100	0	50	12.57133	-0.3782941	139.2356	
14:36:41	0	0	0	1.993885	25.6161	0	3	100	0	50	12.66931	-0.3974477	138.4764	
14:36:41	0	0	0	2.073372	23.51327	0	3	100	0	50	12.76719	-0.4158679	137.7378	
14:36:41	0	0	0	2.073372	23.51327	0	3	100	0	50	12.86599	-0.4345784	136.9841	
14:36:41	0	0	0	2.073372	23.51327	0	3	100	0	50	12.95356	-0.4562152	136.2734	
14:36:41	0	0	0	2.073372	23.51327	0	3	100	0	50	13.04046	-0.4831666	135.5911	
14:36:42	0	0	0	2.073372	23.51327	0	3	100	0	50	13.12593	-0.5026321	134.9159	
14:36:42	0	0	0	1.931687	13.08066	0	3	100	0	50	13.20585	-0.5459741	134.3312	
14:36:42	0	0	0	1.931687	13.08066	0	3	100	0	50	13.2825	-0.5812752	133.7011	
14:36:42	0	0	0	1.931687	13.08066	0	3	100	0	50	13.34864	-0.6333711	133.144	
14:36:42	0	0	0	1.931687	13.08066	0	3	100	0	50	13.41947	-0.6845259	132.5603	
14:36:43	0	0	0	1.931687	13.08066	0	3	100	0	50	13.53796	-0.7460523	132.3766	
14:36:43	0	0	0	1.696773	4.207394	0	3	100	0	50	13.61341	-0.8652573	132.0602	
14:36:43	0	0	0	1.696773	4.207394	0	3	100	0	50	13.6909	-0.9414083	131.659	
14:36:43	0	0	0	1.696773	4.207394	0	3	100	0	50	13.73146	-1.01748	131.3101	
14:36:43	0	0	0	1.696773	4.207394	0	3	100	0	50	13.77425	-1.093904	130.9065	
14:36:44	0	0	0	1.696773	4.207394	0	3	100	0	50	13.8193	-1.142808	130.4418	
14:36:44	0	0	0	1.574767	5.704535	0	3	100	0	50	13.88914	-1.15705	129.7682	
14:36:44	0	0	0	1.574767	5.704535	0	3	100	0	50	13.98134	-1.158275	129.0463	
14:36:44	0	0	0	1.574767	5.704535	0	3	100	0	50	14.06385	-1.181781	128.4023	
14:36:44	0	0	0	1.574767	5.704535	0	3	100	0	50	14.14767	-1.180776	127.6902	
14:36:45	0	0	0	1.574767	5.704535	0	3	100	0	50	14.22294	-1.202616	127.0514	
14:36:45	0	0	0	1.587212	8.446163	0	3	100	0	50	14.29126	-1.210336	126.3782	
14:36:45	0	0	0	1.587212	8.446163	0	3	100	0	50	14.34964	-1.242595	125.8042	
14:36:45	0	0	0	1.587212	8.446163	0	3	100	0	50	14.4149	-1.26471	125.1974	
14:36:45	0	0	0	1.587212	8.446163	0	3	100	0	50	14.48213	-1.322416	124.7276	
14:36:46	0	0	0	1.587212	8.446163	0	3	100	0	50	14.55056	-1.369166	124.2165	
14:36:46	0	0	0	1.703775	16.3442	0	3	100	0	50	14.60383	-1.407114	123.6982	
14:36:46	0	0	0	1.703775	16.3442	0	3	100	0	50	14.66227	-1.442219	123.1579	
14:36:46	0	0	0	1.703775	16.3442	0	3	100	0	50	14.71399	-1.491778	122.6544	
14:36:46	0	0	0	1.703775	16.3442	0	3	100	0	50	14.76441	-1.557354	122.2628	
14:36:47	0	0	0	1.703775	16.3442	0	3	100	0	50	14.81785	-1.653642	121.9578	
14:36:47	0	0	0	1.972587	24.70434	0	3	100	0	50	14.86448	-1.695675	121.4835	
14:36:47	0	0	0	1.972587	24.70434	0	3	100	0	50	14.91319	-1.737433	121.032	
14:36:47	0	0	0	1.972587	24.70434	0	3	100	0	50	14.95462	-1.789053	120.6457	
14:36:47	0	0	0	1.972587	24.70434	0	3	100	0	50	15.02031	-1.898723	120.3466	
14:36:48	0	0	0	1.972587	24.70434	0	3	100	0	50	15.07683	-2.054585	120.3218	
14:36:48	0	0	0	2.133833	30.24367	0	3	100	0	50	15.1294	-2.180984	120.1677	
14:36:48	0	0	0	2.133833	30.24367	0	3	100	0	50	15.17167	-2.224645	119.7706	
14:36:48	0	0	0	2.133833	30.24367	0	3	100	0	50	15.2046	-2.266462	119.3891	
14:36:48	0	0	0	2.133833	30.24367	0	3	100	0	50	15.24679	-2.318157	119.0446	
14:36:49	0	0	0	2.133833	30.24367	0	3	100	0	50	15.28029	-2.359459	118.682	
14:36:49	0	0	0	2.003737	13.56037	0	3	100	0	50	15.3283	-2.383059	118.2259	
14:36:49	0	0	0	2.003737	13.56037	0	3	100	0	50	15.37963	-2.400294	117.7296	
14:36:49	0	0	0	2.003737	13.56037	0	3	100	0	50	15.42582	-2.419273	117.2694	
14:36:49	0	0	0	2.003737	13.56037	0	3	100	0	50	15.47422	-2.438452	116.8137	
14:36:50	0	0	0	2.003737	13.56037	0	3	100	0	50	15.5179	-2.464091	116.37	
14:36:50	0	0	0	1.636183	-4.719224	0	3	100	0	50	15.56196	-2.48919	115.9269	
14:36:50	0	0	0	1.636183	-4.719224	0	3	100	0	50	15.6081	-2.522025	115.5395	
14:36:50	0	0	0	1.636183	-4.719224	0	3	100	0	50	15.64267	-2.548956	115.1402	
14:36:50	0	0	0	1.636183	-4.719224	0	3	100	0	50	15.6818	-2.583454	114.7485	
14:36:51	0	0	0	1.636183	-4.719224	0	3	100	0	50	15.71826	-2.626103	114.383	
14:36:51	0	0	0	1.42406	-10.38149	0	3	100	0	50	15.74822	-2.668441	114.0486	
14:36:51	0	0	0	1.42406	-10.38149	0	3	100	0	50	15.77544	-2.718017	113.7405	
14:36:51	0	0	0	1.42406	-10.38149	0	3	100	0	50	15.80165	-2.761789	113.4311	
14:36:51	0	0	0	1.42406	-10.38149	0	3	100	0	50	15.8332	-2.802622	113.0943	
14:36:52	0	0	0	1.42406	-10.38149	0	3	100	0	50	15.85629	-2.845608	112.7924	
14:36:52	0	0	0	1.733921	11.43783	0	3	100	0	50	15.88025	-2.908138	112.5431	
14:36:52	0	0	0	1.733921	11.43783	0	3	100	0	50	15.89819	-2.958606	112.2532	
14:36:52	0	0	0	1.733921	11.43783	0	3	100	0	50	15.9184	-3.01105	111.9877	
14:36:52	0	0	0	1.733921	11.43783	0	3	100	0	50	15.93756	-3.088402	111.8182	
14:36:53	0	0	0	1.733921	11.43783	0	3	100	0	50	15.95563	-3.138014	111.5508	
14:36:53	0	0	0	1.987721	17.80332	0	3	100	0	50	15.97404	-3.194151	111.3254	
14:36:53	0	0	0	1.987721	17.80332	0	3	100	0	50	15.99418	-3.240509	111.0819	
14:36:53	0	0	0	1.987721	17.80332	0	3	100	0	50	16.01281	-3.302631	110.8701	
14:36:53	0	0	0	1.987721	17.80332	0	3	100	0	50	16.02785	-3.352397	110.6452	
14:36:54	0	0	0	1.987721	17.80332	0	3	100	0	50	16.04112	-3.411088	110.4553	
14:36:54	0	0	0	1.907373	9.089216	0	3	100	0	50	16.055	-3.455807	110.2283	
14:36:54	0	0	0	1.907373	9.089216	0	3	100	0	50	16.07513	-3.494141	109.9559	
14:36:54	0	0	0	1.907373	9.089216	0	3	100	0	50	16.09936	-3.525131	109.6751	
14:36:55	0	0	0	1.907373	9.089216	0	3	100	0	50	16.11373	-3.574624	109.465	
14:36:55	0	0	0	1.907373	9.089216	0	3	100	0	50	16.13576	-3.610693	109.2271	
14:36:55	0	0	0	1.908309	7.837999	0	3	100	0	50	16.14774	-3.645367	108.9912	
14:36:55	0	0	0	1.908309	7.837999	0	3	100	0	50	16.16037	-3.677094	108.7321	
14:36:55	0	0	0	1.908309	7.837999	0	3	100	0	50	16.18335	-3.700302	108.4596	
14:36:56	0	0	0	1.908309	7.837999	0	3	100	0	50	16.18824	-3.744213	108.2776	
14:36:56	0	0	0	1.908309	7.837999	0	3	100	0	50	16.20014	-3.804786	108.1461	
14:36:56	0	0	0	1.824971	4.036778	0	3	100	0	50	16.20911	-3.854599	107.9834	
14:36:56	0	0	0	1.824971	4.036778	0	3	100	0	50	16.21929	-3.892322	107.7897	
14:36:56	0	0	0	1.824971	4.036778	0	3	100	0	50	16.22295	-3.939306	107.6264	
14:36:57	0	0	0	1.824971	4.036778	0	3	100	0	50	16.23801	-3.976472	107.4448	
14:36:57	0	0	0	1.824971	4.036778	0	3	100	0	50	16.24123	-4.022287	107.2928	
14:36:57	0	0	0	1.856649	4.784386	0	3	100	0	50	16.25265	-4.0627	107.1189	
14:36:57	0	0	0	1.856649	4.784386	0	3	100	0	50	16.25974	-4.115203	106.9948	
14:36:57	0	0	0	1.856649	4.784386	0	3	100	0	50	16.2746	-4.150822	106.8317	
14:36:58	0	0	0	1.856649	4.784386	0	3	100	0	50	16.29092	-4.182619	106.6526	
14:36:58	0	0	0	1.856649	4.784386	0	3	100	0	50	16.29045	-4.221686	106.5103	
14:36:58	0	0	0	1.985039	11.58635	0	3	100	0	50	16.2868	-4.281083	106.4469	
14:36:58	0	0	0	1.985039	11.58635	0	3	100	0	50	16.29532	-4.322209	106.3093	
14:36:58	0	0	0	1.985039	11.58635	0	3	100	0	50	16.29548	-4.362599	106.2082	
14:36:59	0	0	0	1.985039	11.58635	0	3	100	0	50	16.298	-4.412943	106.1199	
14:36:59	0	0	0	1.985039	11.58635	0	3	100	0	50	16.29549	-4.471134	106.053	
14:36:59	0	0	0	2.068097	10.79875	0	3	100	0	50	16.30013	-4.51287	105.9371	
14:36:59	0	0	0	2.068097	10.79875	0	3	100	0	50	16.29855	-4.56853	105.9026	
14:36:59	0	0	0	2.068097	10.79875	0	3	100	0	50	16.3051	-4.61521	105.8737	
14:37:00	0	0	0	2.068097	10.79875	0	3	100	0	50	16.30836	-4.640802	105.7654	
14:37:00	0	0	0	2.068097	10.79875	0	3	100	0	50	16.31715	-4.669406	105.6647	
14:37:00	0	0	0	2.002775	4.499697	0	3	100	0	50	16.32271	-4.699888	105.5638	
14:37:00	0	0	0	2.002775	4.499697	0	3	100	0	50	16.33383	-4.720709	105.4466	
14:37:00	0	0	0	2.002775	4.499697	0	3	100	0	50	16.33912	-4.745446	105.331	
14:37:01	0	0	0	2.002775	4.499697	0	3	100	0	50	16.34279	-4.755313	105.223	
14:37:01	0	0	0	2.002775	4.499697	0	3	100	0	50	16.34504	-4.783645	105.1399	
14:37:01	0	0	0	1.85815	-1.261748	0	3	100	0	50	16.34423	-4.820167	105.1108	
14:37:01	0	0	0	1.85815	-1.261748	0	3	100	0	50	16.35313	-4.905101	105.253	
14:37:01	0	0	0	1.85815	-1.261748	0	3	100	0	50	16.36453	-4.926733	105.1404	
14:37:02	0	0	0	1.85815	-1.261748	0	3	100	0	50	16.3538	-4.949963	105.0684	
14:37:02	0	0	0	1.85815	-1.261748	0	3	100	0	50	16.34782	-4.983081	105.0204	
14:37:02	0	0	0	1.725932	-2.80317	0	3	100	0	50	16.34273	-5.018343	104.9832	
14:37:02	0	0	0	1.725932	-2.80317	0	3	100	0	50	16.33833	-5.047788	104.9358	
14:37:02	0	0	0	1.725932	-2.80317	0	3	100	0	50	16.34368	-5.079774	104.8976	
14:37:03	0	0	0	1.725932	-2.80317	0	3	100	0	50	16.34604	-5.102533	104.8388	
14:37:03	0	0	0	1.725932	-2.80317	0	3	100	0	50	16.3501	-5.123494	104.7711	
14:37:03	0	0	0	1.621867	-7.357139	0	3	100	0	50	16.35157	-5.143569	104.7189	
14:37:03	0	0	0	1.621867	-7.357139	0	3	100	0	50	16.35062	-5.173224	104.6858	
14:37:03	0	0	0	1.621867	-7.357139	0	3	100	0	50	16.35155	-5.202073	104.6632	
14:37:04	0	0	0	1.621867	-7.357139	0	3	100	0	50	16.35304	-5.217932	104.5918	
14:37:04	0	0	0	1.621867	-7.357139	0	3	100	0	50	16.34878	-5.237108	104.5485	
14:37:04	0	0	0	1.57369	-7.725107	0	3	100	0	50	16.35565	-5.25395	104.495	
14:37:04	0	0	0	1.57369	-7.725107	0	3	100	0	50	16.36187	-5.265551	104.4557	
14:37:04	0	0	0	1.57369	-7.725107	0	3	100	0	50	16.35384	-5.278647	104.4487	
14:37:05	0	0	0	1.57369	-7.725107	0	3	100	0	50	16.35598	-5.279444	104.4012	
14:37:05	0	0	0	1.57369	-7.725107	0	3	100	0	50	16.35198	-5.278712	104.3545	
14:37:05	0	0	0	1.696728	0.5135139	0	3	100	0	50	16.35463	-5.276269	104.2923	
14:37:05	0	0	0	1.696728	0.5135139	0	3	100	0	50	16.3546	-5.281755	104.2709	
14:37:05	0	0	0	1.696728	0.5135139	0	3	100	0	50	16.35477	-5.284981	104.2246	
14:37:06	0	0	0	1.696728	0.5135139	0	3	100	0	50	16.35348	-5.288209	104.2029	
14:37:06	0	0	0	1.696728	0.5135139	0	3	100	0	50	16.35879	-5.294364	104.1606	
14:37:06	0	0	0	1.718666	2.002608	0	3	100	0	50	16.36216	-5.299587	104.1451	
14:37:06	0	0	0	1.718666	2.002608	0	3	100	0	50	16.34573	-5.353545	104.2895	
14:37:06	0	0	0	1.718666	2.002608	0	3	100	0	50	16.34193	-5.372228	104.3233	
14:37:07	0	0	0	1.718666	2.002608	0	3	100	0	50	16.34146	-5.380059	104.3038	
14:37:07	0	0	0	1.718666	2.002608	0	3	100	0	50	16.34351	-5.376831	104.257	
14:37:07	0	0	0	1.793329	3.536091	0	3	100	0	50	16.33465	-5.390012	104.2579	
14:37:07	0	0	0	1.793329	3.536091	0	3	100	0	50	16.34459	-5.377264	104.1968	
14:37:07	0	0	0	1.793329	3.536091	0	3	100	0	50	16.34724	-5.373405	104.1639	
14:37:08	0	0	0	1.793329	3.536091	0	3	100	0	50	16.34043	-5.366321	104.1184	
14:37:08	0	0	0	1.793329	3.536091	0	3	100	0	50	16.34022	-5.363039	104.0751	
14:37:08	0	0	0	1.65958	-2.368568	0	3	100	0	50	16.33637	-5.370385	104.0801	
14:37:08	0	0	0	1.65958	-2.368568	0	3	100	0	50	16.33329	-5.389428	104.0788	
14:37:08	0	0	0	1.65958	-2.368568	0	3	100	0	50	16.32431	-5.405164	104.0866	
14:37:09	0	0	0	1.65958	-2.368568	0	3	100	0	50	16.31304	-5.420382	104.0963	
14:37:09	0	0	0	1.65958	-2.368568	0	3	100	0	50	16.31248	-5.430938	104.0911	
14:37:09	0	0	0	1.59611	-4.872309	0	3	100	0	50	16.31491	-5.425539	104.0362	
14:37:09	0	0	0	1.59611	-4.872309	0	3	100	0	50	16.3107	-5.43205	104.0286	
14:37:09	0	0	0	1.59611	-4.872309	0	3	100	0	50	16.31654	-5.441172	104.1014	
14:37:10	0	0	0	1.59611	-4.872309	0	3	100	0	50	16.32533	-5.431016	104.0937	
14:37:10	0	0	0	1.59611	-4.872309	0	3	100	0	50	16.32305	-5.422927	104.1015	
14:37:10	0	0	0	1.645565	-1.287602	0	3	100	0	50	16.33082	-5.397727	104.0799	
14:37:10	0	0	0	1.645565	-1.287602	0	3	100	0	50	16.32682	-5.379823	104.0518	
14:37:10	0	0	0	1.645565	-1.287602	0	3	100	0	50	16.32873	-5.379257	104.0459	
14:37:11	0	0	0	1.645565	-1.287602	0	3	100	0	50	16.32981	-5.374347	104.054	
14:37:11	0	0	0	1.645565	-1.287602	0	3	100	0	50	16.33269	-5.373761	104.0758	
14:37:11	0	0	0	1.824152	5.755938	0	3	100	0	50	16.32734	-5.356809	104.0527	
14:37:11	0	0	0	1.824152	5.755938	0	3	100	0	50	16.33109	-5.34062	104.0381	
14:37:11	0	0	0	1.824152	5.755938	0	3	100	0	50	16.33009	-5.334751	104.0573	
14:37:12	0	0	0	1.824152	5.755938	0	3	100	0	50	16.32714	-5.333773	104.0867	
14:37:12	0	0	0	1.824152	5.755938	0	3	100	0	50	16.32529	-5.322704	104.0936	
14:37:12	0	0	0	1.969191	10.26765	0	3	100	0	50	16.33194	-5.305601	104.0576	
14:37:12	0	0	0	1.969191	10.26765	0	3	100	0	50	16.33671	-5.294878	104.0325	
14:37:12	0	0	0	1.969191	10.26765	0	3	100	0	50	16.33928	-5.284353	104.0293	
14:37:13	0	0	0	1.969191	10.26765	0	3	100	0	50	16.34586	-5.264906	103.9848	
14:37:13	0	0	0	1.969191	10.26765	0	3	100	0	50	16.34132	-5.264211	104.0041	
14:37:13	0	0	0	2.082464	10.14039	0	3	100	0	50	16.33563	-5.26364	104.0258	
14:37:13	0	0	0	2.082464	10.14039	0	3	100	0	50	16.33483	-5.268134	104.0476	
14:37:13	0	0	0	2.082464	10.14039	0	3	100	0	50	16.34224	-5.284834	104.094	
14:37:14	0	0	0	2.082464	10.14039	0	3	100	0	50	16.34626	-5.279284	104.0923	
14:37:14	0	0	0	2.082464	10.14039	0	3	100	0	50	16.34229	-5.269743	104.0772	
14:37:14	0	0	0	1.823537	-7.312081	0	3	100	0	50	16.34394	-5.258727	104.0423	
14:37:14	0	0	0	1.823537	-7.312081	0	3	100	0	50	16.34729	-5.251148	104.034	
14:37:15	0	0	0	1.823537	-7.312081	0	3	100	0	50	16.35164	-5.239308	104.0634	
14:37:15	0	0	0	1.823537	-7.312081	0	3	100	0	50	16.35212	-5.219533	104.0654	
14:37:15	0	0	0	1.823537	-7.312081	0	3	100	0	50	16.35492	-5.186873	104.0461	
14:37:15	0	0	0	1.832208	-5.449595	0	3	100	0	50	16.35716	-5.16084	104.0299	
14:37:15	0	0	0	1.832208	-5.449595	0	3	100	0	50	16.36092	-5.14184	104.0209	
