Date	Latitude(deg) 	Longitude(deg)	hamsl(m)	hafl(m)	climbrate(cm/s)	GroundSpeed(m/s)	Airspeed(m/s)	Mav_Link(%)	Rssi_Link(%)	Throttle	Roll(deg)	Pitch(deg)	Yaw(deg)
12:31:06	52.95295	-1.183166	58.341	0	0	0.33	0	94	0	0	0	0	0	
12:31:06	52.95295	-1.183166	57.67	0	0	0.93	0	94	0	0	-0.8955989	1.091747	32.16916	
12:31:06	52.95301	-1.183183	41.302	0	0	1.13	0	95	0	0	-1.362723	0.7590942	32.1641	
12:31:06	52.95301	-1.183183	40.591	0	0	0.52	0	95	0	0	-1.500744	0.6165037	32.13995	
12:31:06	52.95302	-1.183184	39.907	-0.4245231	-31.81507	1.51	3	96	0	50	-1.504887	0.5883923	32.13843	
12:31:06	52.95302	-1.183184	39.623	-0.4245231	-31.81507	1.12	3	96	0	50	-1.500892	0.5955305	32.11691	
12:31:06	52.95302	-1.183184	39.386	-0.4245231	-31.81507	0.81	3	96	0	50	-1.48895	0.5898992	32.07325	
12:31:06	52.95302	-1.183184	39.521	-0.4245231	-31.81507	0.77	3	97	0	50	-1.465684	0.5786787	32.06339	
12:31:07	52.95302	-1.183184	39.62	-0.4245231	-31.81507	0.33	3	97	0	50	-1.444117	0.5704398	32.03365	
12:31:07	52.95303	-1.183184	39.468	0.05149987	19.64046	0.42	3	97	0	50	-1.424631	0.5682788	32.01545	
12:31:07	52.95303	-1.183183	39.295	0.05149987	19.64046	1.16	3	97	0	50	-1.424409	0.5252801	32.00151	
12:31:07	52.95303	-1.183183	38.832	0.05149987	19.64046	1.38	3	97	0	50	-1.414173	0.5225313	31.97248	
12:31:07	52.95303	-1.183184	38.38	0.05149987	19.64046	0.38	3	97	0	50	-1.398468	0.5282473	31.93833	
12:31:07	52.95303	-1.183185	37.986	0.05149987	19.64046	0.35	3	97	0	50	-1.377955	0.5301672	31.94468	
12:31:07	52.95303	-1.183185	37.603	0.236677	33.62478	0.76	3	98	0	50	-1.377978	0.5184529	31.90957	
12:31:07	52.95303	-1.183184	37.744	0.236677	33.62478	0.53	3	98	0	50	-1.36974	0.5102445	31.86931	
12:31:07	52.95303	-1.183184	37.918	0.236677	33.62478	1.16	3	98	0	50	-1.351357	0.5297076	31.856	
12:31:07	52.95304	-1.183185	37.568	0.236677	33.62478	1.51	3	98	0	50	-1.340584	0.5311337	31.81975	
12:31:07	52.95304	-1.183185	37.595	0.236677	33.62478	0.87	3	98	0	50	-1.328078	0.5325637	31.81792	
12:31:07	52.95304	-1.183185	37.397	0.3297881	39.35168	0.35	3	98	0	50	-1.326649	0.5323818	31.81007	
12:31:07	52.95304	-1.183186	37.222	0.3297881	39.35168	0.36	3	98	0	50	-1.31518	0.5212823	31.80268	
12:31:07	52.95304	-1.183186	36.95	0.3297881	39.35168	0.32	3	98	0	50	-1.190118	0.5484948	30.00671	
12:31:08	52.95304	-1.183185	36.506	0.3297881	39.35168	0.48	3	98	0	50	-1.208104	0.544021	31.36321	
12:31:08	52.95304	-1.183185	36.042	0.3297881	39.35168	0.09	3	98	0	50	-1.197916	0.5465606	31.33424	
12:31:08	52.95304	-1.183185	36.062	0.2107477	31.18586	1.04	3	98	0	50	-1.18268	0.539742	31.36719	
12:31:08	52.95304	-1.183184	36.173	0.2107477	31.18586	0.65	3	98	0	50	-1.162098	0.54294	31.393	
12:31:08	52.95304	-1.183184	36.192	0.2107477	31.18586	0.66	3	98	0	50	-1.148029	0.542961	31.42422	
12:31:09	52.95304	-1.183183	36.136	0.2107477	31.18586	0.35	3	98	0	50	-1.141753	0.556667	31.42248	
12:31:09	52.95304	-1.183183	36.138	0.2107477	31.18586	1.18	3	98	0	50	-1.126646	0.5607782	31.42082	
12:31:09	52.95305	-1.183182	36.081	0.1774183	30.06059	0.51	3	98	0	50	-1.112602	0.5492833	31.43472	
12:31:09	52.95304	-1.183183	36.194	0.1774183	30.06059	0.71	3	98	0	50	-1.099687	0.5322845	31.45116	
12:31:09	52.95304	-1.183184	36.309	0.1774183	30.06059	0.47	3	98	0	50	-1.094726	0.531563	31.44572	
12:31:10	52.95305	-1.183185	35.91	0.1774183	30.06059	0.68	3	99	0	50	-1.079779	0.5441563	31.44795	
12:31:10	52.95305	-1.183187	34.696	0.1774183	30.06059	0.39	3	99	0	50	-1.059171	0.5506976	31.44894	
12:31:10	52.95305	-1.183189	34.597	0.248351	34.34719	0.51	3	99	0	50	-1.045761	0.5537156	31.45692	
12:31:10	52.95305	-1.183189	34.597	0.248351	34.34719	1.09	3	99	0	50	-1.037094	0.5395104	31.46628	
12:31:10	52.95305	-1.183189	34.996	0.248351	34.34719	0.38	3	99	0	50	-1.018603	0.5528977	31.46262	
12:31:11	52.95305	-1.183188	35.442	0.248351	34.34719	1.52	3	99	0	50	-1.004489	0.5542402	31.46597	
12:31:11	52.95305	-1.183189	35.735	0.248351	34.34719	0.14	3	99	0	50	-0.9893597	0.5695421	31.46938	
12:31:11	52.95305	-1.183189	36.038	0.2218669	31.68105	0.97	3	99	0	50	-0.9566923	0.6039146	31.50151	
12:31:11	52.95305	-1.18319	36.397	0.2218669	31.68105	1.03	3	99	0	50	-0.9406019	0.5863739	31.53162	
12:31:11	52.95305	-1.183191	36.531	0.2218669	31.68105	0.51	3	99	0	50	-0.9198431	0.5859668	31.57844	
12:31:12	52.95305	-1.183191	36.738	0.2218669	31.68105	1.43	3	99	0	50	-0.9014765	0.5960702	31.61075	
12:31:12	52.95305	-1.183192	36.675	0.2218669	31.68105	1.4	3	99	0	50	-0.8983117	0.5912467	31.61877	
12:31:12	52.95306	-1.183192	35.969	0.07956888	22.80756	0.89	3	99	0	50	-0.895422	0.5782906	31.61846	
12:31:12	52.95306	-1.183193	36.275	0.07956888	22.80756	0.85	3	99	0	50	-0.8803356	0.5794142	31.6549	
12:31:12	52.95306	-1.183195	36.329	0.07956888	22.80756	0.24	3	99	0	50	-0.8654178	0.58146	31.68442	
12:31:13	52.95306	-1.183196	35.76	0.07956888	22.80756	1.25	3	99	0	50	-0.8478852	0.5947205	31.69639	
12:31:13	52.95306	-1.183197	35.734	0.07956888	22.80756	1.09	3	99	0	50	-0.828596	0.5912358	31.73533	
12:31:13	52.95306	-1.183197	35.948	0.1016403	24.60171	0.45	3	99	0	50	-0.8111264	0.5900769	31.75979	
12:31:13	52.95306	-1.183199	37.645	0.1016403	24.60171	0.48	3	99	0	50	-0.79498	0.5765799	31.76437	
12:31:14	52.95306	-1.183199	37.645	0.1016403	24.60171	1.07	3	99	0	50	-0.7804255	0.577942	31.76615	
12:31:14	52.95306	-1.1832	37.77	0.1016403	24.60171	0.32	3	99	0	50	-0.7756127	0.5957568	31.77784	
12:31:14	52.95306	-1.183201	37.606	0.1016403	24.60171	0.24	3	99	0	50	-0.7792158	0.5967048	31.81374	
12:31:14	52.95306	-1.183202	38.83	0.2090432	28.89	1.01	3	99	0	50	-0.7679356	0.615019	31.84406	
12:31:14	52.95306	-1.183203	39.229	0.2090432	28.89	1	3	99	0	50	-0.7697043	0.6155201	31.86233	
12:31:14	52.95306	-1.183203	39.367	0.2090432	28.89	0.09	3	99	0	50	-0.7438707	0.623444	31.88902	
12:31:15	52.95306	-1.183204	39.766	0.2090432	28.89	0.68	3	99	0	50	-0.7280783	0.6254653	31.93619	
12:31:15	52.95305	-1.183205	40.581	0.2090432	28.89	0.7	3	99	0	50	-0.7182578	0.6287606	31.91867	
12:31:15	52.95305	-1.183205	40.439	0.6066993	42.91092	0.79	3	99	0	50	-0.7113456	0.640542	31.92929	
12:31:15	52.95305	-1.183206	41.803	0.6066993	42.91092	0.39	3	99	0	50	-1.244331	0.09771923	31.95063	
12:31:15	52.95305	-1.183208	42.405	0.6066993	42.91092	0.39	3	99	0	50	-1.488453	-0.1211575	31.94463	
12:31:16	52.95305	-1.183209	42.901	0.6066993	42.91092	0.96	3	99	0	50	-0.9172684	0.430382	31.95625	
12:31:16	52.95304	-1.183209	44.289	0.6066993	42.91092	0.31	3	99	0	50	-0.7846921	0.2699206	31.9846	
12:31:16	52.95304	-1.183209	45.955	0.5969301	31.83647	0.76	3	99	0	50	-0.649118	0.5049027	32.02231	
12:31:16	52.95303	-1.18321	46.208	0.5969301	31.83647	0.96	3	99	0	50	-0.8111406	1.017318	32.0348	
12:31:16	52.95303	-1.183212	46.882	0.5969301	31.83647	0.28	3	99	0	50	-1.262178	0.5576477	32.02142	
12:31:17	52.95303	-1.183213	47.67	0.5969301	31.83647	0.61	3	99	0	50	-1.137744	0.6565143	32.01292	
12:31:17	52.95303	-1.183213	48.629	0.5969301	31.83647	0.94	3	99	0	50	-0.6579429	0.9207352	32.03072	
12:31:17	52.95303	-1.183215	48.975	0.8960866	39.49183	0.25	3	99	0	50	-1.115535	0.1150128	32.03635	
12:31:17	52.95303	-1.183215	48.643	0.8960866	39.49183	0.25	3	99	0	50	-1.019506	0.1130778	32.02321	
12:31:17	52.95303	-1.183215	49.505	0.8960866	39.49183	0.72	3	99	0	50	-0.7250013	0.4932031	32.06821	
12:31:18	52.95303	-1.183216	49.608	0.8960866	39.49183	1.16	3	99	0	50	-0.6508786	1.172673	32.11806	
12:31:18	52.95302	-1.183217	50.023	0.8960866	39.49183	0.56	3	99	0	50	-0.2541183	1.503353	32.12049	
12:31:18	52.95302	-1.183217	50.55	0.8358122	28.81095	1.16	3	99	0	50	-0.7871907	1.112542	32.08469	
12:31:18	52.95302	-1.183218	50.017	0.8358122	28.81095	0.22	3	99	0	50	-0.520485	1.282785	32.04988	
12:31:18	52.95302	-1.183218	50.174	0.8358122	28.81095	0.58	3	99	0	50	-0.8896692	0.5168114	32.04152	
12:31:19	52.95302	-1.183217	50.358	0.8358122	28.81095	0.09	3	99	0	50	-0.7085221	0.1343176	32.07291	
12:31:19	52.95302	-1.183218	50.323	0.8358122	28.81095	0.66	3	99	0	50	-1.547808	0.138225	32.10256	
12:31:19	52.95302	-1.183219	50.633	0.8005588	21.02974	0.68	3	99	0	50	-2.044508	-0.1729905	32.08234	
12:31:19	52.95303	-1.18322	50.97	0.8005588	21.02974	0.89	3	99	0	50	-2.321186	0.07011659	32.0266	
12:31:19	52.95303	-1.18322	51.457	0.8005588	21.02974	0.14	3	99	0	50	-2.306371	-0.1605263	31.92476	
12:31:20	52.95303	-1.18322	50.762	0.8005588	21.02974	0.28	3	99	0	50	-1.714463	0.3136477	31.87703	
12:31:20	52.95303	-1.18322	51.244	0.8005588	21.02974	0.28	3	99	0	50	-1.49518	0.2859482	31.86768	
12:31:20	52.95303	-1.183219	51.093	0.6341453	11.4904	0.48	3	99	0	50	-1.400594	0.2926945	31.87572	
12:31:20	52.95303	-1.183219	50.814	0.6341453	11.4904	0.95	3	99	0	50	-1.137352	0.1985507	31.8727	
12:31:21	52.95303	-1.183219	51.032	0.6341453	11.4904	0.14	3	99	0	50	-0.919485	1.599932	31.87488	
12:31:21	52.95303	-1.183219	51.264	0.6341453	11.4904	0.22	3	99	0	50	-1.155902	1.074143	31.86965	
12:31:21	52.95303	-1.183219	51.369	0.6341453	11.4904	0.53	3	99	0	50	-1.128991	0.8017681	31.87565	
12:31:21	52.95303	-1.18322	51.419	0.2239992	-6.532641	0.14	3	99	0	50	-1.499095	0.3282258	31.83994	
12:31:21	52.95303	-1.18322	51.567	0.2239992	-6.532641	0.56	3	99	0	50	-1.415778	0.6745409	31.79641	
12:31:22	52.95303	-1.183222	51.425	0.2239992	-6.532641	0.21	3	99	0	50	-1.800332	0.5189629	31.73723	
12:31:22	52.95303	-1.183222	51.62	0.2239992	-6.532641	0.04	3	99	0	50	-1.395891	0.9865099	31.65902	
12:31:22	52.95303	-1.183223	51.026	0.2239992	-6.532641	0.29	3	99	0	50	-1.250841	0.8693501	31.62021	
12:31:22	52.95303	-1.183224	50.646	0.1276192	-3.651566	0.25	3	99	0	50	-0.8846468	1.050181	31.6146	
12:31:22	52.95303	-1.183225	50.952	0.1276192	-3.651566	0.53	3	99	0	50	-1.243869	0.5137062	31.5939	
12:31:23	52.95304	-1.183225	50.914	0.1276192	-3.651566	2.07	3	99	0	50	-1.607609	0.3750198	31.58444	
12:31:23	52.95304	-1.183225	50.577	0.1276192	-3.651566	1.55	3	99	0	50	-1.974737	-1.37855	31.58968	
12:31:23	52.95305	-1.183226	50.323	0.1276192	-3.651566	1.48	3	99	0	50	-2.039629	-0.8489612	31.6048	
12:31:23	52.95305	-1.183227	50.201	0.2479768	7.82161	0.82	3	99	0	50	-2.044648	-0.6346844	31.60707	
12:31:23	52.95305	-1.183228	49.922	0.2479768	7.82161	1.11	3	99	0	50	-1.530751	-0.1039256	31.5833	
12:31:24	52.95305	-1.183228	49.626	0.2479768	7.82161	1.25	3	99	0	50	-1.561409	-0.4149006	31.56711	
12:31:24	52.95306	-1.183229	49.828	0.2479768	7.82161	1.1	3	99	0	50	-1.666235	-0.5421836	31.59004	
12:31:24	52.95306	-1.18323	49.737	0.2479768	7.82161	0.19	3	99	0	50	-1.992172	0.03956321	31.62177	
12:31:24	52.95306	-1.183231	50.083	0.2524304	7.907453	0.72	3	99	0	50	-1.025826	0.506487	31.58403	
12:31:24	52.95305	-1.183232	50.754	0.2524304	7.907453	1.09	3	99	0	50	-1.36382	1.500235	31.60144	
12:31:25	52.95305	-1.183233	51.408	0.2524304	7.907453	0.87	3	99	0	50	-0.854733	1.807021	31.58998	
12:31:25	52.95305	-1.183234	52.111	0.2524304	7.907453	1	3	99	0	50	-1.022604	1.533745	31.54856	
12:31:25	52.95305	-1.183234	52.577	0.2524304	7.907453	0.85	3	99	0	50	-0.8411685	1.584271	31.53483	
12:31:25	52.95305	-1.183235	52.757	0.09049772	2.209108	0.48	3	99	0	50	-0.5193873	1.155387	31.55333	
12:31:25	52.95305	-1.183237	53.345	0.09049772	2.209108	0.45	3	99	0	50	-1.549876	0.9445912	31.5617	
12:31:26	52.95305	-1.183238	53.199	0.09049772	2.209108	1.54	3	99	0	50	-1.826277	0.3930578	31.52846	
12:31:26	52.95305	-1.183239	53.266	0.09049772	2.209108	0.69	3	99	0	50	-2.15353	-0.9454437	31.5106	
12:31:26	52.95306	-1.18324	53.096	0.09049772	2.209108	0.29	3	99	0	50	-1.472992	-0.260091	31.48339	
12:31:26	52.95306	-1.183241	53.149	0.1849317	9.840444	0.39	3	99	0	50	-1.391885	0.9224581	31.48914	
12:31:26	52.95306	-1.183242	53.485	0.1849317	9.840444	0.39	3	99	0	50	-1.715853	0.4900537	31.45722	
12:31:27	52.95306	-1.183243	53.75	0.1849317	9.840444	0.04	3	99	0	50	-1.398911	1.056983	31.4553	
12:31:27	52.95306	-1.183244	54.167	0.1849317	9.840444	0.97	3	99	0	50	-1.367281	0.5767108	31.41959	
12:31:27	52.95306	-1.183245	54.384	0.1849317	9.840444	0.18	3	99	0	50	-1.83411	-0.1595588	31.44173	
12:31:27	52.95306	-1.183246	54.32	0.2152384	10.40607	0.55	3	99	0	50	-1.323835	0.458377	31.4329	
12:31:27	52.95306	-1.183246	54.528	0.2152384	10.40607	1.07	3	99	0	50	-0.9187693	1.152821	31.42446	
12:31:28	52.95306	-1.183247	55.027	0.2152384	10.40607	0.16	3	99	0	50	-0.4987158	1.472637	31.42933	
12:31:28	52.95306	-1.183248	55.364	0.2152384	10.40607	0.25	3	99	0	50	-1.112412	0.8362122	31.45185	
12:31:28	52.95306	-1.183249	55.193	0.2152384	10.40607	0.11	3	99	0	50	-1.187899	0.8769702	31.45842	
12:31:28	52.95306	-1.183251	54.911	0.0363877	1.866034	0.26	3	99	0	50	-1.207119	0.5245149	31.44341	
12:31:28	52.95306	-1.183252	54.55	0.0363877	1.866034	0.47	3	99	0	50	-1.103417	0.2747084	31.46932	
12:31:29	52.95306	-1.183253	54.248	0.0363877	1.866034	0.13	3	99	0	50	-0.9044513	0.1452368	31.50148	
12:31:29	52.95306	-1.183254	54.197	0.0363877	1.866034	0.36	3	99	0	50	-0.8785118	0.7858856	31.5232	
12:31:29	52.95306	-1.183254	54.286	0.0363877	1.866034	0.51	3	99	0	50	-0.9010676	0.9359893	31.53069	
12:31:29	52.95306	-1.183254	54.545	-0.008887978	3.069862	0.14	3	99	0	50	-1.020443	0.3409504	31.55641	
12:31:29	52.95306	-1.183255	54.818	-0.008887978	3.069862	0.26	3	99	0	50	-0.8280786	0.7163747	31.58042	
12:31:30	52.95306	-1.183257	55.162	-0.008887978	3.069862	0.45	3	99	0	50	-0.9649832	1.064093	31.57563	
12:31:30	52.95306	-1.183258	54.924	-0.008887978	3.069862	0.18	3	99	0	50	-1.233043	1.106435	31.57656	
12:31:30	52.95307	-1.183259	54.973	-0.008887978	3.069862	1.16	3	99	0	50	-1.043388	0.7278928	31.58354	
12:31:30	52.95307	-1.183261	54.732	0.2320894	15.96556	0.19	3	99	0	50	-1.56387	0.05771137	31.60181	
12:31:30	52.95307	-1.183262	54.297	0.2320894	15.96556	0.66	3	99	0	50	-0.9032116	0.8716836	31.64749	
12:31:31	52.95307	-1.183263	53.915	0.2320894	15.96556	0.17	3	99	0	50	-0.4627158	1.445545	31.67068	
12:31:31	52.95307	-1.183264	53.807	0.2320894	15.96556	0.7	3	99	0	50	-0.8737339	0.9785988	31.69444	
12:31:31	52.95307	-1.183264	53.78	0.2320894	15.96556	0.07	3	99	0	50	-1.129639	0.4552903	31.6992	
12:31:31	52.95307	-1.183264	54.031	0.103469	7.136565	0.22	3	99	0	50	-0.7399782	0.9803123	31.69535	
12:31:31	52.95307	-1.183264	54.287	0.103469	7.136565	0.51	3	99	0	50	-0.6682212	0.7773885	31.68969	
12:31:32	52.95307	-1.183265	54.078	0.103469	7.136565	0.25	3	99	0	50	-1.081348	0.4596802	31.71476	
12:31:32	52.95307	-1.183265	54.078	0.103469	7.136565	0.19	3	99	0	50	-0.9346706	0.7018121	31.72098	
12:31:32	52.95307	-1.183267	53.981	0.103469	7.136565	0.72	3	99	0	50	-0.9883937	1.143836	31.72315	
12:31:32	52.95307	-1.183268	53.86	0.0005230695	2.523762	0.14	3	99	0	50	-0.8729106	1.675737	31.69153	
12:31:32	52.95307	-1.183268	54.418	0.0005230695	2.523762	1.17	3	99	0	50	-0.5849051	1.503038	31.68113	
12:31:33	52.95307	-1.183269	54.687	0.0005230695	2.523762	0.16	3	99	0	50	-0.4939556	1.792944	31.6933	
12:31:33	52.95307	-1.183269	54.491	0.0005230695	2.523762	0.31	3	99	0	50	-0.5965008	0.8567425	31.69003	
12:31:33	52.95307	-1.183269	54.567	0.0005230695	2.523762	0.59	3	99	0	50	-0.4811725	0.9985611	31.73959	
12:31:33	52.95307	-1.183269	55.149	-0.1663246	-2.624897	1.71	3	99	0	50	-0.3205455	1.544161	31.79755	
12:31:33	52.95307	-1.183269	55.566	-0.1663246	-2.624897	1.04	3	99	0	50	-0.1353921	1.90318	31.81686	
12:31:34	52.95307	-1.183269	55.879	-0.1663246	-2.624897	0.22	3	99	0	50	-0.6391913	1.200467	31.82428	
12:31:34	52.95307	-1.183269	56.293	-0.1663246	-2.624897	0.03	3	99	0	50	-0.8984647	0.5320209	31.8535	
12:31:34	52.95307	-1.183269	55.942	-0.1663246	-2.624897	1.06	3	99	0	50	-0.7845556	0.6912201	31.86317	
12:31:34	52.95306	-1.183269	56.092	-0.1527443	1.954512	0.38	3	99	0	50	-0.3823285	1.129789	31.88277	
12:31:34	52.95306	-1.18327	56.135	-0.1527443	1.954512	0.77	3	99	0	50	-0.8603247	0.9212576	31.91048	
12:31:35	52.95306	-1.183271	56.287	-0.1527443	1.954512	0.35	3	99	0	50	-1.023328	1.01488	31.92072	
12:31:35	52.95306	-1.183272	55.899	-0.1527443	1.954512	0.26	3	99	0	50	-1.15362	0.3328229	31.90363	
12:31:35	52.95306	-1.183273	55.389	-0.1527443	1.954512	0.26	3	99	0	50	-1.070088	-0.09977165	31.90724	
12:31:35	52.95307	-1.183273	55.136	-0.03402456	9.947346	0.39	3	99	0	50	-1.129467	-0.1314947	31.92246	
12:31:35	52.95307	-1.183273	54.659	-0.03402456	9.947346	0.39	3	99	0	50	-0.7896695	-0.2139415	31.91449	
12:31:36	52.95307	-1.183273	54.469	-0.03402456	9.947346	0.7	3	99	0	50	-0.8388743	-0.2383881	31.94741	
12:31:36	52.95307	-1.183274	54.365	-0.03402456	9.947346	0.53	3	99	0	50	-1.108122	-0.09040646	31.99231	
12:31:36	52.95307	-1.183275	54.259	-0.03402456	9.947346	0.41	3	99	0	50	-1.006924	0.2479261	32.02162	
12:31:36	52.95307	-1.183275	53.936	0.02684649	9.602397	0.85	3	99	0	50	-1.125457	0.03655206	32.01867	
12:31:36	52.95306	-1.183277	53.393	0.02684649	9.602397	1.74	3	99	0	50	-0.5805825	0.952973	32.03398	
12:31:37	52.95306	-1.183277	53.073	0.02684649	9.602397	0.48	3	99	0	50	-0.5278609	1.063068	32.05177	
12:31:37	52.95306	-1.183277	53.073	0.02684649	9.602397	0.37	3	99	0	50	-0.7305693	0.3436804	32.06706	
12:31:37	52.95306	-1.183279	53.299	0.02684649	9.602397	0.52	3	99	0	50	-1.096407	0.01573593	32.09139	
12:31:37	52.95306	-1.183279	53.299	-0.1008336	1.902829	0.97	3	99	0	50	-1.741749	-0.2699677	32.10809	
12:31:37	52.95306	-1.18328	53.446	-0.1008336	1.902829	0.89	3	99	0	50	-1.543903	0.2460371	32.09924	
12:31:38	52.95306	-1.183281	53.489	-0.1008336	1.902829	0.25	3	99	0	50	-1.210909	0.1915635	32.1064	
12:31:38	52.95306	-1.183281	53.38	-0.1008336	1.902829	1.09	3	99	0	50	-0.9966991	0.03931727	32.11039	
12:31:38	52.95306	-1.183281	53.275	-0.1008336	1.902829	1.42	3	99	0	50	-0.7804233	0.8528957	32.14235	
12:31:38	52.95306	-1.183281	53.31	-0.3730257	-9.138494	0.42	3	99	0	50	-0.9862784	0.7266023	32.12668	
12:31:38	52.95306	-1.183281	53.613	-0.3730257	-9.138494	0.35	3	99	0	50	-1.111602	-0.09303185	32.1134	
12:31:39	52.95306	-1.18328	53.902	-0.3730257	-9.138494	0.58	3	99	0	50	-1.380243	-0.5125827	32.15182	
12:31:39	52.95306	-1.18328	54.22	-0.3730257	-9.138494	0.26	3	99	0	50	-1.510998	-0.1904835	32.17892	
12:31:39	52.95306	-1.18328	54.68	-0.3730257	-9.138494	0.26	3	99	0	50	-1.426573	0.02704657	32.19249	
12:31:39	52.95306	-1.18328	54.635	-0.3441138	-3.144042	0.34	3	99	0	50	-1.264624	-0.2520285	32.17375	
12:31:39	52.95306	-1.18328	54.593	-0.3441138	-3.144042	0.61	3	99	0	50	-0.9645382	0.1874719	32.17038	
12:31:40	52.95306	-1.18328	54.598	-0.3441138	-3.144042	0.39	3	99	0	50	-1.119141	0.2154423	32.1867	
12:31:40	52.95306	-1.18328	54.829	-0.3441138	-3.144042	1.04	3	99	0	50	-1.580653	-0.5068948	32.21268	
12:31:40	52.95306	-1.18328	55.031	-0.3441138	-3.144042	1.14	3	99	0	50	-1.812637	-0.7854827	32.21148	
12:31:40	52.95306	-1.18328	55.11	-0.1751872	6.482444	0.58	3	99	0	50	-1.466656	-0.1591948	32.19189	
12:31:40	52.95306	-1.183279	55.751	-0.1751872	6.482444	1.59	3	99	0	50	-0.6954666	0.8283619	32.17097	
12:31:41	52.95305	-1.183279	56.423	-0.1751872	6.482444	1.96	3	99	0	50	-0.3825457	1.438245	32.1829	
12:31:41	52.95305	-1.183279	56.879	-0.1751872	6.482444	0.48	3	99	0	50	-0.7942835	0.7534404	32.18831	
12:31:41	52.95305	-1.183279	57.318	-0.1751872	6.482444	0.09	3	99	0	50	-1.313468	-0.09549781	32.20823	
12:31:41	52.95305	-1.183279	57.705	0.01083061	12.92677	0.17	3	99	0	50	-1.444412	-0.110092	32.21113	
12:31:41	52.95305	-1.183279	57.923	0.01083061	12.92677	1.03	3	99	0	50	-1.707404	-0.8177636	32.19073	
12:31:42	52.95306	-1.183278	58.028	0.01083061	12.92677	1.76	3	99	0	50	-2.145441	-1.743287	32.20817	
12:31:42	52.95306	-1.183278	58.332	0.01083061	12.92677	2.09	3	99	0	50	-2.330814	-2.192499	32.22783	
12:31:42	52.95306	-1.183277	58.641	0.01083061	12.92677	1.28	3	99	0	50	-2.121086	-1.851125	32.23235	
12:31:42	52.95306	-1.183277	59.178	-0.2619378	-4.525769	0.04	3	99	0	50	-1.662682	-0.8933333	32.24524	
12:31:42	52.95306	-1.183277	59.569	-0.2619378	-4.525769	0.77	3	99	0	50	-1.279511	0.02497777	32.25125	
12:31:43	52.95306	-1.183277	59.658	-0.2619378	-4.525769	0.36	3	99	0	50	-1.095098	-0.2476028	32.2393	
12:31:43	52.95306	-1.183277	59.952	-0.2619378	-4.525769	0.39	3	99	0	50	-1.351746	-0.9571707	32.29419	
12:31:43	52.95306	-1.183276	60.153	-0.2619378	-4.525769	0.45	3	99	0	50	-1.225013	-0.9422267	32.34248	
12:31:43	52.95306	-1.183275	60.439	-0.6673447	-19.42747	0.58	3	99	0	50	-1.161168	-0.3581817	32.39191	
12:31:43	52.95306	-1.183276	60.808	-0.6673447	-19.42747	0.29	3	99	0	50	-1.520129	-0.4186594	32.4026	
12:31:44	52.95306	-1.183276	61.259	-0.6673447	-19.42747	1.44	3	99	0	50	-1.798459	-1.62275	32.40041	
12:31:44	52.95306	-1.183276	61.6	-0.6673447	-19.42747	0.01	3	99	0	50	-1.624591	-1.548165	32.45818	
12:31:44	52.95306	-1.183275	62.038	-0.6673447	-19.42747	0.29	3	99	0	50	-1.354277	-1.395977	32.51642	
12:31:44	52.95306	-1.183275	62.078	-0.7074219	-13.94815	0.57	3	99	0	50	-1.039783	-0.9151014	32.55231	
12:31:44	52.95306	-1.183275	61.923	-0.7074219	-13.94815	0.38	3	99	0	50	-1.452741	-1.10647	32.59393	
12:31:45	52.95306	-1.183277	61.767	-0.7074219	-13.94815	1.06	3	99	0	50	-2.235016	-1.610958	32.63817	
12:31:45	52.95306	-1.183278	61.664	-0.7074219	-13.94815	0.68	3	99	0	50	-2.249093	-1.423988	32.59253	
12:31:45	52.95306	-1.183279	61.727	-0.7074219	-13.94815	0.52	3	99	0	50	-1.932589	-1.307023	32.57281	
12:31:45	52.95306	-1.18328	61.85	-0.6640634	-4.948443	0.51	3	99	0	50	-1.814963	-1.195074	32.59254	
12:31:45	52.95306	-1.183281	62.052	-0.6640634	-4.948443	0.7	3	99	0	50	-1.831581	-1.26957	32.60237	
12:31:46	52.95306	-1.183281	62.369	-0.6640634	-4.948443	0.58	3	99	0	50	-1.738166	-1.216034	32.58345	
12:31:46	52.95307	-1.183282	62.586	-0.6640634	-4.948443	1.35	3	99	0	50	-2.044099	-1.57054	32.5645	
12:31:46	52.95307	-1.183283	62.79	-0.6640634	-4.948443	1.1	3	99	0	50	-1.838144	-1.674689	32.53348	
12:31:46	52.95307	-1.183285	62.819	-0.539749	1.117534	0.85	3	99	0	50	-1.594779	-1.283074	32.53392	
12:31:46	52.95307	-1.183286	63	-0.539749	1.117534	0.48	3	99	0	50	-1.666048	-1.139059	32.55625	
12:31:47	52.95307	-1.183287	63.279	-0.539749	1.117534	0.16	3	99	0	50	-1.261957	-0.228955	32.56828	
12:31:47	52.95307	-1.183288	63.544	-0.539749	1.117534	0.17	3	99	0	50	-1.079236	-0.2760926	32.57081	
12:31:47	52.95307	-1.183288	63.823	-0.539749	1.117534	0.44	3	99	0	50	-1.143311	-0.545699	32.59367	
12:31:47	52.95307	-1.183288	63.812	-0.5071867	2.398964	0.19	3	99	0	50	-0.8351478	-0.8638542	32.6391	
12:31:48	52.95307	-1.183289	63.791	-0.5071867	2.398964	0.9	3	99	0	50	-1.105078	-0.6380464	32.71494	
12:31:48	52.95307	-1.18329	64.036	-0.5071867	2.398964	0.39	3	99	0	50	-1.623925	-1.236093	32.73161	
12:31:48	52.95307	-1.183291	64.324	-0.5071867	2.398964	0.37	3	99	0	50	-1.582404	-0.940348	32.73822	
12:31:48	52.95307	-1.183291	64.601	-0.5071867	2.398964	0.84	3	99	0	50	-1.289518	-1.09704	33.12078	
12:31:48	52.95308	-1.183291	64.878	-0.5525621	4.276447	0.71	3	99	0	50	-7.27752	-1.741667	35.40805	
12:31:49	52.95307	-1.183292	64.914	-0.5525621	4.276447	1.39	3	99	0	50	-1.353861	-0.9160678	37.17373	
12:31:49	52.95307	-1.183292	65.016	-0.5525621	4.276447	1.99	3	99	0	50	15.55534	-0.3557545	38.46384	
12:31:49	52.95306	-1.183292	65.193	-0.5525621	4.276447	2.59	3	99	0	50	19.60719	-0.3059515	38.8086	
12:31:49	52.95306	-1.183292	65.659	-0.5525621	4.276447	3.48	3	99	0	50	7.883234	2.17875	36.96489	
12:31:49	52.95305	-1.183294	65.84	-0.3803603	34.21386	3	3.601737	99	0	50	1.840958	2.920563	38.11351	
12:31:50	52.95305	-1.183294	66.271	-0.3803603	34.21386	1.78	3.601737	99	0	50	1.615595	2.315601	39.32276	
12:31:50	52.95305	-1.183295	66.682	-0.3803603	34.21386	1.33	3.601737	99	0	50	0.8629417	1.539363	39.34963	
12:31:50	52.95305	-1.183295	66.971	-0.3803603	34.21386	0.61	3.601737	99	0	50	-0.2490089	1.163405	39.2547	
12:31:50	52.95305	-1.183295	67.245	-0.3803603	34.21386	0.06	3.601737	99	0	50	-0.2391011	0.1792071	39.17732	
12:31:50	52.95305	-1.183295	67.638	0.09835782	41.15913	0.96	3	99	0	50	-0.9819748	-0.1030175	39.11738	
12:31:51	52.95306	-1.183295	67.815	0.09835782	41.15913	1.77	3	99	0	50	-1.717035	-1.036857	39.03185	
12:31:51	52.95306	-1.183295	67.935	0.09835782	41.15913	0.81	3	99	0	50	-2.178928	-1.935363	38.95473	
12:31:51	52.95306	-1.183295	68.235	0.09835782	41.15913	0.22	3	99	0	50	-1.548518	-1.202232	38.8715	
12:31:51	52.95306	-1.183297	68.397	0.09835782	41.15913	0.52	3	99	0	50	-1.202339	-0.2312251	38.80213	
12:31:51	52.95306	-1.183297	68.431	0.2438499	30.50915	0.61	3	99	0	50	-1.019278	0.1920056	38.7044	
12:31:52	52.95306	-1.183297	68.57	0.2438499	30.50915	1.65	3	99	0	50	-1.00287	-0.9479323	38.63893	
12:31:52	52.95306	-1.183297	68.473	0.2438499	30.50915	1.09	3	99	0	50	-0.2273198	0.4298186	38.6058	
12:31:52	52.95305	-1.183297	68.501	0.2438499	30.50915	1.82	3	99	0	50	-0.4115621	-0.2992896	38.6046	
12:31:52	52.95305	-1.183298	68.385	0.2438499	30.50915	2.09	3	99	0	50	0.01412432	0.4693784	38.60844	
12:31:52	52.95305	-1.183298	68.718	0.1702889	14.99448	1.57	3	99	0	50	-0.03844864	0.9659116	38.59657	
12:31:53	52.95305	-1.183299	68.754	0.1702889	14.99448	0.62	3	99	0	50	-0.3937691	0.5133939	38.57174	
12:31:53	52.95304	-1.183299	69.131	0.1702889	14.99448	0.66	3	99	0	50	-0.8629915	-0.327392	38.50816	
12:31:53	52.95304	-1.183299	69.168	0.1702889	14.99448	0.57	3	99	0	50	-0.8655907	-0.3008222	38.47652	
12:31:53	52.95304	-1.1833	69.297	0.1702889	14.99448	0.56	3	99	0	50	-0.9363546	-0.3193806	38.43486	
12:31:53	52.95304	-1.1833	69.782	0.1975435	9.828738	1.5	3	99	0	50	-0.878985	-0.2469845	38.40395	
12:31:54	52.95304	-1.1833	69.926	0.1975435	9.828738	2.45	3	99	0	50	-0.3387184	0.402395	38.37201	
12:31:54	52.95303	-1.183301	70.139	0.1975435	9.828738	2.52	3	99	0	50	-0.07931078	1.486279	38.33247	
12:31:54	52.95303	-1.183303	69.887	0.1975435	9.828738	1.84	3	99	0	50	0.1441282	1.347272	38.27856	
12:31:55	52.95303	-1.183303	69.787	0.1975435	9.828738	1.58	3	99	0	50	-0.2336449	0.7045176	38.21476	
12:31:55	52.95303	-1.183303	69.673	0.2068586	6.188362	1.24	3	99	0	50	-0.3182477	0.2378026	38.19489	
12:31:55	52.95302	-1.183303	70.112	0.2068586	6.188362	2.37	3	99	0	50	-0.532348	-0.1399986	38.16851	
12:31:55	52.95302	-1.183303	70.106	0.2068586	6.188362	1.74	3	99	0	50	-0.1529465	0.5229157	38.14686	
12:31:55	52.95301	-1.183303	70.391	0.2068586	6.188362	2.74	3	99	0	50	-0.5902843	0.1725971	38.13962	
12:31:55	52.95301	-1.183304	70.627	0.2068586	6.188362	2.33	3	99	0	50	-0.1585342	0.9593697	38.11894	
12:31:56	52.953	-1.183305	70.784	0.2967015	7.742014	2.83	3	99	0	50	-0.416025	0.6592143	38.08549	
12:31:56	52.953	-1.183306	70.704	0.2967015	7.742014	2.06	3	99	0	50	-0.389886	0.8978693	38.06967	
12:31:56	52.953	-1.183306	70.52	0.2967015	7.742014	1.16	3	99	0	50	-0.4098851	-0.344531	38.00753	
12:31:56	52.953	-1.183306	70.337	0.2967015	7.742014	1.5	3	99	0	50	-1.04805	-0.8976997	38.00143	
12:31:56	52.953	-1.183308	70.065	0.2967015	7.742014	0.76	3	99	0	50	-1.254547	-0.470033	37.98673	
12:31:56	52.95299	-1.183308	70.101	0.2008259	-0.4951762	0.94	3	99	0	50	-1.54246	-0.9315535	37.94677	
12:31:57	52.95299	-1.183308	69.895	0.2008259	-0.4951762	0.58	3	99	0	50	-1.336668	-0.9141519	37.89173	
12:31:57	52.95299	-1.183308	69.802	0.2008259	-0.4951762	0.74	3	99	0	50	-1.355175	-1.30108	37.88754	
12:31:57	52.95299	-1.183308	69.915	0.2008259	-0.4951762	0.72	3	99	0	50	-1.195746	-1.256505	37.89244	
12:31:57	52.95299	-1.183308	70.156	0.2008259	-0.4951762	1.06	3	99	0	50	-1.289708	-0.8966641	37.89974	
12:31:57	52.95299	-1.183308	70.204	0.1199322	-4.487375	1.31	3	99	0	50	-1.249224	-0.3491669	37.8657	
12:31:58	52.95299	-1.18331	70.047	0.1199322	-4.487375	0.78	3	99	0	50	-1.286377	-0.3161215	37.84144	
12:31:58	52.95299	-1.18331	70.093	0.1199322	-4.487375	0.47	3	99	0	50	-1.556599	-0.8736459	37.80032	
12:31:58	52.95299	-1.183309	70.278	0.1199322	-4.487375	0.37	3	99	0	50	-1.576222	-1.173116	37.78241	
12:31:58	52.95299	-1.183309	70.165	0.1199322	-4.487375	0.74	3	99	0	50	-1.517517	-1.128133	37.7501	
12:31:58	52.95298	-1.183308	70.337	0.06704514	-7.433115	1.01	3	99	0	50	-1.194008	-0.8656083	37.71636	
12:31:59	52.95298	-1.183308	70.546	0.06704514	-7.433115	0.82	3	99	0	50	-1.060699	-0.765067	37.71433	
12:31:59	52.95298	-1.183306	70.93	0.06704514	-7.433115	0.75	3	99	0	50	-1.123346	-0.9631512	37.69909	
12:31:59	52.95298	-1.183306	70.886	0.06704514	-7.433115	0.22	3	99	0	50	-1.342339	-1.178925	37.68114	
12:31:59	52.95298	-1.183305	70.981	0.06704514	-7.433115	0.52	3	99	0	50	-1.872512	-1.56991	37.66946	
12:31:59	52.95298	-1.183305	71.036	-0.001553756	-7.595047	0.22	3	99	0	50	-1.996255	-1.654408	37.63323	
12:32:00	52.95299	-1.183306	71.048	-0.001553756	-7.595047	0.82	3	99	0	50	-2.335883	-1.428562	37.58757	
12:32:00	52.95299	-1.183307	71.148	-0.001553756	-7.595047	0.79	3	99	0	50	-2.64401	-1.801075	37.50648	
12:32:00	52.95299	-1.183306	71.345	-0.001553756	-7.595047	0.38	3	99	0	50	-2.278917	-1.839613	37.44572	
12:32:00	52.95299	-1.183306	71.451	-0.001553756	-7.595047	0.14	3	99	0	50	-2.017246	-1.426271	37.41556	
12:32:00	52.95299	-1.183307	71.48	-0.04846421	-8.106084	0.41	3	99	0	50	-2.101169	-1.184582	37.38327	
12:32:01	52.95299	-1.183308	71.204	-0.04846421	-8.106084	0.97	3	99	0	50	-2.368295	-1.622542	37.37058	
12:32:01	52.95299	-1.18331	70.768	-0.04846421	-8.106084	0.94	3	99	0	50	-2.730636	-1.826143	37.34572	
12:32:01	52.95299	-1.183311	70.716	-0.04846421	-8.106084	0.51	3	99	0	50	-2.650614	-1.563601	37.28777	
12:32:01	52.953	-1.183311	71.018	-0.04846421	-8.106084	0.57	3	99	0	50	-2.382779	-1.433857	37.22069	
12:32:01	52.953	-1.18331	71.478	-0.09136873	-8.525725	0.24	3	99	0	50	-2.079201	-1.410311	37.14148	
12:32:02	52.953	-1.183311	71.655	-0.09136873	-8.525725	0.33	3	99	0	50	-1.897173	-1.223751	37.08933	
12:32:02	52.953	-1.18331	72.091	-0.09136873	-8.525725	0.47	3	99	0	50	-2.10173	-1.264036	37.03556	
12:32:02	52.953	-1.183311	72.168	-0.09136873	-8.525725	1.09	3	99	0	50	-2.328748	-1.647501	36.99721	
12:32:02	52.953	-1.183311	72.108	-0.09136873	-8.525725	0.19	3	99	0	50	-2.42666	-1.707644	36.9619	
12:32:02	52.953	-1.183311	72.108	-0.0007802193	-1.805413	0.14	3	99	0	50	-1.943019	-1.25043	36.9147	
12:32:03	52.953	-1.183311	72.152	-0.0007802193	-1.805413	0.48	3	99	0	50	-1.818631	-1.05322	36.86562	
12:32:03	52.953	-1.183312	72.15	-0.0007802193	-1.805413	0.35	3	99	0	50	-1.777373	-0.8190997	36.80515	
12:32:03	52.953	-1.183313	72.055	-0.0007802193	-1.805413	0.39	3	99	0	50	-1.766312	-0.8971567	36.76435	
12:32:03	52.953	-1.183313	71.853	-0.0007802193	-1.805413	0.76	3	99	0	50	-1.639088	-0.6418168	36.74059	
12:32:03	52.953	-1.183314	71.979	0.3860401	15.33865	0.85	3	99	0	50	-1.488865	-0.3257913	36.69419	
12:32:04	52.953	-1.183314	72.341	0.3860401	15.33865	1.13	3	99	0	50	-1.256025	-0.2077164	36.65108	
12:32:04	52.95299	-1.183315	72.331	0.3860401	15.33865	1.31	3	99	0	50	-1.216814	0.1166427	36.66188	
12:32:04	52.95299	-1.183316	72.274	0.3860401	15.33865	0.83	3	99	0	50	-1.480477	0.01690556	36.63925	
12:32:04	52.95299	-1.183316	72.74	0.3860401	15.33865	1.06	3	99	0	50	-1.461657	-0.3258345	36.62572	
12:32:04	52.95299	-1.183315	72.917	0.2948801	4.405508	1.29	3	99	0	50	-1.154339	-0.2793951	36.6292	
12:32:05	52.95299	-1.183316	72.768	0.2948801	4.405508	0.64	3	99	0	50	-1.541435	-0.3839725	36.60308	
12:32:05	52.95299	-1.183318	72.369	0.2948801	4.405508	0.44	3	99	0	50	-2.021611	-0.699258	36.55634	
12:32:05	52.95298	-1.183318	72.19	0.2948801	4.405508	0.53	3	99	0	50	-1.985695	-0.7598719	36.50387	
12:32:05	52.95298	-1.183321	71.898	0.2948801	4.405508	0.53	3	99	0	50	-2.329073	-0.6271394	36.48478	
12:32:05	52.95298	-1.183322	72.078	0.7231381	19.99986	0.22	3	99	0	50	-2.626208	-0.6797441	36.43108	
12:32:06	52.95298	-1.183322	72.186	0.7231381	19.99986	0.48	3	99	0	50	-2.201949	-0.6602105	36.32553	
12:32:06	52.95298	-1.183321	72.715	0.7231381	19.99986	0.74	3	99	0	50	-1.798411	-0.4722713	36.26566	
12:32:06	52.95298	-1.183321	72.715	0.7231381	19.99986	0.66	3	99	0	50	-1.632349	-0.4594701	36.23103	
12:32:06	52.95298	-1.183322	72.932	0.7231381	19.99986	0.18	3	99	0	50	-1.884438	-0.642554	36.22488	
12:32:06	52.95298	-1.183323	72.978	0.9268706	18.8127	0.11	3	99	0	50	-2.106407	-0.7396808	36.2003	
12:32:07	52.95298	-1.183324	72.862	0.9268706	18.8127	0.14	3	99	0	50	-2.257339	-0.8664608	36.14607	
12:32:07	52.95298	-1.183325	72.738	0.9268706	18.8127	0.66	3	99	0	50	-2.609757	-1.218839	36.09188	
12:32:07	52.95298	-1.183326	72.586	0.9268706	18.8127	0.45	3	99	0	50	-2.630998	-1.289625	36.04905	
12:32:07	52.95298	-1.183325	72.717	0.9268706	18.8127	0.74	3	99	0	50	-2.101113	-1.539836	36.00575	
12:32:07	52.95298	-1.183324	72.945	0.8209059	5.567207	0.24	3	99	0	50	-2.000473	-1.283127	36.02012	
12:32:08	52.95298	-1.183325	72.906	0.8209059	5.567207	0.39	3	99	0	50	-2.311645	-1.070867	36.00451	
12:32:08	52.95299	-1.183326	72.869	0.8209059	5.567207	0.91	3	99	0	50	-2.652933	-1.362514	35.98651	
12:32:08	52.95299	-1.183325	73.116	0.8209059	5.567207	0.53	3	99	0	50	-2.61591	-1.446078	35.93744	
12:32:08	52.95299	-1.183326	72.899	0.8209059	5.567207	0.66	3	99	0	50	-2.522829	-1.366343	35.92929	
12:32:08	52.95299	-1.183326	72.884	0.8651356	3.122498	0.9	3	99	0	50	-2.45499	-1.298839	35.93032	
12:32:09	52.95299	-1.183327	72.82	0.8651356	3.122498	0.47	3	99	0	50	-2.402082	-1.23452	35.91131	
12:32:09	52.95299	-1.183328	72.704	0.8651356	3.122498	0.79	3	99	0	50	-2.349701	-1.175448	35.90366	
12:32:09	52.95299	-1.183328	72.868	0.8651356	3.122498	0.19	3	99	0	50	-2.300812	-1.098878	35.89372	
12:32:09	52.95299	-1.183328	72.801	0.8651356	3.122498	1.09	3	99	0	50	-2.244564	-1.055371	35.87509	
12:32:09	52.95299	-1.183327	73.152	0.9333304	4.989306	0.98	3	99	0	50	-2.189972	-1.016033	35.83881	
12:32:10	52.95299	-1.183328	72.937	0.9333304	4.989306	0.26	3	99	0	50	-2.138042	-0.9644054	35.82049	
12:32:10	52.95299	-1.18333	72.935	0.9333304	4.989306	0.38	3	99	0	50	-2.086537	-0.893999	35.8054	
12:32:10	52.95298	-1.18333	73.021	0.9333304	4.989306	0.16	3	99	0	50	-2.038998	-0.8431029	35.776	
12:32:10	52.95299	-1.18333	73.192	0.9333304	4.989306	0.18	3	99	0	50	-1.991853	-0.800642	35.73162	
12:32:11	52.95298	-1.183331	73.007	0.905793	1.567083	0.39	3	99	0	50	-1.944651	-0.7659967	35.70637	
12:32:11	52.95298	-1.183332	73.046	0.905793	1.567083	0.41	3	99	0	50	-1.901845	-0.7205959	35.67803	
12:32:11	52.95298	-1.183332	73.12	0.905793	1.567083	0.74	3	99	0	50	-1.857065	-0.6760215	35.67115	
12:32:11	52.95298	-1.183333	72.938	0.905793	1.567083	0.21	3	99	0	50	-1.817382	-0.6280271	35.66653	
12:32:11	52.95298	-1.183333	73.185	0.905793	1.567083	0.07	3	99	0	50	-1.77728	-0.5595645	35.66464	
12:32:12	52.95298	-1.183333	73.371	0.6643102	-10.97697	0.16	3	99	0	50	-1.730989	-0.5192034	35.64365	
12:32:12	52.95298	-1.183334	73.218	0.6643102	-10.97697	0.12	3	99	0	50	-1.692222	-0.4755907	35.60741	
12:32:12	52.95298	-1.183334	73.408	0.6643102	-10.97697	0.32	3	99	0	50	-1.641661	-0.4250377	35.6062	
12:32:12	52.95298	-1.183334	73.672	0.6643102	-10.97697	0.41	3	99	0	50	-1.600572	-0.3731245	35.56505	
12:32:12	52.95298	-1.183332	74.075	0.6643102	-10.97697	0.61	3	99	0	50	-1.577867	-0.3338377	35.54307	
12:32:12	52.95298	-1.183331	74.532	0.5348344	-11.38091	0.58	3	99	0	50	-1.556329	-0.3043442	35.5326	
12:32:13	52.95299	-1.183331	74.471	0.5348344	-11.38091	0.58	3	99	0	50	-1.533044	-0.2777587	35.53685	
12:32:13	52.95299	-1.183332	74.296	0.5348344	-11.38091	1.24	3	99	0	50	-1.504987	-0.2544455	35.55098	
12:32:13	52.95299	-1.183333	74.313	0.5348344	-11.38091	0.74	3	99	0	50	-1.477375	-0.2104169	35.57262	
12:32:13	52.95299	-1.18333	74.229	0.5348344	-11.38091	1.39	3	99	0	50	-1.458558	-0.1867817	35.57838	
12:32:14	52.95297	-1.183313	73.2	0.741729	1.888949	5.26	3	99	0	50	-1.446669	-0.1720204	35.58212	
12:32:14	52.95297	-1.183313	73.2	0.741729	1.888949	4.98	3	99	0	50	-1.420753	-0.1075701	37.18085	
12:32:14	52.95296	-1.18331	72.947	0.741729	1.888949	3.64	3	99	0	50	-1.376793	-0.04163285	39.00485	
12:32:14	52.95296	-1.183309	73.178	0.741729	1.888949	2.88	3	99	0	50	-1.37246	-0.02968849	40.75955	
12:32:14	52.95295	-1.183308	73.164	0.741729	1.888949	3.44	3	99	0	50	-1.324495	0.002930845	40.59226	
12:32:15	52.95295	-1.183307	73.44	0.7453338	0.2623239	2.66	3	99	0	50	-1.294804	0.06099876	42.22042	
12:32:15	52.95294	-1.183306	73.726	0.7453338	0.2623239	2.35	3	99	0	50	-1.263691	0.07625171	41.98795	
12:32:15	52.95295	-1.183306	74.061	0.7453338	0.2623239	1.16	3	99	0	50	-1.244617	0.08420916	41.7991	
12:32:15	52.95294	-1.183306	74.194	0.7453338	0.2623239	1.37	3	99	0	50	-1.228531	0.08964235	41.61559	
12:32:15	52.95294	-1.183307	74.383	0.7453338	0.2623239	0.42	3	99	0	50	-1.203344	0.1144962	41.44331	
12:32:16	52.95294	-1.183306	74.602	0.6287387	-4.771159	0.88	3	99	0	50	-1.194699	0.1643811	41.27822	
12:32:16	52.95294	-1.183307	74.311	0.6287387	-4.771159	0.32	3	99	0	50	-1.177818	0.1652794	41.11837	
12:32:16	52.95295	-1.183309	74.384	0.6287387	-4.771159	0.98	3	99	0	50	-1.166016	0.1864537	40.96407	
12:32:16	52.95295	-1.18331	74.329	0.6287387	-4.771159	0.22	3	99	0	50	-1.14976	0.1922556	40.82434	
12:32:16	52.95294	-1.183311	74.109	0.6287387	-4.771159	0.34	3	99	0	50	-1.141271	0.184412	40.69816	
12:32:17	52.95295	-1.183312	74.117	0.6984336	-0.7541853	0.69	3	99	0	50	-1.128193	0.2045176	40.58165	
12:32:17	52.95295	-1.183313	73.991	0.6984336	-0.7541853	0.44	3	99	0	50	-1.103838	0.2329442	40.46754	
12:32:17	52.95294	-1.183313	73.656	0.6984336	-0.7541853	1.15	3	99	0	50	-1.08358	0.2611583	40.36164	
12:32:17	52.95294	-1.183314	73.591	0.6984336	-0.7541853	0.19	3	99	0	50	-1.067788	0.2770889	40.26888	
12:32:17	52.95294	-1.183314	73.587	0.6984336	-0.7541853	0.14	3	99	0	50	-1.041002	0.3102221	40.19542	
12:32:18	52.95295	-1.183315	73.88	0.5695348	-6.238662	1.64	3	99	0	50	-1.026086	0.3238468	40.0996	
12:32:18	52.95295	-1.183315	74.259	0.5695348	-6.238662	1.23	3	99	0	50	-1.023916	0.3243045	39.97174	
12:32:18	52.95295	-1.183315	74.029	0.5695348	-6.238662	0.63	3	99	0	50	-1.024418	0.3326381	39.88628	
12:32:18	52.95295	-1.183315	74.229	0.5695348	-6.238662	0.39	3	99	0	50	-0.997708	0.3424437	39.82903	
12:32:18	52.95296	-1.183315	74.363	0.5695348	-6.238662	0.72	3	99	0	50	-0.9839531	0.3587403	39.74755	
12:32:19	52.95296	-1.183314	74.604	0.3388732	-12.59666	0.45	3	99	0	50	-0.9702508	0.3558407	39.67193	
12:32:19	52.95296	-1.183314	74.127	0.3388732	-12.59666	1.45	3	99	0	50	-0.9480602	0.3373172	39.6088	
12:32:19	52.95296	-1.183312	74.333	0.3388732	-12.59666	0.66	3	99	0	50	-0.9318173	0.3457592	39.55085	
12:32:19	52.95296	-1.18331	74.342	0.3388732	-12.59666	1.02	3	99	0	50	-0.9422269	0.3460946	39.46296	
12:32:19	52.95295	-1.18331	74.401	0.3388732	-12.59666	1.04	3	99	0	50	-0.9317106	0.3587569	39.37835	
12:32:20	52.95295	-1.18331	74.35	0.1795001	-13.86784	0.65	3	99	0	50	-0.9174239	0.3632146	39.32723	
12:32:20	52.95295	-1.183308	74.406	0.1795001	-13.86784	0.95	3	99	0	50	-0.9068324	0.3782429	39.26365	
12:32:20	52.95295	-1.183308	74.465	0.1795001	-13.86784	1	3	99	0	50	-0.8980169	0.3785918	39.1395	
12:32:20	52.95295	-1.183309	74.052	0.1795001	-13.86784	0.21	3	99	0	50	-0.8902961	0.4027466	39.01752	
12:32:20	52.95294	-1.183309	73.939	0.1795001	-13.86784	1.54	3	99	0	50	-0.8892884	0.4091573	38.88245	
12:32:21	52.95294	-1.18331	74.008	0.2443093	-5.071285	1.03	3	99	0	50	-0.8663706	0.4423149	38.76353	
12:32:21	52.95295	-1.183311	73.906	0.2443093	-5.071285	0.56	3	99	0	50	-0.8618748	0.466762	38.65074	
12:32:21	52.95294	-1.183312	73.6	0.2443093	-5.071285	0.29	3	99	0	50	-0.8478138	0.4797128	38.56458	
12:32:21	52.95294	-1.18331	73.308	0.2443093	-5.071285	1.18	3	99	0	50	-0.8287551	0.4856262	38.4912	
12:32:21	52.95294	-1.183311	72.916	0.2443093	-5.071285	0.63	3	99	0	50	-0.8147238	0.5032641	38.41787	
12:32:22	52.95294	-1.18331	73.33	0.2820123	-0.6602407	0.39	3	99	0	50	-0.8097091	0.5051414	38.34724	
12:32:22	52.95295	-1.183311	73.399	0.2820123	-0.6602407	0.93	3	99	0	50	-0.7972	0.5263487	38.28496	
12:32:22	52.95295	-1.183313	73.415	0.2820123	-0.6602407	1.53	3	99	0	50	-0.7902639	0.5405249	38.20493	
12:32:22	52.95295	-1.183314	73.687	0.2820123	-0.6602407	1.23	3	99	0	50	-0.7805117	0.552959	38.14889	
12:32:22	52.95295	-1.183315	73.649	0.2820123	-0.6602407	0.48	3	99	0	50	-0.6527522	0.7060805	38.12276	
12:32:23	52.95295	-1.183316	73.465	0.4229637	4.205719	0.53	3	99	0	50	-0.4247391	1.178891	38.10169	
12:32:23	52.95295	-1.183319	72.998	0.4229637	4.205719	0.75	3	99	0	50	-0.5066181	1.457997	38.05763	
12:32:23	52.95295	-1.183321	72.406	0.4229637	4.205719	0.18	3	99	0	50	-0.466148	1.461618	37.97724	
12:32:23	52.95296	-1.183322	72.467	0.4229637	4.205719	0.77	3	99	0	50	-0.4611503	1.422985	37.89474	
12:32:23	52.95297	-1.183322	72.81	0.4229637	4.205719	1.16	3	99	0	50	-0.4554873	1.399871	37.83053	
12:32:24	52.95297	-1.183323	72.675	0.3115581	-0.9039651	1.53	3	99	0	50	-0.4586372	1.356307	37.76035	
12:32:24	52.95297	-1.183324	72.485	0.3115581	-0.9039651	0.48	3	99	0	50	-0.4643804	1.308866	37.67754	
12:32:24	52.95297	-1.183326	72.136	0.3115581	-0.9039651	0.9	3	99	0	50	-0.4659617	1.296523	37.59705	
12:32:24	52.95297	-1.183326	72.187	0.3115581	-0.9039651	0.51	3	99	0	50	-0.4575818	1.271302	37.54918	
12:32:24	52.95297	-1.183328	71.967	0.3115581	-0.9039651	0.62	3	99	0	50	-0.4599979	1.268409	37.53183	
12:32:25	52.95298	-1.183329	72.027	0.214214	-5.925072	0.51	3	99	0	50	-0.461777	1.252985	37.50158	
12:32:25	52.95297	-1.183329	71.691	0.214214	-5.925072	0.75	3	99	0	50	-0.460264	1.231766	37.47217	
12:32:25	52.95297	-1.183329	71.686	0.214214	-5.925072	1.4	3	99	0	50	-0.4586034	1.215711	37.40813	
12:32:25	52.95297	-1.183328	71.906	0.214214	-5.925072	2.23	3	99	0	50	-0.4525036	1.20944	37.3267	
12:32:25	52.95297	-1.183323	72.602	0.214214	-5.925072	2.85	3	99	0	50	-0.4441793	1.2063	37.26477	
12:32:26	52.95297	-1.183323	72.602	-0.1701784	-20.21794	3.72	3	99	0	50	-0.422869	1.215862	37.97821	
12:32:26	52.95296	-1.183321	72.548	-0.1701784	-20.21794	3.79	3	99	0	50	-0.3820229	1.206139	39.40499	
12:32:26	52.95296	-1.18332	73.072	-0.1701784	-20.21794	3.58	3	99	0	50	-0.3368666	1.21028	40.8553	
12:32:26	52.95295	-1.183319	73.414	-0.1701784	-20.21794	4.73	3	99	0	50	-0.3123429	1.201282	42.23842	
12:32:26	52.95295	-1.183318	74.105	-0.1701784	-20.21794	3.72	3	99	0	50	-0.28289	1.207	43.63324	
12:32:27	52.95295	-1.183316	74.216	-0.2275744	-13.52999	4.5	3	99	0	50	-0.2462445	1.215385	45.08036	
12:32:27	52.95294	-1.183316	74.444	-0.2275744	-13.52999	3.43	3	99	0	50	-0.2139053	1.208505	46.57216	
12:32:27	52.95294	-1.183313	74.777	-0.2275744	-13.52999	3.23	3	99	0	50	-0.1757042	1.22259	48.17469	
12:32:27	52.95293	-1.183312	74.832	-0.2275744	-13.52999	3.61	3	99	0	50	-0.1392094	1.215321	49.7943	
12:32:27	52.95293	-1.183313	74.67	-0.2275744	-13.52999	4.5	3	99	0	50	0.1744494	1.563576	51.39087	
12:32:28	52.95292	-1.183312	75.056	0.1304813	7.214846	3.72	4.260929	99	0	50	0.3693633	1.239329	52.96709	
12:32:28	52.95292	-1.183309	75.619	0.1304813	7.214846	3.65	4.260929	99	0	50	0.2632132	0.4770978	54.64557	
12:32:28	52.95291	-1.183307	75.816	0.1304813	7.214846	4.25	4.260929	99	0	50	0.4691063	0.4891615	56.3907	
12:32:28	52.9529	-1.183307	75.493	0.1304813	7.214846	4.52	4.260929	99	0	50	0.5756814	1.029002	58.12577	
12:32:28	52.9529	-1.183306	75.977	0.1304813	7.214846	3.26	4.260929	99	0	50	-0.0688922	0.3312748	59.8899	
12:32:29	52.95289	-1.183306	76.175	0.2165389	8.660295	3.53	3.899939	99	0	50	-0.5806013	-0.1870053	61.63041	
12:32:29	52.95289	-1.183304	76.593	0.2165389	8.660295	3.82	3.899939	99	0	50	-0.1955034	-0.3857931	63.46192	
12:32:29	52.95288	-1.183301	76.875	0.2165389	8.660295	3.43	3.899939	99	0	50	-0.8779407	-1.610414	65.37708	
12:32:29	52.95288	-1.1833	77.12	0.2165389	8.660295	1.93	3.899939	99	0	50	-1.385618	-2.185889	65.48199	
12:32:29	52.95288	-1.183299	77.211	0.2165389	8.660295	0.87	3.899939	99	0	50	-1.289062	-2.132891	64.5034	
12:32:30	52.95288	-1.183299	76.497	0.2508695	6.070762	0.09	4.464743	99	0	50	-1.314831	-2.035278	63.53836	
12:32:30	52.95289	-1.183298	76.308	0.2508695	6.070762	1.8	4.464743	99	0	50	-1.327234	-1.922711	62.62886	
12:32:30	52.95289	-1.183298	76.199	0.2508695	6.070762	1.36	4.464743	99	0	50	-1.357604	-1.803104	61.73745	
12:32:30	52.95289	-1.183299	75.772	0.2508695	6.070762	2.11	4.464743	99	0	50	-1.387673	-1.714634	61.01736	
12:32:30	52.95289	-1.183299	75.755	0.2508695	6.070762	1.29	4.464743	99	0	50	-1.400856	-1.626747	60.44653	
12:32:31	52.95289	-1.183299	75.842	0.2019001	-0.2534485	0.85	4.464743	99	0	50	-1.41672	-1.548479	59.8578	
12:32:31	52.95288	-1.183298	76.079	0.2019001	-0.2534485	1.69	4.464743	99	0	50	-1.432201	-1.479811	59.29084	
12:32:31	52.95289	-1.183297	76.177	0.2019001	-0.2534485	1.62	4.464743	99	0	50	-1.443273	-1.410593	58.75777	
12:32:31	52.95289	-1.183297	76.177	0.2019001	-0.2534485	0.37	4.464743	99	0	50	-1.457912	-1.351085	58.26699	
12:32:31	52.95288	-1.183296	76.121	0.2019001	-0.2534485	1.29	4.464743	99	0	50	-1.458701	-1.265521	57.76387	
12:32:32	52.95288	-1.183297	76.115	0.1801592	-1.280291	0.68	4.464743	99	0	50	-1.46676	-1.225882	57.28787	
12:32:32	52.95288	-1.183297	75.536	0.1801592	-1.280291	0.08	4.464743	99	0	50	-1.479576	-1.166647	56.80342	
12:32:32	52.95288	-1.183298	75.344	0.1801592	-1.280291	0.35	4.464743	99	0	50	-1.486212	-1.100571	56.3409	
12:32:32	52.95288	-1.183297	75.603	0.1801592	-1.280291	0.33	4.464743	99	0	50	-1.483969	-1.047686	55.88346	
12:32:32	52.95289	-1.183298	75.412	0.1801592	-1.280291	0.63	4.464743	99	0	50	-1.481472	-1.009619	55.43011	
12:32:33	52.95289	-1.183296	75.789	0.1342424	-3.064107	0.51	4.464743	99	0	50	-1.485246	-0.9662424	55.00806	
12:32:33	52.95289	-1.183294	75.871	0.1342424	-3.064107	1.31	4.464743	99	0	50	-1.484295	-0.9113489	54.57869	
12:32:33	52.9529	-1.183293	75.739	0.1342424	-3.064107	1.65	4.464743	99	0	50	-1.474498	-0.8645785	54.16524	
12:32:33	52.9529	-1.183292	75.944	0.1342424	-3.064107	0.42	4.464743	99	0	50	-1.463684	-0.8117402	53.76094	
12:32:33	52.95291	-1.18329	75.867	0.1342424	-3.064107	2.57	4.464743	99	0	50	-1.471464	-0.7602821	53.35794	
12:32:34	52.95292	-1.183288	76.414	0.1783714	-0.2012291	1.83	4.464743	99	0	50	-1.468261	-0.7184289	52.98448	
12:32:34	52.95292	-1.183288	76.368	0.1783714	-0.2012291	1.32	4.464743	99	0	50	-1.464925	-0.6730357	52.6314	
12:32:34	52.95291	-1.18329	76.577	0.1783714	-0.2012291	1.87	4.464743	99	0	50	-1.446653	-0.6172017	52.2855	
12:32:34	52.95292	-1.183291	77.327	0.1783714	-0.2012291	1.49	4.464743	99	0	50	-1.440514	-0.5843646	51.95694	
12:32:34	52.95291	-1.183291	77.158	0.1783714	-0.2012291	1.52	4.464743	99	0	50	-1.427216	-0.5392317	51.65323	
12:32:35	52.95292	-1.183292	77.163	0.02217746	-7.729584	0.55	4.464743	99	0	50	-1.415109	-0.4853925	51.35111	
12:32:35	52.95292	-1.183292	77.174	0.02217746	-7.729584	1.04	4.464743	99	0	50	-1.406793	-0.4532937	51.07257	
12:32:35	52.95292	-1.183291	77.888	0.02217746	-7.729584	1.2	4.464743	99	0	50	-1.410685	-0.421419	50.76754	
12:32:35	52.95292	-1.18329	77.859	0.02217746	-7.729584	0.68	4.464743	99	0	50	-1.402363	-0.4000594	50.43594	
12:32:35	52.95291	-1.18329	77.4	0.02217746	-7.729584	0.95	4.464743	99	0	50	-1.404656	-0.3664667	50.02099	
12:32:36	52.95292	-1.18329	77.605	0.2622521	6.535932	0.42	4.464743	99	0	50	-1.418888	-0.3329487	49.57841	
12:32:36	52.95292	-1.183288	77.672	0.2622521	6.535932	0.22	4.464743	99	0	50	-1.426005	-0.3080895	49.1321	
12:32:36	52.95292	-1.183287	77.932	0.2622521	6.535932	1.05	4.464743	99	0	50	-1.433473	-0.2778369	48.70094	
12:32:36	52.95291	-1.183288	77.972	0.2622521	6.535932	1.42	4.464743	99	0	50	-1.438638	-0.2377031	48.30195	
12:32:36	52.95292	-1.183288	78.385	0.2622521	6.535932	0.94	4.464743	99	0	50	-1.449865	-0.2003859	47.91639	
12:32:37	52.95291	-1.183288	77.773	0.1657489	-2.176975	0.93	4.464743	99	0	50	-1.457748	-0.1789846	47.55441	
12:32:37	52.95291	-1.183288	77.939	0.1657489	-2.176975	0.87	4.464743	99	0	50	-1.463699	-0.1443942	47.20107	
12:32:37	52.95292	-1.183287	78.698	0.1657489	-2.176975	0.56	4.464743	99	0	50	-1.47941	-0.1117544	46.84905	
12:32:37	52.95293	-1.183288	78.635	0.1657489	-2.176975	2.23	4.464743	99	0	50	-1.477622	-0.09085406	46.48415	
12:32:38	52.95293	-1.183288	78.331	0.1657489	-2.176975	1.2	4.464743	99	0	50	-1.485378	-0.06348701	46.14268	
12:32:38	52.95292	-1.183288	78.503	0.09284714	-4.289649	0.81	4.464743	99	0	50	-1.484744	-0.04374057	45.80363	
12:32:38	52.95292	-1.183288	78.945	0.09284714	-4.289649	0.91	4.464743	99	0	50	-1.488041	-0.03438796	45.47818	
12:32:38	52.95293	-1.183288	78.85	0.09284714	-4.289649	0.22	4.464743	99	0	50	-1.488941	-0.01726949	45.14172	
12:32:38	52.95293	-1.183289	78.271	0.09284714	-4.289649	1.06	4.464743	99	0	50	-1.485891	0.01363546	44.8553	
12:32:39	52.95293	-1.183288	78.475	0.09284714	-4.289649	0.52	4.464743	99	0	50	-1.489907	0.04760938	44.56642	
12:32:39	52.95293	-1.183289	78.164	-0.03737675	-8.133856	0.37	4.464743	99	0	50	-1.484156	0.08521846	44.32402	
12:32:39	52.95293	-1.183289	77.983	-0.03737675	-8.133856	0.81	4.464743	99	0	50	-1.466072	0.1081536	44.09402	
12:32:39	52.95293	-1.183288	78.469	-0.03737675	-8.133856	0.5	4.464743	99	0	50	-1.45481	0.121158	43.86617	
12:32:39	52.95293	-1.183288	78.759	-0.03737675	-8.133856	0.48	4.464743	99	0	50	-1.446334	0.1335908	43.62652	
12:32:40	52.95293	-1.183287	79.46	-0.03737675	-8.133856	1.01	4.464743	99	0	50	-1.440179	0.1646581	43.41533	
12:32:40	52.95294	-1.183286	80.416	-0.2426609	-13.91045	0.5	4.464743	99	0	50	-1.424632	0.1914345	43.21556	
12:32:40	52.95294	-1.183285	80.797	-0.2426609	-13.91045	1.3	4.464743	99	0	50	-1.406581	0.2178056	43.02178	
12:32:40	52.95294	-1.183284	81.1	-0.2426609	-13.91045	2.14	4.464743	99	0	50	-1.389657	0.2465313	42.80011	
12:32:40	52.95294	-1.183284	81.173	-0.2426609	-13.91045	0.76	4.464743	99	0	50	-1.381575	0.2635112	42.60175	
12:32:41	52.95295	-1.183283	80.872	-0.2426609	-13.91045	2.29	4.464743	99	0	50	-1.371994	0.2906745	42.29646	
12:32:41	52.95295	-1.183282	80.862	-0.2140648	-7.053683	1.41	4.464743	99	0	50	-1.376346	0.3208515	42.00739	
12:32:41	52.95296	-1.183283	81.409	-0.2140648	-7.053683	1.29	4.464743	99	0	50	-1.374553	0.3708357	41.74729	
12:32:41	52.95295	-1.183282	82.021	-0.2140648	-7.053683	1.57	4.464743	99	0	50	-1.339454	0.3108668	41.48944	
12:32:41	52.95295	-1.18328	82.298	-0.2140648	-7.053683	0.17	4.464743	99	0	50	-1.05803	-0.31863	41.22907	
12:32:42	52.95294	-1.183277	83.452	-0.2140648	-7.053683	1.13	4.464743	99	0	50	0.02662679	0.6777532	41.05452	
12:32:42	52.95293	-1.183276	83.885	0.05962628	8.560378	1.09	3	99	0	50	-0.5446158	0.1659732	40.91617	
12:32:42	52.95293	-1.183275	84.487	0.05962628	8.560378	0.72	3	99	0	50	-0.5719741	0.3670247	40.73766	
12:32:42	52.95293	-1.183275	84.939	0.05962628	8.560378	0.88	3	99	0	50	-0.4136919	0.76391	40.55433	
12:32:42	52.95293	-1.183274	85.346	0.05962628	8.560378	1.93	3	99	0	50	-0.725113	0.7985335	40.36031	
12:32:43	52.95293	-1.183273	85.756	0.05962628	8.560378	1.96	3	99	0	50	-1.063879	-0.5585338	40.16847	
12:32:43	52.95293	-1.183271	86.56	0.1277196	6.292395	2.11	3	99	0	50	-1.313438	-0.4347626	40.00952	
12:32:43	52.95293	-1.183271	86.529	0.1277196	6.292395	2.12	3	99	0	50	-1.345529	-0.6674816	39.87015	
12:32:43	52.95293	-1.18327	87.06	0.1277196	6.292395	2.15	3	99	0	50	-1.425482	-0.4433953	39.70429	
12:32:43	52.95292	-1.18327	86.518	0.1277196	6.292395	2.19	3	99	0	50	-0.8897334	-1.017187	39.58597	
12:32:44	52.95292	-1.18327	86.729	0.1277196	6.292395	2.86	3	99	0	50	-1.236128	-0.7529416	39.48384	
12:32:44	52.95292	-1.183269	86.93	0.1857928	7.428049	2.63	3.380904	99	0	50	-1.268889	-1.259566	39.33545	
12:32:44	52.95292	-1.183266	87.117	0.1857928	7.428049	2.34	3.380904	99	0	50	-1.170827	-0.780116	39.22461	
12:32:44	52.95292	-1.183264	87.177	0.1857928	7.428049	1.7	3.380904	99	0	50	-0.7397342	-0.5483977	39.11928	
12:32:44	52.95292	-1.183264	87.177	0.1857928	7.428049	1.48	3.380904	99	0	50	-0.3211761	-0.01517055	39.04301	
12:32:45	52.95292	-1.183262	87.512	0.1857928	7.428049	0.89	3.380904	99	0	50	-0.008651542	0.3099436	38.99813	
12:32:45	52.95292	-1.18326	87.898	0.4976142	20.0346	1.03	3	99	0	50	0.219592	0.6787934	38.9582	
12:32:45	52.95291	-1.183259	88.132	0.4976142	20.0346	0.65	3	99	0	50	-0.03151902	0.8304858	38.85622	
12:32:45	52.95291	-1.183256	88.417	0.4976142	20.0346	0.63	3	99	0	50	0.2914287	0.9563295	38.76654	
12:32:45	52.95291	-1.183255	88.753	0.4976142	20.0346	0.65	3	99	0	50	0.2087983	1.035674	38.69661	
12:32:46	52.95291	-1.183252	89.179	0.4976142	20.0346	0.74	3	99	0	50	0.2314376	1.025374	38.60387	
12:32:46	52.9529	-1.183251	89.334	0.09580681	-5.713909	0.55	3	99	0	50	0.478091	0.9612231	38.54186	
12:32:46	52.9529	-1.18325	89.631	0.09580681	-5.713909	0.82	3	99	0	50	0.01313385	1.174628	38.44358	
12:32:46	52.9529	-1.183249	89.762	0.09580681	-5.713909	0.72	3	99	0	50	-0.1821736	1.155159	38.31592	
12:32:46	52.9529	-1.183249	89.823	0.09580681	-5.713909	0.48	3	99	0	50	-0.08492114	1.289192	38.16964	
12:32:47	52.9529	-1.183248	90.455	0.09580681	-5.713909	1.39	3	99	0	50	-0.1517299	1.032782	38.05339	
12:32:47	52.9529	-1.183247	90.692	-0.02793175	-8.797183	1.01	3	99	0	50	-0.385778	0.6801964	37.97025	
12:32:47	52.9529	-1.183246	90.966	-0.02793175	-8.797183	1.1	3	99	0	50	-0.3590246	0.8596178	37.86697	
12:32:47	52.9529	-1.183245	91.263	-0.02793175	-8.797183	0.81	3	99	0	50	-0.6061381	0.8599247	37.72401	
12:32:47	52.9529	-1.183245	92.173	-0.02793175	-8.797183	1.95	3	99	0	50	-0.6117184	0.8966523	37.59738	
12:32:48	52.9529	-1.183244	92.633	-0.02793175	-8.797183	1.02	3	99	0	50	-0.606907	0.9243659	37.50194	
12:32:48	52.9529	-1.183244	92.633	-0.01235478	-3.941016	0.76	3	99	0	50	-0.5916312	0.9451826	37.3888	
12:32:48	52.9529	-1.183243	92.948	-0.01235478	-3.941016	0.72	3	99	0	50	-0.5743408	0.9774484	37.26263	
12:32:48	52.9529	-1.183241	93.18	-0.01235478	-3.941016	0.63	3	99	0	50	-0.5664195	0.994946	37.15788	
12:32:48	52.9529	-1.18324	93.611	-0.01235478	-3.941016	0.9	3	99	0	50	-0.5618243	1.011154	37.06705	
12:32:49	52.9529	-1.183239	93.964	-0.01235478	-3.941016	0.9	3	99	0	50	-0.554831	1.03562	36.97573	
12:32:49	52.9529	-1.183238	94.258	-0.01465827	-2.467822	0.79	3	99	0	50	-0.5484751	1.051256	36.91349	
12:32:49	52.9529	-1.183237	94.496	-0.01465827	-2.467822	0.72	3	99	0	50	-0.5374854	1.054349	36.83295	
12:32:49	52.95289	-1.183234	94.797	-0.01465827	-2.467822	0.9	3	99	0	50	-0.5281743	1.067135	36.76277	
12:32:49	52.9529	-1.183232	95.171	-0.01465827	-2.467822	0.97	3	99	0	50	-0.5061297	1.097057	36.69452	
12:32:50	52.9529	-1.183231	95.43	-0.01465827	-2.467822	0.89	3	99	0	50	-0.4924946	1.096443	36.61633	
12:32:50	52.9529	-1.18323	95.729	0.1761867	6.634217	1.04	3	99	0	50	-0.4889164	1.136179	36.52162	
12:32:50	52.9529	-1.183228	95.886	0.1761867	6.634217	0.89	3	99	0	50	-0.4771105	1.154197	36.45642	
12:32:50	52.95289	-1.183226	96.045	0.1761867	6.634217	0.28	3	99	0	50	-0.4624977	1.169341	36.40946	
12:32:50	52.95289	-1.183225	96.367	0.1761867	6.634217	0.17	3	99	0	50	-0.4485914	1.161466	36.33014	
12:32:51	52.95289	-1.183225	96.433	0.1761867	6.634217	0.45	3	99	0	50	-0.4486976	1.177781	36.27331	
12:32:51	52.95289	-1.183225	96.692	0.367488	11.11591	0.18	3	99	0	50	-0.4423756	1.18417	36.1982	
12:32:51	52.95289	-1.183224	96.732	0.367488	11.11591	0.55	3	99	0	50	-0.4342993	1.196583	36.13723	
12:32:51	52.95289	-1.183221	96.856	0.367488	11.11591	0.93	3	99	0	50	-0.4318177	1.171574	36.06677	
12:32:51	52.95288	-1.183219	97.153	0.367488	11.11591	0.59	3	99	0	50	-0.434112	1.167616	36.00418	
12:32:52	52.95288	-1.183218	97.406	0.367488	11.11591	0.57	3	99	0	50	-0.4358285	1.176485	35.97097	
12:32:52	52.95288	-1.183217	97.714	0.3412842	6.708193	0.31	3	99	0	50	-0.4333728	1.173551	35.91691	
12:32:52	52.95288	-1.183217	97.882	0.3412842	6.708193	0.47	3	99	0	50	-0.4311964	1.188975	35.85229	
12:32:52	52.95288	-1.183217	98.004	0.3412842	6.708193	0.57	3	99	0	50	-0.4228205	1.194812	35.82177	
12:32:52	52.95288	-1.183217	98.265	0.3412842	6.708193	0.28	3	99	0	50	-0.4219263	1.2076	35.77452	
12:32:53	52.95288	-1.183216	98.356	0.3412842	6.708193	0.55	3	99	0	50	-0.422415	1.200098	35.76239	
12:32:53	52.95288	-1.183216	98.456	0.5731598	14.44302	0.65	3	99	0	50	-0.4136963	1.193596	35.73684	
12:32:53	52.95288	-1.183217	98.699	0.5731598	14.44302	0.39	3	99	0	50	-0.4155664	1.21064	35.67856	
12:32:53	52.95287	-1.18322	97.092	0.5731598	14.44302	0.19	3	99	0	50	-0.2623712	0.9552154	35.61389	
12:32:53	52.95287	-1.183222	95.053	0.5731598	14.44302	0.78	3	99	0	50	0.2513523	1.067709	35.59614	
12:32:54	52.95287	-1.183224	93.544	0.5731598	14.44302	0.31	3	99	0	50	0.01836797	1.078751	35.61989	
12:32:54	52.95286	-1.183227	92.198	0.8596141	21.52367	0.19	3	99	0	50	-0.4326029	0.9717624	35.59255	
12:32:54	52.95286	-1.18323	90.637	0.8596141	21.52367	0.34	3	99	0	50	-0.4669352	1.09344	35.56062	
12:32:54	52.95285	-1.183232	89.245	0.8596141	21.52367	0.42	3	99	0	50	-0.177376	1.03146	35.50734	
12:32:54	52.95285	-1.183233	87.974	0.8596141	21.52367	0.45	3	99	0	50	-0.005975867	0.8638232	35.4777	
12:32:55	52.95285	-1.183236	87.339	0.8596141	21.52367	0.68	3	99	0	50	-0.7879391	0.7489462	35.43671	
12:32:55	52.95285	-1.18324	86.041	0.7249383	4.37503	0.38	3	99	0	50	-0.6650994	1.123835	35.37659	
12:32:55	52.95285	-1.183242	84.809	0.7249383	4.37503	0.33	3	99	0	50	-0.2505691	1.364337	35.30547	
12:32:55	52.95285	-1.183244	83.546	0.7249383	4.37503	0.65	3	99	0	50	0.3633859	1.195748	35.27257	
12:32:55	52.95285	-1.183245	82.446	0.7249383	4.37503	0.36	3	99	0	50	0.2447691	1.26571	35.28225	
12:32:56	52.95285	-1.183247	81.441	0.7249383	4.37503	0.31	3	99	0	50	-0.1286337	1.360207	35.28127	
12:32:56	52.95284	-1.183249	80.241	0.2266192	-18.34003	0.45	3	99	0	50	-0.0185805	1.412383	35.27436	
12:32:56	52.95284	-1.18325	78.983	0.2266192	-18.34003	0.79	3	99	0	50	0.4027002	1.398866	35.28754	
12:32:56	52.95284	-1.183252	77.804	0.2266192	-18.34003	0.66	3	99	0	50	-0.2753562	0.6930434	35.28276	
12:32:56	52.95283	-1.183254	76.65	0.2266192	-18.34003	1.18	3	99	0	50	-0.9484792	0.1025993	35.3007	
12:32:57	52.95283	-1.183255	75.561	0.2266192	-18.34003	1.33	3	99	0	50	-0.8583411	-0.2833286	35.309	
12:32:57	52.95283	-1.183255	73.895	-0.05673062	-23.85444	0.69	3	99	0	50	-0.1503918	0.1700913	35.35064	
12:32:57	52.95283	-1.183257	73.134	-0.05673062	-23.85444	1.02	3	99	0	50	-0.505273	0.5089896	35.38631	
12:32:57	52.95283	-1.183259	72.19	-0.05673062	-23.85444	0.79	3	99	0	50	-0.4139014	0.5324869	35.37894	
12:32:57	52.95283	-1.183263	71.345	-0.05673062	-23.85444	1.31	3	99	0	50	-0.9365212	0.7126762	35.37286	
12:32:58	52.95283	-1.183266	70.608	-0.05673062	-23.85444	1.5	3	99	0	50	-1.189449	0.5316289	35.32654	
12:32:58	52.95283	-1.18327	69.04	-0.1796889	-19.41972	1.37	3	99	0	50	-0.7509999	0.3980218	35.25263	
12:32:58	52.95283	-1.183273	68.331	-0.1796889	-19.41972	1.67	3	99	0	50	-0.5982417	0.2940538	35.2465	
12:32:58	52.95284	-1.183278	67.723	-0.1796889	-19.41972	2.32	3	99	0	50	-1.233525	0.5243201	35.23096	
12:32:58	52.95283	-1.18328	66.48	-0.1796889	-19.41972	0.97	3	99	0	50	-2.007316	0.4996561	35.15421	
12:32:59	52.95283	-1.183281	65.486	-0.1796889	-19.41972	1.4	3	99	0	50	-0.8964509	0.6323267	35.06252	
12:32:59	52.95283	-1.183282	64.609	-0.07213407	-7.421138	1.7	3	99	0	50	-0.8102062	0.4767733	35.07204	
12:32:59	52.95284	-1.183284	63.923	-0.07213407	-7.421138	1.53	3	99	0	50	-0.9725861	0.2362138	35.08152	
12:32:59	52.95284	-1.183285	63.175	-0.07213407	-7.421138	0.62	3	99	0	50	-0.7166495	0.2497185	35.07209	
12:32:59	52.95284	-1.183287	62.452	-0.07213407	-7.421138	0.28	3	99	0	50	-0.3685429	1.283395	35.06766	
12:33:00	52.95283	-1.183289	61.892	-0.07213407	-7.421138	0.29	3	99	0	50	0.009475962	1.695182	35.05127	
12:33:00	52.95283	-1.183291	61.35	-0.144806	-6.585467	0.29	3	99	0	50	-0.02924422	1.959354	35.02948	
12:33:00	52.95283	-1.183292	60.09	-0.144806	-6.585467	0.64	3	99	0	50	-0.06565583	2.094312	34.99715	
12:33:00	52.95283	-1.183292	59.267	-0.144806	-6.585467	0.29	3	99	0	50	0.8581835	2.173016	34.99244	
12:33:01	52.95282	-1.183292	58.013	-0.144806	-6.585467	0.34	3	99	0	50	0.7384456	1.86439	35.02069	
12:33:01	52.95282	-1.183293	56.954	-0.144806	-6.585467	0.57	3	99	0	50	0.5643384	1.610142	35.08044	
12:33:01	52.95282	-1.183294	56.103	0.02802236	1.693628	0.19	3	99	0	50	0.3997897	1.294087	35.13976	
12:33:01	52.95282	-1.183295	55.263	0.02802236	1.693628	0.39	3	99	0	50	0.1056776	1.777502	35.19856	
12:33:01	52.95282	-1.183297	54.814	0.02802236	1.693628	1.02	3	99	0	50	0.2488598	1.624179	35.19258	
12:33:02	52.95282	-1.183299	53.938	0.02802236	1.693628	0.44	3	99	0	50	-0.6928148	1.423794	35.18933	
12:33:02	52.95282	-1.1833	53.474	0.02802236	1.693628	0.26	3	99	0	50	-0.09312616	1.567111	35.19644	
12:33:02	52.95282	-1.183303	53.1	-0.1950535	-9.926409	0.61	3	99	0	50	0.2091063	1.68821	35.22464	
12:33:02	52.95283	-1.183306	53.143	-0.1950535	-9.926409	0.66	3	99	0	50	-0.4140615	1.892998	35.20835	
12:33:02	52.95282	-1.183308	52.88	-0.1950535	-9.926409	1.36	3	99	0	50	0.1134139	2.5724	35.17387	
12:33:03	52.95282	-1.183307	52.287	-0.1950535	-9.926409	2.06	3	99	0	50	1.099286	3.038058	35.18808	
12:33:03	52.95282	-1.183306	52.084	-0.1950535	-9.926409	2.35	3	99	0	50	1.89588	3.057199	35.24664	
12:33:03	52.95281	-1.183306	52.021	-0.2604002	-8.520927	1.95	3	99	0	50	2.000297	3.401989	35.29685	
12:33:03	52.95281	-1.183306	51.687	-0.2604002	-8.520927	1.83	3	99	0	50	1.905002	2.701287	35.32905	
