Date	Latitude(deg) 	Longitude(deg)	hamsl(m)	hafl(m)	climbrate(cm/s)	GroundSpeed(m/s)	Airspeed(m/s)	Mav_Link(%)	Rssi_Link(%)	Throttle	Roll(deg)	Pitch(deg)	Yaw(deg)
09:44:58	0	0	0	0	0	0	0	100	0	0	-1.209532	0.8077747	58.0658	
09:44:58	0	0	0	-0.8583677	-5.925689	0	3	100	0	50	-1.199565	0.8094278	58.06673	
09:44:59	0	0	0	-0.8583677	-5.925689	0	3	100	0	50	-1.208955	0.8042254	58.06654	
09:44:59	0	0	0	-0.8583677	-5.925689	0	3	100	0	50	-1.213399	0.7882563	58.07277	
09:44:59	0	0	0	-0.8583677	-5.925689	0	3	100	0	50	-1.204382	0.797109	58.07799	
09:44:59	0	0	0	-0.8583677	-5.925689	0	3	100	0	50	-1.204916	0.7858226	58.0841	
09:44:59	0	0	0	0.2101532	31.21582	0	3	100	0	50	-1.205135	0.7776523	58.08625	
09:45:00	0	0	0	0.2101532	31.21582	0	3	100	0	50	-1.200098	0.7780322	58.09391	
09:45:00	0	0	0	0.2101532	31.21582	0	3	100	0	50	-1.197065	0.7729415	58.09237	
09:45:00	0	0	0	0.2101532	31.21582	0	3	100	0	50	-1.191815	0.7788277	58.09096	
09:45:00	0	0	0	0.2101532	31.21582	0	3	100	0	50	-1.191816	0.7769418	58.08356	
09:45:00	0	0	0	0.5587491	15.53431	0	3	100	0	50	-1.184761	0.7833191	58.08968	
09:45:01	0	0	0	0.5587491	15.53431	0	3	100	0	50	-1.192642	0.7715563	58.09336	
09:45:01	0	0	0	0.5587491	15.53431	0	3	100	0	50	-1.186434	0.7717963	58.09855	
09:45:01	0	0	0	0.5587491	15.53431	0	3	100	0	50	-1.19626	0.7740697	58.09674	
09:45:01	0	0	0	0.5587491	15.53431	0	3	100	0	50	-1.207521	0.7704276	58.10803	
09:45:01	0	0	0	0.2658963	-17.17456	0	3	100	0	50	-1.205075	0.7603526	58.11066	
09:45:02	0	0	0	0.2658963	-17.17456	0	3	100	0	50	-1.205352	0.7487196	58.12415	
09:45:02	0	0	0	0.2658963	-17.17456	0	3	100	0	50	-1.210502	0.731153	58.11832	
09:45:02	0	0	0	0.2658963	-17.17456	0	3	100	0	50	-1.225335	0.7222244	58.12554	
09:45:02	0	0	0	0.2658963	-17.17456	0	3	100	0	50	-1.222565	0.7231663	58.13472	
09:45:02	0	0	0	-0.2471217	-46.23525	0	3	100	0	50	-1.219916	0.7122217	58.13951	
09:45:03	0	0	0	-0.2471217	-46.23525	0	3	100	0	50	-1.220386	0.7276894	58.14506	
09:45:03	0	0	0	-0.2471217	-46.23525	0	3	100	0	50	-1.225092	0.7210342	58.13442	
09:45:03	0	0	0	-0.2471217	-46.23525	0	3	100	0	50	-1.235422	0.7276267	58.12935	
09:45:03	0	0	0	-0.2471217	-46.23525	0	3	100	0	50	-1.245281	0.72652	58.14003	
09:45:04	0	0	0	-0.5300816	-53.40038	0	3	100	0	50	-1.238909	0.7333916	58.14596	
09:45:04	0	0	0	-0.5300816	-53.40038	0	3	100	0	50	-1.221875	0.7379273	58.13685	
09:45:04	0	0	0	-0.5300816	-53.40038	0	3	100	0	50	-1.216001	0.7363267	58.14382	
09:45:04	0	0	0	-0.5300816	-53.40038	0	3	100	0	50	-1.207676	0.7279446	58.13854	
09:45:04	0	0	0	-0.5300816	-53.40038	0	3	100	0	50	-1.208644	0.7196441	58.1414	
09:45:05	0	0	0	-0.5978202	-47.05905	0	3	100	0	50	-1.206184	0.7276965	58.12935	
09:45:05	0	0	0	-0.5978202	-47.05905	0	3	100	0	50	-1.205375	0.7262052	58.12834	
09:45:05	0	0	0	-0.5978202	-47.05905	0	3	100	0	50	-1.208858	0.7257897	58.11834	
09:45:05	0	0	0	-0.5978202	-47.05905	0	3	100	0	50	-1.206086	0.7118287	58.10927	
09:45:05	0	0	0	-0.5978202	-47.05905	0	3	100	0	50	-1.206457	0.6922826	58.10369	
09:45:06	0	0	0	-0.4221047	-31.63329	0	3	100	0	50	-1.212703	0.680973	58.10215	
09:45:06	0	0	0	-0.4221047	-31.63329	0	3	100	0	50	-1.214976	0.6864402	58.11059	
09:45:06	0	0	0	-0.4221047	-31.63329	0	3	100	0	50	-1.222759	0.6686339	58.11259	
09:45:06	0	0	0	-0.4221047	-31.63329	0	3	100	0	50	-1.239894	0.660445	58.10826	
09:45:06	0	0	0	-0.4221047	-31.63329	0	3	100	0	50	-1.257971	0.6432461	58.10003	
09:45:07	0	0	0	-0.4980504	-32.97146	0	3	100	0	50	-1.258385	0.6519742	58.08979	
09:45:07	0	0	0	-0.4980504	-32.97146	0	3	100	0	50	-1.25822	0.654211	58.09297	
09:45:07	0	0	0	-0.4980504	-32.97146	0	3	100	0	50	-1.251851	0.6659418	58.08781	
09:45:07	0	0	0	-0.4980504	-32.97146	0	3	100	0	50	-1.244368	0.6878234	58.09587	
09:45:07	0	0	0	-0.4980504	-32.97146	0	3	100	0	50	-1.247032	0.6703715	58.10135	
09:45:08	0	0	0	-0.7657347	-41.73988	0	3	100	0	50	-1.243907	0.6746752	58.08932	
09:45:08	0	0	0	-0.7657347	-41.73988	0	3	100	0	50	-1.236873	0.6738905	58.0901	
09:45:08	0	0	0	-0.7657347	-41.73988	0	3	100	0	50	-1.244082	0.6477902	58.09314	
09:45:08	0	0	0	-0.7657347	-41.73988	0	3	100	0	50	-1.250163	0.6355752	58.08771	
09:45:08	0	0	0	-0.7657347	-41.73988	0	3	100	0	50	-1.252562	0.6269658	58.09061	
09:45:09	0	0	0	-0.4315483	-21.15281	0	3	100	0	50	-1.260782	0.6318746	58.09315	
09:45:09	0	0	0	-0.4315483	-21.15281	0	3	100	0	50	-1.264879	0.63583	58.09943	
09:45:09	0	0	0	-0.4315483	-21.15281	0	3	100	0	50	-1.263169	0.6366886	58.09012	
09:45:09	0	0	0	-0.4315483	-21.15281	0	3	100	0	50	-1.261086	0.6373171	58.08822	
09:45:09	0	0	0	-0.4315483	-21.15281	0	3	100	0	50	-1.255626	0.6319879	58.08303	
09:45:10	0	0	0	-0.6841602	-32.48068	0	3	100	0	50	-1.279719	0.6008298	58.07464	
09:45:10	0	0	0	-0.6841602	-32.48068	0	3	100	0	50	-1.272017	0.5973531	58.07525	
09:45:10	0	0	0	-0.6841602	-32.48068	0	3	100	0	50	-1.271714	0.6178025	58.07181	
09:45:10	0	0	0	-0.6841602	-32.48068	0	3	100	0	50	-1.284439	0.6257972	58.07115	
09:45:10	0	0	0	-0.6841602	-32.48068	0	3	100	0	50	-1.281575	0.6376076	58.08342	
09:45:11	0	0	0	-0.689138	-28.76603	0	3	100	0	50	-1.274867	0.6314453	58.07879	
09:45:11	0	0	0	-0.689138	-28.76603	0	3	100	0	50	-1.284866	0.614942	58.06366	
09:45:11	0	0	0	-0.689138	-28.76603	0	3	100	0	50	-1.285609	0.5950554	58.04709	
09:45:11	0	0	0	-0.689138	-28.76603	0	3	100	0	50	-1.282476	0.5953805	58.0487	
09:45:11	0	0	0	-0.689138	-28.76603	0	3	100	0	50	-1.275404	0.5986488	58.04791	
09:45:12	0	0	0	-0.4519741	-14.91937	0	3	100	0	50	-1.279476	0.5984831	58.03902	
09:45:12	0	0	0	-0.4519741	-14.91937	0	3	100	0	50	-1.271613	0.5959336	58.02925	
09:45:12	0	0	0	-0.4519741	-14.91937	0	3	100	0	50	-1.265793	0.5947041	58.01926	
09:45:12	0	0	0	-0.4519741	-14.91937	0	3	100	0	50	-1.263214	0.5925929	58.01739	
09:45:12	0	0	0	-0.4519741	-14.91937	0	3	100	0	50	-1.254188	0.6023044	58.01413	
09:45:13	0	0	0	-0.4793203	-18.57189	0	3	100	0	50	-1.252426	0.6021135	58.01326	
09:45:13	0	0	0	-0.4793203	-18.57189	0	3	100	0	50	-1.263779	0.5868613	58.00952	
09:45:13	0	0	0	-0.4793203	-18.57189	0	3	100	0	50	-1.263236	0.604272	58.02086	
09:45:13	0	0	0	-0.4793203	-18.57189	0	3	100	0	50	-1.271809	0.6074789	58.024	
09:45:13	0	0	0	-0.4793203	-18.57189	0	3	100	0	50	-1.2618	0.6024901	58.03216	
09:45:14	0	0	0	-0.6703016	-24.8211	0	3	100	0	50	-1.264139	0.5856534	58.0219	
09:45:14	0	0	0	-0.6703016	-24.8211	0	3	100	0	50	-1.266586	0.5839348	58.02091	
09:45:14	0	0	0	-0.6703016	-24.8211	0	3	100	0	50	-1.190625	0.5245038	57.74327	
09:45:14	0	0	0	-0.6703016	-24.8211	0	3	100	0	50	-1.207908	0.4029877	55.46276	
09:45:14	0	0	0	-0.6703016	-24.8211	0	3	100	0	50	-0.992098	0.4503627	52.62474	
09:45:15	0	0	0	-0.5215075	-16.32377	0	3	100	0	50	-0.6881734	0.4977238	50.17167	
09:45:15	0	0	0	-0.5215075	-16.32377	0	3	100	0	50	-0.8857205	0.5824695	50.68444	
09:45:15	0	0	0	-0.5215075	-16.32377	0	3	100	0	50	-1.132012	0.5923048	54.43031	
09:45:15	0	0	0	-0.5215075	-16.32377	0	3	100	0	50	-1.104511	0.5638841	54.55316	
09:45:15	0	0	0	-0.5215075	-16.32377	0	3	100	0	50	-1.140633	0.5186206	54.58493	
09:45:16	0	0	0	-0.5414214	-19.85204	0	3	100	0	50	-1.165676	0.5303531	54.63314	
09:45:16	0	0	0	-0.5414214	-19.85204	0	3	100	0	50	-1.164527	0.5365574	54.63745	
09:45:16	0	0	0	-0.5414214	-19.85204	0	3	100	0	50	-1.169775	0.5315306	54.64911	
09:45:16	0	0	0	-0.5414214	-19.85204	0	3	100	0	50	-1.181577	0.5314611	54.65829	
09:45:17	0	0	0	-0.5414214	-19.85204	0	3	100	0	50	-1.168853	0.5442815	54.66832	
09:45:17	0	0	0	-0.6142557	-20.24157	0	3	100	0	50	-1.161497	0.5745763	54.67927	
09:45:17	0	0	0	-0.6142557	-20.24157	0	3	100	0	50	-1.159993	0.5827315	54.68806	
09:45:17	0	0	0	-0.6142557	-20.24157	0	3	100	0	50	-0.535978	0.6068728	50.3158	
09:45:17	0	0	0	-0.6142557	-20.24157	0	3	100	0	50	-0.1625609	0.5482442	43.04047	
09:45:17	0	0	0	-0.6142557	-20.24157	0	3	100	0	50	0.3638945	0.4816069	36.9366	
09:45:18	0	0	0	-0.3949676	19.87319	0	3	100	0	50	0.5652162	0.603811	32.48753	
09:45:18	0	0	0	-0.3949676	19.87319	0	3	100	0	50	0.6613405	0.6516304	29.44913	
09:45:18	0	0	0	-0.3949676	19.87319	0	3	100	0	50	0.692562	0.6938992	27.22554	
09:45:18	0	0	0	-0.3949676	19.87319	0	3	100	0	50	0.6449961	0.7605026	24.51284	
09:45:19	0	0	0	-0.3949676	19.87319	0	3	100	0	50	0.470971	0.7610995	23.12817	
09:45:19	0	0	0	-0.386865	7.661328	0	3	100	0	50	0.4837276	0.7630541	22.23777	
09:45:19	0	0	0	-0.386865	7.661328	0	3	100	0	50	0.4832622	0.7404796	22.62956	
09:45:19	0	0	0	-0.386865	7.661328	0	3	100	0	50	0.3560103	0.6822802	23.92477	
09:45:19	0	0	0	-0.386865	7.661328	0	3	100	0	50	-0.1393922	0.6532129	28.16514	
09:45:20	0	0	0	-0.386865	7.661328	0	3	100	0	50	-0.672596	0.5756813	32.69827	
09:45:20	0	0	0	-0.4262386	8.219501	0	3	100	0	50	-1.078232	0.3558671	37.9073	
09:45:20	0	0	0	-0.4262386	8.219501	0	3	100	0	50	-1.236365	0.4460075	41.60564	
09:45:20	0	0	0	-0.4262386	8.219501	0	3	100	0	50	-1.521844	0.4655398	45.25906	
09:45:20	0	0	0	-0.4262386	8.219501	0	3	100	0	50	-1.476356	0.4536945	49.27402	
09:45:21	0	0	0	-0.4262386	8.219501	0	3	100	0	50	-1.514186	0.5034924	53.23486	
09:45:21	0	0	0	-0.442018	3.05573	0	3	100	0	50	-1.683105	0.560606	58.47657	
09:45:21	0	0	0	-0.442018	3.05573	0	3	100	0	50	-1.739195	0.5872338	61.52689	
09:45:21	0	0	0	-0.442018	3.05573	0	3	100	0	50	-1.917102	0.6582747	64.31733	
09:45:21	0	0	0	-0.442018	3.05573	0	3	100	0	50	-1.896223	0.7203304	66.36547	
09:45:22	0	0	0	-0.442018	3.05573	0	3	100	0	50	-1.953393	0.7976843	68.00547	
09:45:22	0	0	0	-0.3924595	2.148929	0	3	100	0	50	-2.098974	0.788467	70.53494	
09:45:22	0	0	0	-0.3924595	2.148929	0	3	100	0	50	-2.083807	0.8537527	74.146	
09:45:22	0	0	0	-0.3924595	2.148929	0	3	100	0	50	-2.153683	0.8532192	74.99046	
09:45:22	0	0	0	-0.3924595	2.148929	0	3	100	0	50	-3.417631	0.8242072	74.13081	
09:45:23	0	0	0	-0.3924595	2.148929	0	3	100	0	50	-4.566594	0.8331537	73.84333	
09:45:23	0	0	0	-0.2889588	-0.08199136	0	3	100	0	50	-6.409807	1.611706	72.21881	
09:45:23	0	0	0	-0.2889588	-0.08199136	0	3	100	0	50	-6.241921	5.643892	69.96449	
09:45:23	0	0	0	-0.2889588	-0.08199136	0	3	100	0	50	-5.129576	12.18609	69.90683	
09:45:23	0	0	0	-0.2889588	-0.08199136	0	3	100	0	50	-2.128022	17.85206	72.07557	
09:45:24	0	0	0	-0.2889588	-0.08199136	0	3	100	0	50	1.017696	24.08762	76.15767	
09:45:24	0	0	0	-0.4263702	-19.28894	0	3	100	0	50	1.412626	27.21868	79.51962	
09:45:24	0	0	0	-0.4263702	-19.28894	0	3	100	0	50	0.1680362	27.63932	80.82658	
09:45:24	0	0	0	-0.4263702	-19.28894	0	3	100	0	50	-2.967811	26.84655	82.31755	
09:45:24	0	0	0	-0.4263702	-19.28894	0	3	100	0	50	-10.27973	23.91224	83.21944	
09:45:25	0	0	0	-0.4263702	-19.28894	0	3	100	0	50	-13.38645	22.82509	84.79636	
09:45:25	0	0	0	-0.6420973	-31.61888	0	3	100	0	50	-14.64253	22.53336	85.67807	
09:45:25	0	0	0	-0.6420973	-31.61888	0	3	100	0	50	-15.87584	22.12344	86.16167	
09:45:25	0	0	0	-0.6420973	-31.61888	0	3	100	0	50	-16.90895	21.52438	86.82889	
09:45:25	0	0	0	-0.6420973	-31.61888	0	3	100	0	50	-18.48407	21.18614	87.27122	
09:45:26	0	0	0	-0.6420973	-31.61888	0	3	100	0	50	-15.15326	21.42394	87.505	
09:45:26	0	0	0	-0.6825952	-23.68479	0	3	100	0	50	-3.419801	21.52326	89.35225	
09:45:26	0	0	0	-0.6825952	-23.68479	0	3	100	0	50	12.40292	24.42233	93.76457	
09:45:26	0	0	0	-0.6825952	-23.68479	0	3	100	0	50	25.96216	27.69668	98.64378	
09:45:26	0	0	0	-0.6825952	-23.68479	0	3	100	0	50	30.21186	27.29064	101.3355	
09:45:27	0	0	0	-0.6825952	-23.68479	0	3	100	0	50	31.82753	26.627	102.2256	
09:45:27	0	0	0	-0.6140859	-24.13839	0	3	100	0	50	33.52654	26.4663	103.5088	
09:45:27	0	0	0	-0.6140859	-24.13839	0	3	100	0	50	34.57334	26.04447	104.6625	
09:45:27	0	0	0	-0.6140859	-24.13839	0	3	100	0	50	35.15614	25.39499	105.9399	
09:45:27	0	0	0	-0.6140859	-24.13839	0	3	100	0	50	38.79164	24.85664	108.2538	
09:45:28	0	0	0	-0.6140859	-24.13839	0	3	100	0	50	41.20561	24.08977	110.0942	
09:45:28	0	0	0	-0.7291893	-32.46885	0	3	100	0	50	44.29489	22.95951	112.1324	
09:45:28	0	0	0	-0.7291893	-32.46885	0	3	100	0	50	47.91551	21.88615	114.3161	
09:45:28	0	0	0	-0.7291893	-32.46885	0	3	100	0	50	50.15705	21.01403	115.6234	
09:45:28	0	0	0	-0.7291893	-32.46885	0	3	100	0	50	52.53542	20.24532	116.7909	
09:45:29	0	0	0	-0.7291893	-32.46885	0	3	100	0	50	54.93007	19.58432	117.9907	
09:45:29	0	0	0	-0.8179346	-39.02126	0	3	100	0	50	58.34352	18.96832	119.0572	
09:45:29	0	0	0	-0.8179346	-39.02126	0	3	100	0	50	60.06361	18.3309	119.3701	
09:45:29	0	0	0	-0.8179346	-39.02126	0	3	100	0	50	62.30458	17.95196	120.0872	
09:45:29	0	0	0	-0.8179346	-39.02126	0	3	100	0	50	63.99362	17.56637	120.4428	
09:45:30	0	0	0	-0.8179346	-39.02126	0	3	100	0	50	66.34314	16.99646	121.1736	
09:45:30	0	0	0	-0.8244923	-40.49411	0	3	100	0	50	66.55474	16.69545	121.2876	
09:45:30	0	0	0	-0.8244923	-40.49411	0	3	100	0	50	66.36743	16.61023	121.5379	
09:45:30	0	0	0	-0.8244923	-40.49411	0	3	100	0	50	66.27958	16.52063	121.7212	
09:45:31	0	0	0	-0.8244923	-40.49411	0	3	100	0	50	66.19392	16.37997	121.8957	
09:45:31	0	0	0	-0.8244923	-40.49411	0	3	100	0	50	66.06147	16.24662	122.1224	
09:45:31	0	0	0	-0.7891895	-40.63016	0	3	100	0	50	66.13628	16.06525	122.3036	
09:45:31	0	0	0	-0.7891895	-40.63016	0	3	100	0	50	66.06706	15.92648	122.5157	
09:45:31	0	0	0	-0.7891895	-40.63016	0	3	100	0	50	65.83573	15.82026	122.7247	
09:45:32	0	0	0	-0.7891895	-40.63016	0	3	100	0	50	65.51578	15.75077	122.9571	
09:45:32	0	0	0	-0.7891895	-40.63016	0	3	100	0	50	64.62234	15.64617	123.1551	
09:45:32	0	0	0	-0.6742269	-37.44235	0	3	100	0	50	62.76462	15.57374	122.9612	
09:45:32	0	0	0	-0.6742269	-37.44235	0	3	100	0	50	59.30358	15.45679	122.1699	
09:45:32	0	0	0	-0.6742269	-37.44235	0	3	100	0	50	54.8299	15.07845	121.1619	
09:45:33	0	0	0	-0.6742269	-37.44235	0	3	100	0	50	51.33533	14.92291	120.4608	
09:45:33	0	0	0	-0.6742269	-37.44235	0	3	100	0	50	49.29774	14.84639	120.2721	
09:45:33	0	0	0	-0.7215223	-43.8926	0	3	100	0	50	48.16691	14.91006	120.4088	
09:45:33	0	0	0	-0.7215223	-43.8926	0	3	100	0	50	45.51756	14.91462	119.7339	
09:45:33	0	0	0	-0.7215223	-43.8926	0	3	100	0	50	42.45974	14.84166	119.0816	
09:45:34	0	0	0	-0.7215223	-43.8926	0	3	100	0	50	39.42894	15.28704	117.9712	
09:45:34	0	0	0	-0.7215223	-43.8926	0	3	100	0	50	36.17808	16.02167	116.2133	
09:45:34	0	0	0	-0.9184402	-50.99356	0	3	100	0	50	33.84907	16.32473	115.1244	
09:45:34	0	0	0	-0.9184402	-50.99356	0	3	100	0	50	31.17618	16.50937	113.796	
09:45:34	0	0	0	-0.9184402	-50.99356	0	3	100	0	50	28.88548	16.57718	112.6046	
09:45:35	0	0	0	-0.9184402	-50.99356	0	3	100	0	50	26.49578	16.65545	111.58	
09:45:35	0	0	0	-0.9184402	-50.99356	0	3	100	0	50	24.45881	16.81865	110.7736	
09:45:35	0	0	0	-0.9918098	-44.95756	0	3	100	0	50	21.62355	16.67237	109.5443	
09:45:35	0	0	0	-0.9918098	-44.95756	0	3	100	0	50	20.57988	16.99316	108.974	
09:45:35	0	0	0	-0.9918098	-44.95756	0	3	100	0	50	19.24505	17.24074	108.292	
09:45:36	0	0	0	-0.9918098	-44.95756	0	3	100	0	50	17.25924	17.33342	107.369	
09:45:36	0	0	0	-0.9918098	-44.95756	0	3	100	0	50	15.90052	17.56207	106.8823	
09:45:36	0	0	0	-0.8109213	-16.66618	0	3	100	0	50	14.69568	17.69352	106.3742	
09:45:36	0	0	0	-0.8109213	-16.66618	0	3	100	0	50	11.66591	17.36704	105.2325	
09:45:36	0	0	0	-0.8109213	-16.66618	0	3	100	0	50	8.949132	16.95076	104.4084	
09:45:37	0	0	0	-0.8109213	-16.66618	0	3	100	0	50	7.771784	16.85594	103.7148	
09:45:37	0	0	0	-0.8109213	-16.66618	0	3	100	0	50	7.148585	17.09426	103.4943	
09:45:37	0	0	0	-0.6255189	2.250436	0	3	100	0	50	5.879972	16.83274	102.9089	
09:45:37	0	0	0	-0.6255189	2.250436	0	3	100	0	50	4.066562	16.76668	102.3243	
09:45:37	0	0	0	-0.6255189	2.250436	0	3	100	0	50	1.667609	16.58036	101.5205	
09:45:38	0	0	0	-0.6255189	2.250436	0	3	100	0	50	1.107062	16.66815	101.2742	
09:45:38	0	0	0	-0.6255189	2.250436	0	3	100	0	50	1.15013	16.73403	101.3345	
09:45:38	0	0	0	-0.492006	9.804705	0	3	100	0	50	1.785095	16.90235	101.3299	
09:45:38	0	0	0	-0.492006	9.804705	0	3	100	0	50	3.79068	17.22902	101.8126	
09:45:38	0	0	0	-0.492006	9.804705	0	3	100	0	50	8.091013	17.56479	102.9323	
09:45:39	0	0	0	-0.492006	9.804705	0	3	100	0	50	12.05484	17.94961	103.7363	
09:45:39	0	0	0	-0.492006	9.804705	0	3	100	0	50	14.81908	18.3212	104.3163	
09:45:39	0	0	0	-0.01366172	32.25594	0	3	100	0	50	17.20698	18.23263	104.6364	
09:45:39	0	0	0	-0.01366172	32.25594	0	3	100	0	50	20.06605	18.31561	104.9169	
09:45:39	0	0	0	-0.01366172	32.25594	0	3	100	0	50	23.13813	18.29492	105.2906	
09:45:40	0	0	0	-0.01366172	32.25594	0	3	100	0	50	24.6597	18.4149	105.5821	
09:45:40	0	0	0	-0.01366172	32.25594	0	3	100	0	50	26.0148	18.36623	105.9895	
09:45:40	0	0	0	0.1170842	24.85734	0	3	100	0	50	27.7783	18.45401	106.575	
09:45:40	0	0	0	0.1170842	24.85734	0	3	100	0	50	28.98487	18.42745	106.9292	
09:45:40	0	0	0	0.1170842	24.85734	0	3	100	0	50	31.14545	18.62468	107.8443	
09:45:41	0	0	0	0.1170842	24.85734	0	3	100	0	50	34.1537	18.7737	109.0227	
09:45:41	0	0	0	0.1170842	24.85734	0	3	100	0	50	36.74544	18.28885	109.6678	
09:45:41	0	0	0	-0.080524	7.62895	0	3	100	0	50	38.4847	18.15267	110.3735	
09:45:41	0	0	0	-0.080524	7.62895	0	3	100	0	50	41.75118	17.9519	111.7081	
09:45:41	0	0	0	-0.080524	7.62895	0	3	100	0	50	45.47562	17.45174	113.4521	
09:45:42	0	0	0	-0.080524	7.62895	0	3	100	0	50	48.05687	17.01562	113.9339	
09:45:42	0	0	0	-0.080524	7.62895	0	3	100	0	50	50.30825	16.92996	114.2932	
09:45:42	0	0	0	-0.3495958	-6.295318	0	3	100	0	50	53.86842	16.87223	114.9973	
09:45:42	0	0	0	-0.3495958	-6.295318	0	3	100	0	50	56.76001	16.0157	114.1778	
09:45:42	0	0	0	-0.3495958	-6.295318	0	3	100	0	50	61.2551	14.85751	113.5984	
09:45:43	0	0	0	-0.3495958	-6.295318	0	3	100	0	50	64.40199	15.24909	114.0065	
09:45:43	0	0	0	-0.3495958	-6.295318	0	3	100	0	50	67.3138	15.52344	114.1502	
09:45:43	0	0	0	-0.6091074	-11.52773	0	3	100	0	50	69.63124	15.36415	114.0621	
09:45:43	0	0	0	-0.6091074	-11.52773	0	3	100	0	50	71.23563	15.28547	114.1154	
09:45:44	0	0	0	-0.6091074	-11.52773	0	3	100	0	50	72.51822	15.22809	114.0558	
09:45:44	0	0	0	-0.6091074	-11.52773	0	3	100	0	50	72.31947	14.52678	113.394	
09:45:44	0	0	0	-0.6091074	-11.52773	0	3	100	0	50	72.48111	14.36194	113.3326	
09:45:44	0	0	0	-0.7897546	-11.01003	0	3	100	0	50	72.51339	14.46788	113.43	
09:45:44	0	0	0	-0.7897546	-11.01003	0	3	100	0	50	72.46036	14.5531	113.5032	
09:45:45	0	0	0	-0.7897546	-11.01003	0	3	100	0	50	72.32656	14.60258	113.5441	
09:45:45	0	0	0	-0.7897546	-11.01003	0	3	100	0	50	71.75392	14.58271	113.5358	
09:45:45	0	0	0	-0.7897546	-11.01003	0	3	100	0	50	71.18388	14.5667	113.502	
09:45:45	0	0	0	-0.5339075	9.168692	0	3	100	0	50	69.8996	14.56793	113.4903	
09:45:45	0	0	0	-0.5339075	9.168692	0	3	100	0	50	66.68731	14.86875	113.7159	
09:45:46	0	0	0	-0.5339075	9.168692	0	3	100	0	50	62.95785	15.03916	113.2802	
09:45:46	0	0	0	-0.5339075	9.168692	0	3	100	0	50	59.94976	15.344	113.126	
09:45:46	0	0	0	-0.5339075	9.168692	0	3	100	0	50	56.86135	15.2549	112.4314	
09:45:46	0	0	0	-0.4185537	12.36688	0	3	100	0	50	53.98335	15.37147	111.7915	
09:45:46	0	0	0	-0.4185537	12.36688	0	3	100	0	50	51.19573	15.48409	111.075	
09:45:47	0	0	0	-0.4185537	12.36688	0	3	100	0	50	48.5022	15.89115	110.5771	
09:45:47	0	0	0	-0.4185537	12.36688	0	3	100	0	50	46.37712	16.1314	110.0127	
09:45:47	0	0	0	-0.4185537	12.36688	0	3	100	0	50	43.80182	16.36209	108.9986	
09:45:47	0	0	0	-0.4462197	9.140407	0	3	100	0	50	41.04144	16.81466	107.6707	
09:45:47	0	0	0	-0.4462197	9.140407	0	3	100	0	50	38.26442	17.48815	106.2745	
09:45:48	0	0	0	-0.4462197	9.140407	0	3	100	0	50	35.15169	17.4703	105.3626	
09:45:48	0	0	0	-0.4462197	9.140407	0	3	100	0	50	33.15414	17.32169	104.7011	
09:45:48	0	0	0	-0.4462197	9.140407	0	3	100	0	50	31.23645	17.21869	104.2037	
09:45:48	0	0	0	-0.4736378	5.621836	0	3	100	0	50	28.94212	16.90508	103.5616	
09:45:48	0	0	0	-0.4736378	5.621836	0	3	100	0	50	25.76554	16.05881	102.9095	
09:45:49	0	0	0	-0.4736378	5.621836	0	3	100	0	50	23.43888	15.69776	102.5108	
09:45:49	0	0	0	-0.4736378	5.621836	0	3	100	0	50	20.04809	15.19659	101.8586	
09:45:49	0	0	0	-0.4736378	5.621836	0	3	100	0	50	17.29216	14.39281	101.2955	
09:45:49	0	0	0	-0.3324775	7.566496	0	3	100	0	50	13.92986	14.1754	100.7792	
09:45:49	0	0	0	-0.3324775	7.566496	0	3	100	0	50	11.0932	14.09839	100.362	
09:45:50	0	0	0	-0.3324775	7.566496	0	3	100	0	50	7.816334	13.46277	100.1568	
09:45:50	0	0	0	-0.3324775	7.566496	0	3	100	0	50	4.632796	12.37123	99.56811	
09:45:50	0	0	0	-0.3324775	7.566496	0	3	100	0	50	2.02841	11.79599	99.2832	
09:45:50	0	0	0	-0.3676827	6.298643	0	3	100	0	50	-1.497331	10.56134	98.57124	
09:45:50	0	0	0	-0.3676827	6.298643	0	3	100	0	50	-7.572193	7.372486	96.66521	
09:45:51	0	0	0	-0.3676827	6.298643	0	3	100	0	50	-11.77295	6.442406	96.24759	
09:45:51	0	0	0	-0.3676827	6.298643	0	3	100	0	50	-17.47818	5.375764	96.79169	
09:45:51	0	0	0	-0.3676827	6.298643	0	3	100	0	50	-21.63971	5.213735	97.84824	
09:45:51	0	0	0	-0.2643209	9.128615	0	3	100	0	50	-26.30239	4.652325	98.55558	
09:45:51	0	0	0	-0.2643209	9.128615	0	3	100	0	50	-31.05798	3.893101	98.962	
09:45:52	0	0	0	-0.2643209	9.128615	0	3	100	0	50	-34.75562	3.376237	98.94376	
09:45:52	0	0	0	-0.2643209	9.128615	0	3	100	0	50	-40.2453	0.9289235	98.40927	
09:45:52	0	0	0	-0.2643209	9.128615	0	3	100	0	50	-44.5135	-0.7381235	97.89964	
09:45:52	0	0	0	-0.5332475	-7.873541	0	3	100	0	50	-49.80059	-2.424587	97.13808	
09:45:52	0	0	0	-0.5332475	-7.873541	0	3	100	0	50	-53.93945	-3.429933	97.0109	
09:45:53	0	0	0	-0.5332475	-7.873541	0	3	100	0	50	-56.87416	-4.493408	97.46483	
09:45:53	0	0	0	-0.5332475	-7.873541	0	3	100	0	50	-60.09034	-5.413909	97.84856	
09:45:53	0	0	0	-0.5332475	-7.873541	0	3	100	0	50	-63.03079	-6.48347	98.02559	
09:45:53	0	0	0	-0.8363315	-13.43974	0	3	100	0	50	-65.23444	-7.20175	97.96094	
09:45:53	0	0	0	-0.8363315	-13.43974	0	3	100	0	50	-66.81313	-7.819777	97.92397	
09:45:54	0	0	0	-0.8363315	-13.43974	0	3	100	0	50	-70.18237	-8.95053	98.04943	
09:45:54	0	0	0	-0.8363315	-13.43974	0	3	100	0	50	-74.02625	-9.936063	97.87157	
09:45:54	0	0	0	-0.8363315	-13.43974	0	3	100	0	50	-76.31212	-10.69196	97.85321	
09:45:54	0	0	0	-0.7620956	4.400997	0	3	100	0	50	-78.73782	-11.15958	97.80621	
09:45:55	0	0	0	-0.7620956	4.400997	0	3	100	0	50	-80.52763	-11.35436	97.78226	
09:45:55	0	0	0	-0.7620956	4.400997	0	3	100	0	50	-83.44893	-12.12001	97.78374	
09:45:55	0	0	0	-0.7620956	4.400997	0	3	100	0	50	-86.04443	-12.92899	97.78752	
09:45:55	0	0	0	-0.7620956	4.400997	0	3	100	0	50	-88.56045	-13.54221	97.80236	
09:45:55	0	0	0	-0.3841961	30.91323	0	3	100	0	50	-89.72569	-13.74512	97.90943	
09:45:56	0	0	0	-0.3841961	30.91323	0	3	100	0	50	-91.27525	-14.08642	98.00317	
09:45:56	0	0	0	-0.3841961	30.91323	0	3	100	0	50	-90.57816	-13.91572	98.01499	
09:45:56	0	0	0	-0.3841961	30.91323	0	3	100	0	50	-91.01276	-13.98954	97.98117	
09:45:56	0	0	0	-0.3841961	30.91323	0	3	100	0	50	-91.16289	-14.0924	97.92499	
09:45:56	0	0	0	-0.3080285	36.32275	0	3	100	0	50	-90.84277	-13.96088	97.87545	
09:45:57	0	0	0	-0.3080285	36.32275	0	3	100	0	50	-89.28519	-13.76836	98.03404	
09:45:57	0	0	0	-0.3080285	36.32275	0	3	100	0	50	-80.15063	-12.6925	98.73327	
09:45:57	0	0	0	-0.3080285	36.32275	0	3	100	0	50	-76.0603	-12.13796	98.674	
09:45:57	0	0	0	-0.3080285	36.32275	0	3	100	0	50	-67.17574	-10.83409	98.74136	
09:45:57	0	0	0	-0.5171371	21.29	0	3	100	0	50	-62.3862	-9.828768	98.61197	
09:45:58	0	0	0	-0.5171371	21.29	0	3	100	0	50	-56.39296	-8.492445	98.32154	
09:45:58	0	0	0	-0.5171371	21.29	0	3	100	0	50	-42.47701	-3.375118	97.35609	
09:45:58	0	0	0	-0.5171371	21.29	0	3	100	0	50	-36.86685	-1.901056	97.6852	
09:45:58	0	0	0	-0.5171371	21.29	0	3	100	0	50	-24.42295	2.353608	99.89682	
09:45:58	0	0	0	-0.5673379	11.70351	0	3	100	0	50	-7.079725	9.374668	104.3395	
09:45:59	0	0	0	-0.5673379	11.70351	0	3	100	0	50	5.554507	11.4311	103.9596	
09:45:59	0	0	0	-0.5673379	11.70351	0	3	100	0	50	12.78618	14.77997	106.687	
09:45:59	0	0	0	-0.5673379	11.70351	0	3	100	0	50	15.37955	16.74229	108.3706	
09:45:59	0	0	0	-0.5673379	11.70351	0	3	100	0	50	16.17103	19.02365	108.0619	
09:45:59	0	0	0	-0.6957229	-9.195601	0	3	100	0	50	15.49602	21.27996	109.3244	
09:46:00	0	0	0	-0.6957229	-9.195601	0	3	100	0	50	14.02263	22.04151	109.3777	
09:46:00	0	0	0	-0.6957229	-9.195601	0	3	100	0	50	14.82857	22.7085	110.4547	
09:46:00	0	0	0	-0.6957229	-9.195601	0	3	100	0	50	16.42397	23.33196	109.5838	
09:46:00	0	0	0	-0.6957229	-9.195601	0	3	100	0	50	17.80634	24.21383	109.392	
09:46:00	0	0	0	-0.9025317	-19.57996	0	3	100	0	50	19.22027	31.12222	110.6026	
09:46:01	0	0	0	-0.9025317	-19.57996	0	3	100	0	50	19.24475	41.17266	111.3021	
09:46:01	0	0	0	-0.9025317	-19.57996	0	3	100	0	50	19.25152	44.08325	109.8553	
09:46:01	0	0	0	-0.9025317	-19.57996	0	3	100	0	50	21.52342	52.19864	110.7021	
09:46:01	0	0	0	-0.9025317	-19.57996	0	3	100	0	50	23.11228	59.24731	113.1475	
09:46:01	0	0	0	-0.7987408	-14.25737	0	3	100	0	50	17.98142	62.14142	109.3372	
09:46:02	0	0	0	-0.7987408	-14.25737	0	3	100	0	50	20.63943	66.15653	111.79	
09:46:02	0	0	0	-0.7987408	-14.25737	0	3	100	0	50	23.02464	66.71777	114.208	
09:46:02	0	0	0	-0.7987408	-14.25737	0	3	100	0	50	24.1682	67.08697	114.0828	
09:46:02	0	0	0	-0.7987408	-14.25737	0	3	100	0	50	30.37003	68.06963	119.3533	
09:46:02	0	0	0	-0.7227877	-15.03288	0	3	100	0	50	33.24205	69.83303	120.8236	
09:46:03	0	0	0	-0.7227877	-15.03288	0	3	100	0	50	36.6179	71.35675	122.7241	
09:46:03	0	0	0	-0.7227877	-15.03288	0	3	100	0	50	37.742	71.58272	120.9705	
09:46:03	0	0	0	-0.7227877	-15.03288	0	3	100	0	50	40.10774	72.59837	120.9871	
09:46:03	0	0	0	-0.7227877	-15.03288	0	3	100	0	50	47.31778	72.85549	123.2667	
09:46:03	0	0	0	-0.6854504	-12.04842	0	3	100	0	50	51.06144	72.66602	122.0428	
09:46:04	0	0	0	-0.6854504	-12.04842	0	3	100	0	50	55.2873	72.44486	122.824	
09:46:04	0	0	0	-0.6854504	-12.04842	0	3	100	0	50	61.13126	74.10078	124.6989	
09:46:04	0	0	0	-0.6854504	-12.04842	0	3	100	0	50	68.23112	75.81431	126.5406	
09:46:04	0	0	0	-0.6854504	-12.04842	0	3	100	0	50	72.50152	76.33824	126.6244	
09:46:04	0	0	0	-0.7046793	-16.17615	0	3	100	0	50	73.95418	77.4713	123.8485	
09:46:05	0	0	0	-0.7046793	-16.17615	0	3	100	0	50	73.8867	77.78896	119.7593	
09:46:05	0	0	0	-0.7046793	-16.17615	0	3	100	0	50	82.72793	79.2389	125.4515	
09:46:05	0	0	0	-0.7046793	-16.17615	0	3	100	0	50	88.71309	79.66875	128.538	
09:46:05	0	0	0	-0.7046793	-16.17615	0	3	100	0	50	89.88778	79.83349	129.3385	
09:46:05	0	0	0	-0.8625019	-19.66254	0	3	100	0	50	90.84059	80.02541	129.5942	
09:46:06	0	0	0	-0.8625019	-19.66254	0	3	100	0	50	91.88143	80.32787	131.9001	
09:46:06	0	0	0	-0.8625019	-19.66254	0	3	100	0	50	87.63027	79.55562	141.869	
09:46:06	0	0	0	-0.8625019	-19.66254	0	3	100	0	50	72.82314	81.01987	136.9196	
09:46:06	0	0	0	-0.8625019	-19.66254	0	3	100	0	50	67.64815	82.82166	139.6233	
09:46:06	0	0	0	-0.8810984	-15.81026	0	3	100	0	50	59.88407	79.61221	143.255	
09:46:07	0	0	0	-0.8810984	-15.81026	0	3	100	0	50	59.4273	78.07648	155.9195	
09:46:07	0	0	0	-0.8810984	-15.81026	0	3	100	0	50	48.74962	77.10826	157.5829	
09:46:07	0	0	0	-0.8810984	-15.81026	0	3	100	0	50	33.10069	77.17897	153.0372	
09:46:07	0	0	0	-0.8810984	-15.81026	0	3	100	0	50	21.42021	76.17106	147.9382	
09:46:08	0	0	0	-0.7596411	-8.764443	0	3	100	0	50	18.10446	76.88312	149.8982	
09:46:08	0	0	0	-0.7596411	-8.764443	0	3	100	0	50	22.76313	76.04856	156.1353	
09:46:08	0	0	0	-0.7596411	-8.764443	0	3	100	0	50	19.65788	76.58994	158.4595	
09:46:08	0	0	0	-0.7596411	-8.764443	0	3	100	0	50	14.2015	76.49324	156.4005	
09:46:08	0	0	0	-0.7596411	-8.764443	0	3	100	0	50	16.98476	76.7396	160.6704	
09:46:09	0	0	0	-0.7724364	-9.086706	0	3	100	0	50	19.05966	77.29134	164.3594	
09:46:09	0	0	0	-0.7724364	-9.086706	0	3	100	0	50	20.01054	77.07703	164.6488	
09:46:09	0	0	0	-0.7724364	-9.086706	0	3	100	0	50	17.21055	77.91042	162.2483	
09:46:09	0	0	0	-0.7724364	-9.086706	0	3	100	0	50	16.97415	78.83083	162.3882	
09:46:09	0	0	0	-0.7724364	-9.086706	0	3	100	0	50	10.21437	79.55622	156.6641	
09:46:10	0	0	0	-0.6217822	-2.089782	0	3	100	0	50	10.47914	79.40817	158.5048	
09:46:10	0	0	0	-0.6217822	-2.089782	0	3	100	0	50	11.41346	79.44031	160.6055	
09:46:10	0	0	0	-0.6217822	-2.089782	0	3	100	0	50	11.30703	80.2914	161.4234	
09:46:10	0	0	0	-0.6217822	-2.089782	0	3	100	0	50	11.35686	80.90221	161.6079	
09:46:10	0	0	0	-0.6217822	-2.089782	0	3	100	0	50	13.36522	81.38468	164.6706	
09:46:11	0	0	0	-0.4412324	4.346742	0	3	100	0	50	8.709017	79.88691	162.888	
09:46:11	0	0	0	-0.4412324	4.346742	0	3	100	0	50	5.243026	78.55012	161.8026	
09:46:11	0	0	0	-0.4412324	4.346742	0	3	100	0	50	1.577825	78.21857	159.5672	
09:46:11	0	0	0	-0.4412324	4.346742	0	3	100	0	50	-3.423421	77.45807	157.597	
09:46:11	0	0	0	-0.4412324	4.346742	0	3	100	0	50	-9.462384	76.70273	156.7082	
09:46:12	0	0	0	-0.6330236	-10.36011	0	3	100	0	50	-11.69853	76.01661	158.0939	
09:46:12	0	0	0	-0.6330236	-10.36011	0	3	100	0	50	-18.18045	75.47773	157.3652	
09:46:12	0	0	0	-0.6330236	-10.36011	0	3	100	0	50	-22.68654	75.55681	157.9399	
09:46:12	0	0	0	-0.6330236	-10.36011	0	3	100	0	50	-25.20706	75.75895	159.8507	
09:46:12	0	0	0	-0.6330236	-10.36011	0	3	100	0	50	-28.48852	75.3753	159.8317	
09:46:13	0	0	0	-0.7286428	-13.08613	0	3	100	0	50	-34.10559	75.1053	159.2573	
09:46:13	0	0	0	-0.7286428	-13.08613	0	3	100	0	50	-39.80326	74.77545	158.0281	
09:46:13	0	0	0	-0.7286428	-13.08613	0	3	100	0	50	-51.34952	74.68609	155.2931	
09:46:13	0	0	0	-0.7286428	-13.08613	0	3	100	0	50	-57.25777	74.3914	154.8889	
09:46:13	0	0	0	-0.7286428	-13.08613	0	3	100	0	50	-65.70915	73.96867	154.5387	
09:46:14	0	0	0	-0.5973935	-7.347225	0	3	100	0	50	-69.96044	73.50901	155.3329	
09:46:14	0	0	0	-0.5973935	-7.347225	0	3	100	0	50	-73.52601	73.02536	155.6375	
09:46:14	0	0	0	-0.5973935	-7.347225	0	3	100	0	50	-78.29214	72.87509	155.3337	
09:46:14	0	0	0	-0.5973935	-7.347225	0	3	100	0	50	-83.11928	72.92174	154.4803	
09:46:14	0	0	0	-0.5973935	-7.347225	0	3	100	0	50	-87.47874	73.02882	153.5237	
09:46:15	0	0	0	-0.8388907	-16.9642	0	3	100	0	50	-90.97699	73.0238	152.0637	
09:46:15	0	0	0	-0.8388907	-16.9642	0	3	100	0	50	-92.55946	73.06422	151.2293	
09:46:15	0	0	0	-0.8388907	-16.9642	0	3	100	0	50	-93.67902	72.91391	150.8692	
09:46:15	0	0	0	-0.8388907	-16.9642	0	3	100	0	50	-95.26971	72.84769	150.214	
09:46:15	0	0	0	-0.8388907	-16.9642	0	3	100	0	50	-96.4048	72.87733	149.6309	
09:46:16	0	0	0	-0.819272	-8.659431	0	3	100	0	50	-92.36903	73.0835	145.9467	
09:46:16	0	0	0	-0.819272	-8.659431	0	3	100	0	50	-89.3031	74.14169	137.3106	
09:46:16	0	0	0	-0.819272	-8.659431	0	3	100	0	50	-86.62514	75.66319	125.3655	
09:46:16	0	0	0	-0.819272	-8.659431	0	3	100	0	50	-80.69528	77.58277	117.1895	
09:46:16	0	0	0	-0.819272	-8.659431	0	3	100	0	50	-79.28725	78.86945	106.9781	
09:46:17	0	0	0	-0.6452034	0.7038988	0	3	100	0	50	-76.25795	79.88579	101.8488	
09:46:17	0	0	0	-0.6452034	0.7038988	0	3	100	0	50	-79.17759	80.82574	91.1317	
09:46:17	0	0	0	-0.6452034	0.7038988	0	3	100	0	50	-78.6194	80.80161	90.51964	
09:46:17	0	0	0	-0.6452034	0.7038988	0	3	100	0	50	-78.47832	81.17261	86.55535	
09:46:17	0	0	0	-0.6452034	0.7038988	0	3	100	0	50	-75.04533	81.70824	81.14089	
09:46:18	0	0	0	-0.6347663	0.5282828	0	3	100	0	50	-76.91824	82.81181	70.05482	
09:46:18	0	0	0	-0.6347663	0.5282828	0	3	100	0	50	-79.76859	83.92142	62.89561	
09:46:18	0	0	0	-0.6347663	0.5282828	0	3	100	0	50	-73.81026	84.1155	70.62185	
09:46:18	0	0	0	-0.6347663	0.5282828	0	3	100	0	50	-68.77475	84.19576	77.718	
09:46:19	0	0	0	-0.6347663	0.5282828	0	3	100	0	50	-69.44799	84.58565	74.55399	
09:46:19	0	0	0	-0.5951122	0.7471549	0	3	100	0	50	-71.58353	84.72092	71.11712	
09:46:19	0	0	0	-0.5951122	0.7471549	0	3	100	0	50	-74.31499	84.73619	61.75839	
09:46:19	0	0	0	-0.5951122	0.7471549	0	3	100	0	50	-76.22188	85.12135	54.94375	
09:46:19	0	0	0	-0.5951122	0.7471549	0	3	100	0	50	-86.40163	85.51834	41.09784	
09:46:20	0	0	0	-0.5951122	0.7471549	0	3	100	0	50	-102.7239	85.58398	16.72028	
09:46:20	0	0	0	-0.6820827	-8.702686	0	3	100	0	50	-112.6317	87.26384	4.152469	
09:46:20	0	0	0	-0.6820827	-8.702686	0	3	100	0	50	-139.4106	87.29839	-27.61328	
09:46:20	0	0	0	-0.6820827	-8.702686	0	3	100	0	50	-165.0131	87.46264	-56.38477	
09:46:20	0	0	0	-0.6820827	-8.702686	0	3	100	0	50	-166.1702	87.2934	-59.91925	
09:46:21	0	0	0	-0.6820827	-8.702686	0	3	100	0	50	-156.5019	87.7151	-52.73635	
09:46:21	0	0	0	-0.5479475	1.838211	0	3	100	0	50	-148.335	87.63206	-46.96035	
09:46:21	0	0	0	-0.5479475	1.838211	0	3	100	0	50	-156.7091	87.46703	-58.23709	
09:46:21	0	0	0	-0.5479475	1.838211	0	3	100	0	50	-153.3907	87.23743	-59.53366	
09:46:21	0	0	0	-0.5479475	1.838211	0	3	100	0	50	-156.2402	86.29202	-65.23386	
09:46:22	0	0	0	-0.5479475	1.838211	0	3	100	0	50	-154.1158	85.98927	-65.93608	
09:46:22	0	0	0	-0.3633664	10.07002	0	3	100	0	50	-151.1612	85.90204	-66.81313	
09:46:22	0	0	0	-0.3633664	10.07002	0	3	100	0	50	-154.0625	85.59589	-73.58813	
09:46:22	0	0	0	-0.3633664	10.07002	0	3	100	0	50	-158.1987	85.32655	-81.05688	
09:46:22	0	0	0	-0.3633664	10.07002	0	3	100	0	50	-162.7381	85.51419	-88.41383	
09:46:23	0	0	0	-0.3633664	10.07002	0	3	100	0	50	-163.5058	85.17715	-92.70936	
09:46:23	0	0	0	-0.3139566	8.688664	0	3	100	0	50	-168.078	85.23441	-98.08067	
09:46:23	0	0	0	-0.3139566	8.688664	0	3	100	0	50	-167.8177	86.29002	-92.60796	
09:46:23	0	0	0	-0.3139566	8.688664	0	3	100	0	50	-163.9108	88.41193	-79.33355	
09:46:23	0	0	0	-0.3139566	8.688664	0	3	100	0	50	-156.0297	89.44965	-67.634	
09:46:24	0	0	0	-0.3139566	8.688664	0	3	100	0	50	-6.775743	88.22546	92.39075	
09:46:24	0	0	0	-0.2897277	5.670469	0	3	100	0	50	7.247991	88.77747	108.6707	
09:46:24	0	0	0	-0.2897277	5.670469	0	3	100	0	50	18.29824	88.05862	126.3025	
09:46:24	0	0	0	-0.2897277	5.670469	0	3	100	0	50	20.60324	87.46071	134.1703	
09:46:24	0	0	0	-0.2897277	5.670469	0	3	100	0	50	17.78082	86.35342	137.0144	
09:46:25	0	0	0	-0.2897277	5.670469	0	3	100	0	50	30.4691	86.14883	153.2803	
09:46:25	0	0	0	-0.3801676	-0.9354105	0	3	100	0	50	46.57075	83.50692	177.0831	
09:46:25	0	0	0	-0.3801676	-0.9354105	0	3	100	0	50	46.32593	81.83067	-177.6393	
09:46:25	0	0	0	-0.3801676	-0.9354105	0	3	100	0	50	46.41906	80.07642	-172.9617	
09:46:25	0	0	0	-0.3801676	-0.9354105	0	3	100	0	50	44.15901	79.50628	-172.3679	
09:46:26	0	0	0	-0.3801676	-0.9354105	0	3	100	0	50	35.84196	79.28325	-173.229	
09:46:26	0	0	0	-0.6913941	-16.01379	0	3	100	0	50	33.06638	78.5769	-174.0753	
09:46:26	0	0	0	-0.6913941	-16.01379	0	3	100	0	50	29.1319	77.52919	-174.8344	
09:46:26	0	0	0	-0.6913941	-16.01379	0	3	100	0	50	23.41811	76.383	-176.2103	
09:46:26	0	0	0	-0.6913941	-16.01379	0	3	100	0	50	19.71025	76.43556	-176.2293	
09:46:27	0	0	0	-0.6913941	-16.01379	0	3	100	0	50	8.892934	72.87477	175.9592	
09:46:27	0	0	0	-0.9045014	-9.495699	0	3	100	0	50	7.726092	74.72118	174.8269	
09:46:27	0	0	0	-0.9045014	-9.495699	0	3	100	0	50	8.444101	76.5706	175.9905	
09:46:27	0	0	0	-0.9045014	-9.495699	0	3	100	0	50	4.215945	77.28449	176.8202	
09:46:27	0	0	0	-0.9045014	-9.495699	0	3	100	0	50	-8.82128	74.99081	172.9655	
09:46:28	0	0	0	-0.9045014	-9.495699	0	3	100	0	50	-19.51367	73.41785	170.8572	
09:46:28	0	0	0	-0.7402673	-4.98784	0	3	100	0	50	-28.73718	72.43994	170.6141	
09:46:28	0	0	0	-0.7402673	-4.98784	0	3	100	0	50	-31.22345	71.58965	171.5698	
09:46:28	0	0	0	-0.7402673	-4.98784	0	3	100	0	50	-36.18002	71.2276	170.639	
09:46:28	0	0	0	-0.7402673	-4.98784	0	3	100	0	50	-44.02795	70.43469	170.2076	
09:46:29	0	0	0	-0.7402673	-4.98784	0	3	100	0	50	-51.60842	70.36322	168.6542	
09:46:29	0	0	0	-0.5790752	-1.1985	0	3	100	0	50	-56.18167	70.56847	170.1013	
09:46:29	0	0	0	-0.5790752	-1.1985	0	3	100	0	50	-58.28153	70.36205	171.6826	
09:46:29	0	0	0	-0.5790752	-1.1985	0	3	100	0	50	-62.45467	70.06407	170.4959	
09:46:29	0	0	0	-0.5790752	-1.1985	0	3	100	0	50	-65.40159	69.90622	170.8736	
09:46:30	0	0	0	-0.5790752	-1.1985	0	3	100	0	50	-69.55791	68.71614	169.3708	
09:46:30	0	0	0	-0.288327	6.536347	0	3	100	0	50	-70.27341	67.8911	168.034	
09:46:30	0	0	0	-0.288327	6.536347	0	3	100	0	50	-72.88363	68.16347	167.5281	
09:46:30	0	0	0	-0.288327	6.536347	0	3	100	0	50	-74.45705	68.35334	166.4665	
09:46:30	0	0	0	-0.288327	6.536347	0	3	100	0	50	-75.63238	68.56325	165.6963	
09:46:31	0	0	0	-0.288327	6.536347	0	3	100	0	50	-76.35997	68.52744	165.1369	
09:46:31	0	0	0	-0.08373304	11.42771	0	3	100	0	50	-77.05138	68.51161	164.5233	
09:46:31	0	0	0	-0.08373304	11.42771	0	3	100	0	50	-76.98148	69.0205	160.7442	
09:46:31	0	0	0	-0.08373304	11.42771	0	3	100	0	50	-76.04588	69.47558	153.7041	
09:46:31	0	0	0	-0.08373304	11.42771	0	3	100	0	50	-74.00065	69.36687	149.6956	
09:46:32	0	0	0	-0.08373304	11.42771	0	3	100	0	50	-71.41362	69.42228	149.5448	
09:46:32	0	0	0	-0.1009222	5.343068	0	3	100	0	50	-68.1365	69.55107	146.9428	
09:46:32	0	0	0	-0.1009222	5.343068	0	3	100	0	50	-64.07268	69.67046	146.1475	
09:46:32	0	0	0	-0.1009222	5.343068	0	3	100	0	50	-61.00554	69.36437	145.0962	
09:46:32	0	0	0	-0.1009222	5.343068	0	3	100	0	50	-53.62384	68.48442	144.7014	
09:46:33	0	0	0	-0.1009222	5.343068	0	3	100	0	50	-45.35192	68.05615	145.9003	
09:46:33	0	0	0	-0.3487922	-10.51079	0	3	100	0	50	-40.45448	69.10305	144.1182	
09:46:33	0	0	0	-0.3487922	-10.51079	0	3	100	0	50	-33.34111	69.55386	144.4314	
09:46:33	0	0	0	-0.3487922	-10.51079	0	3	100	0	50	-29.55182	68.9281	145.0802	
09:46:34	0	0	0	-0.3487922	-10.51079	0	3	100	0	50	-29.12096	68.86048	144.1515	
09:46:34	0	0	0	-0.3487922	-10.51079	0	3	100	0	50	-12.84148	69.62331	150.5927	
09:46:34	0	0	0	-0.7032389	-35.19415	0	3	100	0	50	-3.14407	67.98129	157.5076	
09:46:34	0	0	0	-0.7032389	-35.19415	0	3	100	0	50	11.40166	67.58565	160.8765	
09:46:34	0	0	0	-0.7032389	-35.19415	0	3	100	0	50	17.08321	68.41154	157.492	
09:46:35	0	0	0	-0.7032389	-35.19415	0	3	100	0	50	20.02745	69.29442	152.3698	
09:46:35	0	0	0	-0.7032389	-35.19415	0	3	100	0	50	22.05939	69.22575	150.7558	
09:46:35	0	0	0	-0.95574	-34.45499	0	3	100	0	50	25.49875	69.41684	146.9246	
09:46:35	0	0	0	-0.95574	-34.45499	0	3	100	0	50	29.60652	69.6039	142.3383	
09:46:35	0	0	0	-0.95574	-34.45499	0	3	100	0	50	34.45077	70.11797	138.2592	
09:46:36	0	0	0	-0.95574	-34.45499	0	3	100	0	50	37.72038	69.82793	138.6146	
09:46:36	0	0	0	-0.95574	-34.45499	0	3	100	0	50	38.55782	69.59618	139.1929	
09:46:36	0	0	0	-1.040468	-26.39335	0	3	100	0	50	32.77403	69.17429	149.9821	
09:46:36	0	0	0	-1.040468	-26.39335	0	3	100	0	50	16.15538	57.7214	163.2738	
09:46:36	0	0	0	-1.040468	-26.39335	0	3	100	0	50	4.824568	43.35755	179.3619	
09:46:37	0	0	0	-1.040468	-26.39335	0	3	100	0	50	1.437627	32.81702	-173.9379	
09:46:37	0	0	0	-1.040468	-26.39335	0	3	100	0	50	3.561828	23.92012	-171.0711	
09:46:37	0	0	0	-0.7268878	26.88457	0	3	100	0	50	1.739372	19.30401	-172.0314	
09:46:37	0	0	0	-0.7268878	26.88457	0	3	100	0	50	0.7415853	15.2891	-174.2986	
09:46:37	0	0	0	-0.7268878	26.88457	0	3	100	0	50	-0.9495283	8.983677	-174.6067	
09:46:38	0	0	0	-0.7268878	26.88457	0	3	100	0	50	-0.9471718	6.512947	-175.9076	
09:46:38	0	0	0	-0.7268878	26.88457	0	3	100	0	50	-1.077558	6.35884	-176.5398	
09:46:38	0	0	0	-0.6364801	30.994	0	3	100	0	50	-1.183747	6.21454	-177.1452	
09:46:38	0	0	0	-0.6364801	30.994	0	3	100	0	50	-1.268793	6.061487	-177.7106	
09:46:38	0	0	0	-0.6364801	30.994	0	3	100	0	50	-1.34673	5.927524	-178.2692	
09:46:39	0	0	0	-0.6364801	30.994	0	3	100	0	50	-1.420138	5.802623	-178.8144	
09:46:39	0	0	0	-0.6364801	30.994	0	3	100	0	50	-1.484038	5.684757	-179.3348	
09:46:39	0	0	0	-0.7142497	18.73633	0	3	100	0	50	-1.537768	5.575131	-179.8404	
09:46:39	0	0	0	-0.7142497	18.73633	0	3	100	0	50	-1.593278	5.173954	-179.5089	
09:46:39	0	0	0	-0.7142497	18.73633	0	3	100	0	50	-3.020576	4.899493	152.5195	
09:46:40	0	0	0	-0.7142497	18.73633	0	3	100	0	50	-2.68559	4.10684	127.3315	
09:46:40	0	0	0	-0.7142497	18.73633	0	3	100	0	50	-1.865252	2.817147	100.8667	
09:46:40	0	0	0	-0.4445255	-7.842301	0	3	100	0	50	-0.8075592	2.139175	67.10818	
09:46:40	0	0	0	-0.4445255	-7.842301	0	3	100	0	50	-0.4657963	2.476424	60.5091	
09:46:40	0	0	0	-0.4445255	-7.842301	0	3	100	0	50	-1.000498	2.412399	64.14619	
09:46:41	0	0	0	-0.4445255	-7.842301	0	3	100	0	50	-1.151592	2.523794	65.29424	
09:46:41	0	0	0	-0.4445255	-7.842301	0	3	100	0	50	-1.135345	2.580743	68.77057	
09:46:41	0	0	0	-0.2561059	-14.32651	0	3	100	0	50	-1.432898	2.489642	70.49426	
09:46:41	0	0	0	-0.2561059	-14.32651	0	3	100	0	50	-1.57135	2.552004	72.30498	
09:46:41	0	0	0	-0.2561059	-14.32651	0	3	100	0	50	-1.71136	2.597099	74.06578	
09:46:42	0	0	0	-0.2561059	-14.32651	0	3	100	0	50	-1.772347	2.587065	74.98923	
09:46:42	0	0	0	-0.2561059	-14.32651	0	3	100	0	50	-1.810327	2.528723	74.59493	
09:46:42	0	0	0	-0.4727732	-13.60357	0	3	100	0	50	-1.893975	2.547825	73.9901	
09:46:42	0	0	0	-0.4727732	-13.60357	0	3	100	0	50	-1.815945	2.543656	73.41695	
09:46:42	0	0	0	-0.4727732	-13.60357	0	3	100	0	50	-1.958804	2.537485	72.87727	
09:46:43	0	0	0	-0.4727732	-13.60357	0	3	100	0	50	-4.534936	3.365969	72.20264	
09:46:43	0	0	0	-0.4727732	-13.60357	0	3	100	0	50	-13.36023	3.907111	79.7673	
09:46:43	0	0	0	-0.8392816	-29.73475	0	3	100	0	50	7.128798	3.291773	76.45224	
09:46:43	0	0	0	-0.8392816	-29.73475	0	3	100	0	50	-4.876377	2.173644	75.82401	
09:46:43	0	0	0	-0.8392816	-29.73475	0	3	100	0	50	-1.620949	2.194861	76.35052	
09:46:44	0	0	0	-0.8392816	-29.73475	0	3	100	0	50	-1.588504	2.246614	75.9631	
09:46:44	0	0	0	-0.8392816	-29.73475	0	3	100	0	50	-1.573519	2.281327	75.57355	
09:46:44	0	0	0	-0.8291442	-14.03728	0	3	100	0	50	-1.66253	2.314512	75.19787	
09:46:44	0	0	0	-0.8291442	-14.03728	0	3	100	0	50	-1.718255	2.321848	74.83251	
09:46:44	0	0	0	-0.8291442	-14.03728	0	3	100	0	50	-1.76009	2.325126	74.48335	
09:46:45	0	0	0	-0.8291442	-14.03728	0	3	100	0	50	-1.790482	2.355548	74.15403	
09:46:45	0	0	0	-0.8291442	-14.03728	0	3	100	0	50	-1.824707	2.371082	73.83817	
09:46:45	0	0	0	-0.7606342	0.8517997	0	3	100	0	50	-1.848955	2.383358	73.52975	
09:46:45	0	0	0	-0.7606342	0.8517997	0	3	100	0	50	-1.899582	2.377467	73.24164	
09:46:45	0	0	0	-0.7606342	0.8517997	0	3	100	0	50	-1.92046	2.37779	72.97005	
09:46:46	0	0	0	-0.7606342	0.8517997	0	3	100	0	50	-1.951908	2.3825	72.70981	
09:46:46	0	0	0	-0.7606342	0.8517997	0	3	100	0	50	-1.968635	2.405024	72.45717	
09:46:46	0	0	0	-0.5575721	14.93239	0	3	100	0	50	-1.993479	2.414249	72.21606	
09:46:46	0	0	0	-0.5575721	14.93239	0	3	100	0	50	-2.009712	2.431354	71.97864	
09:46:47	0	0	0	-0.5575721	14.93239	0	3	100	0	50	-2.022866	2.439395	71.7604	
09:46:47	0	0	0	-0.5575721	14.93239	0	3	100	0	50	-2.040441	2.43943	71.55827	
09:46:47	0	0	0	-0.5575721	14.93239	0	3	100	0	50	-2.064632	2.428652	71.31133	
09:46:47	0	0	0	-0.5180284	14.27819	0	3	100	0	50	-2.083168	2.409975	71.02338	
09:46:47	0	0	0	-0.5180284	14.27819	0	3	100	0	50	-2.089411	2.411283	70.75402	
09:46:48	0	0	0	-0.5180284	14.27819	0	3	100	0	50	-2.089552	2.407725	70.51031	
09:46:48	0	0	0	-0.5180284	14.27819	0	3	100	0	50	-2.094922	2.403661	70.27393	
09:46:48	0	0	0	-0.5180284	14.27819	0	3	100	0	50	-2.103561	2.398259	70.05064	
09:46:48	0	0	0	-0.3948657	19.49424	0	3	100	0	50	-2.112516	2.379392	69.82128	
09:46:48	0	0	0	-0.3948657	19.49424	0	3	100	0	50	-2.132245	2.352877	69.60378	
09:46:49	0	0	0	-0.3948657	19.49424	0	3	100	0	50	-2.127941	2.35507	69.41283	
09:46:49	0	0	0	-0.3948657	19.49424	0	3	100	0	50	-2.13446	2.352423	69.2144	
09:46:49	0	0	0	-0.3948657	19.49424	0	3	100	0	50	-2.145028	2.362013	69.01398	
09:46:49	0	0	0	-0.45939	12.97394	0	3	100	0	50	-2.156567	2.380095	68.82095	
09:46:49	0	0	0	-0.45939	12.97394	0	3	100	0	50	-2.169599	2.396645	68.64637	
09:46:50	0	0	0	-0.45939	12.97394	0	3	100	0	50	-2.170363	2.415181	68.47355	
09:46:50	0	0	0	-0.45939	12.97394	0	3	100	0	50	-2.169092	2.423759	68.3261	
09:46:50	0	0	0	-0.45939	12.97394	0	3	100	0	50	-2.18706	2.428155	68.18531	
09:46:50	0	0	0	-0.8543219	-5.072422	0	3	100	0	50	-2.189922	2.434785	68.03799	
09:46:50	0	0	0	-0.8543219	-5.072422	0	3	100	0	50	-2.18377	2.444332	67.89875	
09:46:51	0	0	0	-0.8543219	-5.072422	0	3	100	0	50	-2.1947	2.447381	67.77574	
09:46:51	0	0	0	-0.8543219	-5.072422	0	3	100	0	50	-2.225275	2.452605	67.65193	
09:46:51	0	0	0	-0.8543219	-5.072422	0	3	100	0	50	-2.24498	2.454763	67.52518	
09:46:51	0	0	0	-0.928282	-3.56359	0	3	100	0	50	-2.253631	2.470408	67.41434	
09:46:51	0	0	0	-0.928282	-3.56359	0	3	100	0	50	-2.2607	2.483759	67.30196	
09:46:52	0	0	0	-0.928282	-3.56359	0	3	100	0	50	-2.241839	2.484056	67.2134	
09:46:52	0	0	0	-0.928282	-3.56359	0	3	100	0	50	-2.230544	2.486999	67.10973	
09:46:52	0	0	0	-0.928282	-3.56359	0	3	100	0	50	-2.216173	2.486652	67.019	
09:46:52	0	0	0	-0.9161808	2.533885	0	3	100	0	50	-2.227107	2.477705	66.919	
09:46:52	0	0	0	-0.9161808	2.533885	0	3	100	0	50	-2.209356	2.461879	66.83578	
09:46:53	0	0	0	-0.9161808	2.533885	0	3	100	0	50	-2.217137	2.443099	66.74187	
09:46:53	0	0	0	-0.9161808	2.533885	0	3	100	0	50	-2.214514	2.442701	66.65765	
09:46:53	0	0	0	-0.9161808	2.533885	0	3	100	0	50	-2.211578	2.419218	66.58297	
09:46:53	0	0	0	-0.7290572	12.86159	0	3	100	0	50	-2.210322	2.411039	66.49863	
09:46:53	0	0	0	-0.7290572	12.86159	0	3	100	0	50	-2.206298	2.405448	66.42704	
09:46:54	0	0	0	-0.7290572	12.86159	0	3	100	0	50	-2.185141	2.410395	66.35632	
09:46:54	0	0	0	-0.7290572	12.86159	0	3	100	0	50	-2.165761	2.416544	66.28693	
