Date	Latitude(deg) 	Longitude(deg)	hamsl(m)	hafl(m)	climbrate(cm/s)	GroundSpeed(m/s)	Airspeed(m/s)	Mav_Link(%)	Rssi_Link(%)	Throttle	Roll(deg)	Pitch(deg)	Yaw(deg)
20:06:46	47.27462	-122.5769	0.025	0.025	0	0	3	100	0	5	0.4963104	-0.4525535	0.1134344	
20:06:48	47.27462	-122.5769	0.025	0.025	0	0	3	100	0	4	0.4963104	-0.4525535	0.1134344	
20:06:49	47.27462	-122.5769	0.025	0.025	0	0	3	100	0	4	0.545838	-0.4979126	0.1245621	
20:06:51	47.27466	-122.5771	0.044	-0.4173563	-220.1517	0.47	3	100	0	4	124.2124	-16.28175	-55.67725	
20:06:53	47.27466	-122.5771	0.043	-5.0177	-733.1085	0.45	3	100	0	4	56.68716	-43.62257	-45.01019	
20:06:55	47.27466	-122.5771	0.043	-4.774253	-326.9717	0.43	3	100	0	4	76.24619	-27.00263	-54.1242	
20:06:56	47.27466	-122.5771	0.044	-2.989544	-176.1409	0.5	3	100	0	4	68.53357	-28.28915	-54.54451	
20:06:58	47.27465	-122.5771	0.043	-1.048535	-13.6329	0.44	3	100	0	4	70.89146	-25.74798	-75.61715	
20:07:00	47.27465	-122.5771	0.044	-1.331428	-271.3015	0.5	3	100	0	4	28.72877	5.18224	12.66011	
20:07:01	47.27466	-122.5771	0.043	-4.287875	-998.9229	0.45	3	100	0	4	169.3539	-43.47702	-142.3674	
20:07:03	47.27467	-122.5771	0.033	-11.35043	-1449.969	0.04	3	100	0	4	75.07515	-61.47789	-91.13099	
20:07:05	47.27467	-122.5771	0.024	-9.889749	-602.1477	0.01	3	100	0	4	-45.46988	-32.18214	-94.72011	
20:07:06	47.27467	-122.5771	0.025	-6.931423	-757.1779	0	3	100	0	4	-111.5179	-14.4698	-47.02676	
20:07:08	47.27467	-122.5771	0.022	-12.05083	-1762.861	0.01	3	100	0	4	-141.9954	51.10645	-21.27973	
20:07:10	47.27467	-122.5771	0.023	-16.81208	-1801.388	0.01	3	100	0	4	-15.53976	58.8939	167.1729	
20:07:11	47.27467	-122.5771	0.024	-9.17069	-165.66	0	3	100	0	4	-46.09511	8.2116	-140.9142	
20:07:13	47.27467	-122.5771	0.024	-0.408877	77.54395	0.01	3	100	0	4	-95.38461	-12.15345	-87.5479	
20:07:15	47.27467	-122.5771	0.024	-4.656418	-1051.544	0	3	100	0	4	-141.3745	4.349008	-39.24706	
20:07:17	47.27467	-122.5771	0.024	-14.38719	-1882.929	0	3	100	0	4	171.7542	62.17791	-23.63793	
20:07:18	47.27467	-122.5771	0.024	-12.94882	-633.7921	0	3	100	0	4	-15.98467	40.09804	-151.3991	
20:07:20	47.27467	-122.5771	0.024	-2.715012	599.3568	0	3	100	0	4	-63.06924	-11.54221	-111.2394	
20:07:22	47.27467	-122.5771	0.024	3.774535	316.8314	0.02	3	100	0	4	-119.4585	-15.31026	-57.90531	
20:07:23	47.27467	-122.5771	0.024	-3.941724	-1120.933	0.01	3	100	0	4	-161.2656	27.28911	-27.23599	
20:07:25	47.27467	-122.5771	0.024	-12.16259	-1286.789	0	3	100	0	4	-1.183278	86.54736	-168.0141	
20:07:27	47.27467	-122.5771	0.024	-5.9533	218.9654	0.02	3	100	0	4	-41.3894	17.49292	-142.0881	
20:07:28	47.27467	-122.5771	0.024	3.885188	961.7856	0.01	3	100	0	4	-91.25793	-21.27733	-91.56016	
20:07:30	47.27467	-122.5771	0.024	3.286277	-211.3581	0.01	3	100	0	4	-143.4918	0.590162	-47.76668	
20:07:32	47.27467	-122.5771	0.024	-6.841805	-1236.533	0	3	100	0	4	164.0816	62.39247	-51.66885	
20:07:33	47.27467	-122.5771	0.024	-6.942893	-124.4991	0	3	100	0	4	-20.53693	36.81949	-179.0732	
20:07:35	47.27467	-122.5771	0.024	3.937207	1120.793	0	3	100	0	4	-69.11175	-12.98973	-135.303	
20:07:37	47.27467	-122.5771	0.023	8.006438	511.1066	0.02	3	100	0	4	-119.9705	-39.27567	-87.90633	
20:07:39	47.27467	-122.5771	0.025	-1.253035	-934.5587	0.01	3	100	0	4	152.8398	-19.25234	-5.033859	
20:07:40	47.27467	-122.5771	0.025	-8.567669	-724.7157	0.03	3	100	0	4	42.69012	68.72781	-64.13033	
20:07:42	47.27467	-122.5771	0.026	-1.158463	662.5716	0	3	100	0	4	-33.04654	-32.31075	-127.9877	
20:07:44	47.27467	-122.5771	0.025	5.018861	522.4182	0.04	3	100	0	4	102.6826	-70.03307	48.35794	
20:07:45	47.27467	-122.5771	0.026	3.387886	325.9295	0.03	3	100	0	5	64.56394	-0.9495164	-19.85777	
20:07:47	47.27467	-122.5771	0.025	5.875002	893.5484	0.04	3	100	0	4	21.20776	-22.93999	-117.1673	
20:07:49	47.27467	-122.5771	0.025	9.571699	1041.343	0.04	3	100	0	4	33.00541	-36.01626	135.0919	
20:07:50	47.27467	-122.5771	0.026	10.24372	1073.771	0.03	3	100	0	4	61.55911	14.95538	126.1701	
20:07:52	47.27467	-122.5771	0.025	10.0969	901.9714	0.01	3	100	0	5	108.6829	59.27464	148.0652	
20:07:54	47.27467	-122.5771	0.025	4.804335	-145.2603	0.01	3	100	0	4	-153.249	47.97488	-153.1326	
20:07:55	47.27467	-122.5771	0.025	-5.012532	-1075.902	0	3	100	0	4	-99.67487	18.24667	-162.572	
20:07:57	47.27467	-122.5771	0.025	-8.798317	-816.1439	0	3	100	0	4	-40.82174	8.478358	165.0298	
20:07:59	47.27467	-122.5772	0.038	-1.92455	549.0659	0.3	3	100	0	4	-19.08266	15.26457	61.62021	
20:08:01	47.27467	-122.5772	0.029	7.354432	1039.271	0.05	3	100	0	4	32.45326	-14.84035	-74.34153	
20:08:02	47.27467	-122.5772	0.03	9.84618	1133.297	0.08	3	100	0	4	18.00384	18.87791	152.2958	
20:08:04	47.27467	-122.5772	0.03	11.06532	1084.708	0.08	3	100	0	5	14.84884	-6.379165	43.53126	
20:08:06	47.27467	-122.5772	0.028	9.608444	781.8104	0.07	3	100	0	4	33.68835	3.090397	-70.05664	
20:08:07	47.27467	-122.5772	0.034	8.034186	732.6348	0.15	3	100	0	4	14.96945	9.834777	136.4989	
20:08:09	47.27467	-122.5772	0.04	6.940916	631.3687	0.51	3	100	0	4	32.34069	30.85274	-16.78389	
20:08:11	47.27467	-122.5772	0.031	6.704266	675.6969	0.07	3	100	0	3	-2.455091	6.376973	143.0296	
20:08:12	47.27467	-122.5772	0.028	5.476653	348.8232	0.05	3	100	0	4	28.61315	-18.23321	39.96127	
20:08:14	47.27467	-122.5772	0.027	3.166265	185.0227	0.06	3	100	0	4	29.13749	8.489658	-76.7571	
20:08:16	47.27467	-122.5772	0.027	2.720448	289.637	0.06	3	100	0	4	15.493	-4.457522	157.1125	
20:08:18	47.27467	-122.5772	0.027	2.516243	208.3631	0.05	3	100	0	4	25.66416	-3.498991	38.79337	
20:08:19	47.27467	-122.5772	0.027	2.023359	183.5946	0.05	3	100	0	4	25.66145	2.255177	-85.90726	
20:08:21	47.27467	-122.5772	0.027	2.231784	245.4786	0.04	3	100	0	4	14.48623	-2.803583	145.0187	
20:08:23	47.27467	-122.5772	0.024	2.086042	107.4858	0.02	3	100	0	4	7.516712	-47.13324	88.98081	
20:08:24	47.27467	-122.5772	0.024	-2.312057	-657.8363	0.01	3	100	0	4	29.28465	-74.17585	17.96319	
20:08:26	47.27467	-122.5772	0.024	-9.588979	-1376.953	0.01	3	100	0	4	99.32932	-52.69707	-100.2693	
20:08:28	47.27467	-122.5772	0.024	-12.99043	-1291.721	0.01	3	100	0	4	76.19198	-30.11817	-149.8397	
20:08:29	47.27467	-122.5772	0.024	-9.774974	-548.3428	0.02	3	100	0	4	46.71682	-22.82838	158.112	
20:08:31	47.27467	-122.5772	0.024	-4.066143	34.3581	0.01	3	100	0	4	28.11237	-43.16454	103.9705	
20:08:33	47.27467	-122.5772	0.023	-0.4566701	17.67932	0.02	3	100	0	4	32.77526	-62.37682	44.8142	
20:08:35	47.27467	-122.5772	0.024	-1.348509	-339.9545	0.02	3	100	0	5	77.13802	-56.30982	-47.52895	
20:08:36	47.27467	-122.5772	0.025	-4.144156	-619.527	0	3	100	0	4	81.07867	-52.90571	-106.4039	
20:08:38	47.27467	-122.5772	0.025	-6.503232	-840.2133	0.02	3	100	0	4	94.15438	-58.95472	-167.8242	
20:08:40	47.27467	-122.5772	0.025	-8.438171	-909.312	0.03	3	100	0	4	95.74921	-41.60295	132.6629	
20:08:41	47.27467	-122.5772	0.025	-7.176803	-499.8293	0.03	3	100	0	4	71.31582	-31.57362	81.14971	
20:08:43	47.27467	-122.5772	0.025	-2.352723	19.38984	0.01	3	100	0	4	60.28171	-51.28955	21.12012	
20:08:45	47.27467	-122.5772	0.025	-0.373551	-30.44486	0	3	100	0	4	73.94569	-55.77557	-47.64561	
20:08:46	47.27467	-122.5772	0.026	-0.9194963	-142.1202	0.03	3	100	0	4	76.02158	-51.31689	-99.17509	
20:08:48	47.27467	-122.5772	0.025	-1.010298	-49.34645	0	3	100	0	4	68.8519	-36.08908	-138.3365	
20:08:50	47.27467	-122.5772	0.025	0.9451129	244.8056	0.01	3	100	0	4	55.30491	-36.50517	-173.7355	
20:08:52	47.27467	-122.5772	0.025	3.249054	435.0256	0.01	3	100	0	4	43.27854	-47.70504	145.0205	
20:08:53	47.27467	-122.5772	0.025	3.164476	180.2639	0.01	3	100	0	4	45.81936	-67.61897	113.6168	
20:08:55	47.27467	-122.5772	0.026	0.4578755	-197.0391	0.04	3	100	0	4	74.25999	-53.17393	54.72774	
20:08:57	47.27467	-122.5772	0.025	-2.040058	-243.1617	0.03	3	100	0	4	72.55347	-29.40336	9.145249	
20:08:58	47.27467	-122.5772	0.025	-0.2208453	223.0096	0.02	3	100	0	4	59.15482	-10.45318	-26.78288	
20:09:00	47.27467	-122.5772	0.025	4.163934	775.3461	0.03	3	100	0	4	35.14885	-4.182916	-75.10939	
20:09:02	47.27467	-122.5772	0.025	8.97412	1137.476	0.03	3	100	0	4	25.44376	-2.207994	-123.2075	
20:09:03	47.27467	-122.5772	0.025	10.66988	1007.731	0.03	3	100	0	4	9.991263	-26.46342	-166.1069	
20:09:05	47.27467	-122.5772	0.025	7.70685	449.4649	0.03	3	100	0	4	13.19237	-48.1493	152.8041	
20:09:07	47.27467	-122.5772	0.025	1.85741	-212.3844	0.02	3	100	0	4	37.07592	-59.08669	93.89616	
20:09:08	47.27467	-122.5772	0.026	-2.518423	-564.0276	0.03	3	100	0	4	67.93308	-52.5211	15.84078	
20:09:10	47.27467	-122.5772	0.026	-5.621476	-631.1781	0.03	3	100	0	4	68.69526	-36.24358	-41.27335	
20:09:12	47.27467	-122.5772	0.025	-4.616745	-261.017	0.02	3	100	0	4	53.0647	-26.15291	-95.0811	
20:09:14	47.27467	-122.5772	0.025	-2.938992	17.45008	0.02	3	100	0	4	37.18819	-22.63817	-149.5177	
20:09:15	47.27467	-122.5772	0.025	-1.448198	192.1521	0.02	3	100	0	4	25.89816	-32.35463	156.8932	
20:09:17	47.27467	-122.5772	0.025	-0.2278401	260.8575	0.02	3	100	0	4	28.49417	-52.63407	102.7038	
20:09:19	47.27456	-122.5769	0.02	1.313196	195.7887	0	3	100	0	4	31.28948	-56.3645	74.30801	
20:09:20	47.27456	-122.5769	0.02	2.300192	327.8234	0	3	100	0	4	13.53358	-42.91471	90.96969	
20:09:22	47.27456	-122.5769	0.02	4.525032	604.537	0	3	100	0	4	1.962457	-30.50696	105.6177	
20:09:24	47.27456	-122.5769	0.02	6.721526	791.5942	0	3	100	0	4	-4.730502	-18.04922	119.9	
20:09:25	47.27456	-122.5769	0.02	7.949265	836.4708	0	3	100	0	4	-7.070518	-8.440905	133.927	
20:09:27	47.27456	-122.5769	0.02	7.978844	761.8818	0	3	100	0	4	-6.852295	-1.043805	148.7309	
20:09:29	47.27456	-122.5769	0.02	7.053345	633.3248	0	3	100	0	4	-5.035815	4.638822	164.3328	
20:09:30	47.27456	-122.5769	0.02	5.827031	507.5683	0	3	100	0	4	-3.159266	7.86022	176.2054	
20:09:32	47.27456	-122.5769	0.02	4.6807	404.653	0	3	100	0	4	-1.807151	9.594709	-175.4447	
20:09:34	47.27456	-122.5769	0.02	3.933538	341.4954	0	3	100	0	4	-0.705376	10.38283	-168.4883	
20:09:36	47.27456	-122.5769	0.02	3.283931	287.0289	0	3	100	0	5	-0.2591457	10.81348	-163.8692	
20:09:37	47.27456	-122.5769	0.02	2.722936	239.3477	0	3	100	0	4	-0.2239292	10.95373	-161.0484	
20:09:39	47.27456	-122.5769	0.02	2.37113	210.1045	0	3	100	0	4	-0.301543	10.4473	-158.9825	
20:09:41	47.27456	-122.5769	0.02	2.006797	178.9528	0	3	100	0	4	-0.4813372	10.11883	-157.7587	
20:09:42	47.27456	-122.5769	0.02	1.69851	151.2892	0	3	100	0	4	-0.6550556	9.827287	-156.8512	
20:09:44	47.27456	-122.5769	0.02	1.506842	134.9427	0	3	100	0	5	-0.9147921	8.890217	-156.8838	
20:09:46	47.27456	-122.5769	0.02	1.301276	116.9403	0	3	100	0	4	-1.095896	8.271048	-157.0611	
20:09:47	47.27456	-122.5769	0.02	1.138307	101.871	0	3	100	0	4	-1.16317	7.8058	-156.8347	
20:09:49	47.27456	-122.5769	0.02	0.9904203	88.67016	0	3	100	0	4	-1.312385	6.893115	-158.1088	
20:09:51	47.27456	-122.5769	0.02	0.8655124	77.44044	0	3	100	0	4	-1.365013	6.258406	-158.9903	
20:09:52	47.27456	-122.5769	0.02	0.7599163	67.55862	0	3	100	0	4	-1.369574	5.806794	-159.6433	
20:09:54	47.27456	-122.5769	0.02	0.6577196	58.26859	0	3	100	0	4	-1.357159	5.056146	-161.2605	
20:09:56	47.27456	-122.5769	0.02	0.5755181	50.78387	0	3	100	0	4	-1.288962	4.53252	-162.297	
20:09:58	47.27456	-122.5769	0.02	0.507346	44.43131	0	3	100	0	4	-1.21821	4.189886	-163.0452	
20:09:59	47.27456	-122.5769	0.02	0.4404269	38.33493	0	3	100	0	5	-1.118337	3.591566	-164.6509	
20:10:01	47.27456	-122.5769	0.02	0.3845215	33.24595	0	3	100	0	4	-1.014777	3.190818	-165.8189	
20:10:03	47.27456	-122.5769	0.02	0.335786	28.70082	0	3	100	0	4	-0.9264771	2.9242	-166.7482	
20:10:04	47.27456	-122.5769	0.02	0.3060916	26.03129	0	3	100	0	4	-0.7860435	2.475505	-167.8767	
20:10:06	47.27456	-122.5769	0.02	0.2671688	22.48235	0	3	100	0	5	-0.6912779	2.176177	-169.0923	
20:10:08	47.27456	-122.5769	0.02	0.2344043	19.4673	0	3	100	0	4	-0.6149684	1.978593	-170.0179	
20:10:09	47.27456	-122.5769	0.02	0.2070223	16.94309	0	3	100	0	4	-0.5118623	1.687339	-171.0538	
20:10:11	47.27458	-122.5769	0.024	0.6731875	115.0562	0	3	100	0	4	13.00087	-11.74424	-173.4584	
20:10:13	47.27458	-122.5769	0.031	-1.623016	-603.4876	0.01	3	100	0	4	94.27897	-57.30414	156.1712	
20:10:14	47.27458	-122.5769	0.043	-10.47782	-1905.283	0.41	3	100	0	4	-135.0197	-41.31111	53.01131	
20:10:16	47.27459	-122.5769	0.043	-24.47223	-3027.061	0.43	3	100	0	4	-75.80015	11.78427	96.63506	
20:10:18	47.27459	-122.5769	0.044	-22.15885	-1380.496	0.48	3	100	0	4	11.74546	-26.95012	-179.4875	
20:10:20	47.2746	-122.577	0.043	-9.967329	-477.0576	0.46	3	100	0	4	-149.5573	-68.22207	52.55763	
20:10:21	47.2746	-122.577	0.043	-10.75101	-1523.647	0.39	3	100	0	4	-89.20363	5.163682	90.01993	
20:10:23	47.2746	-122.577	0.043	-12.3466	-770.402	0.43	3	100	0	4	7.631502	-8.031629	-176.2322	
20:10:25	47.2746	-122.577	0.044	-2.884013	87.48688	0.51	3	100	0	4	177.7081	-70.33524	92.28658	
20:10:26	47.27461	-122.577	0.043	-1.68633	-212.9456	0.5	3	100	0	4	128.7827	-49.45374	144.688	
20:10:28	47.2746	-122.577	0.04	0.134162	375.6832	0.27	3	100	0	4	68.97062	-2.98647	173.6919	
20:10:30	47.2746	-122.577	0.043	7.434184	1030.968	0.47	3	100	0	4	14.86323	46.19325	145.0667	
20:10:31	47.2746	-122.577	0.043	7.266744	523.145	0.5	3	100	0	4	-10.75388	30.35138	115.029	
20:10:33	47.27459	-122.577	0.043	5.252059	491.2122	0.49	3	100	0	4	-0.3833275	-8.615611	106.248	
20:10:35	47.27459	-122.577	0.037	5.44695	487.5019	0	3	100	0	2	29.81101	-47.90434	106.6657	
20:10:36	47.27459	-122.577	0.036	3.111514	47.43839	0	3	100	0	4	58.93511	-66.83386	85.41787	
20:10:38	47.27459	-122.577	0.036	-2.172406	-557.0324	0	3	100	0	4	76.69621	-68.51869	68.72857	
20:10:40	47.27458	-122.577	0.04	-6.159429	-831.5068	0	3	100	0	4	112.9522	-67.07082	34.80298	
20:10:42	47.27458	-122.577	0.037	-8.321301	-856.4643	0	3	100	0	4	87.84799	-66.08184	43.37915	
20:10:43	47.27458	-122.577	0.037	-6.967244	-520.1933	0	3	100	0	4	62.1004	-65.55988	52.39879	
20:10:45	47.27458	-122.577	0.037	-3.146425	-80.39263	0	3	100	0	4	38.16172	-64.00153	60.47664	
20:10:47	47.27458	-122.577	0.037	0.4131732	232.9753	0	3	100	0	4	15.56857	-59.24919	67.99364	
20:10:48	47.27458	-122.577	0.037	2.920611	431.8648	0	3	100	0	4	0.2212965	-53.44025	69.46137	
20:10:50	47.27458	-122.577	0.037	4.522608	525.7476	0	3	100	0	4	-9.003843	-48.62979	65.74448	
20:10:52	47.27458	-122.577	0.037	5.240548	542.8015	0	3	100	0	4	-14.17022	-43.43015	57.97465	
20:10:53	47.27458	-122.577	0.037	5.342065	524.3995	0	3	100	0	4	-16.88767	-39.19437	47.35133	
20:10:55	47.27458	-122.577	0.037	5.1592	492.5435	0	3	100	0	4	-18.82131	-36.42999	35.68546	
20:10:57	47.27458	-122.577	0.037	4.8475	455.7726	0	3	100	0	4	-19.02781	-33.59581	21.6129	
20:10:58	47.27458	-122.577	0.037	4.505634	428.3779	0	3	100	0	2	-18.11401	-31.15647	5.197378	
20:11:00	47.27458	-122.577	0.037	4.230477	401.1129	0	3	100	0	4	-18.11418	-29.12456	-10.41209	
20:11:02	47.27458	-122.577	0.037	3.989026	375.4519	0	3	100	0	4	-19.08741	-26.34246	-24.29832	
20:11:04	47.27458	-122.577	0.037	3.769519	357.1273	0	3	100	0	4	-20.10997	-23.06443	-37.61778	
20:11:05	47.27458	-122.577	0.037	3.503912	327.178	0	3	100	0	4	-21.88399	-20.4421	-48.76383	
20:11:07	47.27458	-122.577	0.037	3.175392	288.6415	0	3	100	0	4	-23.57903	-17.6383	-58.04805	
20:11:09	47.27458	-122.577	0.037	2.806827	252.6258	0	3	100	0	4	-25.13675	-14.25075	-65.75578	
20:11:10	47.27458	-122.577	0.037	2.478576	219.3541	0	3	100	0	4	-26.9345	-11.28585	-71.51095	
20:11:12	47.27458	-122.577	0.037	2.092666	179.9442	0	3	100	0	4	-28.34266	-7.984013	-75.38375	
20:11:14	47.27458	-122.577	0.037	1.723044	149.1854	0	3	100	0	4	-28.74971	-4.196202	-77.2221	
20:11:15	47.27458	-122.577	0.037	1.512372	131.4796	0	3	100	0	4	-29.11229	-1.671289	-79.3804	
20:11:17	47.27458	-122.577	0.037	1.271065	109.8626	0	3	100	0	4	-28.92033	1.273738	-79.2858	
20:11:19	47.27458	-122.577	0.037	1.123738	102.0412	0	3	100	0	4	-27.56032	4.184164	-77.7215	
20:11:20	47.27458	-122.577	0.037	1.059866	99.15939	0	3	100	0	4	-26.47595	6.265602	-75.83305	
20:11:22	47.27458	-122.577	0.037	1.010882	94.70553	0	3	100	0	5	-25.02349	8.081334	-72.8297	
20:11:24	47.27458	-122.577	0.037	1.001018	97.7661	0	3	100	0	4	-22.63473	9.374084	-68.9581	
20:11:26	47.27458	-122.577	0.037	1.034784	102.2413	0	3	100	0	4	-20.80171	10.0948	-65.21224	
20:11:27	47.27458	-122.577	0.037	1.061987	103.8155	0	3	100	0	4	-19.01036	10.373	-61.40218	
20:11:29	47.27458	-122.577	0.037	1.084745	107.9952	0	3	100	0	4	-16.64746	10.07563	-57.23077	
20:11:31	47.27458	-122.577	0.037	1.142514	112.997	0	3	100	0	4	-14.99517	9.724288	-53.23605	
20:11:32	47.27458	-122.577	0.037	1.152357	110.5486	0	3	100	0	4	-13.55045	9.122962	-49.57312	
20:11:34	47.27458	-122.577	0.036	1.131904	109.3987	0	3	100	0	4	-9.301551	11.99617	-46.42324	
20:11:36	47.27458	-122.577	0.036	1.008812	76.82206	0	3	100	0	4	1.973284	23.27148	-41.88107	
20:11:37	47.27458	-122.577	0.036	0.4361906	-16.03379	0	3	100	0	4	12.31132	30.88811	-34.44514	
20:11:39	47.27458	-122.577	0.036	-0.5460081	-104.8747	0	3	100	0	4	27.12346	17.32277	-30.48288	
20:11:41	47.27458	-122.577	0.036	-0.9689471	-114.5041	0	3	100	0	4	31.76942	10.65549	-25.70005	
20:11:42	47.27458	-122.577	0.036	-1.137748	-129.1322	0	3	100	0	4	37.307	0.9414408	-25.05041	
20:11:44	47.27458	-122.577	0.037	-0.9701307	-117.8064	0	3	100	0	4	44.91824	-8.833836	-23.05066	
20:11:46	47.27459	-122.577	0.036	-1.39018	-209.493	0	3	100	0	4	48.66711	-14.03896	-24.59967	
20:11:48	47.27459	-122.577	0.036	-2.495015	-325.0986	0	3	100	0	4	49.15473	-14.74667	-26.80772	
20:11:49	47.27459	-122.577	0.037	-3.690877	-501.4116	0.13	3	100	0	4	64.90793	-20.61155	-38.58879	
20:11:51	47.27459	-122.577	0.036	-5.207031	-552.5888	0	3	100	0	4	57.79457	-15.06193	-35.35226	
20:11:53	47.27459	-122.577	0.036	-4.646245	-375.7748	0	3	100	0	4	52.08171	-10.12488	-34.59047	
20:11:54	47.27459	-122.577	0.036	-2.854927	-155.4446	0	3	100	0	4	46.69404	-6.836519	-34.23941	
20:11:56	47.27459	-122.577	0.036	-0.7004172	50.30501	0	3	100	0	4	40.02874	-2.983812	-35.32404	
20:11:58	47.27459	-122.577	0.036	1.052375	184.9524	0	3	100	0	4	34.73682	-0.3555955	-37.08693	
20:11:59	47.27459	-122.577	0.036	2.085852	245.0056	0	3	100	0	4	30.14353	1.428094	-39.17497	
20:12:01	47.27459	-122.577	0.036	2.545179	271.0628	0	3	100	0	4	24.72776	2.971734	-42.15706	
20:12:03	47.27459	-122.577	0.036	2.779042	281.429	0	3	100	0	4	21.10796	3.180295	-45.25571	
20:12:04	47.27459	-122.577	0.036	2.760423	266.1167	0	3	100	0	4	18.77494	0.4789821	-49.85169	
20:12:06	47.27459	-122.577	0.036	2.622852	242.2543	0	3	100	0	4	22.24646	-11.05168	-58.34028	
20:12:08	47.27459	-122.577	0.035	1.910494	107.9753	0	3	100	0	4	26.50042	-27.1763	-73.35576	
20:12:10	47.27459	-122.577	0.034	-0.3917786	-253.4353	0	3	100	0	4	53.0179	-41.07283	-97.14131	
20:12:11	47.27459	-122.577	0.034	-4.960652	-821.9908	0	3	100	0	4	84.44369	-45.37589	-126.0761	
20:12:13	47.27459	-122.577	0.034	-9.320318	-1285.07	0	3	100	0	4	114.0014	-41.91251	-153.7703	
20:12:15	47.27459	-122.577	0.034	-14.45465	-1783.456	0	3	100	0	5	139.5135	-31.97206	-177.5074	
20:12:16	47.27459	-122.577	0.034	-19.12711	-2136.273	0	3	100	0	4	161.5443	-15.01916	162.3214	
20:12:18	47.27459	-122.577	0.034	-21.13858	-2184.974	0	3	100	0	4	-179.9222	11.77734	151.2932	
20:12:20	47.27459	-122.577	0.034	-19.87458	-1738.037	0	3	100	0	4	-151.7397	47.4507	159.5322	
20:12:22	47.27459	-122.577	0.034	-12.33211	-538.2197	0	3	100	0	4	-57.17605	59.87075	-123.6866	
20:12:23	47.27459	-122.577	0.034	1.80524	1032.727	0	3	100	0	4	-5.75388	21.51482	-91.7569	
20:12:25	47.27459	-122.577	0.034	13.13585	1723.871	0	3	100	0	4	17.23829	-14.03835	-94.53889	
20:12:27	47.27459	-122.577	0.034	14.98981	1325.72	0	3	100	0	4	41.40123	-35.34024	-112.4889	
20:12:28	47.27459	-122.577	0.034	9.140101	448.2199	0	3	100	0	4	71.11482	-44.73375	-139.0706	
20:12:30	47.27459	-122.577	0.034	1.437021	-360.0961	0	3	100	0	4	102.268	-44.67765	-167.9364	
20:12:32	47.27459	-122.577	0.034	-5.071519	-981.4125	0	3	100	0	4	129.3018	-36.66219	166.9942	
20:12:33	47.27459	-122.577	0.034	-11.72792	-1500.006	0	3	100	0	4	151.4368	-21.59419	147.1493	
20:12:35	47.27459	-122.577	0.034	-15.39989	-1719.182	0	3	100	0	4	169.1534	2.273221	134.5273	
20:12:37	47.27459	-122.577	0.034	-16.41117	-1578.114	0	3	100	0	4	-170.6707	35.95277	133.8206	
20:12:39	47.27459	-122.577	0.034	-11.84324	-691.3378	0	3	100	0	4	-101.9487	68.12204	-175.3786	
20:12:40	47.27459	-122.577	0.034	-1.322092	701.2682	0	3	100	0	4	-13.4276	39.39319	-106.1317	
20:12:42	47.27459	-122.577	0.034	11.35733	1784.789	0	3	100	0	4	12.71853	-0.6633599	-100.9828	
20:12:44	47.27459	-122.577	0.034	17.14582	1796.665	0	3	100	0	4	34.54315	-28.59481	-113.889	
20:12:45	47.27459	-122.577	0.034	14.83576	1116.147	0	3	100	0	4	61.46922	-42.06553	-137.5202	
20:12:47	47.27459	-122.577	0.034	7.923342	224.1465	0	3	100	0	4	92.03868	-45.08668	-165.9563	
20:12:49	47.27459	-122.577	0.034	-0.491895	-602.3547	0	3	100	0	4	120.2944	-39.52015	167.5308	
20:12:50	47.27459	-122.577	0.034	-7.989595	-1204.09	0	3	100	0	4	143.2009	-26.58677	146.4612	
20:12:52	47.27459	-122.577	0.034	-12.9078	-1537.03	0	3	100	0	4	161.2488	-5.803213	131.577	
20:12:54	47.27459	-122.577	0.034	-15.16026	-1561.938	0	3	100	0	4	177.9169	24.55894	125.5217	
20:12:55	47.27459	-122.577	0.034	-13.66144	-1074.113	0	3	100	0	3	-146.1663	62.4817	143.1999	
20:12:57	47.27459	-122.577	0.034	-5.268597	212.4808	0	3	100	0	4	-25.82652	56.98824	-115.624	
20:12:59	47.27459	-122.577	0.034	8.480913	1593.483	0	3	100	0	4	7.864338	14.45978	-102.0346	
20:13:01	47.27457	-122.5769	0.02	16.73949	2000.327	0	3	100	0	4	21.19405	-9.308416	-109.2225	
20:13:02	47.27457	-122.5769	0.02	19.34556	1944.933	0	3	100	0	5	11.28178	11.60671	-120.3541	
20:13:04	47.27457	-122.5769	0.02	17.72554	1586.395	0	3	100	0	5	-0.5631061	23.7178	-138.2458	
20:13:06	47.27457	-122.5769	0.02	14.18522	1172.793	0	3	100	0	4	-6.430325	30.76092	-145.2077	
20:13:07	47.27457	-122.5769	0.02	10.81033	850.4708	0	3	100	0	4	-8.818002	35.45106	-146.3944	
20:13:09	47.27457	-122.5769	0.02	7.650416	596.7454	0	3	100	0	5	-10.8989	37.77612	-147.9182	
20:13:11	47.27457	-122.5769	0.02	5.567771	445.0998	0	3	100	0	4	-12.72752	39.41309	-149.6838	
20:13:12	47.27457	-122.5769	0.02	4.116602	339.0884	0	3	100	0	4	-13.35601	40.04953	-150.4216	
20:13:14	47.27457	-122.5769	0.02	3.348268	297.0118	0	3	100	0	4	-12.47854	38.94341	-149.546	
20:13:16	47.27457	-122.5769	0.02	2.996641	281.2169	0	3	100	0	4	-11.69795	38.15094	-148.4911	
20:13:17	47.27457	-122.5769	0.02	2.80761	268.1342	0	3	100	0	4	-10.68395	37.27018	-146.8967	
20:13:19	47.27457	-122.5769	0.02	2.739724	274.3673	0	3	100	0	4	-7.954826	34.52279	-142.7334	
20:13:21	47.27457	-122.5769	0.02	2.817735	286.7495	0	3	100	0	4	-6.359794	32.29141	-139.2708	
20:13:23	47.27457	-122.5769	0.02	2.908643	293.5292	0	3	100	0	4	-5.376715	30.34677	-136.2046	
20:13:24	47.27457	-122.5769	0.02	2.980115	303.4837	0	3	100	0	4	-4.158717	26.88992	-132.6029	
20:13:26	47.27457	-122.5769	0.02	3.089312	310.8972	0	3	100	0	4	-4.513863	24.25788	-131.9545	
20:13:28	47.27457	-122.5769	0.02	3.070717	298.6335	0	3	100	0	4	-5.789187	22.04335	-134.4662	
20:13:29	47.27457	-122.5769	0.02	2.924085	280.9698	0	3	100	0	4	-6.439813	18.6776	-137.4672	
20:13:31	47.27457	-122.5769	0.02	2.749729	261.8742	0	3	100	0	4	-6.774209	16.29276	-140.63	
20:13:33	47.27457	-122.5769	0.02	2.543235	238.5848	0	3	100	0	4	-6.803433	14.60173	-143.4389	
20:13:34	47.27457	-122.5769	0.02	2.327351	223.9372	0.04	3	100	0	4	-6.481352	11.93772	-147.5252	
20:13:36	47.27456	-122.5769	0.02	2.251178	216.1963	0.72	3	100	0	5	-7.335521	9.628206	-157.1559	
20:13:38	47.27454	-122.5769	0.02	2.117623	197.4588	1.33	3	100	0	5	-7.717174	7.8814	-168.5899	
20:13:40	47.27452	-122.5769	0.02	1.897411	172.7122	1.75	3	100	0	4	-7.111351	6.31312	-179.4929	
20:13:41	47.2745	-122.5769	0.02	1.677959	152.2099	2.31	3	100	0	8	-6.162217	5.185178	170.1362	
20:13:43	47.27446	-122.5769	0.02	1.510735	135.4142	3.16	3	100	0	35	-5.685886	4.308825	158.2572	
20:13:45	47.27439	-122.5768	0.021	1.444208	133.1204	6.19	5.929551	100	0	56	-4.429803	2.723021	143.9918	
20:13:46	47.27432	-122.5767	0.023	1.237967	64.41628	10.33	9.817646	100	0	57	-4.048655	1.891753	129.7776	
20:13:48	47.27419	-122.5765	0.003	1.497201	157.594	12.26	11.70193	100	0	72	-13.46134	-0.7444971	136.7847	
20:13:50	47.27405	-122.5763	0.033	1.172375	165.3278	9	8.922954	100	0	72	8.847444	-10.29969	145.0892	
20:13:52	47.27396	-122.5762	-0.004	1.015609	207.4971	7.13	7.126811	100	0	72	-2.398385	-0.5966091	149.7768	
20:13:53	47.27388	-122.5761	0.057	1.040507	20.24	5.49	5.29719	100	0	72	-0.8549183	-0.1126295	153.7225	
20:13:55	47.27382	-122.576	0.011	0.7042814	-102.1854	3.92	4.086841	100	0	72	18.01982	-1.571221	159.4743	
20:13:57	47.27378	-122.576	0.011	-0.7182248	-161.9219	1.77	3	100	0	72	13.67639	-18.76982	150.0363	
20:13:58	47.27377	-122.576	0.028	-1.068701	-141.0098	0.67	3	100	0	72	9.106044	36.21089	157.1747	
20:14:00	47.27377	-122.576	0.028	-5.958084	-1167.576	0.67	3	100	0	72	162.6313	83.62102	-43.31117	
20:14:02	47.27456	-122.5769	0.021	-11.93092	-1368.261	1.93	3	100	0	4	-32.02574	71.83219	120.0748	
20:14:03	47.27455	-122.5769	0.02	-12.40417	-1042.383	0.05	3	100	0	4	-42.04516	41.38758	102.1712	
20:14:05	47.27455	-122.5769	0.02	-7.682945	-356.4444	0	3	100	0	4	-31.65569	28.25797	102.8067	
20:14:07	47.27455	-122.5769	0.02	-1.353166	224.5024	0	3	100	0	4	-24.18826	18.14224	98.85673	
20:14:09	47.27454	-122.5769	0.02	2.958436	510.8712	0.52	3	100	0	4	-15.04725	11.23018	99.20634	
20:14:10	47.27453	-122.5769	0.021	5.181235	588.451	1.37	3	100	0	30	-7.920933	6.530529	99.39153	
20:14:12	47.27449	-122.5769	0.021	5.601458	557.2023	5.1	4.639687	100	0	60	-0.3950482	2.4019	89.7437	
20:14:14	47.27443	-122.5767	0.025	5.31145	484.9506	10.68	10.00072	100	0	86	6.810394	3.093095	85.98797	
20:14:15	47.27433	-122.5765	1.036	4.963135	360.5907	15.85	15.16782	100	0	91	10.87131	2.465274	95.76665	
20:14:17	47.27412	-122.5761	2.646	5.320498	292.1589	22.28	21.53776	100	0	91	9.150568	0.8636836	97.37331	
20:14:19	47.27391	-122.5756	3.812	6.260626	362.9137	25.63	24.53561	100	0	91	10.33726	0.2332606	100.1288	
20:14:21	47.2737	-122.5751	6.508	8.475941	424.4431	27.1	26.30033	100	0	91	-0.1201846	0.6648163	107.091	
20:14:22	47.2735	-122.5746	9.811	12.50391	465.9004	27.87	27.02544	100	0	91	-0.1095873	0.3183838	110.7523	
20:14:24	47.27326	-122.574	14.192	16.26325	456.2446	28.33	27.39599	100	0	90	-0.3309486	0.2703415	112.9585	
20:14:26	47.27308	-122.5735	17.837	19.63649	419.5829	28.55	27.57936	100	0	91	-0.4749892	0.2773456	114.7054	
20:14:27	47.27289	-122.5729	21.754	23.31121	406.2552	28.79	27.74999	100	0	95	-0.3443283	0.182818	115.2868	
20:14:29	47.27273	-122.5723	25.321	26.4507	395.6643	29.3	28.15614	100	0	95	-0.4984867	0.3354088	115.2788	
20:14:31	47.27258	-122.5716	28.816	29.48008	352.696	29.73	28.42888	100	0	95	-0.4840747	0.09225846	115.2466	
20:14:32	47.27246	-122.5709	31.976	32.76337	334.6309	29.96	28.66386	100	0	95	-0.2959451	0.1228717	115.1626	
20:14:34	47.27237	-122.5704	34.231	35.37145	303.5034	30.15	28.90137	100	0	5	-0.1496883	0.3028382	115.066	
20:14:36	47.27228	-122.5697	39.959	38.59367	354.9157	24.46	23.16284	100	0	95	-0.9074712	1.29394	112.9372	
20:14:38	47.27222	-122.5691	40.36	42.33658	571.7715	25.17	23.78876	100	0	4	-0.1133467	8.115352	111.6397	
20:14:39	47.27221	-122.5686	46.877	47.97342	445.2065	18.56	17.12185	100	0	4	2.743487	13.40967	106.5063	
20:14:41	47.27221	-122.5683	50.706	51.17352	71.85883	15.55	14.08085	100	0	62	1.056354	-1.888523	101.5072	
20:14:43	47.27222	-122.5679	58.88	56.14777	422.4523	18.32	16.81328	100	0	63	5.269033	1.437236	112.326	
20:14:44	47.27222	-122.5676	68.626	69.35397	732.7628	17.92	16.01444	100	0	66	-2.1436	2.752437	111.36	
20:14:46	47.27218	-122.5671	82.271	84.12415	896.3533	19.16	17.26385	100	0	66	-1.130566	1.136412	114.3895	
20:14:48	47.27213	-122.5666	92.6	95.54521	1008.108	20.25	18.39784	100	0	66	-0.8598076	0.4809102	115.0477	
20:14:50	47.27206	-122.5661	97.298	98.52584	922.7663	20.65	18.71585	100	0	66	-1.131697	0.7680549	117.8279	
20:14:51	47.27198	-122.5658	100.986	105.8719	792.2084	20.71	19.04693	100	0	69	-0.6301391	0.3395565	124.0459	
20:14:53	47.27183	-122.5653	104.984	109.0004	436.2714	21.88	20.27322	100	0	69	-2.297111	0.4152839	123.3008	
20:14:55	47.27169	-122.5648	105.28	108.1899	130.6366	22.87	21.28281	100	0	69	-0.9502307	0.3115267	124.0751	
20:14:56	47.27153	-122.5644	104.119	105.5634	-72.68404	23.75	22.17209	100	0	69	-0.7273306	0.2866607	124.1235	
20:14:58	47.27136	-122.5639	101.361	102.7457	-190.8978	24.58	23.01623	100	0	78	-0.6523461	0.2383157	123.6329	
20:15:00	47.27118	-122.5633	83.104	89.75874	-645.1329	26.49	24.92191	100	0	88	-0.6117807	0.4727774	122.8667	
20:15:01	47.27102	-122.5628	85.324	80.18749	-706.5486	28.08	26.50285	100	0	92	-0.2324586	0.7325941	122.3207	
20:15:03	47.27082	-122.5623	94.638	83.94273	-238.7964	29.49	27.92189	100	0	92	-0.005981922	0.2370731	121.6462	
20:15:05	47.27057	-122.5615	125.167	106.6016	809.4093	30.56	28.7111	100	0	92	-0.003997088	0.1080891	121.4195	
20:15:07	47.27042	-122.5611	142.344	142.6767	1815.472	30.92	29.36682	100	0	92	-0.05207165	0.01139704	121.2012	
20:15:08	47.27016	-122.5604	156.447	166.1429	1930.976	31.33	29.7858	100	0	92	0.2180228	0.02105004	121.0364	
20:15:10	47.2699	-122.5597	157.983	169.8164	941.3149	31.54	29.99588	100	0	92	0.05141404	-0.02337426	121.1309	
20:15:12	47.26968	-122.5591	159.202	164.2541	175.3417	31.61	30.10241	100	0	92	-0.03312814	0.01927245	121.1355	
20:15:13	47.26965	-122.559	159.391	160.0878	-110.3056	31.63	30.12037	100	0	4	-0.4557693	0.4450004	120.9916	
20:15:15	47.27457	-122.5769	0.02	151.714	-529.9391	0	3	100	0	4	-1.096566	-2.66911	126.0545	
20:15:17	47.27457	-122.5769	0.02	-13.18599	-6190.745	0	3	100	0	4	-0.3871723	0.1289324	138.6731	
20:15:19	47.27457	-122.5769	0.02	-42.1945	-4513.908	0	3	100	0	4	0.04674891	0.4541128	149.0707	
20:15:20	47.27457	-122.5769	0.02	-33.05926	-1996.848	0	3	100	0	4	0.3524487	0.6026618	157.7197	
20:15:22	47.27457	-122.5769	0.02	-14.38739	-206.7938	0	3	100	0	4	0.5558984	0.6582204	165.0171	
20:15:24	47.27457	-122.5769	0.02	-0.917339	508.985	0	3	100	0	4	0.7001897	0.6570109	173.0306	
20:15:25	47.27457	-122.5769	0.02	3.957769	527.136	0	3	100	0	4	0.7818227	0.6587115	179.3713	
20:15:27	47.27457	-122.5769	0.02	3.87481	297.1852	0	3	100	0	4	0.8188834	0.6679239	-175.6661	
20:15:29	47.27457	-122.5769	0.02	2.172167	125.4626	0	3	100	0	4	0.790428	0.6398389	-171.3296	
20:15:30	47.27457	-122.5769	0.02	1.091314	63.33517	0	3	100	0	4	0.7605151	0.6333169	-167.9492	
20:15:32	47.27457	-122.5769	0.02	0.6878192	51.96851	0	3	100	0	4	0.7255659	0.6315299	-165.2589	
20:15:34	47.27457	-122.5769	0.02	0.569181	52.60758	0	3	100	0	4	0.6420637	0.6080363	-163.8784	
20:15:36	47.27457	-122.5769	0.02	0.5472076	51.24285	0	3	100	0	4	0.5838451	0.5939742	-162.5085	
20:15:37	47.27457	-122.5769	0.02	0.5128453	46.16513	0	3	100	0	4	0.5383782	0.5878723	-161.4555	
20:15:39	47.27457	-122.5769	0.02	0.4476525	38.54436	0	3	100	0	4	0.450195	0.5497014	-161.8551	
20:15:41	47.27457	-122.5769	0.02	0.3860322	32.46525	0	3	100	0	4	0.3948561	0.5217448	-161.7034	
20:15:42	47.27457	-122.5769	0.02	0.3289021	27.30862	0	3	100	0	4	0.3549478	0.4963425	-161.6708	
20:15:44	47.27457	-122.5769	0.02	0.2882081	23.77981	0	3	100	0	4	0.2922058	0.4497915	-162.3294	
20:15:46	47.27457	-122.5769	0.02	0.2487197	20.36591	0	3	100	0	4	0.2461659	0.4218785	-163.1224	
20:15:47	47.27457	-122.5769	0.02	0.2115672	17.10901	0	3	100	0	17	0.2196548	0.4042057	-163.8294	
20:15:49	47.27457	-122.5769	0.02	0.1764301	12.8884	1.96	3	100	0	48	0.2030731	0.542619	-168.7811	
20:15:51	47.2745	-122.5769	0.022	0.1435656	13.25252	7.21	7.634809	100	0	55	-1.133265	0.9503336	-170.9036	
20:15:53	47.27435	-122.5769	0.023	0.1775951	16.70505	12.38	12.77613	100	0	92	-0.6892301	0.4295405	-160.048	
20:15:54	47.27408	-122.577	0.043	0.1942521	34.83627	20.37	20.80712	100	0	95	0.06767637	1.404186	-159.0591	
20:15:56	47.27377	-122.5772	0.668	0.7773256	72.0473	24.99	25.45252	100	0	95	-0.1368068	1.506025	-158.6475	
20:15:58	47.27335	-122.5774	1.956	1.844218	79.82745	28.04	28.48909	100	0	95	-0.5722252	0.6299552	-160.0199	
20:15:59	47.27292	-122.5775	3.202	3.078628	71.90192	29.55	29.84986	100	0	95	-3.950546	0.2234357	-162.0569	
20:16:01	47.27248	-122.5777	4.122	4.175143	64.19695	30.56	30.94032	100	0	95	0.8681942	0.2377942	-164.0607	
20:16:03	47.27204	-122.5778	4.8	4.905651	54.64125	31.3	31.68242	100	0	95	0.5342131	-0.01226479	-164.3851	
20:16:05	47.27157	-122.578	5.412	5.500501	61.11553	31.85	32.22553	100	0	95	0.6696377	0.01322411	-164.2616	
20:16:06	47.2711	-122.5781	6.168	6.266779	52.95041	32.19	32.56639	100	0	95	0.2149938	-0.02526912	-164.9015	
20:16:08	47.27067	-122.5783	6.734	6.909783	51.14315	32.45	32.8263	100	0	95	0.2556804	-0.06298885	-165.0409	
20:16:10	47.27009	-122.5784	6.957	7.647511	261.7025	32.48	32.64092	100	0	95	-31.7586	4.794644	179.8346	
20:16:11	47.26969	-122.5784	11.437	12.11599	302.832	28.9	28.73023	100	0	95	-32.72151	12.03748	171.1193	
20:16:13	47.26927	-122.5782	14.694	15.17018	189.579	26	25.72283	100	0	95	-39.84361	9.896118	159.6389	
20:16:15	47.26897	-122.5779	16.666	17.79754	224.5289	24.09	23.5127	100	0	94	-41.23558	12.58318	140.2095	
20:16:17	47.26873	-122.5775	19.809	19.71227	180.1339	22.36	22.04755	100	0	86	-40.09534	11.35169	123.1002	
20:16:18	47.26859	-122.577	21.415	21.57104	63.97823	21.24	21.11874	100	0	78	-40.62049	8.423111	105.6348	
20:16:20	47.26858	-122.5765	22.312	22.50298	149.438	20.37	20.73701	100	0	77	-41.22449	13.17364	79.34612	
20:16:22	47.26872	-122.5761	25.445	24.82126	106.2348	19.28	20.07677	100	0	78	-40.86432	12.95148	54.9701	
20:16:23	47.26892	-122.5758	26.969	26.55825	12.6705	19.27	20.11603	100	0	78	-40.31566	9.236448	33.79709	
20:16:25	47.26921	-122.5756	26.43	26.70414	56.99007	20.25	21.07063	100	0	78	6.773427	-0.2663185	34.61126	
20:16:27	47.26944	-122.5754	25.578	26.33861	0.592948	20.77	21.0618	100	0	78	5.819061	0.2078841	57.59729	
20:16:29	47.26961	-122.5749	24.348	25.40077	95.34692	20.84	20.8388	100	0	79	-9.788867	14.48186	73.9529	
20:16:30	47.26974	-122.5745	26.173	25.47971	15.76576	22.72	21.52603	100	0	76	-19.0778	3.855753	43.52445	
20:16:32	47.26994	-122.5741	30.1	29.99537	407.1813	21.35	20.1264	100	0	76	-25.94298	11.23533	12.23388	
20:16:34	47.2702	-122.574	38.71	38.16872	365.4264	18.44	18.14661	100	0	76	-25.15842	8.116686	-16.74576	
20:16:35	47.27049	-122.574	46.117	44.66691	335.3996	17.35	18.05928	100	0	76	-25.50206	3.341294	-52.00349	
20:16:37	47.27069	-122.5743	50.864	50.77662	294.083	17.56	19.09631	100	0	76	-22.5143	-0.1579529	-90.75304	
20:16:39	47.27071	-122.5746	52.387	53.68975	243.426	18.62	20.25889	100	0	76	-23.57683	-2.021419	-126.312	
20:16:40	47.27059	-122.575	52.36	54.03804	109.3788	20.27	21.06342	100	0	77	-29.96261	-6.085176	-172.9388	
20:16:42	47.27032	-122.5752	50.189	52.08772	-2.797237	22.17	22.28131	100	0	79	3.227637	-4.3835	169.7769	
20:16:44	47.2699	-122.5752	43.662	46.08351	-400.7198	25.38	25.69745	100	0	80	2.146102	-10.33229	162.3646	
20:16:46	47.26947	-122.5752	32.779	33.74699	-735.7811	28.27	28.10418	100	0	80	20.51588	-10.21924	161.5917	
20:16:47	47.26903	-122.5753	25.624	24.89033	-388.4728	29.74	30.43501	100	0	70	37.97993	-2.604441	-173.2587	
20:16:49	47.2686	-122.5757	25.89	23.70936	-169.092	27.62	29.3661	100	0	69	41.01932	-2.200388	-134.1505	
20:16:51	47.26845	-122.5762	25.966	24.17045	-24.70858	24.57	26.31006	100	0	68	29.5053	-0.9098282	-90.40754	
20:16:52	47.26851	-122.5766	29.938	27.76579	-22.59208	21.32	22.56681	100	0	67	34.67552	-2.788569	-56.99488	
20:16:54	47.26871	-122.577	31.284	29.93716	-22.30215	20.22	21.64054	100	0	67	37.53731	-6.285238	-11.6687	
20:16:56	47.26902	-122.577	30.537	30.39902	57.64157	20.35	21.51295	100	0	75	3.171899	0.2785098	22.52449	
20:16:58	47.26935	-122.5768	30.905	30.76753	38.31748	22.72	23.80501	100	0	75	-8.351	1.361021	20.92117	
20:16:59	47.26965	-122.5766	33.372	32.56131	93.44423	23.35	24.42138	100	0	68	-1.548107	1.660516	21.65596	
20:17:01	47.26991	-122.5764	34.682	33.87594	-145.6025	23.95	24.99653	100	0	71	-1.178326	-10.67446	23.48859	
20:17:03	47.27036	-122.5761	30.772	32.44123	-30.74079	26.32	27.45534	100	0	71	-26.12667	-6.141832	19.46928	
20:17:04	47.27073	-122.576	26.366	27.30794	-359.0565	27.29	28.61023	100	0	71	-21.42607	-9.06418	11.78778	
20:17:06	47.27116	-122.5759	20.354	21.44529	42.69019	27.5	28.84419	100	0	71	2.585566	0.8348036	11.17278	
20:17:08	47.27143	-122.5758	21.732	21.46035	-27.23234	25.87	27.18893	100	0	69	-2.405417	0.6619556	11.16526	
20:17:09	47.2719	-122.5757	23.397	22.76782	23.93767	25.31	26.59908	100	0	67	3.556997	0.0277195	23.71894	
20:17:11	47.27228	-122.5754	23.914	23.62002	21.91007	22.6	22.69898	100	0	68	2.342664	-0.1982657	41.63125	
20:17:13	47.27257	-122.5751	23.738	23.75651	-24.41332	21.92	22.07275	100	0	69	-4.682453	0.4941594	51.68153	
20:17:15	47.27279	-122.5748	23.731	23.59319	-16.90513	21.05	20.9329	100	0	72	-1.174231	-0.05004403	47.90709	
20:17:16	47.27297	-122.5745	23.942	23.74269	-12.6869	21.83	21.82885	100	0	72	-11.62608	-1.859875	24.44108	
20:17:18	47.2733	-122.5742	24.376	24.0943	-1.878511	21.1	20.9295	100	0	72	-3.370164	0.1412828	7.371192	
20:17:20	47.27358	-122.5741	23.414	22.95144	-268.2594	21.14	20.86052	100	0	73	1.081011	-10.77991	-5.319202	
20:17:21	47.27394	-122.574	20.002	20.89511	-66.89784	22.03	21.55535	100	0	74	-0.4387708	0.8149574	-16.27929	
20:17:23	47.27427	-122.5741	19.262	19.84668	-86.63942	22.65	22.16599	100	0	74	0.05806638	0.5313132	-15.79602	
20:17:25	47.27456	-122.5742	14.408	13.10835	-600.2096	22.77	22.15386	100	0	68	-16.93521	-15.47416	-31.06647	
20:17:27	47.27485	-122.5745	11.966	12.3943	129.6557	21.15	19.60182	100	0	43	-31.18987	7.851611	-46.38126	
20:17:28	47.27509	-122.5749	15.804	15.03908	83.14594	20.13	18.49118	100	0	47	-36.90911	5.207823	-58.6675	
20:17:30	47.27517	-122.5753	18.672	18.10655	159.0635	18.6	18.12304	100	0	58	-47.92339	1.846626	-112.2217	
20:17:32	47.27499	-122.5756	21.83	21.09471	46.53064	18.53	19.89921	100	0	80	-43.25184	-6.598584	-179.9967	
20:17:33	47.27474	-122.5755	21.509	22.32531	50.64761	20.34	21.79453	100	0	79	2.467775	-2.417041	132.7448	
20:17:35	47.27448	-122.5752	12.575	15.8018	-554.7916	25.51	27.44132	100	0	79	3.129483	-14.3354	126.1421	
20:17:37	47.27415	-122.5747	7.239	7.798024	262.0415	24.82	27.21153	100	0	79	9.616293	19.57738	133.1575	
20:17:39	47.2739	-122.5743	7.38	4.688719	37.19303	26.03	27.78101	100	0	82	38.8392	22.06607	158.8806	
20:17:40	47.27351	-122.5741	9.198	4.879423	-513.3099	26.96	28.10924	100	0	83	10.58328	2.731254	154.8764	
20:17:42	47.27312	-122.574	8.994	6.704101	-0.8412687	25.37	25.5456	100	0	95	45.72211	4.875353	165.204	
20:17:44	47.27275	-122.574	15.287	10.36016	-219.9857	22.67	23.07226	100	0	95	43.54171	-1.494491	-162.4132	
20:17:45	47.27251	-122.5744	17.644	14.04622	-86.53107	22.44	22.59779	100	0	95	40.22016	-5.546647	-123.3799	
20:17:47	47.27247	-122.5747	19.355	18.15566	239.144	22.06	22.1322	100	0	95	42.05301	-2.280903	-67.97948	
20:17:49	47.27271	-122.5752	25.604	25.18806	370.0549	21.56	21.57181	100	0	95	-55.46876	2.08849	-50.14857	
20:17:50	47.27283	-122.5756	18.035	25.43175	-31.71753	24.07	23.40598	100	0	95	-43.03115	-8.328321	-128.3192	
20:17:52	47.27256	-122.5758	14.843	18.60354	-22.44993	24.41	24.8108	100	0	95	-53.233	10.51029	132.163	
20:17:54	47.27235	-122.5754	27.738	21.15297	90.0725	16.55	17.47509	100	0	95	-47.27294	17.05358	66.31658	
20:17:56	47.2724	-122.5752	39.559	33.71726	197.6418	14.26	15.10087	100	0	95	-36.21269	-4.530241	19.9378	
20:17:57	47.27266	-122.575	45.194	43.98946	707.6829	16.58	16.72356	100	0	95	-23.38157	1.635965	-29.40588	
20:17:59	47.27286	-122.5752	42.792	48.73687	748.8881	19.84	19.33508	100	0	90	-40.92886	-5.430145	-95.13544	
20:18:01	47.27276	-122.5757	34.799	46.12376	550.3774	23.05	22.31298	100	0	85	-43.64271	7.714303	-153.4119	
20:18:02	47.27246	-122.5759	33.915	43.19421	175.1374	23.52	22.88851	100	0	93	7.031166	11.53895	-169.9281	
20:18:04	47.27206	-122.576	21.928	26.63683	-931.5264	26.71	25.37716	100	0	94	10.28771	-1.001005	-149.7991	
20:18:06	47.27186	-122.5762	12.107	14.83046	-883.3422	28.24	26.54037	100	0	93	0.4308215	9.145905	-138.7298	
20:18:08	47.27137	-122.5767	2.417	0.163222	-880.6315	28.05	25.76872	100	0	94	1.455448	15.34386	-129.4607	
20:18:09	47.27111	-122.577	4.731	-1.914154	-563.9913	25.76	23.48351	100	0	95	-0.8599225	12.86397	-129.7851	
20:18:11	47.27069	-122.5774	8.076	1.585714	-513.8823	23.95	21.86647	100	0	95	-0.4543849	2.189666	-135.7276	
20:18:13	47.27057	-122.5775	3.642	4.176153	479.096	24.91	22.27881	100	0	95	-3.116457	24.92618	-146.9006	
20:18:14	47.26999	-122.5777	10.184	8.316281	555.6506	22.49	20.13785	100	0	95	0.7213055	22.97654	-151.8673	
20:18:16	47.26969	-122.5778	17.435	17.90325	723.6077	21.23	18.62217	100	0	95	0.4957007	21.95883	-162.6311	
20:18:18	47.26936	-122.5778	27.084	28.17822	852.5146	20.48	18.16785	100	0	95	0.9170775	21.43812	-170.9937	
20:18:19	47.26907	-122.5778	36	37.35361	808.9593	20.58	18.42196	100	0	95	1.718955	17.78375	-176.9598	
20:18:21	47.26871	-122.5777	43.234	45.85348	715.2874	23.13	20.86222	100	0	95	2.139841	10.60506	178.1237	
20:18:23	47.26834	-122.5776	49.071	51.1913	690.5032	25.12	22.82423	100	0	95	2.367812	10.24146	177.6489	
20:18:25	47.26799	-122.5776	54.84	56.85265	358.6507	26.24	23.85559	100	0	95	9.722125	2.138637	178.0919	
20:18:26	47.26754	-122.5775	57.645	58.94723	330.6802	27.87	25.09896	100	0	95	15.77788	2.355461	-175.1878	
20:18:28	47.26712	-122.5776	63.015	62.38974	311.8568	28.11	25.28051	100	0	95	10.32797	2.938232	-171.5582	
20:18:30	47.26667	-122.5778	67.124	67.34556	283.6602	29.35	26.54037	100	0	95	-1.699926	-0.2200522	-176.6444	
20:18:31	47.26633	-122.5779	69.421	70.60249	302.3812	29.66	26.95009	100	0	95	-0.2445841	-0.01220973	-179.9722	
20:18:33	47.26582	-122.578	73.425	74.01729	295.0296	29.15	26.39323	100	0	95	0.6856555	0.1647702	-179.2225	
20:18:35	47.26535	-122.5781	77.435	77.45377	123.4443	28.75	25.54807	100	0	95	42.16567	-2.663856	-169.0613	
20:18:37	47.26498	-122.5785	77.383	77.89635	-28.46299	30.07	27.293	100	0	95	39.30413	-0.09680843	-150.6019	
20:18:38	47.26468	-122.579	72.416	76.82317	-186.5896	28.78	27.09069	100	0	95	40.96985	-0.8184865	-144.4429	
20:18:40	47.26448	-122.5796	62.224	66.03925	-483.322	28.7	26.47996	100	0	95	40.63293	-2.635207	-128.1603	
20:18:42	47.26437	-122.5802	51.298	55.22124	-692.4134	28.8	26.78396	100	0	95	41.60533	-1.221865	-111.3188	
20:18:43	47.26438	-122.5808	40.94	43.82067	-863.673	28.75	26.91355	100	0	95	37.33896	-0.447874	-95.73824	
20:18:45	47.26446	-122.5814	38.386	35.43282	-503.4169	27.86	26.04123	100	0	95	-5.364541	0.3127641	-102.0734	
20:18:47	47.26447	-122.582	38.22	34.67882	-252.4153	26.21	23.94025	100	0	95	-1.612069	2.259451	-116.4528	
20:18:48	47.26442	-122.5824	42.154	37.67735	5.408377	23.58	21.2305	100	0	95	-3.43531	7.958839	-133.5712	
20:18:50	47.26423	-122.583	52.036	47.25403	326.5011	21.36	19.53361	100	0	95	0.6006077	4.281089	-146.4389	
20:18:52	47.26402	-122.5833	55.923	57.12378	466.6696	21.67	20.48012	100	0	95	2.059152	2.640732	-155.8425	
20:18:54	47.26374	-122.5836	59.439	61.61837	389.4891	22.63	22.01126	100	0	95	1.758135	2.28873	-163.6886	
20:18:55	47.26348	-122.5838	62.189	63.71609	317.9815	23.65	23.27491	100	0	95	1.706941	2.177689	-170.0897	
20:18:57	47.26302	-122.5841	66.536	67.16576	293.7546	25.3	25.38802	100	0	95	1.365109	2.02841	-175.5187	
20:18:59	47.2627	-122.5842	68.451	69.23836	163.1058	26.71	26.91433	100	0	95	1.315891	-0.05967817	-178.8865	
20:19:00	47.26221	-122.5843	70.575	71.00795	154.1541	28.72	29.01979	100	0	95	1.479605	0.267772	-179.6823	
20:19:02	47.26177	-122.5844	73.199	73.22562	107.7529	27.96	28.1323	100	0	95	-42.96223	-6.580021	164.0576	
20:19:04	47.26138	-122.5842	76.828	74.0591	-182.2598	25.29	25.80482	100	0	95	-35.96906	-12.9484	142.5001	
20:19:06	47.26133	-122.5842	77.053	74.43568	-195.8909	25.23	26.24461	100	0	95	-31.41583	-15.46348	90.32658	
20:19:07	47.26128	-122.5835	65.631	70.02366	-414.6938	24.56	25.04517	100	0	95	-30.1468	-5.133734	17.02254	
20:19:09	47.26184	-122.5834	31.242	40.9617	-1090.217	32.58	32.20786	100	0	95	10.80326	2.658456	14.50094	
20:19:11	47.2623	-122.5834	13.315	14.04452	-1580.389	34.82	34.67748	100	0	95	5.052575	0.6953534	22.29811	
20:19:12	47.26282	-122.5831	0.526	-6.686964	-1838.545	35.06	34.22623	100	0	95	4.47698	6.077792	28.70645	
20:19:14	47.26282	-122.5831	0.526	-10.39914	-828.0452	35.06	34.22623	100	0	95	17.16663	34.59666	38.47823	
20:19:16	47.2613	-122.5793	0.021	-7.006713	-613.0369	0	3	100	0	4	23.81315	42.62471	45.02311	
20:19:17	47.2613	-122.5793	0.02	-5.371004	-401.7397	0	3	100	0	4	15.21221	31.90089	38.03279	
20:19:19	47.2613	-122.5793	0.02	-2.742914	-100.6348	0	3	100	0	5	9.540705	21.21494	32.86024	
20:19:21	47.2613	-122.5793	0.02	-0.4450805	96.06686	0	3	100	0	4	6.232442	13.10793	29.03506	
20:19:23	47.2613	-122.5793	0.02	1.172126	194.8879	0	3	100	0	4	3.582132	5.762728	25.05482	
20:19:24	47.2613	-122.5793	0.02	1.895751	209.2435	0	3	100	0	4	2.072544	0.5513773	21.08884	
20:19:26	47.2613	-122.5793	0.02	1.929104	178.076	0	3	100	0	4	1.291875	-3.097099	17.22618	
20:19:28	47.2613	-122.5793	0.02	1.620297	135.2435	0	3	100	0	4	0.7983552	-5.827431	12.89849	
20:19:29	47.2613	-122.5793	0.02	1.370535	109.6297	0	3	100	0	4	0.501853	-7.839271	9.137418	
20:19:31	47.2613	-122.5793	0.02	1.000028	77.30334	0	3	100	0	4	0.4390376	-9.158359	5.094215	
20:19:33	47.2613	-122.5793	0.02	0.8136405	62.89042	0	3	100	0	4	0.3414086	-9.766927	1.441895	
20:19:34	47.2613	-122.5793	0.02	0.6125283	48.96369	0	3	100	0	4	0.2548203	-9.967358	-2.038158	
20:19:36	47.2613	-122.5793	0.02	0.4844039	40.39454	0	3	100	0	4	0.1172328	-10.10764	-4.889082	
20:19:38	47.2613	-122.5793	0.02	0.4177049	35.80173	0	3	100	0	4	-0.05875912	-9.797806	-7.327231	
20:19:40	47.2613	-122.5793	0.02	0.3739416	33.24858	0	3	100	0	4	-0.2826313	-9.304131	-9.23413	
20:19:41	47.2613	-122.5793	0.02	0.3519204	31.72388	0	3	100	0	4	-0.5037243	-8.951224	-10.84402	
20:19:43	47.2613	-122.5793	0.02	0.329408	28.24272	0	3	100	0	4	-0.7217177	-8.305312	-11.82859	
20:19:45	47.26131	-122.5793	0.02	0.07649566	-42.26856	3.3	3	100	0	92	0.4390644	-5.96736	-17.31553	
20:19:46	47.26144	-122.5793	1.247	-0.1819207	-79.96257	11.95	10.524	100	0	92	4.172712	9.368537	-13.3817	
20:19:48	47.26164	-122.5793	2.111	0.9220937	-15.20172	17.92	16.46925	100	0	92	-0.5212936	2.325267	-6.628978	
20:19:50	47.262	-122.5792	2.477	2.556018	132.3647	23.81	22.32954	100	0	95	-2.307313	0.6172064	-6.003483	
20:19:52	47.26234	-122.5791	3.964	4.947711	232.7421	26.76	25.23786	100	0	95	-1.377739	0.8722321	-7.427648	
20:19:53	47.26279	-122.5791	6.882	7.618499	255.7755	28.44	26.8749	100	0	95	-0.8433226	0.3075375	-9.209145	
20:19:55	47.26315	-122.5791	9.664	10.61991	302.5186	29	27.40974	100	0	95	-0.4116714	0.2871602	-10.90796	
20:19:57	47.2637	-122.5791	14.459	14.8981	350.8565	29.36	27.73939	100	0	95	-0.02614046	0.2419576	-12.23861	
20:19:58	47.2641	-122.5792	18.179	19.32926	336.8001	29.56	27.92616	100	0	95	0.2742583	0.2078852	-13.46789	
20:20:00	47.26461	-122.5793	23.014	22.65774	316.1389	29.9	28.19942	100	0	95	0.3779376	0.2577188	-13.81672	
20:20:02	47.26506	-122.5794	27.18	26.94755	350.9305	30.25	28.60775	100	0	95	0.3718237	0.1975946	-13.72051	
20:20:03	47.26554	-122.5795	31.626	31.98896	341.528	30.52	28.83924	100	0	95	0.2598534	0.2242898	-13.40849	
20:20:05	47.26596	-122.5796	35.357	35.29977	306.4903	30.72	29.07719	100	0	95	0.1163349	0.07450145	-12.89616	
20:20:07	47.2664	-122.5797	38.965	39.79962	315.9821	30.9	29.26027	100	0	95	0.1586559	0.1477908	-12.54122	
20:20:09	47.26692	-122.5798	43.228	43.49702	308.1137	31.06	29.4204	100	0	95	-0.01626053	0.1678796	-12.17285	
20:20:10	47.26742	-122.5799	46.881	47.01092	261.0327	31.23	29.54058	100	0	95	0.08563338	0.1152243	-12.04936	
20:20:12	47.26783	-122.58	49.609	49.66776	228.361	31.38	29.74104	100	0	95	0.05357051	0.1187946	-11.87269	
20:20:14	47.26833	-122.5801	52.713	52.65102	218.4013	31.51	29.87916	100	0	95	-0.09256146	0.0299774	-11.81622	
20:20:15	47.26884	-122.5802	55.683	55.83621	199.7652	31.62	29.99015	100	0	95	-0.00506819	0.08721642	-11.90701	
20:20:17	47.26929	-122.5803	58.182	58.26943	173.5405	31.69	30.05739	100	0	95	0.2109182	0.1195498	-11.03547	
20:20:19	47.26978	-122.5803	61.185	60.69447	122.6936	27.91	26.24055	100	0	95	32.77069	-7.239902	21.46222	
20:20:21	47.27013	-122.58	65.759	64.12415	211.3967	24.21	23.23977	100	0	95	42.06953	-7.880348	68.26139	
20:20:22	47.27019	-122.5796	71.619	70.35065	351.6225	22.09	23.80991	100	0	95	41.223	-9.169195	135.2708	
20:20:24	47.26995	-122.5793	73.738	76.99758	583.9684	21.93	23.75164	100	0	95	41.88963	-5.184896	-145.1665	
20:20:26	47.26971	-122.5796	71.449	77.77628	485.0047	22.8	23.19704	100	0	95	42.75141	0.2403651	-69.53402	
20:20:27	47.26983	-122.5801	71.018	74.40936	165.386	22.59	21.91425	100	0	95	40.50562	3.648245	-8.281499	
20:20:29	47.27016	-122.5802	76.158	73.79164	-30.8201	20.84	20.12457	100	0	95	41.32497	1.778949	44.30244	
20:20:31	47.27035	-122.5799	81.48	78.68178	54.66061	19.87	19.83534	100	0	95	41.40515	-0.5593404	102.4827	
20:20:33	47.27032	-122.5795	85.005	83.68965	164.5177	19.88	20.61688	100	0	95	40.78212	-1.090097	167.498	
20:20:34	47.27	-122.5793	86.994	87.52982	151.9141	22.09	22.72106	100	0	95	-14.24016	4.66607	168.2414	
20:20:36	47.26963	-122.5791	86.856	87.52451	-85.4174	24.76	25.392	100	0	95	-3.913971	1.537004	170.2517	
20:20:38	47.26923	-122.5789	82.502	84.35636	-227.722	27.14	27.53786	100	0	95	-1.961384	-0.8614357	167.0465	
20:20:39	47.2689	-122.5787	79.986	80.2998	-259.1785	27.91	28.54989	100	0	95	-1.073385	-0.05997549	163.7807	
20:20:41	47.26847	-122.5785	79.049	77.71925	-242.6251	27.81	28.43764	100	0	95	-0.01249503	0.2159542	165.6619	
20:20:43	47.26803	-122.5784	79.291	77.32881	-115.8341	27.71	28.32028	100	0	95	-8.321623	0.1032007	165.1497	
20:20:44	47.26772	-122.5783	78.203	76.70519	-426.8387	27.92	28.56253	100	0	95	-45.57787	-18.71722	125.8887	
20:20:46	47.26743	-122.5777	72.783	71.44196	-832.7925	26.68	26.3694	100	0	95	-36.82313	-32.66665	91.12943	
20:20:48	47.26743	-122.5772	60.236	62.4016	-970.2394	27.82	26.96247	100	0	95	-39.78899	-30.87892	40.87612	
20:20:50	47.26773	-122.5767	46.799	48.38726	-1820.093	27.87	27.34262	100	0	95	-4.552405	13.06548	11.52005	
20:20:51	47.26808	-122.5762	39.932	33.7383	-1562.846	29.15	25.87635	100	0	95	5.772501	-0.9107605	25.73741	
20:20:53	47.26832	-122.5757	29.478	22.71276	-1045.667	31.86	28.26657	100	0	95	-0.8013793	-0.388097	34.69127	
20:20:55	47.26863	-122.5749	17.488	17.6023	-547.5059	34.21	30.27234	100	0	95	-1.068075	-0.5522815	36.53595	
20:20:56	47.26886	-122.5743	12.46	12.41293	-241.1701	34.83	31.23444	100	0	95	-1.3961	-0.2171122	37.66627	
20:20:58	47.26912	-122.5737	10.038	10.31601	-100.0449	34.46	30.84663	100	0	95	-1.260993	-0.1084772	37.29824	
20:21:00	47.26943	-122.573	9.121	7.522796	-1094.883	32.93	29.28182	100	0	95	27.39919	-21.37143	29.71285	
20:21:02	47.26957	-122.5727	0.266	6.497726	759.4227	33.25	29.06933	100	0	95	105.5282	37.75975	136.0799	
20:21:03	47.26957	-122.5727	0.266	-14.08952	-4328.182	33.25	24.37318	100	0	95	147.0177	-48.94218	-134.7148	
20:21:05	47.27456	-122.5769	0.019	-35.19217	-3439.072	0	11.18497	100	0	95	39.4246	-53.67962	-5.298135	
20:21:07	47.27456	-122.5769	0.033	-28.96657	-1961.231	2.52	12.34547	100	0	95	26.02923	-26.7846	3.825685	
20:21:08	47.27442	-122.5769	0.427	-9.098532	381.4583	9.53	10.81237	100	0	95	-92.5302	28.45353	-71.89548	
20:21:10	47.27439	-122.5768	0.04	0.9995163	442.5529	1.17	5.685578	100	0	95	-45.47234	41.3871	-128.0565	
20:21:12	47.27439	-122.5768	0.021	4.736206	654.0862	0	5.817607	100	0	95	-22.39191	30.6697	-101.601	
20:21:14	47.27439	-122.5768	0.02	6.817972	785.501	0	5.526727	100	0	22	-11.2681	23.47516	-86.17185	
20:21:15	47.27439	-122.5768	0.02	7.894267	823.665	0	4.987871	100	0	95	-3.990142	17.6418	-69.39668	
20:21:17	47.27439	-122.5768	0.02	7.966205	771.6742	0	4.738477	100	0	95	-0.1670789	12.20963	-52.21379	
20:21:19	47.27439	-122.5768	0.02	7.546329	707.3021	0	4.501553	100	0	95	0.9046	7.485575	-37.63942	
20:21:20	47.27439	-122.5768	0.02	6.690861	609.0357	0	4.062652	100	0	95	1.188356	3.267488	-18.41373	
20:21:22	47.27439	-122.5768	0.02	5.810984	520.7399	0	3.859519	100	0	95	0.2852076	0.4762245	-2.93272	
20:21:24	47.27439	-122.5768	0.02	4.85029	430.2258	0	3.666543	100	0	95	-0.8395395	-1.226717	11.3068	
20:21:25	47.27439	-122.5768	0.02	4.241919	374.4351	0	3.483216	100	0	5	-1.930901	-2.408422	23.22294	
20:21:27	47.27457	-122.5769	0.02	4.588274	514.0268	0	3.309055	100	0	4	-3.06512	-3.703079	35.42833	
20:21:29	47.27457	-122.5769	0.02	4.176338	339.5715	0	3.143602	100	0	4	-3.951517	-3.177922	52.9028	
20:21:31	47.27457	-122.5769	0.02	2.8707	207.411	0	3	100	0	4	-4.440704	-2.396446	74.61903	
20:21:32	47.27457	-122.5769	0.02	2.078391	153.0172	0	3	100	0	4	-4.566544	-1.676996	97.70349	
20:21:34	47.27457	-122.5769	0.02	1.511166	122.9722	0	3	100	0	4	-4.38256	-0.9565034	124.0023	
20:21:36	47.27457	-122.5769	0.02	1.230161	109.6253	0	3	100	0	4	-3.765179	-0.4705144	151.8467	
20:21:37	47.27457	-122.5769	0.02	1.097976	100.2768	0	3	100	0	4	-3.259932	-0.6467658	174.7377	
20:21:39	47.27457	-122.5769	0.02	0.9874159	89.09796	0.08	3	100	0	81	-2.852202	-1.457701	-167.3054	
20:21:41	47.27455	-122.5769	0.021	0.8000482	50.13992	4.5	5.292577	100	0	95	-0.6141836	-1.287598	-175.4015	
20:21:42	47.27438	-122.5768	0.581	0.989566	119.0853	15.22	15.01204	100	0	95	-0.1411433	4.154356	-170.1859	
20:21:44	47.27414	-122.5767	2.676	2.75152	153.8251	20	19.75783	100	0	95	-2.159445	2.36324	-161.4807	
20:21:46	47.27379	-122.5764	5.085	4.985795	119.4539	23.07	22.20777	100	0	95	-2.099345	1.368944	-160.4082	
20:21:48	47.2735	-122.5761	5.595	5.99323	59.10704	24.72	23.84389	100	0	95	-0.03961047	0.7025807	-158.4085	
20:21:49	47.27316	-122.5758	4.724	5.472828	-12.63585	26.11	25.17701	100	0	95	0.1591389	0.5247105	-157.3986	
20:21:51	47.2729	-122.5754	3.323	4.065974	-81.22884	26.96	25.85518	100	0	95	0.4303775	0.8161194	-158.9351	
20:21:53	47.27261	-122.575	0.404	1.726298	543.836	28.04	26.7242	100	0	95	5.284879	15.77246	-164.5379	
20:21:54	47.27237	-122.5745	4.273	5.504439	699.0773	26.58	25.02835	100	0	95	13.47206	27.19481	-166.6034	
20:21:56	47.27207	-122.574	5.596	6.213301	150.6652	27.2	23.8752	100	0	95	17.55434	20.61459	-162.0451	
20:21:58	47.27179	-122.5736	9.603	9.215072	347.5628	26.04	22.99403	100	0	95	12.88745	20.19892	-160.0361	
20:22:00	47.27152	-122.5732	16.291	14.88676	355.6695	25.17	22.05128	100	0	95	-0.5758444	8.597851	-164.2221	
20:22:01	47.27126	-122.5727	15.403	17.17319	107.2883	27.38	23.1304	100	0	95	-0.1676387	-0.4529971	-171.6891	
20:22:03	47.27104	-122.5722	11.823	13.98429	-120.7186	29.65	25.30211	100	0	95	1.362003	0.1164213	-176.9315	
20:22:05	47.27079	-122.5716	6.572	8.103456	-269.1822	32.17	27.78574	100	0	95	1.57787	-0.5907182	179.644	
20:22:06	47.27056	-122.571	3.062	3.949521	-17.82612	32.9	28.68508	100	0	95	1.853555	5.196601	-179.6929	
20:22:08	47.27022	-122.5704	8.176	6.785693	310.8377	30.31	26.45225	100	0	95	1.414497	2.474522	-177.5085	
20:22:10	47.26994	-122.57	14.982	13.37201	412.1647	28.69	25.11023	100	0	95	1.466676	-0.4000007	-177.2381	
20:22:11	47.26954	-122.5695	24.079	21.91066	564.8969	26.49	23.50425	100	0	95	-0.6813216	0.009800382	-176.1187	
20:22:13	47.26925	-122.5693	31.068	30.55289	671.132	25.3	22.79685	100	0	95	0.7318248	0.1378348	-174.2103	
20:22:15	47.26892	-122.569	38.142	39.79845	687.5231	24.76	22.76948	100	0	95	-0.7938811	0.4625172	-172.7482	
20:22:17	47.26854	-122.5689	45.972	47.25122	594.1398	24.62	23.19393	100	0	95	-0.02537468	0.01774203	-171.1438	
20:22:18	47.26812	-122.5688	55.562	55.60828	575.5255	24.88	24.07921	100	0	95	-0.4928598	0.1673637	-169.1965	
20:22:20	47.26773	-122.5687	62.467	62.77488	370.7436	25.95	25.62148	100	0	95	-0.6400764	-2.898578	-167.9626	
20:22:22	47.26734	-122.5687	65.529	66.3409	247.2967	27.67	27.68912	100	0	95	-2.408079	-3.958598	-167.508	
20:22:23	47.26688	-122.5688	66.107	67.45586	90.28922	29.37	29.56287	100	0	95	-3.937005	-4.624819	-168.6217	
20:22:25	47.26645	-122.5688	64.309	65.22595	-86.66801	30.59	30.7819	100	0	95	-7.866528	-4.977154	-171.3232	
20:22:27	47.26594	-122.5689	62.336	62.47083	-129.9044	31.13	31.15012	100	0	95	-7.693704	-3.199238	-173.8131	
20:22:29	47.26555	-122.5689	61.971	61.86721	-3.429348	30.76	30.97545	100	0	95	1.308636	-0.520822	-172.2681	
20:22:30	47.26503	-122.569	58.72	57.64377	-492.6112	31.28	31.63527	100	0	95	-13.88055	-9.08088	-172.9642	
20:22:32	47.26454	-122.5691	48.418	49.2684	-519.6144	32.46	32.44681	100	0	95	-11.76132	-9.326241	-175.9813	
20:22:34	47.26398	-122.5692	38.574	40.35117	-588.069	32.27	32.56368	100	0	95	-10.58649	-8.88551	-176.6124	
20:22:35	47.26356	-122.5693	31.453	31.07953	-682.2429	31.68	31.83755	100	0	95	-8.435818	-10.4297	-179.4365	
20:22:37	47.26308	-122.5694	22.279	20.95005	-811.8604	31.46	32.00561	100	0	95	-4.346517	-11.32826	-175.6852	
20:22:39	47.26258	-122.5695	21.053	18.53616	-49.21488	30.02	30.82218	100	0	95	0.7467989	2.774521	-169.5467	
20:22:41	47.26218	-122.5697	24.766	22.46706	30.05506	29.28	30.46531	100	0	95	-0.986262	0.7715155	-165.2576	
20:22:42	47.26183	-122.5699	26.341	25.5639	102.6159	29.88	31.31733	100	0	95	-1.332587	0.09665851	-163.6612	
20:22:44	47.26139	-122.5702	27.295	27.45107	134.0013	31.06	32.49192	100	0	95	-1.693402	-0.01638543	-165.2303	
20:22:46	47.26093	-122.5705	32.627	31.43628	271.556	31.64	32.88291	100	0	95	-0.8012674	-0.06363467	-167.9368	
20:22:47	47.26046	-122.5708	29.834	31.8392	159.5654	31.78	32.83158	100	0	95	-0.573432	-0.05329441	-169.3011	
20:22:49	47.25999	-122.571	31.653	32.01903	86.73081	31.76	32.60522	100	0	95	0.2312374	-0.06286743	-171.1566	
20:22:51	47.25957	-122.5712	33.401	33.3345	109.198	31.87	32.515	100	0	95	0.136052	-0.04547103	-173.4843	
20:22:52	47.25925	-122.5713	34.743	34.43506	139.1127	32.11	32.66094	100	0	95	-0.1449886	-0.08657583	-173.7332	
20:22:54	47.25856	-122.5716	37.919	37.54836	207.7727	32.55	33.15859	100	0	95	0.6592231	0.03541235	-171.6553	
20:22:56	47.25814	-122.5717	45.152	45.30177	839.2292	29.3	29.97636	100	0	95	-0.5485816	23.71945	-171.4973	
20:22:58	47.25771	-122.5719	61.486	61.10015	1066.323	26.43	27.11261	100	0	95	-0.2416927	27.98287	-171.6648	
20:22:59	47.25727	-122.5721	83.007	76.25559	1271.715	23.55	24.83351	100	0	95	-0.2667413	27.25644	-171.6347	
20:23:01	47.25694	-122.5722	100.093	100.0761	1405.77	21.91	22.63075	100	0	95	-0.1944394	27.16097	-171.4787	
20:23:03	47.25661	-122.5723	116.881	117.5003	1318.655	20.58	21.54875	100	0	95	-0.1851313	27.25471	-171.477	
20:23:04	47.25637	-122.5724	130.482	133.0807	1228.842	19.47	20.17676	100	0	95	-0.05642306	27.50394	-171.5985	
20:23:06	47.25608	-122.5725	146.972	148.5367	1227.701	18.46	19.14421	100	0	95	-0.08387644	27.30638	-171.8405	
20:23:08	47.25577	-122.5726	165.856	165.3018	1174.903	17.5	18.24559	100	0	95	-0.008024861	27.61552	-171.9676	
20:23:10	47.25552	-122.5727	180.468	179.761	1179.59	17.04	17.68238	100	0	95	0.1098469	27.44537	-171.872	
20:23:11	47.25528	-122.5727	194.827	195.7795	1272.111	16.7	17.33814	100	0	95	0.08776642	27.42277	-171.762	
20:23:13	47.25505	-122.5728	209.024	212.0464	1152.957	16.42	17.04326	100	0	95	0.06081893	27.63744	-171.6539	
20:23:15	47.25476	-122.5729	226.624	224.1324	1080.911	16.21	16.85977	100	0	95	0.05734141	27.29222	-171.5676	
20:23:16	47.25453	-122.5729	240.214	239.4057	1167.606	16	16.66361	100	0	95	0.001881064	27.5587	-171.4192	
20:23:18	47.25432	-122.573	253.168	254.9662	1136.765	15.79	16.40464	100	0	95	-0.02805035	27.85327	-171.4675	
20:23:20	47.25404	-122.5731	270.343	271.1132	1117.616	15.68	16.30591	100	0	95	0.02046951	27.42035	-171.4455	
20:23:22	47.25387	-122.5731	280.596	281.208	1030.218	15.59	16.19413	100	0	95	-0.01057796	27.59756	-171.3699	
20:23:23	47.25363	-122.5732	295.605	297.8888	1144.79	15.54	16.12662	100	0	95	-0.03526164	27.52738	-171.4331	
20:23:25	47.25345	-122.5732	306.757	307.4873	1187.651	15.48	16.06841	100	0	95	0.03447887	27.25431	-171.3797	
20:23:27	47.25323	-122.5733	320.655	319.204	1387.052	15.51	16.095	100	0	95	0.1302755	28.06732	-171.1679	
20:23:28	47.25291	-122.5733	340.167	345.9021	1578.637	15.63	16.17372	100	0	95	-0.09343213	27.33215	-171.6659	
20:23:30	47.25262	-122.5734	357.561	360.2563	1461.624	15.79	16.32063	100	0	95	0.1852748	27.32677	-171.6889	
20:23:32	47.25243	-122.5735	369.735	374.6414	1222.562	15.8	16.33426	100	0	95	0.05653538	27.88961	-171.5036	
20:23:34	47.25214	-122.5735	378.536	379.8401	23.75261	20.4	19.71208	100	0	95	0.3945827	-6.330808	-171.4555	
20:23:35	47.25175	-122.5736	374.996	377.4449	-57.51499	27.03	26.29544	100	0	95	0.31875	-1.363384	-170.3684	
20:23:37	47.25132	-122.5737	374.996	374.8714	-49.30628	30.08	28.87918	100	0	95	-0.04328691	0.151121	-170.0394	
20:23:39	47.25099	-122.5738	376.246	375.4361	-6.427183	31.11	30.37234	100	0	95	-0.1401732	0.2627048	-170.1207	
