Date	Latitude(deg) 	Longitude(deg)	hamsl(m)	hafl(m)	climbrate(cm/s)	GroundSpeed(m/s)	Airspeed(m/s)	Mav_Link(%)	Rssi_Link(%)	Throttle	Roll(deg)	Pitch(deg)	Yaw(deg)
20:44:35	0	0	0	-1.326259	-87.48169	0	3	43	0	4	-2.5819	-3.774257	-124.7938	
20:44:37	0	0	0	-0.2806941	-28.83698	0	3	58	0	5	-2.567685	-3.815204	-125.4768	
20:44:39	0	0	0	-0.3481092	-39.31769	0	3	67	0	6	-2.539275	-3.903445	-125.9207	
20:44:40	0	0	0	-0.2470832	-31.341	0	3	73	0	4	-2.619159	-3.934223	-126.1801	
20:44:42	0	0	0	-0.425	-36.35942	0	3	78	0	5	-2.66521	-3.921927	-126.2747	
20:44:44	47.0872	-122.5834	0.02	-0.5329976	-37.05918	0	3	81	0	3	-1.95304	-3.466763	-131.3496	
20:44:45	47.0872	-122.5834	0.02	-0.04345807	22.5579	0	3	83	0	4	-0.8686526	-2.535922	-142.0982	
20:44:47	47.0872	-122.5834	0.02	0.313859	41.21498	0	3	86	0	4	-0.148745	-1.727778	-155.8512	
20:44:49	47.0872	-122.5834	0.02	0.3948645	36.6362	0	3	87	0	4	0.2416414	-1.06543	-171.9472	
20:44:51	47.0872	-122.5834	0.02	0.3373816	27.14826	0	3	89	0	4	0.4146525	-0.4373522	167.8819	
20:44:52	47.0872	-122.5834	0.02	0.2613095	20.21105	0	3	90	0	4	0.3712209	0.07081775	145.9054	
20:44:54	47.0872	-122.5834	0.02	0.2056808	16.06404	0	3	91	0	4	0.2165128	0.3767955	125.223	
20:44:56	47.0872	-122.5834	0.02	0.1706832	13.42913	0	3	92	0	5	0.02940154	0.5352679	105.351	
20:44:57	47.0872	-122.5834	0.02	0.1460191	11.33929	0	3	93	0	4	-0.1115624	0.5975854	88.23923	
20:44:59	47.0872	-122.5834	0.02	0.1259339	9.508389	0	3	93	0	4	-0.1802883	0.6235909	75.31382	
20:45:01	47.0872	-122.5834	0.02	0.1084599	7.91285	0	3	94	0	4	-0.2057153	0.6125866	64.6464	
20:45:03	47.0872	-122.5834	0.02	0.09304948	6.484205	0	3	95	0	23	-0.1998076	0.5940591	56.1559	
20:45:04	47.0872	-122.5834	0.02	0.08070549	5.44663	0	3	95	0	16	-0.1780582	0.5872079	49.77556	
20:45:06	47.0872	-122.5834	0.02	0.05767456	1.967916	0	3	95	0	96	-0.109397	0.8299935	45.70062	
20:45:08	47.0872	-122.5834	0.021	0.02955283	0.5043001	1.32	3	96	0	4	1.487312	-0.450505	25.38973	
20:45:09	47.0872	-122.5834	0.02	0.03515972	2.605175	0	3	96	0	4	-0.3268627	1.104359	6.371863	
20:45:43	47.0872	-122.5834	0.02	0.04728941	3.043824	0	3	96	0	3	-0.2378357	1.024769	4.568266	
20:45:43	47.0872	-122.5834	0.02	0.04582997	2.162462	0	3	97	0	4	-0.123519	0.8004407	4.802273	
20:45:43	47.0872	-122.5834	0.02	0.04079394	1.799829	0	3	97	0	5	-0.03728541	0.6318998	5.611842	
20:45:43	47.0872	-122.5834	0.02	0.03835917	1.637729	0	3	86	0	4	-0.02919495	-0.2643484	19.61987	
20:45:45	47.0872	-122.5834	0.02	0.03870003	1.882905	0	3	87	0	5	0.02001348	-0.09962628	37.69918	
20:45:47	47.0872	-122.5834	0.02	0.03584609	1.271302	0	3	88	0	4	0.01502532	-0.1119038	39.05641	
20:45:49	47.0872	-122.5834	0.02	0.03094508	0.9229897	0	3	88	0	4	0.01403224	-0.1052573	39.24929	
20:45:50	47.0872	-122.5834	0.02	0.03093919	1.203091	0	3	89	0	43	0.0105061	-0.1065067	39.30564	
20:45:52	47.0872	-122.5834	0.02	0.01670456	-2.204428	0	3	90	0	41	0.02186753	0.1223615	39.50379	
20:45:54	47.0872	-122.5834	0.019	-0.06090499	-12.40294	0	3	90	0	4	0.2581778	-0.2416898	40.21419	
20:45:55	47.0872	-122.5834	0.02	-0.05387737	-3.867114	0	3	91	0	4	-0.02228575	-0.1026245	39.72649	
20:45:57	47.0872	-122.5834	0.02	0.01089473	2.175532	0	3	92	0	4	0.01396515	-0.1239733	39.37606	
20:45:59	47.0872	-122.5834	0.02	0.04531126	3.554844	0	3	92	0	4	0.02774937	-0.2349238	40.35765	
20:46:01	47.0872	-122.5834	0.02	0.05110812	2.931167	0	3	93	0	4	0.04407677	-0.4053203	41.78232	
20:46:02	47.0872	-122.5834	0.02	0.04705607	2.401298	0	3	93	0	4	0.05563159	-0.5163467	42.86683	
20:46:04	47.0872	-122.5834	0.02	0.04152076	1.725042	0	3	93	0	4	0.063975	-0.5777618	43.55581	
20:46:06	47.0872	-122.5834	0.02	0.03582628	1.481539	0	3	94	0	4	0.06987244	-0.6082262	44.00722	
20:46:08	47.0872	-122.5834	0.02	0.0340487	1.115191	0	3	94	0	4	0.07645614	-0.6300122	44.34957	
20:46:09	47.0872	-122.5834	0.02	0.02847067	0.6331833	0	3	95	0	4	0.07969628	-0.6172603	44.35346	
20:46:11	47.0872	-122.5834	0.02	0.02427151	0.2625781	0	3	95	0	4	0.08165173	-0.6073991	44.26404	
20:46:13	47.0872	-122.5834	0.02	0.02133366	-0.01181288	0	3	95	0	4	0.08177182	-0.605222	44.19991	
20:46:14	47.0872	-122.5834	0.02	0.01968203	-0.07824017	0	3	96	0	4	0.08047954	-0.5721765	43.84069	
20:46:16	47.08723	-122.5835	0.026	0.4223119	51.49237	0	3	96	0	4	23.52648	-21.002	47.57113	
20:46:18	47.08723	-122.5835	0.034	-2.999803	-783.7828	0.22	3	96	0	4	2.42268	-70.30118	111.2519	
20:46:20	47.08723	-122.5835	0.039	-13.76789	-1829.811	0.46	3	96	0	4	99.29697	10.26972	0.4780835	
20:46:21	47.08723	-122.5835	0.043	-12.3212	-1039.916	0.41	3	97	0	4	-52.55825	-55.52077	108.6789	
20:46:23	47.08723	-122.5835	0.025	-14.92079	-1883.986	0.15	3	97	0	4	-95.70776	-8.641327	153.3036	
20:46:25	47.08723	-122.5835	0.041	-21.96342	-2440.583	0.32	3	97	0	4	-117.8623	62.2965	-164.9213	
20:46:26	47.08723	-122.5835	0.032	-16.49831	-786.7342	0.06	3	97	0	4	3.28458	21.49294	35.24236	
20:46:28	47.08723	-122.5835	0.028	-1.320595	411.5023	0.04	3	97	0	4	-56.28728	-13.70687	111.2848	
20:46:30	47.08723	-122.5835	0.037	-1.454212	-613.1551	0.17	3	98	0	4	-85.8446	19.43015	-175.5365	
20:46:32	47.08723	-122.5835	0.032	-9.497955	-1170.362	0.04	3	98	0	4	-47.91694	55.13384	-45.62899	
20:46:33	47.08723	-122.5835	0.022	-4.480788	348.5131	0.02	3	98	0	4	23.88837	-2.62601	24.89431	
20:46:35	47.08723	-122.5835	0.025	7.074373	892.3023	0	3	98	0	4	87.39436	-46.95335	-9.900594	
20:46:37	47.08723	-122.5835	0.025	0.4045909	-786.6223	0	3	98	0	4	158.9733	-20.43616	-50.84095	
20:46:38	47.08723	-122.5835	0.025	-14.13885	-2009.374	0	3	98	0	4	-140.4631	34.65826	-53.5046	
20:46:40	47.08723	-122.5835	0.023	-13.08101	-534.6158	0	3	98	0	4	-7.012262	22.27555	24.44879	
20:46:42	47.08723	-122.5835	0.023	5.194271	1495.6	0.01	3	98	0	4	54.77784	-38.09998	19.84472	
20:46:44	47.08723	-122.5835	0.024	11.42014	813.4681	0.02	3	98	0	4	145.991	-46.08812	-39.02288	
20:46:45	47.08723	-122.5835	0.023	-2.700584	-1311.653	0.02	3	98	0	4	-151.0995	-0.7528353	-51.83416	
20:46:47	47.08723	-122.5835	0.023	-14.86179	-1564	0.01	3	99	0	4	-58.81928	34.54571	-2.561522	
20:46:49	47.08723	-122.5835	0.024	-3.314706	822.1305	0.02	3	99	0	2	19.29894	-13.26929	29.56494	
20:46:51	47.08723	-122.5835	0.024	12.28176	1589.748	0.02	3	99	0	4	89.12643	-63.70854	10.0942	
20:46:52	47.08723	-122.5835	0.024	7.84864	30.28038	0.02	3	99	0	5	-160.9067	-48.68739	-56.22874	
20:46:54	47.08723	-122.5835	0.024	-6.700326	-1361.595	0.02	3	99	0	4	-105.4762	-8.0842	-41.45371	
20:46:56	47.08723	-122.5835	0.024	-8.944758	-388.5636	0.02	3	99	0	4	-33.34912	-7.385064	7.958192	
20:46:57	47.08723	-122.5835	0.024	5.218103	1331.493	0.02	3	99	0	6	20.70423	-53.35965	34.65654	
20:46:59	47.08723	-122.5835	0.024	11.22513	945.1067	0.02	3	99	0	4	-173.3404	-79.84196	-76.93291	
20:47:01	47.08723	-122.5835	0.024	2.152682	-489.6968	0.02	3	99	0	4	-117.8319	-43.54621	-71.72054	
20:47:03	47.08723	-122.5835	0.024	-6.65593	-823.5664	0.02	3	99	0	4	-70.03302	-21.00077	-28.25081	
20:47:04	47.08723	-122.5835	0.024	-1.855095	407.3826	0.02	3	99	0	4	-20.83901	-42.95581	18.69527	
20:47:06	47.08723	-122.5835	0.024	7.044487	962.2677	0.02	3	99	0	4	-16.49653	-77.47462	84.18218	
20:47:08	47.08723	-122.5835	0.024	5.508842	171.5135	0.02	3	99	0	4	-108.3378	-63.96247	-121.0906	
20:47:09	47.08723	-122.5835	0.024	-1.955198	-541.8707	0.02	3	99	0	4	-83.86863	-39.69241	-68.09367	
20:47:11	47.08723	-122.5835	0.024	-3.22217	-112.7826	0.02	3	99	0	4	-47.00431	-41.05401	-12.56217	
20:47:13	47.08723	-122.5835	0.024	2.653412	581.4045	0.02	3	99	0	4	-29.99854	-64.7394	50.92414	
20:47:15	47.08723	-122.5835	0.024	4.587455	337.7625	0.02	3	99	0	4	-81.68933	-69.29263	172.4728	
20:47:16	47.08723	-122.5835	0.024	0.3652009	-239.1774	0.02	3	99	0	5	-82.84392	-50.62187	-110.8297	
20:47:18	47.08723	-122.5835	0.024	-2.138175	-182.6674	0.02	3	99	0	4	-57.96511	-44.73447	-47.90506	
20:47:20	47.08723	-122.5835	0.024	0.8458489	307.903	0.02	3	99	0	4	-40.96738	-59.82615	18.89958	
20:47:22	47.08723	-122.5835	0.027	2.854644	200.7704	0	3	99	0	4	-106.3868	-81.73248	-175.6582	
20:47:23	47.08723	-122.5835	0.04	-3.474804	-973.3555	0.28	3	99	0	4	-125.5886	-29.55217	-82.06678	
20:47:25	47.08723	-122.5835	0.041	-13.53926	-1608.524	0.29	3	99	0	4	-55.95564	19.08539	-25.66779	
20:47:27	47.08723	-122.5835	0.041	-6.060129	327.5103	0.32	3	99	0	4	28.99579	-37.42614	26.81289	
20:47:29	47.08723	-122.5835	0.041	5.905524	730.92	0.33	3	99	0	4	-154.9936	-68.26299	-93.36958	
20:47:30	47.08723	-122.5835	0.041	-1.157479	-854.8193	0.31	3	99	0	4	-104.2213	-11.3195	-77.47354	
20:47:32	47.08723	-122.5835	0.055	-9.940324	-1253.919	2.24	3	99	0	4	154.699	12.24919	170.8563	
20:47:34	47.08723	-122.5835	-0.063	-2.911002	643.8389	0.24	3	99	0	18	-157.0256	-15.26005	126.6712	
20:47:36	47.08723	-122.5835	-0.083	10.8926	1558.744	0.01	3	99	0	25	-171.9715	-59.21975	46.83658	
20:47:37	47.08723	-122.5835	-0.083	11.26642	823.2079	0.02	3	99	0	23	-109.8272	-50.32882	-96.70161	
20:47:39	47.08723	-122.5835	-0.083	6.453946	553.9675	0.02	3	99	0	4	-138.4404	-21.48393	177.8379	
20:47:41	47.08723	-122.5835	-0.083	7.781068	897.9848	0.02	3	99	0	4	-169.6422	-49.06434	95.79278	
20:47:43	47.08723	-122.5835	-0.083	6.854087	479.7331	0.01	3	99	0	46	-130.1796	-58.28068	-29.56833	
20:47:44	47.08723	-122.5835	-0.083	2.867682	147.8911	0.01	3	99	0	53	-127.7681	-34.42436	-129.5519	
20:47:46	47.08724	-122.5835	-0.083	3.152415	467.7367	0.01	3	99	0	53	-155.1159	-35.65524	140.5982	
20:47:48	47.08724	-122.5835	-0.083	4.678479	420.1932	0.02	3	99	0	53	-143.3554	-63.54644	32.65148	
20:47:50	47.08724	-122.5835	-0.083	1.977545	42.01084	0.01	3	99	0	53	-124.2848	-42.17408	-81.08401	
20:47:51	47.08724	-122.5835	-0.083	1.222625	220.9784	0.01	3	99	0	53	-145.5608	-30.32377	-172.8653	
20:47:53	47.08724	-122.5835	-0.083	3.501393	438.493	0.02	3	99	0	53	-160.311	-53.37743	101.0958	
20:47:55	47.08724	-122.5835	-0.083	2.361542	58.77631	0.01	3	99	0	52	-124.3646	-55.94913	-21.55038	
20:47:57	47.08724	-122.5835	-0.083	-0.5380109	-118.5078	0.01	3	99	0	53	-129.631	-34.0878	-114.3839	
20:47:58	47.08724	-122.5835	-0.083	0.7262225	260.2065	0.02	3	99	0	53	-155.8972	-37.0223	154.0396	
20:48:00	47.08724	-122.5835	-0.083	2.750115	260.7314	0.01	3	99	0	53	-146.976	-57.77859	56.86373	
20:48:02	47.08724	-122.5835	-0.083	0.4351133	-120.3736	0.01	3	99	0	62	-121.2664	-45.76328	-58.18153	
20:48:04	47.08724	-122.5835	-0.083	-0.8315598	-10.53069	0.02	3	99	0	60	-143.29	-30.73335	-147.656	
20:48:05	47.08724	-122.5835	-0.083	1.553908	284.4411	0.01	3	99	0	51	-156.3301	-49.48224	117.8718	
20:48:07	47.08724	-122.5835	-0.083	1.405466	17.03559	0.01	3	99	0	72	-131.4097	-55.49225	5.545397	
20:48:09	47.08724	-122.5835	-0.083	-1.136383	-189.2607	0.02	3	99	0	69	-130.366	-37.02969	-91.49107	
20:48:11	47.08724	-122.5835	-0.083	-0.2913857	126.0425	0.01	3	99	0	70	-149.6133	-35.44133	169.0296	
20:48:12	47.08724	-122.5835	-0.083	1.783833	211.138	0.02	3	99	0	64	-150.579	-56.7191	76.93327	
20:48:14	47.08724	-122.5835	-0.083	0.2383852	-126.5864	0.01	3	99	0	65	-125.7177	-50.30183	-35.80639	
20:48:16	47.08724	-122.5835	-0.083	-1.505382	-124.9933	0.01	3	99	0	75	-136.7918	-33.90579	-135.7463	
20:48:18	47.08724	-122.5835	-0.084	0.58175	229.2603	0.01	3	99	0	76	-154.419	-42.07854	133.7315	
20:48:19	47.08724	-122.5835	-0.083	1.761705	123.4417	0.01	3	99	0	75	-140.0861	-57.33812	30.35923	
20:48:21	47.08724	-122.5835	-0.084	-0.6518017	-195.9324	0.02	3	99	0	79	-125.51	-43.20111	-79.83033	
20:48:23	47.08724	-122.5835	-0.083	-1.130167	2.158365	0.01	3	99	0	74	-144.5529	-31.68377	-174.5789	
20:48:25	47.08724	-122.5835	-0.083	1.414606	252.1355	0.01	3	99	0	73	-160.9314	-51.53511	99.6936	
20:48:26	47.08724	-122.5835	-0.083	0.6125211	-101.5909	0.01	3	99	0	72	-125.7548	-54.22253	-20.6166	
20:48:28	47.08725	-122.5835	-0.083	-2.010669	-236.1012	0.01	3	99	0	68	-132.3169	-34.08406	-118.2785	
20:48:30	47.08725	-122.5835	-0.084	-0.2306175	175.4189	0.01	3	99	0	64	-153.4043	-37.80339	151.2326	
20:48:32	47.08725	-122.5835	-0.083	1.690423	154.3114	0.01	3	99	0	64	-143.7901	-57.97236	48.64739	
20:48:33	47.08725	-122.5835	-0.083	-0.4805931	-193.0079	0.02	3	99	0	64	-125.6915	-44.7603	-58.54687	
20:48:35	47.08725	-122.5835	-0.083	-1.304502	-47.57188	0.02	3	99	0	64	-141.8811	-32.47263	-152.7323	
20:48:37	47.08725	-122.5835	-0.084	0.9788146	208.6706	0.03	3	99	0	64	-157.5922	-53.09009	115.8212	
20:48:39	47.08725	-122.5835	-0.083	0.97201	25.46951	0	3	99	0	64	-149.337	-57.97559	58.36317	
20:48:40	47.08725	-122.5835	-0.083	-1.018534	-215.5632	0	3	99	0	64	-134.2832	-56.28056	-13.66033	
20:48:42	47.08724	-122.5835	-0.098	-4.834354	-1785.779	9.46	9.447642	99	0	64	168.132	-11.96503	33.33037	
20:48:44	47.08711	-122.5836	24.074	13.88659	3091.264	28.04	28.86067	99	0	66	-43.61272	25.97797	-149.6297	
20:48:46	47.08734	-122.5832	33.684	63.76284	5419.773	19.42	32.26078	99	0	66	-17.72795	3.436677	-60.41069	
20:48:47	47.08757	-122.5835	59.81	78.86901	346.9074	34.33	33.70106	99	0	65	114.3358	24.78137	-26.92443	
20:48:49	47.08798	-122.5831	44.537	39.38464	-997.5369	40.66	37.98058	99	0	65	49.41339	17.81661	-143.7751	
20:48:51	47.08847	-122.5835	4.374	7.55987	-2607.169	39.72	39.23244	99	0	65	42.36605	-2.210278	122.5792	
20:48:53	47.08848	-122.5836	0.465	4.650025	2264.965	42.84	40	99	0	65	-0.4175534	-27.64987	74.2888	
20:48:54	47.08723	-122.5835	0.062	36.07694	3708.732	0.26	3.129578	99	0	80	-133.5061	40.04396	98.37398	
20:48:56	47.08754	-122.5836	6.929	35.46517	4202.401	36.98	34.17037	99	0	81	-53.35208	-24.33665	-128.5852	
20:48:58	47.08771	-122.5835	41.18	44.40102	-1574.703	33.25	29.24056	99	0	81	-117.331	16.5844	45.88692	
20:49:00	47.08821	-122.5841	22.169	40.03918	3145.541	30.1	22.90093	99	0	81	-51.86966	34.48036	-122.6113	
20:49:01	47.0886	-122.5841	75.017	70.45091	821.6037	37.68	28.12122	99	0	81	99.49613	0.3849191	-161.2361	
20:49:03	47.08891	-122.5843	127.323	95.3866	383.6505	11.82	11.03022	99	0	81	-28.97496	29.70161	-155.7675	
20:49:05	47.08931	-122.5839	145.494	144.0767	-864.8065	37.77	30.07863	99	0	81	-109.468	74.56833	-1.111975	
20:49:07	47.08992	-122.5842	107.164	131.6139	2879.312	49.69	40	99	0	81	-20.29534	53.68267	-72.64041	
20:49:08	47.09036	-122.5843	147.589	152.9081	46.23309	41.56	31.77529	99	0	81	127.6768	36.20903	-52.44286	
20:49:10	47.09083	-122.5842	143.787	139.4933	-506.6694	19.38	6.895629	99	0	81	49.95928	-53.20507	-115.9877	
20:49:12	47.09145	-122.5843	134.507	141.1611	-1595.841	46.9	27.67808	99	0	81	-54.41608	38.65937	-178.1249	
20:49:14	47.09138	-122.5833	96.089	61.76236	-8472.543	48.04	40	99	0	80	69.98317	-32.90124	107.9755	
20:49:15	47.0908	-122.583	110.157	75.26981	61.80886	8.46	10.34053	99	0	81	-36.16162	37.45271	132.7733	
20:49:17	47.09128	-122.5828	133.447	121.359	-1214.022	42.66	27.29079	99	0	81	-128.4532	66.34604	11.49722	
20:49:19	47.09191	-122.5832	88.239	94.6584	-113.7767	50.02	40	99	0	81	-10.43551	-0.08260335	-156.5283	
20:49:21	47.09229	-122.5831	121.039	117.7941	1067.013	42.41	39.3731	99	0	80	67.65544	62.00109	-56.97493	
20:49:22	47.0922	-122.5822	81.875	97.23177	-2649.682	40.03	40	99	0	81	-51.71506	7.175524	-36.37226	
20:49:24	47.09159	-122.5816	58.533	13.87759	-7558.08	49.37	40	99	0	81	-82.63342	-22.31606	148.8758	
20:49:26	47.09152	-122.5807	26.791	-10.84912	-4603.83	33.96	20.82499	99	0	81	-27.94223	59.35777	78.04488	
20:49:28	47.09158	-122.5804	0.255	-51.37821	-5557.185	49.57	34.74037	99	0	81	-62.48472	27.04729	12.75302	
20:49:29	47.09158	-122.5804	0.255	-27.67893	-591.1075	49.57	34.74037	99	0	96	-60.8016	-65.35269	-38.53815	
20:49:31	47.08703	-122.5835	35.179	20.54178	4744.506	4.96	11.83223	99	0	65	20.05888	21.17516	-130.1936	
20:49:33	47.0871	-122.5841	42.392	94.49844	5381.149	21.64	25.43346	99	0	64	72.76073	53.43969	-41.51779	
20:49:35	47.08754	-122.5838	5.339	2.034123	-7220.553	44.11	39.1636	99	0	110	168.022	8.651801	76.83728	
20:49:37	47.0878	-122.584	58.25	-1.522685	1889.75	48.93	40	99	0	110	34.43564	-3.556324	-105.6988	
20:49:38	47.08767	-122.5843	0.469	66.64836	5808.408	17.1	12.17802	99	0	80	-0.6326009	-1.719483	44.67808	
20:49:40	47.08767	-122.5843	0.469	44.36886	3053.708	17.1	9.497953	99	0	80	-10.65387	45.22869	-99.61585	
20:49:42	47.08713	-122.5835	5.012	28.04245	1442.348	22.86	28.89199	99	0	80	-94.56982	-4.384476	-33.25604	
20:49:44	47.08686	-122.5833	37.391	40.44026	1755.643	39.43	38.98041	99	0	80	-67.8977	-35.36696	-39.70085	
20:49:45	47.08675	-122.5828	85.951	64.98756	-852.2516	42	38.47984	99	0	110	145.9202	56.28441	-0.6287928	
20:49:47	47.0869	-122.5826	33.591	18.37666	-1996.681	41.39	40	99	0	110	24.7038	-2.334193	168.654	
20:49:49	47.08649	-122.582	77.359	65.28842	3055.743	11.92	23.29772	99	0	80	-103.6394	11.98858	-82.32626	
20:49:51	47.08614	-122.5825	91.287	97.09195	1512.97	44.42	40	99	0	93	47.39315	-52.16438	-36.95501	
20:49:52	47.08633	-122.5829	143.273	144.1143	3817.117	28.28	28.12131	99	0	80	22.9045	-22.19156	-131.3658	
20:49:54	47.08651	-122.5835	195.521	213.1665	5131.129	19.9	13.04933	99	0	80	2.380749	27.73243	64.30904	
20:49:56	47.08689	-122.5833	252.311	278.0672	7069.187	34.12	40	99	0	80	22.71743	-16.78512	177.1612	
20:49:58	47.08663	-122.5831	325.859	351.7028	5714.98	33.21	37.07339	99	0	80	23.804	64.6729	174.1913	
20:50:00	47.08672	-122.5833	381.86	372.3372	117.3739	43.2	35.65286	99	0	102	52.49645	73.82555	-68.77052	
20:50:01	47.08701	-122.5826	383.101	391.4359	1219.773	20.74	20.74005	99	0	80	91.65942	0.8037083	-156.2327	
20:50:03	47.08736	-122.5823	390.998	409.059	1686.919	38.3	39.9454	99	0	80	66.83725	32.54604	158.7886	
20:50:05	47.08768	-122.5815	411.049	403.0919	33.15259	25.01	28.59238	99	0	110	54.56001	63.93526	124.4957	
20:50:07	47.08762	-122.5813	469.135	447.7824	742.7012	39.26	39.30195	99	0	110	-45.87975	-1.370698	70.30305	
20:50:08	47.08789	-122.5808	523.143	507.3101	2360.175	29.48	29.31347	99	0	79	-70.95499	-43.78997	-118.6041	
20:50:10	47.08775	-122.5807	572.356	577.5645	3970.355	13.65	15.48375	99	0	77	61.75219	39.98213	-111.8051	
20:50:12	47.08817	-122.5803	597.822	617.8876	1571.052	44.73	40	99	0	92	175.2877	65.68517	178.8462	
20:50:14	47.08788	-122.5803	636.096	613.7152	1575.06	47.28	40	99	0	92	-20.82364	48.20984	-63.5452	
20:50:15	47.08806	-122.5802	671.989	638.3788	-3289.522	44.27	40	99	0	90	-105.1752	-15.45864	60.09357	
20:50:17	47.08796	-122.5801	607.979	654.9866	3864.395	48.56	40	99	0	92	39.87366	70.41754	-30.44661	
20:50:19	47.08869	-122.5807	624.597	586.9014	-5469.424	34.43	34.6604	99	0	92	128.7747	1.063382	136.4914	
20:50:20	47.08878	-122.5811	706.811	620.7244	-1794.771	1.72	3	99	0	92	-74.65682	-53.7117	-179.2605	
20:50:22	47.08894	-122.5811	794.27	743.0551	2015.448	8.78	11.58345	99	0	92	-94.61222	-41.28771	-158.4099	
20:50:24	47.08883	-122.581	866.257	854.5909	4361.028	16.63	18.30076	99	0	92	-99.58717	-14.06611	-108.2679	
20:50:26	47.08838	-122.581	933.062	933.2709	5229.292	26.18	27.20726	99	0	92	-13.06149	-38.70501	179.3322	
20:50:27	47.08786	-122.581	963.277	994.6362	4754.661	47.37	40	99	0	92	-132.7122	61.09901	-62.23038	
20:50:29	47.08777	-122.5811	1038.177	1026.248	3807.009	19.83	20.04103	99	0	92	-12.42925	-27.03562	-53.63636	
20:50:31	47.08774	-122.581	1105.391	1109.068	327.2364	6.13	4.8292	99	0	92	166.3032	1.139591	52.21282	
20:50:33	47.08739	-122.5816	1084.964	1093.148	2774.588	45.94	40	99	0	92	37.29836	-4.718184	0.2735298	
20:50:34	47.0874	-122.5815	1102.836	1125.196	3187.673	24.4	25.21648	99	0	92	-76.01189	-25.46276	38.85208	
20:50:36	47.08728	-122.5814	1134.893	1152.886	561.7388	21.94	19.32365	99	0	92	139.147	-71.97067	117.3449	
20:50:38	47.0874	-122.5815	1095.956	1117.204	-225.5326	37.83	36.21711	99	0	91	-96.82728	57.72899	43.75879	
20:50:39	47.08775	-122.5811	1098.232	1118.259	3680.962	28.62	29.96425	99	0	92	22.62699	24.56026	156.6238	
20:50:41	47.08815	-122.5805	1135.693	1153.458	3843.507	42.84	40	99	0	92	67.39711	74.39843	160.5459	
20:50:43	47.0883	-122.5809	1160.4	1147.023	-3172.464	38.63	36.73155	99	0	92	146.2325	-35.16196	157.7342	
20:50:45	47.08815	-122.5814	1128.756	1154.306	4368.451	49.17	40	99	0	92	37.97744	20.74025	-19.60089	
20:50:46	47.08874	-122.5813	1180.92	1207.101	6565.138	22.52	27.27737	99	0	92	17.50712	64.97258	88.3315	
20:50:48	47.08856	-122.5816	1253.192	1260.045	2509.217	47.24	40	99	0	92	86.32948	39.44579	-89.98627	
20:50:50	47.08913	-122.5817	1280.833	1275.176	1241.54	42.42	40	99	0	92	53.71048	30.65444	35.92253	
20:50:51	47.08905	-122.5816	1351.927	1333.631	1165.408	34.83	32.97515	99	0	92	159.9632	59.66637	-133.5444	
20:50:53	47.08905	-122.5824	1391.62	1393.822	3619.015	21.54	18.03847	99	0	92	52.12337	-83.87167	-44.24135	
20:50:55	47.08952	-122.5828	1381.83	1385.848	-3974.287	27.79	19.83558	99	0	91	-86.88202	62.61044	-3.398746	
20:50:57	47.0895	-122.5836	1382.574	1399.6	5374.533	23.52	18.52832	99	0	89	18.66576	-11.82324	9.711157	
20:50:58	47.0897	-122.5837	1440.641	1451.289	1866.631	44.84	40	99	0	89	69.32607	26.68963	154.3066	
20:51:00	47.08969	-122.5848	1434.439	1438.218	-4026.1	45.22	40	99	0	60	-140.2653	43.7713	-158.0822	
20:51:02	47.08916	-122.5849	1432.75	1431.409	2330.079	21.41	15.67863	99	0	54	-106.8184	-32.6095	91.12142	
20:51:04	47.08937	-122.5848	1415.304	1429.656	877.9978	32.64	38.98904	99	0	54	65.28658	11.25957	103.5518	
20:51:05	47.08952	-122.5848	1402.062	1417.884	2111.756	33.07	26.42284	99	0	54	-24.4999	34.44276	-39.29643	
20:51:07	47.08957	-122.5846	1421.105	1423.846	-286.6626	29.52	34.97229	99	0	55	116.9052	-25.10069	153.3221	
20:51:09	47.08935	-122.5849	1418.083	1417.52	1298.89	37.07	31.65083	99	0	54	46.36672	-12.55932	-1.754933	
20:51:11	47.08953	-122.5849	1447.75	1427.403	-1898.202	32.69	36.06495	99	0	55	12.8788	-72.21696	-135.2214	
20:51:12	47.08913	-122.5844	1462.827	1443.377	-1560.366	31.39	30.51727	99	0	54	-170.3088	20.72868	44.63121	
20:51:14	47.08927	-122.5838	1447.813	1449.955	-345.8207	21.01	17.79156	99	0	54	-119.5292	62.1724	-141.4692	
20:51:16	47.08909	-122.5832	1415.455	1414.989	1493.281	14.43	27.94061	99	0	54	97.93502	28.13988	135.9559	
20:51:18	47.08914	-122.5833	1405.554	1404.879	-2614.587	9.31	15.45287	99	0	55	-151.2009	40.44083	157.285	
20:51:19	47.08899	-122.5829	1364.732	1380.625	2750.711	40.7	35.37327	99	0	54	-7.650162	-10.27854	79.89835	
20:51:21	47.08883	-122.5829	1409.43	1416.709	1177.172	31.36	34.35036	99	0	55	-167.9985	44.48747	143.5394	
20:51:23	47.08827	-122.5828	1409.24	1419.641	2532.969	46.72	40	99	0	55	-1.142495	27.76965	127.5096	
20:51:24	47.08814	-122.5824	1454.382	1447.165	-78.30914	19.57	20.31289	99	0	55	-117.2031	43.66298	-168.1427	
20:51:26	47.08765	-122.582	1481.251	1480.459	2793.685	36.38	31.05874	99	0	54	46.39923	65.31692	124.5553	
20:51:28	47.08735	-122.582	1529.05	1503.307	-3178.962	41.85	40	99	0	54	-127.7452	-31.61183	158.7954	
20:51:30	47.08714	-122.5814	1517.154	1522.284	3437.096	36.64	37.22723	100	0	54	-27.69685	44.08666	8.190153	
20:51:31	47.08759	-122.5812	1560.997	1560.287	1616.039	39.73	40	100	0	55	40.38154	24.30922	-66.44169	
20:51:33	47.08829	-122.5814	1570.685	1579.482	988.7037	48.48	40	100	0	55	92.91454	38.19925	-52.65399	
20:51:35	47.08898	-122.5813	1575.422	1573.96	2567.075	45.35	40	100	0	55	6.5755	18.63777	35.23664	
20:51:36	47.08934	-122.5811	1634.814	1628.367	2655.676	32.2	26.28372	100	0	54	59.88145	73.65319	30.79762	
20:51:38	47.0898	-122.5807	1683.706	1679.284	2757.012	40.8	32.44506	100	0	55	-3.938655	28.41668	27.41913	
20:51:40	47.09008	-122.5802	1715.205	1704.874	-1870.732	46.17	40	100	0	55	-126.1835	-1.153315	98.15745	
20:51:42	47.09023	-122.5797	1652.802	1694.155	2605.838	49.61	33.08915	100	0	54	-10.92364	70.462	-21.94815	
20:51:43	47.09028	-122.5797	1651.223	1614.76	-11124.83	51.27	40	100	0	55	-158.3545	-10.47873	88.77383	
20:51:45	47.09028	-122.5797	1651.223	1580.739	-1805.254	51.27	40	100	0	54	-18.12663	44.24602	-32.65765	
20:51:47	47.09028	-122.5797	1651.223	1625.783	-5546.859	51.27	40	100	0	54	178.089	2.685575	93.90683	
20:51:48	47.09028	-122.5797	1651.223	1599.507	-386.8094	51.27	40	100	0	54	-19.34394	12.16405	-38.34858	
20:51:50	47.09028	-122.5797	1651.223	1667.529	-92.62098	51.27	40	100	0	55	155.8382	17.5845	88.14642	
20:51:52	47.09028	-122.5797	1651.223	1614.213	-1757.02	51.27	40	100	0	55	-17.01794	-22.58158	-46.04908	
20:51:54	47.09028	-122.5797	1651.223	1679.723	3374.732	51.27	40	100	0	54	132.3587	24.98187	74.26507	
20:51:55	47.09028	-122.5797	1651.223	1629.459	-3035.344	51.27	40	100	0	55	-2.845525	-52.81206	-64.36067	
20:51:57	47.09028	-122.5797	1651.223	1689.507	5678.896	51.27	40	100	0	55	105.324	25.80436	54.65927	
20:51:59	47.09028	-122.5797	1651.223	1647.262	-2874.801	51.27	40	100	0	55	58.11035	-66.44909	-131.6228	
20:52:00	47.09028	-122.5797	1651.223	1687.046	6512.235	51.27	40	100	0	54	83.31566	21.26146	36.36567	
20:52:02	47.09039	-122.5797	1652.134	1662.771	-2104.031	48.16	40	100	0	54	92.04077	-48.24949	-174.4693	
20:52:04	47.09041	-122.5794	1691.81	1683.274	2787.43	38.68	40	100	0	54	76.47542	26.95399	23.60022	
20:52:06	47.09037	-122.5789	1629.131	1642.496	-6805.881	49.77	40	100	0	55	-128.0305	-46.8251	53.80785	
20:52:07	47.09071	-122.5784	1671.482	1615.951	-1275.006	25.97	20.61834	100	0	55	46.16425	3.684639	-13.61474	
20:52:09	47.09071	-122.5778	1722.088	1708.651	3859.873	33.94	24.16776	100	0	54	50.14238	-6.732229	-143.0623	
20:52:11	47.09072	-122.5777	1714.237	1736.864	3091.199	23.01	23.37827	100	0	55	-1.838135	1.167898	98.58665	
20:52:12	47.09036	-122.5777	1730.64	1737.453	-738.0151	22	23.48049	100	0	55	175.0513	-46.73771	-121.6907	
20:52:14	47.0906	-122.578	1707.09	1742.845	3177.983	14.61	12.05779	100	0	55	83.84207	23.9252	134.2532	
20:52:16	47.09016	-122.578	1714.427	1692.017	-2416.993	24.37	29.60988	100	0	55	77.95979	-33.14268	-60.67547	
20:52:18	47.09043	-122.5783	1689.398	1693.023	-830.6575	15.1	13.383	100	0	55	70.0595	-38.3462	117.6899	
20:52:19	47.08995	-122.5784	1690.178	1694.744	2144.742	29.45	33.5404	100	0	55	95.39172	-5.220106	-95.40945	
20:52:21	47.09026	-122.5787	1669.634	1696.059	820.5683	15.49	14.32802	100	0	55	77.4048	-25.35018	110.412	
20:52:23	47.08978	-122.5787	1667.001	1664.906	-171.4328	30.69	32.20555	100	0	55	92.1553	-20.33718	-79.72175	
20:52:24	47.09008	-122.5789	1640.58	1662.96	425.5196	24.96	26.34899	100	0	55	78.35919	-15.54825	116.8184	
20:52:26	47.08963	-122.5789	1640.767	1628.245	-1380.77	29.93	28.50219	100	0	55	79.74475	-31.20898	-74.16985	
20:52:28	47.08991	-122.5792	1614.8	1636.394	-275.2078	27.37	29.58319	100	0	54	95.38521	-15.43949	110.7817	
20:52:30	47.08926	-122.5791	1611.026	1596.962	-1093.34	44.03	37.10521	100	0	54	-57.22443	-20.56274	-155.8793	
20:52:31	47.08857	-122.5791	1628.298	1620.788	1209.433	46.76	40	100	0	55	-34.18059	16.65744	-104.7386	
20:52:33	47.08801	-122.5795	1635.593	1637.864	-1258.542	47	38.7324	100	0	55	140.2787	-37.32339	168.5419	
20:52:35	47.0877	-122.5804	1608.792	1628.375	3060.77	48.92	40	100	0	54	30.42512	10.95569	-61.92982	
20:52:36	47.08794	-122.581	1649.865	1660.116	3338.906	24.13	27.73448	100	0	54	37.84736	19.91735	-156.5609	
20:52:38	47.08806	-122.5811	1701.65	1695.13	2391.166	8.14	6.467324	100	0	99	84.63731	-4.504109	174.2643	
20:52:40	47.08776	-122.5816	1720.587	1710.434	-768.9847	48.42	40	100	0	99	-77.59422	-3.997796	-175.3038	
20:52:42	47.08739	-122.5807	1730.565	1739.135	4288.545	47.45	40	100	0	99	-19.82181	0.3811705	23.625	
20:52:43	47.08737	-122.5803	1796.711	1805.414	4039.06	15.53	12.44158	100	0	99	-79.39967	-10.68565	35.43533	
20:52:45	47.0874	-122.5806	1872.089	1869.172	2897.344	20.61	19.09194	100	0	99	-123.2385	20.68004	-51.83418	
20:52:47	47.0872	-122.5808	1837.708	1850.347	-85.28975	39.19	32.19886	100	0	99	-28.18907	10.60014	-175.8075	
20:52:48	47.08739	-122.5803	1867.299	1887.207	3360.23	22.71	20.90949	100	0	99	172.4126	44.04212	-133.5573	
20:52:50	47.08713	-122.5805	1837.426	1845.649	698.7189	38.78	40	100	0	99	10.0804	-1.559935	71.92831	
20:52:52	47.08727	-122.5803	1861.111	1860.135	-222.6185	28.43	23.77494	100	0	84	-21.302	-38.31042	44.75113	
20:52:54	47.08747	-122.5804	1873.865	1858.003	-3702.16	31.07	35.37074	100	0	87	-176.1835	-18.24532	9.770833	
20:52:55	47.08756	-122.5797	1829.605	1832.303	1103.853	13.45	13.7072	100	0	87	59.11116	40.27584	93.49665	
20:52:57	47.08738	-122.5801	1804.146	1815.36	1567.745	39.24	37.89029	100	0	98	-21.12569	-24.05317	-159.0111	
20:52:59	47.08733	-122.5799	1842.851	1831.517	-3677.406	38.34	39.25445	100	0	90	165.9145	21.31818	-104.3224	
20:53:00	47.08728	-122.5803	1800.57	1821.583	5031.108	34.07	40	100	0	94	39.42623	5.150568	44.54274	
20:53:02	47.08721	-122.58	1832.604	1826.536	-3848.254	37.17	36.56252	100	0	83	-127.1197	-10.33184	48.47694	
20:53:04	47.08699	-122.5803	1785.027	1782.912	586.936	39.08	38.13584	100	0	84	-37.67318	-26.35435	155.9006	
20:53:06	47.08692	-122.5799	1812.462	1785.093	-5338.001	36.44	40	100	0	87	-127.5441	-31.25401	50.13347	
20:53:07	47.08717	-122.5805	1795.62	1793.323	3714.959	37.49	40	100	0	87	25.03034	41.68166	-97.28995	
20:53:09	47.08765	-122.5805	1833.433	1825.813	-2261.521	49.71	40	100	0	62	133.3227	-20.61976	77.89023	
20:53:11	47.08739	-122.5803	1788.389	1794.577	687.8541	47.13	40	100	0	54	34.1954	-19.22187	-84.39907	
20:53:13	47.08743	-122.5812	1805.203	1818.342	3422.79	41.25	40	100	0	55	-12.98866	21.66693	-25.8485	
20:53:14	47.08728	-122.582	1848.228	1841.266	-3228.921	37.08	33.78417	100	0	53	-138.7604	-22.27574	161.8411	
20:53:16	47.08745	-122.5817	1799.218	1813.534	2352.24	42.96	40	100	0	53	-43.26438	14.06848	12.53233	
20:53:18	47.08767	-122.5821	1826.734	1827.935	-138.1721	36	33.6372	100	0	50	140.5109	62.43825	93.12426	
20:53:19	47.08747	-122.5822	1790.421	1796.518	-1835.8	16.51	13.41195	100	0	48	138.68	0.2079951	120.5751	
20:53:21	47.08757	-122.5823	1739.315	1741.752	-4091.844	10.48	15.55807	100	0	50	-177.3098	21.39561	-7.509276	
20:53:23	47.08751	-122.5821	1652.381	1665	-4226.163	22.5	19.8875	100	0	50	-113.6854	-23.20257	90.72005	
20:53:25	47.08765	-122.5818	1568.709	1581.148	-4432.607	19.42	18.0499	100	0	50	164.7678	-44.20209	-172.3396	
20:53:26	47.08794	-122.5819	1494.584	1503.984	-2240.35	15.92	13.52387	100	0	50	-94.04577	-7.981417	-57.00713	
20:53:28	47.08808	-122.5822	1510.295	1488.998	-1252.553	19.95	17.51429	100	0	50	-41.03828	-56.79721	60.67731	
20:53:30	47.08842	-122.5822	1502.145	1492.407	-1383.153	23.03	14.43079	100	0	4	-64.96468	17.10002	165.7723	
20:53:31	47.08876	-122.5823	1468.841	1471.518	-347.9365	27.62	16.85584	100	0	99	-3.014835	33.43081	143.6066	
20:53:33	47.08913	-122.5824	1497.022	1485.204	-984.2968	28.14	40	100	0	95	164.3423	35.35509	171.4131	
20:53:35	47.08859	-122.5827	1490.237	1496.761	3764.467	45.56	40	100	0	95	9.567043	43.29968	-119.3294	
20:53:37	47.08826	-122.5831	1539.712	1537.67	-1207.868	40.45	40	100	0	95	161.3624	-21.10179	61.20235	
20:53:38	47.08802	-122.5827	1511.165	1515.034	3106.625	19.67	30.44176	100	0	95	16.7997	26.87491	167.6754	
20:53:40	47.08798	-122.5828	1569.45	1572.762	4022.135	11.23	9.424226	100	0	95	-69.84422	10.86527	-177.5466	
20:53:42	47.0876	-122.5828	1611.991	1611.192	-310.1483	43.16	40	100	0	95	-80.4085	-36.56239	10.86565	
20:53:44	47.08755	-122.5838	1630.127	1627.82	214.0484	33.75	38.07309	100	0	95	127.1736	31.61599	-29.16913	
20:53:45	47.08793	-122.5831	1646.385	1634.506	-1057.693	48.28	40	100	0	68	87.99287	-79.0448	125.8774	
20:53:47	47.08767	-122.5828	1690.832	1670.711	1742.054	9.41	10.23085	100	0	68	-54.6115	61.63572	120.373	
20:53:49	47.08812	-122.5827	1722.584	1724.563	2473.014	39.86	38.89691	100	0	68	8.345345	46.33801	-104.8111	
20:53:51	47.0882	-122.5821	1725.778	1732.763	1831.511	24.37	24.01926	100	0	68	18.31433	77.54329	174.9657	
20:53:52	47.08867	-122.5819	1758.093	1757.792	1670.982	40.77	34.73996	100	0	68	90.12856	-29.13981	133.2543	
20:53:54	47.08875	-122.5816	1803.416	1787.09	1937.524	22.05	26.3974	100	0	68	25.56958	-5.155145	-140.2142	
20:53:56	47.08877	-122.5821	1795.192	1819.104	1414.585	29.22	30.5685	100	0	67	-36.76271	24.97465	-23.90715	
20:53:58	47.08877	-122.5829	1810.402	1832.865	4638.238	11.57	20.01977	100	0	68	-48.494	-24.24256	154.2029	
20:53:59	47.08885	-122.5825	1853.159	1869.06	2232.292	40.68	40	100	0	68	-81.78178	6.530272	-107.8327	
20:54:01	47.08842	-122.5818	1860.22	1864.719	1204.567	42.15	40	100	0	68	17.82967	41.54525	178.3474	
20:54:03	47.08839	-122.5814	1907.273	1900.343	803.9981	14.48	16.93837	100	0	68	-112.4251	-4.803594	22.81053	
20:54:05	47.08839	-122.582	1888.42	1876.143	-4183.421	21.85	24.2946	100	0	68	-17.15114	-53.63031	148.4126	
20:54:06	47.08805	-122.5817	1904.731	1902.323	1404.188	24.04	24.24388	100	0	68	146.0394	28.60776	-91.48229	
20:54:08	47.08806	-122.582	1867.567	1872.616	-1294.819	39.77	30.38408	100	0	68	19.61069	-29.50833	130.471	
20:54:10	47.08781	-122.5818	1896.502	1898.344	184.3717	27.87	25.60221	100	0	68	152.8643	8.067122	-86.55962	
20:54:11	47.08776	-122.5821	1857.038	1858.437	-337.8784	43.96	40	100	0	69	23.07696	-15.97218	145.1662	
20:54:13	47.08755	-122.5822	1893.608	1888.745	-627.5854	39.4	37.55941	100	0	68	146.7265	-13.39509	-70.7676	
20:54:15	47.08743	-122.5821	1846.068	1859.289	1272.255	44.5	40	100	0	68	46.55894	-4.453827	161.797	
20:54:17	47.08733	-122.5824	1881.306	1870.327	-2151.661	38.12	36.31611	100	0	69	128.8796	-36.98079	-37.93806	
20:54:18	47.08723	-122.5823	1833.184	1844.138	721.9856	44.34	40	100	0	68	70.60706	-0.2466279	-179.8672	
20:54:20	47.08721	-122.5827	1855.534	1848.835	-2190.208	23.04	30.80387	100	0	68	101.847	-38.81245	7.191656	
20:54:22	47.08692	-122.5824	1789.457	1792.006	-3814.307	56.56	40	100	0	68	86.03814	-37.6208	136.0067	
20:54:23	47.08609	-122.5827	1814.91	1779.557	-167.0594	46.23	40	100	0	68	65.5248	-21.39078	-124.5836	
20:54:25	47.08628	-122.5836	1852.694	1850.512	3326.834	57.14	40	100	0	68	79.01228	-6.226393	-38.21952	
20:54:27	47.08705	-122.5835	1801.906	1857.426	2584.222	55.63	40	100	0	68	51.39961	-2.856201	66.32317	
20:54:29	47.08711	-122.5822	1800.32	1823.079	2106.354	50.43	40	100	0	68	44.08304	36.26426	130.7063	
20:54:30	47.08717	-122.5817	1890.631	1853.984	315.6883	14.93	7.850914	100	0	68	110.5082	45.97933	-157.0771	
20:54:32	47.08722	-122.5824	1940.719	1903.561	-2277.283	50.01	40	100	0	68	-178.8767	13.77264	-113.7928	
20:54:34	47.08672	-122.5835	1912.75	1905.586	-1340.015	57.85	40	100	0	68	-51.75961	-47.51706	-134.3525	
20:54:35	47.08585	-122.5839	1902.527	1916.377	3060.017	63.49	40	100	0	68	28.23023	-20.08678	-168.297	
20:54:37	47.08511	-122.5845	1944.119	1955.819	4071.853	51.03	40	100	0	68	51.4508	-0.1240001	-134.8723	
20:54:39	47.08498	-122.5856	1992.322	1999.923	2970.305	51.53	40	100	0	68	70.68765	-1.793403	-95.07271	
20:54:41	47.08547	-122.5865	2008.673	2020.182	1292.614	57.82	40	100	0	68	76.10361	-17.10769	-42.55022	
20:54:42	47.08639	-122.5866	1975.788	1997.132	-921.2281	57.25	40	100	0	68	76.7868	-23.08981	20.05011	
20:54:44	47.08686	-122.5854	1916.427	1938.999	-1496.391	66.74	40	100	0	68	45.8269	-17.94762	83.5265	
20:54:46	47.08664	-122.5841	1908.584	1907.225	-8.612511	65.97	40	100	0	68	28.29123	-3.761943	122.7848	
20:54:47	47.0862	-122.5831	1956.921	1943.181	2254.941	41.8	40	100	0	68	33.19901	14.76256	150.5808	
20:54:49	47.08586	-122.5828	2045.495	2022.009	3461.505	11.52	15.06599	100	0	68	51.86733	23.61594	176.5776	
20:54:51	47.08576	-122.5831	2109.128	2099.873	3277.8	27.97	29.16794	100	0	68	40.96482	33.66238	-38.98345	
20:54:53	47.08551	-122.5834	2171.843	2163.651	1596.669	36.19	28.2267	100	0	68	167.9118	73.908	129.5626	
20:54:54	47.08512	-122.583	2185.391	2187.142	1347.048	39.22	40	100	0	68	-79.34893	27.74393	67.48185	
20:54:56	47.08545	-122.5826	2244.592	2236.455	4077.021	18.78	14.63256	100	0	68	58.20695	65.88058	-36.32746	
20:54:58	47.08573	-122.582	2296.922	2298.513	4173.975	33.75	30.23395	100	0	68	5.307693	34.53739	5.320302	
20:54:59	47.08602	-122.5813	2355.916	2356.743	2963.563	46.82	39.40249	100	0	68	-45.12878	41.81493	98.646	
20:55:01	47.08653	-122.5806	2399.207	2399.39	3044.675	40.23	31.09771	100	0	68	33.44624	23.71389	0.8892476	
20:55:03	47.08698	-122.5798	2428.182	2429.368	1705.56	49.84	40	100	0	68	5.860448	25.81931	53.45662	
20:55:05	47.08735	-122.579	2450.156	2449.047	658.056	52.4	40	100	0	68	68.30426	27.18967	22.92823	
20:55:06	47.08738	-122.5778	2439.694	2436.987	-3188.933	49.82	39.71932	100	0	68	126.9598	15.42951	56.62887	
20:55:08	47.08707	-122.577	2362.791	2357.443	-6572	36.91	38.09196	100	0	68	103.036	-43.06408	110.1505	
20:55:10	47.08635	-122.5773	2265.937	2260.254	-5499.938	61.57	40	100	0	68	47.3587	-52.7997	-176.1422	
20:55:11	47.08562	-122.5784	2224.187	2213.048	-1909.629	71.64	40	100	0	68	29.74558	-34.35569	-144.9967	
20:55:13	47.08508	-122.5796	2235.522	2226.324	1000.225	61.56	40	100	0	68	33.26563	-24.66662	-137.2885	
20:55:15	47.08479	-122.5807	2272.213	2267.781	1943.783	48.26	40	100	0	68	72.03675	-18.99732	-152.8465	
20:55:17	47.08471	-122.582	2296.334	2296.325	1597.685	46.69	40	100	0	68	-32.93864	-50.25912	-41.88622	
20:55:18	47.08458	-122.5828	2296.042	2304.285	575.3286	46.5	40	100	0	68	-116.3873	-61.21733	19.96309	
20:55:20	47.08414	-122.5835	2247.025	2259.92	-2805.733	37.05	40	100	0	68	177.4808	-20.2789	-165.8392	
20:55:22	47.08371	-122.584	2186.728	2190.551	-3904.464	43.54	40	100	0	68	154.4851	-53.25115	125.2592	
20:55:23	47.08331	-122.5847	2105.322	2110.06	-4496.38	30.12	33.26294	100	0	68	130.3529	-55.17188	-68.56565	
20:55:25	47.08319	-122.5849	1995.924	2004.825	-5604.553	12.83	8.383209	100	0	68	139.561	-36.53421	36.63467	
20:55:27	47.08274	-122.5849	1871.252	1871.909	-7459.13	36.2	30.65908	100	0	68	159.7845	-48.2022	167.099	
20:55:29	47.08245	-122.5854	1739.307	1752.395	-6713.934	10.07	11.09148	100	0	68	127.6798	-55.56075	-28.48473	
20:55:30	47.08231	-122.5853	1627.01	1629.075	-7017.274	27.73	21.01486	100	0	69	143.8962	-48.72196	94.68005	
20:55:32	47.08184	-122.5854	1504.604	1503.071	-7185.509	30.7	22.96786	100	0	68	137.9713	-60.57548	-122.3836	
20:55:34	47.0818	-122.5857	1364.451	1381.044	-7055.631	10.92	15.10284	100	0	68	138.6149	-52.92083	28.89783	
20:55:35	47.08148	-122.5856	1234.088	1246.522	-7395.453	29.34	18.80488	100	0	68	136.5316	-54.97202	-173.1398	
20:55:37	47.08141	-122.5859	1102.099	1113.502	-7437.671	16.06	23.2891	100	0	68	114.6724	-69.99872	-44.51473	
20:55:39	47.08163	-122.5854	978.934	988.4244	-6514.944	43.24	40	100	0	68	85.18349	-62.86331	41.92527	
20:55:41	47.08141	-122.5843	871.158	878.0086	-6092.441	59.39	40	100	0	68	97.53159	-51.50359	92.80283	
20:55:42	47.08064	-122.5836	786.151	785.1565	-5639.533	59.07	40	100	0	68	112.3566	-53.11343	141.2713	
20:55:44	47.07986	-122.5838	694.844	697.5289	-5412.468	48.52	39.91692	100	0	68	110.3154	-61.33424	-155.2882	
20:55:46	47.07963	-122.5846	591.785	604.6843	-4627.147	39.69	40	100	0	68	72.15762	-57.16451	-87.99841	
20:55:47	47.08001	-122.5856	495.915	510.0554	-3279.986	60.75	40	100	0	68	22.39296	-53.37637	-49.89244	
20:55:49	47.08074	-122.5866	440.271	448.5281	-1736.604	67.69	40	100	0	66	-13.64338	-42.47814	-44.72503	
20:55:51	47.08141	-122.5878	427.222	425.3047	-462.3799	62.96	40	100	0	66	48.39015	-18.42729	-69.18286	
20:55:53	47.08225	-122.5886	424.495	420.4195	-1309.457	57.06	40	100	0	66	83.74966	-17.55291	-47.8787	
20:55:54	47.08298	-122.5886	392.772	390.257	-3697.689	45.91	40	100	0	66	130.9141	-29.00353	-9.934968	
20:55:56	47.08341	-122.5883	308.164	320.9525	-2495.129	28.34	29.02995	100	0	66	-25.91121	-26.70129	112.7552	
20:55:58	47.0835	-122.5872	244.39	267.8326	-110.6526	67.1	40	100	0	66	16.03419	-19.29245	66.16507	
20:55:59	47.08348	-122.5856	234.034	236.1649	-572.4302	61.39	40	100	0	66	7.262483	-13.4173	96.48151	
20:56:01	47.08323	-122.5843	254.764	239.7098	-486.3136	47.47	40	100	0	67	-43.3256	-29.17262	146.0215	
20:56:03	47.08284	-122.5839	237.063	215.7728	-4375.213	32.04	33.14938	100	0	66	29.47199	-54.53221	49.23758	
20:56:05	47.08216	-122.5836	189.36	186.5389	-3046.004	50.97	40	100	0	66	126.5321	-13.29562	-170.9524	
20:56:06	47.08176	-122.5844	129.775	145.4355	909.3038	50.41	40	100	0	66	-32.10006	4.079007	-175.7286	
20:56:08	47.08136	-122.5849	180.738	167.5045	148.1601	37.23	25.30523	100	0	66	108.964	61.78518	57.84734	
20:56:10	47.08127	-122.5851	231.327	198.0815	-3835.681	43.59	40	100	0	99	-170.2974	-0.8597355	7.205446	
20:56:11	47.08127	-122.5852	185.342	192.5775	4306.604	51.66	40	100	0	99	-3.922989	33.8663	-142.1497	
20:56:13	47.08145	-122.5855	215.008	208.6778	-4191.066	32.36	36.44823	100	0	99	-178.0871	-34.33674	15.14696	
20:56:15	47.08123	-122.5855	157.163	179.3268	4286.148	38.78	38.19587	100	0	99	-1.210993	15.08462	-143.193	
20:56:17	47.08102	-122.5857	223.059	225.7201	2857.623	15.04	17.31487	100	0	98	126.7622	71.80202	-31.26147	
20:56:18	47.08157	-122.5857	229.04	210.5255	-6797.672	9.57	7.405058	100	0	99	-147.056	-80.2731	-18.65228	
20:56:20	47.08091	-122.586	171.779	176.5973	2052.34	68.62	40	100	0	99	8.07399	-6.420437	-163.3454	
20:56:22	47.08038	-122.5862	249.229	251.5924	5374.297	10.9	12.9089	100	0	99	88.72191	73.79514	-71.08084	
20:56:23	47.08105	-122.586	293.075	284.4476	-3195.749	57.58	40	100	0	99	175.4685	-1.489724	1.992012	
20:56:25	47.08128	-122.586	192.345	201.0827	-4127.582	45.33	40	100	0	99	-8.210448	-53.17372	-152.6225	
20:56:27	47.08036	-122.5865	158.149	165.5031	-345.7503	52.7	40	100	0	4	2.433472	-38.7956	-163.8527	
20:56:29	47.07967	-122.5868	140.751	145.7078	-781.8604	39.12	39.09839	100	0	24	-72.71397	-24.47984	-91.50115	
20:56:30	47.07932	-122.5874	127.998	119.6358	-155.8059	30.23	35.52014	100	0	44	-26.08363	13.4178	19.05997	
20:56:32	47.07928	-122.5873	159.625	155.0031	-168.4365	29.69	26.99162	100	0	44	-174.1484	-24.60546	-15.57536	
20:56:34	47.07889	-122.5876	154.565	143.4262	-1342.535	35.89	31.2475	100	0	44	125.5856	-38.70036	-178.3803	
20:56:35	47.07903	-122.5879	135.998	142.7655	2425.532	23.83	28.49003	100	0	44	10.44361	12.85375	149.509	
20:56:37	47.07911	-122.5877	167.343	170.7448	2476.928	11.63	12.04143	100	0	44	-44.63265	-21.15056	-178.7332	
20:56:39	47.07898	-122.5877	212.424	209.2712	2053.743	18.28	17.12768	100	0	44	16.4864	58.4126	14.84632	
20:56:41	47.07864	-122.5878	246.014	243.1959	63.66388	36.77	32.6149	100	0	62	140.2464	14.16993	-95.6596	
20:56:42	47.07888	-122.588	206.985	207.9563	-2201.017	34.15	34.34565	100	0	61	36.18448	-39.72402	105.3412	
20:56:44	47.07843	-122.5871	198.677	209.4307	2511.058	48.48	40	100	0	61	36.74395	5.303095	110.4936	
20:56:46	47.07789	-122.5865	226.374	226.0464	1567.945	45.04	40	100	0	61	-30.83207	37.76633	-175.6528	
20:56:47	47.07745	-122.5858	266.796	258.946	1728.346	31.53	35.49838	100	0	61	-2.460347	31.9774	119.6638	
20:56:49	47.07733	-122.586	308.259	280.8382	-4067.192	38.33	40	100	0	61	-146.8779	-18.64091	-147.895	
20:56:51	47.07714	-122.5858	250.823	264.2575	749.4672	50.93	40	100	0	60	1.651287	-29.39475	98.66821	
20:56:53	47.07656	-122.585	233.786	256.2391	2040.293	56.79	40	100	0	61	6.173244	-5.262403	118.159	
20:56:54	47.07576	-122.5844	254.745	257.1396	1161.943	49.23	40	100	0	61	-5.833087	-1.380452	147.5601	
20:56:56	47.07512	-122.5841	270.677	256.0705	-4148.564	44.99	40	100	0	61	-126.3589	-11.45187	104.671	
20:56:58	47.07534	-122.5835	252.02	243.9951	2453.916	31.21	32.41114	100	0	62	-44.84874	46.60907	-48.57751	
20:56:59	47.07502	-122.5835	272.556	276.8693	-1705.877	26.89	29.91841	100	0	62	-106.337	1.871742	114.9885	
20:57:01	47.07491	-122.5827	210.598	233.5371	-776.9443	47.99	40	100	0	62	-23.02364	-16.57716	121.1289	
20:57:03	47.07459	-122.5816	170.238	186.0087	-683.3076	57.55	40	100	0	61	-12.25811	-25.3699	107.0473	
20:57:05	47.0742	-122.5805	159.205	158.7187	-997.1509	54.83	40	100	0	61	26.29993	-30.19905	98.33025	
20:57:06	47.07368	-122.5797	161.961	152.8067	-1447.455	47.39	40	100	0	62	122.8251	-26.94	12.52285	
20:57:08	47.07362	-122.5789	155.651	146.6429	1006.191	37.8	40	100	0	61	-63.35434	26.31363	-16.14478	
20:57:10	47.07402	-122.579	203.905	188.9915	1206.331	34.3	34.82495	100	0	61	-45.27409	36.68386	31.29422	
20:57:11	47.07435	-122.5789	230.869	224.8648	870.2098	15.68	16.25035	100	0	61	85.41344	61.44107	-14.371	
20:57:13	47.07423	-122.5789	233.841	239.1513	1572.604	15	14.72621	100	0	53	63.24829	-6.981334	98.72995	
20:57:15	47.07392	-122.5789	251.457	258.229	1274.844	31.72	26.98705	100	0	99	86.95853	-36.75234	-151.5529	
20:57:17	47.07362	-122.5793	274.265	275.8438	1502.947	36.49	28.00454	100	0	100	63.34917	-44.93396	-130.2127	
20:57:18	47.0734	-122.5794	281.273	259.16	-3755.427	33.78	40	100	0	97	-105.6019	-23.94041	111.7174	
20:57:20	47.07342	-122.5793	291.881	283.6267	2000.981	34.14	32.01519	100	0	97	-43.30206	20.73875	128.7404	
20:57:22	47.07337	-122.5795	345.846	339.918	1610.317	37.39	38.72403	100	0	97	-129.5922	60.67416	48.24145	
20:57:23	47.07389	-122.5799	390.228	381.0074	3648.247	26.89	36.17691	100	0	97	48.3685	44.46065	13.62327	
20:57:25	47.07388	-122.5797	457.687	456.5941	3692.88	28.61	27.32708	100	0	98	-73.52655	2.490898	0.8946292	
20:57:27	47.07391	-122.5802	489.648	494.0951	-20.37771	45.51	40	100	0	99	156.4402	56.94	88.49657	
20:57:29	47.07371	-122.5797	470.846	462.2437	-2217.976	51.78	40	100	0	98	71.59385	-11.44033	-151.7228	
20:57:30	47.07374	-122.5806	484.38	474.2326	1964.146	50.84	40	100	0	98	26.94761	-18.01068	21.30508	
20:57:32	47.074	-122.5804	558.854	553.2732	4154.229	31.82	27.289	100	0	98	105.2933	51.62062	65.85353	
20:57:34	47.07362	-122.5797	570.902	573.8005	-2112.817	50.44	40	100	0	98	-120.3392	10.91702	58.57878	
20:57:35	47.07411	-122.5793	561.897	572.2604	3137.21	24.39	36.50384	100	0	98	66.12787	36.033	93.73952	
20:57:37	47.07392	-122.579	620.502	606.0041	2260.373	37.95	38.88246	100	0	98	49.09849	-19.86234	-146.4304	
20:57:39	47.07375	-122.5783	666.174	657.6045	575.9623	30.06	35.31325	100	0	98	134.8148	22.94324	-113.6334	
20:57:41	47.07386	-122.5782	653.558	649.6301	-1784.699	31.88	32.40509	100	0	98	149.9269	14.59773	-132.818	
20:57:42	47.07395	-122.5786	618.634	643.9981	4578.162	43.19	40	100	0	98	-43.19327	54.71196	-134.1158	
20:57:44	47.07402	-122.5784	650.036	646.6555	-134.3467	20.62	22.01882	100	0	98	-55.4616	7.535261	-73.87284	
20:57:46	47.07392	-122.5785	635.54	630.6616	-2165.18	25.92	11.29028	100	0	98	-95.37366	49.11652	-122.3571	
20:57:47	47.07375	-122.5781	654.435	632.6437	533.5545	10.14	13.69536	100	0	99	97.54852	-11.60429	150.4405	
20:57:49	47.07337	-122.5783	644.553	644.8508	-2944.771	16.21	16.4651	100	0	66	108.6176	-21.82138	-17.72959	
20:57:51	47.07344	-122.5777	647.517	628.2098	541.8757	11.81	9.175438	100	0	66	76.93017	-6.210208	139.0465	
20:57:53	47.07309	-122.5778	689.676	674.4779	2365.098	39.17	37.75203	100	0	67	37.16749	-22.66865	23.72412	
20:57:54	47.07323	-122.5783	666.885	687.4832	-787.1904	33.71	35.2266	100	0	66	-111.2857	-52.95341	-143.6883	
20:57:56	47.07358	-122.5783	689.003	691.8828	3064.453	23.81	24.13483	100	0	66	-50.58988	-13.22843	-67.82064	
20:57:58	47.07344	-122.5788	677.006	696.1817	660.9889	38.9	30.72193	100	0	67	-80.88375	66.25564	-104.7893	
20:57:59	47.07314	-122.579	708.579	683.8577	330.1668	17.42	19.08661	100	0	66	-47.90332	-34.00067	54.79518	
20:58:01	47.07342	-122.5795	706.334	720.7098	647.5395	41.46	40	100	0	62	110.6615	68.2979	110.5349	
20:58:03	47.07309	-122.5794	738.735	699.4529	-3766.224	35.11	34.61662	100	0	61	148.21	-71.78551	-112.9745	
20:58:05	47.07349	-122.5794	726.027	741.0407	3606.829	43.26	40	100	0	55	-95.98428	66.65429	-81.67713	
20:58:06	47.07323	-122.5797	745.792	743.7949	589.2762	35.91	37.31538	100	0	60	-61.26565	36.0583	109.1786	
20:58:08	47.07346	-122.5791	747.451	754.32	396.6046	34	34.47771	100	0	63	-120.6406	-58.42697	-18.35594	
20:58:10	47.07326	-122.5796	754.668	762.2725	3174.903	38.3	37.99923	100	0	55	-11.72052	-2.082594	160.745	
20:58:11	47.07304	-122.5793	784.164	802.3786	4060.554	22.96	11.76941	100	0	54	-30.3608	54.0688	-127.7019	
20:58:13	47.07265	-122.579	820.674	836.7551	2458.169	40.48	35.66126	100	0	55	-92.71317	38.73939	169.3441	
20:58:15	47.07219	-122.5782	835.173	847.5941	2380.057	36.3	28.97336	100	0	54	101.5862	60.10992	-147.1119	
20:58:17	47.072	-122.5782	894.033	871.4645	461.0381	8.22	14.23622	100	0	54	31.07346	54.96531	120.6482	
20:58:18	47.07188	-122.5785	933.297	922.1215	2493.357	29.09	30.53305	100	0	55	12.07253	-20.26799	34.05216	
20:58:20	47.07173	-122.5784	968.697	965.028	-619.5826	36.1	32.88296	100	0	54	-169.7	7.419285	-134.7446	
20:58:22	47.0718	-122.5783	916.784	936.6367	2002.946	45.3	40	100	0	55	-7.938395	0.4453929	-28.73829	
20:58:23	47.07197	-122.5786	952.948	962.7673	628.543	29.5	26.13968	100	0	54	-175.8581	21.97162	138.0632	
20:58:25	47.07175	-122.5787	910.847	920.0966	-902.2964	37.2	32.28557	100	0	54	-41.61808	-11.88562	-11.22565	
20:58:27	47.07197	-122.5791	942.889	944.9579	2863.266	24.02	13.16736	100	0	54	-122.2386	67.33761	-173.8141	
20:58:29	47.07154	-122.5787	950.189	965.3287	1828.678	44.27	40	100	0	55	-59.07781	20.87066	125.1036	
20:58:30	47.07164	-122.5777	944.305	968.6174	2724.489	50.69	40	100	0	55	-51.82463	38.54332	48.26602	
20:58:32	47.07217	-122.5773	1005.631	996.0346	2059.928	19.84	24.0355	100	0	54	-74.87866	58.27305	-37.7035	
20:58:34	47.07193	-122.5777	1068.343	1053.87	3209.574	37.07	33.74396	100	0	54	-38.86306	38.71274	-138.4339	
20:58:35	47.0716	-122.5773	1113.02	1122.746	4773.23	18.66	16.67448	100	0	54	0.2852098	68.0556	80.9171	
20:58:37	47.07134	-122.5773	1172.594	1181.722	4171.476	30.44	25.08004	100	0	54	-7.085512	49.89767	130.0535	
20:58:39	47.07091	-122.5771	1234.467	1237.534	3560.748	36.71	27.64674	100	0	54	-18.02318	44.43866	149.0405	
20:58:41	47.07043	-122.5769	1282.768	1284.568	2484.192	43.32	29.96982	100	0	55	-47.52779	50.05995	-176.1137	
20:58:42	47.06991	-122.5766	1317.791	1320.891	1705.908	38.61	21.04269	100	0	54	-90.69381	63.3189	-98.52286	
20:58:44	47.06924	-122.5767	1318.537	1310.177	-4475.972	38.06	14.39935	100	0	54	-145.3856	28.71856	-70.86349	
20:58:46	47.06871	-122.5768	1255.213	1257.809	-4225.858	29.18	12.2334	100	0	55	159.5075	4.873044	-78.08575	
20:58:47	47.06838	-122.577	1215.404	1217.551	1422.956	30.83	16.55632	100	0	55	16.02619	-42.72879	44.48221	
20:58:49	47.06839	-122.5767	1198.458	1203.019	-2227.631	19.49	35.02017	100	0	55	79.56889	63.77235	107.224	
20:58:51	47.06809	-122.5769	1196.707	1203.068	1157.832	28.97	16.98287	100	0	54	101.7009	-81.41787	74.79848	
20:58:53	47.06756	-122.5772	1185.543	1180.54	-3958.924	36.56	24.19408	100	0	54	176.5123	-10.09019	-125.7222	
20:58:54	47.06711	-122.5773	1119.318	1111.027	-3845.113	51	32.74563	100	0	54	71.61179	-32.91269	-160.9647	
20:58:56	47.06649	-122.5779	1034.482	1041.978	-5923.946	16	8.872135	100	0	54	141.5705	-60.32416	-16.21078	
20:58:58	47.06604	-122.5777	952.545	946.2559	-4401.465	63.77	40	100	0	55	44.08373	-49.94668	-163.9651	
20:58:59	47.06512	-122.5788	937.43	927.879	-33.93415	66.87	40	100	0	54	78.47013	-17.10341	-91.1433	
20:59:01	47.06553	-122.5797	904.861	919.1094	-1910.428	48.45	40	100	0	55	106.0174	-28.4245	-0.899855	
20:59:03	47.06574	-122.5794	806.062	824.3834	-4977.021	47.31	40	100	0	54	84.78642	-40.67685	123.9068	
20:59:05	47.06475	-122.5794	764.472	740.8583	-3926.46	68.32	40	100	0	54	67.65289	-30.48466	-119.6759	
20:59:06	47.06445	-122.5806	795.98	771.989	1223.588	49.16	40	100	0	54	25.36292	-31.80782	-94.08463	
20:59:08	47.06454	-122.5816	843.583	835.981	2099.826	40.6	40	100	0	54	113.017	-15.5698	-142.3868	
20:59:10	47.06463	-122.5822	882.453	884.3897	4855.626	1.56	15.93641	100	0	55	18.66323	37.86385	-102.3129	
20:59:11	47.065	-122.5823	923.147	932.3651	1796.789	40.34	37.91132	100	0	54	-90.04973	40.67924	-25.00953	
20:59:13	47.06511	-122.583	966.633	959.6611	1748.688	11.06	7.185122	100	0	55	-155.2213	52.44584	105.3443	
20:59:15	47.06496	-122.5828	952.402	945.6565	-1333.74	32.46	29.04559	100	0	54	45.96669	68.27737	-23.14935	
20:59:17	47.06501	-122.5825	951.472	957.0707	-872.8616	26.43	31.93222	100	0	54	-146.2584	-11.70825	23.2346	
20:59:18	47.06518	-122.5828	893.933	918.0527	60.41082	41.46	39.04151	100	0	54	-4.899496	-22.35151	-82.76311	
20:59:20	47.06525	-122.584	850.992	874.8769	-374.088	56.77	40	100	0	54	-30.73477	-15.5247	-30.32266	
20:59:22	47.06553	-122.5852	829.903	835.0431	-1520.536	49.64	40	100	0	55	-41.9783	-51.28029	-64.34139	
20:59:23	47.06573	-122.5864	816.799	813.7612	-729.8726	52.34	40	100	0	54	-24.60818	-33.52277	-48.78131	
20:59:25	47.06603	-122.5873	812.039	814.3757	2768.444	46.11	40	100	0	55	-47.48347	-9.894485	-114.2605	
20:59:27	47.06589	-122.5876	856.614	861.9371	3959.98	11.51	15.32723	100	0	54	38.14787	60.82397	-152.1175	
20:59:29	47.06609	-122.5877	896.101	900.6879	2613.95	27.71	25.89002	100	0	54	-27.03169	52.68455	-55.4635	
20:59:30	47.06598	-122.5879	949.523	947.3597	2655.907	10.64	13.03943	100	0	54	45.47919	83.32864	-159.6182	
20:59:32	47.06629	-122.5882	993.612	988.4219	2213.585	35.31	32.91244	100	0	54	-38.17545	43.67271	-64.96981	
20:59:34	47.06619	-122.5887	1054.574	1039.25	2736.971	7.44	4.376553	100	0	42	24.89085	71.66247	-150.4582	
20:59:35	47.06644	-122.589	1095.052	1090.054	2304.597	33.17	29.96785	100	0	42	-20.95902	52.24633	-30.00602	
20:59:37	47.06649	-122.5895	1142.614	1135.416	2094.151	19.38	12.60317	100	0	42	87.83492	70.58444	-95.38387	
20:59:39	47.06686	-122.5901	1163.82	1163.36	1301.96	41.28	35.40859	100	0	42	-21.34969	41.23388	-37.36987	
20:59:41	47.067	-122.5908	1193.472	1189.35	1021.695	31.66	26.52096	100	0	42	105.8025	62.09741	-49.03497	
20:59:47	47.0676	-122.5912	1198.501	1194.709	-1706.796	40.61	35.70113	100	0	42	-75.58409	21.8991	-20.09181	
20:59:47	47.06783	-122.5921	1166.303	1177.548	491.3224	55.9	40	100	0	42	4.981491	39.47969	-64.16661	
20:59:47	47.06825	-122.5931	1182.818	1171.451	-1781.692	51.21	40	100	0	42	144.7703	45.87937	-9.310569	
20:59:47	47.069	-122.5932	1158.906	1151.402	-5092.159	35.29	33.04728	96	0	42	-136.5543	-15.22719	-10.22574	
20:59:49	47.06917	-122.5936	1065.19	1067.538	-3263.319	45.36	40	96	0	42	-25.24936	-19.72143	-69.7775	
20:59:51	47.06931	-122.595	1014.895	1028.866	432.0349	66.81	40	96	0	42	52.33723	15.74935	-55.53485	
20:59:53	47.07019	-122.5957	1011.649	1002.869	-3919.965	59.54	40	97	0	42	136.8771	0.5673243	2.530141	
20:59:54	47.07072	-122.5953	939.076	924.895	-7768.648	13.95	17.05431	97	0	42	179.1727	-74.44874	44.91041	
20:59:56	47.07051	-122.5957	850.926	860.717	756.9085	32.01	36.21562	97	0	42	74.74463	-26.37418	-141.9799	
20:59:58	47.07055	-122.5964	856.378	844.416	-3624.778	34.02	28.3217	97	0	42	-139.5246	1.712201	-60.04426	
21:00:00	47.07056	-122.5972	825.605	831.4629	206.8775	28.06	23.60658	97	0	42	63.67374	-25.11943	-37.26451	
21:00:01	47.07094	-122.597	838.646	845.8446	885.2549	30.55	36.08543	97	0	42	121.4267	25.62144	20.29985	
21:00:03	47.07117	-122.5962	822.333	824.1293	-1670.763	36.68	38.73182	98	0	42	-46.07468	-10.04559	34.52026	
21:00:05	47.07186	-122.5958	798.353	810.6328	1323.536	52.86	40	98	0	42	54.96107	29.31535	24.88112	
21:00:06	47.0722	-122.5947	813.022	800.3289	-3280.648	51.81	40	98	0	41	160.9744	9.728333	82.11536	
21:00:08	47.07203	-122.594	760.651	749.1115	-5569.986	14.13	21.92615	98	0	42	-74.46549	-70.56989	37.13969	
21:00:10	47.07251	-122.5939	662.54	686.5093	-1334.637	56.53	40	98	0	42	26.25098	-28.03702	4.480975	
21:00:12	47.07333	-122.5934	626.358	636.1307	-1526.163	66.7	40	98	0	42	87.69419	-14.42196	37.32347	
21:00:13	47.07357	-122.592	613.407	596.5735	-4058.151	59.52	40	98	0	42	118.9551	-43.20117	105.7438	
21:00:15	47.07307	-122.5914	522.016	535.796	-4464.796	22.21	24.34781	98	0	42	92.04064	-54.76313	-142.3109	
21:00:17	47.07317	-122.5917	409.473	423.5686	-6453.188	35.17	33.55026	98	0	42	117.0191	-48.37468	-63.02059	
21:00:18	47.07371	-122.5914	301.938	292.6831	-8244.6	43.85	40	98	0	42	130.4516	-67.17191	28.70758	
21:00:20	47.07363	-122.5907	191.369	181.408	-7009.128	24.02	25.55131	99	0	42	101.1362	-65.01409	178.8487	
21:00:22	47.0736	-122.5909	47.346	61.14955	-7276.149	28.2	26.73164	99	0	42	109.431	-69.24198	-59.33564	
21:00:24	47.07378	-122.591	3.613	-38.18494	-6112.223	35.85	33.75203	99	0	42	107.8055	-65.73051	50.99069	
21:00:25	47.07378	-122.591	3.613	-31.24088	-1845.296	35.85	33.75203	99	0	5	111.9295	-62.27657	156.9925	
21:00:27	47.07121	-122.5781	-0.142	-13.08895	-557.8328	1.08	3	99	0	74	131.1873	72.99802	63.89886	
21:00:29	47.07121	-122.5781	-0.083	-3.108072	34.78559	0	3	99	0	94	-96.12826	75.97942	-159.4333	
21:00:30	47.07121	-122.5781	-0.083	-0.6039182	-32.77301	0	3	99	0	33	-101.2501	78.25999	-123.1022	
21:00:32	47.07121	-122.5781	-0.083	-1.788181	-330.5598	0	3	99	0	5	54.40809	67.7627	65.50408	
21:00:34	47.07121	-122.5781	-0.083	-6.021286	-951.5248	0.01	3	99	0	5	35.87815	26.90433	78.66708	
21:00:36	47.07121	-122.5781	-0.083	-13.03933	-1666.882	0	3	99	0	5	14.67493	-16.47983	101.8149	
21:00:37	47.07121	-122.5781	-0.083	-15.70718	-1393.408	0	3	99	0	5	-57.5405	-53.25011	152.4037	
21:00:39	47.07121	-122.5781	-0.083	-5.027234	507.9275	0	3	99	0	5	-145.5867	-6.029006	-160.7578	
21:00:41	47.07121	-122.5781	0.018	3.324076	555.2222	5.94	5.309773	99	0	92	-100.7999	-2.603692	129.9546	
21:00:42	47.07121	-122.5781	-0.042	6.871004	796.0858	0.54	3	99	0	93	94.67653	-69.55335	-131.9804	
21:00:44	47.07121	-122.5781	-0.083	9.809026	1298.677	0.01	3	99	0	40	161.5405	-18.84733	97.7637	
21:00:46	47.07121	-122.5781	-0.083	13.91269	1437.314	0.01	3	99	0	5	122.7477	-8.503438	5.998179	
21:00:48	47.07121	-122.5781	-0.083	10.60571	733.0958	0.01	3	99	0	5	113.5336	-32.57136	-79.65469	
21:00:49	47.07121	-122.5781	-0.083	5.786881	428.2627	0.01	3	99	0	5	128.5044	-31.78858	175.6281	
21:00:51	47.07121	-122.5781	-0.083	4.769985	461.4593	0	3	99	0	5	118.1675	7.331233	156.0176	
21:00:53	47.07121	-122.5781	-0.083	2.714855	35.53876	0	3	99	0	5	94.34053	47.30613	141.4318	
21:00:54	47.07121	-122.5781	-0.083	-3.079625	-679.3089	0	3	99	0	5	19.34019	74.21872	84.41681	
21:00:56	47.0712	-122.5781	0.025	-7.579462	-660.7737	0	3	99	0	5	-28.47437	50.98169	45.84805	
21:00:58	47.07121	-122.5781	0.043	0.9331068	606.1987	0.97	3	99	0	5	-131.8921	-74.94171	-52.46829	
21:01:00	47.07121	-122.5781	0.043	8.710073	1198.335	0.84	3	99	0	5	-0.897293	-50.71753	143.9003	
21:01:01	47.07121	-122.5781	0.042	10.96155	1084.226	0.91	3	99	0	5	9.637759	-54.39488	85.83863	
21:01:03	47.0712	-122.5781	0.043	9.665838	865.9898	0.93	3	99	0	5	21.9333	-58.25855	11.59535	
21:01:05	47.07121	-122.5781	0.043	7.852874	677.76	1.03	3	99	0	5	30.85941	-61.37712	-38.2511	
21:01:06	47.07121	-122.5781	0.043	6.308754	532.6852	0.98	3	99	0	5	42.43136	-60.67131	-101.538	
21:01:08	47.07121	-122.5781	0.042	5.69528	588.4467	0.85	3	99	0	5	19.95868	-50.7867	-124.1333	
21:01:10	47.07121	-122.5781	0.042	6.083182	616.6908	0.86	3	99	0	5	10.72693	-51.92982	-157.3489	
21:01:12	47.07121	-122.5781	0.042	5.937932	562.1872	0.85	3	99	0	5	6.510114	-51.87943	165.6311	
21:01:13	47.07121	-122.5781	0.031	5.102953	433.603	0.74	3	99	0	5	42.02388	-67.47678	83.95831	
21:01:15	47.07121	-122.5781	-0.075	4.043011	369.967	0.08	3	99	0	31	-168.2305	8.190861	146.3812	
21:01:17	47.07121	-122.5781	-0.083	2.306677	57.5826	0	3	99	0	31	-140.9147	31.91428	152.5551	
21:01:18	47.07121	-122.5781	-0.083	-2.233827	-549.6839	0	3	99	0	86	-115.2225	44.31823	165.3022	
21:01:20	47.07121	-122.5781	-0.083	-8.446455	-1211.446	0	3	99	0	5	-84.31017	48.8628	-174.6622	
21:01:22	47.07121	-122.5781	-0.083	-14.73518	-1822.407	0	3	99	0	5	-58.05575	23.39631	-162.5134	
21:01:24	47.07121	-122.5781	-0.083	-20.1285	-2242.131	0	3	99	0	6	-42.12261	-23.29609	-167.5442	
21:01:25	47.07121	-122.5781	-0.083	-21.11716	-1922.81	0	3	99	0	5	3.167504	-72.56145	166.6718	
21:01:27	47.07121	-122.5781	-0.083	-12.47248	-441.1637	0	3	99	0	5	145.8046	-44.32399	56.65557	
21:01:29	47.0712	-122.5781	0.019	1.051111	218.8327	0	3	99	0	5	170.8284	-4.320087	74.23282	
21:01:30	47.0712	-122.5781	0.02	-7.314291	-1469.827	0	3	99	0	5	168.2499	-6.689306	71.64508	
21:01:32	47.07121	-122.5781	0.02	-17.18669	-2052.583	0.32	3	99	0	5	164.1145	-9.454922	71.12756	
21:01:34	47.07121	-122.5781	0.021	-18.9229	-1805.633	0.94	3	99	0	6	157.7202	-10.51802	77.41833	
21:01:36	47.07123	-122.5781	0.021	-15.55592	-1297.479	1.56	3	99	0	5	148.3	-11.03972	85.39275	
21:01:37	47.07126	-122.5781	0.021	-10.74722	-785.9628	2.17	3	99	0	5	134.6724	-11.07383	92.85572	
21:01:39	47.07129	-122.5781	0.021	-5.566474	-247.1026	2.65	3	99	0	5	116.9526	-8.903864	100.3607	
21:01:41	47.07132	-122.5782	0.02	0.1974119	371.6832	3.07	3.089319	99	0	5	96.59454	-3.828518	106.3699	
21:01:42	47.07135	-122.5783	0.02	6.494637	1042.892	3.53	3.427219	99	0	5	72.64882	3.873212	108.4524	
21:01:44	47.07138	-122.5783	0.021	12.72655	1575.972	3.81	3.669402	99	0	5	47.89964	-5.685427	117.0212	
21:01:46	47.07144	-122.5784	0.021	16.94944	1883.789	4.12	3.525124	99	0	16	22.15765	-15.62912	141.3737	
21:01:48	47.0715	-122.5784	0.021	19.24324	1990.345	5.3	4.808301	99	0	16	7.578575	-6.722687	139.2117	
21:01:49	47.07159	-122.5784	0.021	19.12154	1830.784	6.34	5.721432	99	0	5	-4.182164	0.9991637	140.8324	
21:01:51	47.0717	-122.5784	0.022	16.93313	1518.263	7.23	6.639853	99	0	5	-15.64829	2.423886	143.8599	
