Date	Latitude(deg) 	Longitude(deg)	hamsl(m)	hafl(m)	climbrate(cm/s)	GroundSpeed(m/s)	Airspeed(m/s)	Mav_Link(%)	Rssi_Link(%)	Throttle	Roll(deg)	Pitch(deg)	Yaw(deg)
20:03:44	0	0	0	-1.956693	-58.01345	0	3	30	0	5	1.048622	-0.6216351	-72.46074	
20:03:45	0	0	0	-1.582252	-32.59418	0	3	40	0	5	1.039281	-0.6602231	-72.51139	
20:03:47	0	0	0	-1.556176	-33.71749	0	3	48	0	5	1.015945	-0.6900036	-72.47787	
20:03:49	0	0	0	-1.573074	-32.53176	0	3	54	0	5	0.975692	-0.7068664	-72.45375	
20:03:50	0	0	0	-1.825946	-37.3948	0	3	59	0	5	0.9835002	-0.6417396	-72.41708	
20:03:52	0	0	0	-1.690979	-23.65977	0	3	64	0	5	0.9946663	-0.5886075	-72.40884	
20:03:54	0	0	0	-1.325709	-6.011436	0	3	67	0	5	0.9786208	-0.6713461	-72.45302	
20:03:56	0	0	0	-1.146601	-6.814384	0	3	71	0	5	0.9754259	-0.618931	-72.45481	
20:03:57	0	0	0	-1.262438	-16.05929	0	3	74	0	5	1.013229	-0.5257352	-72.48373	
20:03:59	0	0	0	-1.615391	-25.44102	0	3	76	0	5	0.9793121	-0.6359705	-72.49413	
20:04:01	0	0	0	-1.670301	-18.51693	0	3	78	0	5	0.977499	-0.5746024	-72.49397	
20:04:02	0	0	0	-1.40151	-0.3878021	0	3	80	0	5	0.9922056	-0.5904696	-72.51667	
20:04:04	0	0	0	-1.384954	-2.306984	0	3	82	0	5	0.9554269	-0.7119934	-72.5524	
20:04:06	0	0	0	-1.539413	-11.5991	0	3	84	0	5	0.8732522	-0.6883439	-72.54192	
20:04:07	0	0	0	-1.670567	-13.86521	0	3	85	0	5	0.9047918	-0.811607	-72.50063	
20:04:09	0	0	0	-1.344291	4.230712	0	3	86	0	5	0.896649	-0.8261806	-72.44271	
20:04:11	0	0	0	-1.157904	7.914552	0	3	87	0	5	0.900716	-0.755927	-72.44328	
20:04:12	0	0	0	-1.326342	-0.8537211	0	3	88	0	5	0.9236276	-0.7025523	-72.4361	
20:04:14	0	0	0	-1.233503	4.297807	0	3	89	0	5	0.9313212	-0.6763883	-72.41402	
20:04:16	0	0	0	-1.030788	6.70607	0	3	90	0	5	0.9346638	-0.6491642	-72.44167	
20:04:17	0	0	0	-1.06199	0.1858881	0	3	91	0	5	0.9710019	-0.5821758	-72.41659	
20:04:19	0	0	0	-1.140241	-3.270548	0	3	92	0	5	0.9868923	-0.4632005	-72.40952	
20:04:21	0	0	0	-0.9950945	4.570862	0	3	92	0	5	1.033986	-0.4995615	-72.39992	
20:04:23	0	0	0	-1.118747	-4.30082	0	3	93	0	5	1.051046	-0.3873884	-72.41297	
20:04:24	0	0	0	-1.194503	-3.849672	0	3	93	0	5	0.9974779	-0.4494095	-72.48056	
20:04:26	0	0	0	-1.144993	-0.6053696	0	3	94	0	5	0.9850737	-0.4261301	-72.5177	
20:04:28	0	0	0	-1.170337	-1.18341	0	3	94	0	5	1.031856	-0.4230644	-72.52911	
20:04:29	0	0	0	-1.372092	-8.19578	0	3	95	0	5	1.07903	-0.4837528	-72.57723	
20:04:31	0	0	0	-1.130744	1.544302	0	3	95	0	5	1.059311	-0.6063611	-72.61316	
20:04:33	0	0	0	-1.315737	-4.372599	0	3	95	0	5	1.042665	-0.6231769	-72.58633	
20:04:34	0	0	0	-1.255496	0.4018878	0	3	96	0	5	1.055967	-0.6281563	-72.53465	
20:04:36	0	0	0	-1.114033	3.999103	0	3	96	0	5	1.040974	-0.5875558	-72.53695	
20:04:38	0	0	0	-0.9426112	8.803172	0	3	96	0	6	0.998799	-0.6957643	-72.56718	
20:04:39	0	0	0	-0.9754288	2.620273	0	3	97	0	5	0.9717814	-0.6551629	-72.51203	
20:04:41	0	0	0	-1.34783	-14.0578	0	3	97	0	5	0.9368504	-0.6383838	-72.48167	
20:04:43	0	0	0	-1.262472	-1.863907	0	3	97	0	5	0.9634371	-0.7002985	-72.46915	
20:04:45	0	0	0	-1.351211	-3.16932	0	3	97	0	5	0.9875686	-0.7031172	-72.51344	
20:04:46	0	0	0	-1.227465	2.260763	0	3	97	0	5	0.9774968	-0.7598675	-72.45647	
20:04:48	0	0	0	-1.069907	5.382349	0	3	97	0	5	0.9518455	-0.7316167	-72.44891	
20:04:50	0	0	0	-0.9086587	8.670293	0	3	98	0	5	0.917361	-0.7841511	-72.44482	
20:04:51	0	0	0	-1.166039	-9.140127	0	3	98	0	5	0.9537492	-0.7361433	-72.41998	
20:04:53	0	0	0	-1.202602	-4.327315	0	3	98	0	5	0.9369105	-0.7990867	-72.41605	
20:04:55	0	0	0	-1.308558	-7.975467	0	3	98	0	5	0.881912	-0.721418	-72.37712	
20:04:56	0	0	0	-1.391919	-4.937297	0	3	98	0	5	0.8669999	-0.7894078	-72.36139	
20:04:58	0	0	0	-1.09866	10.97329	0	3	98	0	5	0.8748968	-0.6807023	-72.34306	
20:05:00	0	0	0	-1.290177	-3.14969	0	3	98	0	5	0.876307	-0.5902004	-72.36903	
20:05:01	0	0	0	-1.170706	5.153398	0	3	98	0	5	0.8694586	-0.5418443	-72.39021	
20:05:03	0	0	0	-1.104713	6.678248	0	3	98	0	5	0.930377	-0.4770935	-72.35214	
20:05:05	0	0	0	-0.9617259	7.655135	0	3	99	0	5	0.9410136	-0.4378588	-72.36909	
20:05:07	0	0	0	-1.140072	-6.146419	0	3	99	0	5	0.923062	-0.4897858	-72.37826	
20:05:08	0	0	0	-1.347942	-10.00567	0	3	99	0	5	0.9303861	-0.5307949	-72.4163	
20:05:10	0	0	0	-1.374852	-5.389686	0	3	99	0	5	0.9914845	-0.5505884	-72.46073	
20:05:12	0	0	0	-1.310773	-0.4813177	0	3	99	0	5	1.004186	-0.5810285	-72.47868	
20:05:13	0	0	0	-1.074284	8.624368	0	3	99	0	5	1.022989	-0.5549203	-72.47555	
20:05:15	0	0	0	-1.196762	-2.852432	0	3	99	0	5	1.043438	-0.5131211	-72.50875	
20:05:17	0	0	0	-1.373313	-7.023656	0	3	99	0	5	0.9762582	-0.5790573	-72.51968	
20:05:18	0	0	0	-1.194055	1.825155	0	3	99	0	5	0.9647948	-0.5121145	-72.53079	
20:05:20	0	0	0	-1.587914	-14.21877	0	3	99	0	5	1.036794	-0.5696536	-72.54539	
20:05:22	0	0	0	-1.326721	2.5638	0	3	99	0	5	1.039526	-0.6218217	-72.51966	
20:05:23	0	0	0	-1.373272	0.1095844	0	3	99	0	5	0.9915972	-0.5932914	-72.49352	
20:05:25	0	0	0	-1.164928	8.232537	0	3	99	0	5	0.975143	-0.6779335	-72.47306	
20:05:27	0	0	0	-1.096473	3.781508	0	3	99	0	5	0.9756523	-0.7138381	-72.42043	
20:05:28	0	0	0	-1.006094	4.349347	0	3	99	0	5	0.9620292	-0.6999823	-72.45873	
20:05:30	0	0	0	-1.312858	-7.638432	0	3	99	0	5	0.9213883	-0.6909507	-72.48049	
20:05:32	0	0	0	-1.51914	-13.77835	0	3	99	0	5	0.9556656	-0.6870102	-72.44611	
20:05:34	0	0	0	-1.541746	-4.983702	0	3	99	0	5	0.9517726	-0.6756738	-72.41779	
20:05:35	0	0	0	-1.273188	9.856883	0	3	99	0	5	1.003148	-0.5566685	-72.43022	
20:05:37	0	0	0	-1.321126	3.666815	0	3	99	0	5	1.022583	-0.5275197	-72.46379	
20:05:39	0	0	0	-1.600869	-8.920139	0	3	99	0	5	0.9823357	-0.5000638	-72.4765	
20:05:40	0	0	0	-1.466045	-1.707893	0	3	99	0	5	0.9996384	-0.4469451	-72.48678	
20:05:42	0	0	0	-1.274311	9.581271	0	3	99	0	5	0.9455907	-0.4530604	-72.46995	
20:05:44	0	0	0	-1.16766	6.296604	0	3	99	0	5	0.948356	-0.4275651	-72.46196	
20:05:45	0	0	0	-1.278443	-2.640474	0	3	99	0	5	0.9822369	-0.4627828	-72.46957	
20:05:47	0	0	0	-1.604115	-10.26378	0	3	99	0	5	0.9835843	-0.5372095	-72.45414	
20:05:49	0	0	0	-1.322672	5.832279	0	3	99	0	5	0.9464864	-0.5925768	-72.45013	
20:05:50	0	0	0	-1.148959	6.686212	0	3	99	0	5	0.935716	-0.6686614	-72.46981	
20:05:52	0	0	0	-1.031649	7.823776	0	3	99	0	5	0.990455	-0.6114247	-72.44379	
20:05:54	0	0	0	-1.347379	-8.57648	0	3	99	0	5	0.978848	-0.5689092	-72.41246	
20:05:56	0	0	0	-1.375001	-4.457042	0	3	99	0	5	0.9191078	-0.6457382	-72.41872	
20:05:57	0	0	0	-1.38101	-1.462252	0	3	99	0	5	0.9933445	-0.7019852	-72.41109	
20:05:59	0	0	0	-1.273564	3.848986	0	3	99	0	5	1.05179	-0.6727608	-72.37476	
20:06:01	0	0	0	-1.059222	9.333072	0	3	99	0	5	1.044843	-0.6516954	-72.4173	
20:06:02	0	0	0	-0.9463913	8.436881	0	3	99	0	5	1.050497	-0.6828251	-72.44335	
20:06:04	0	0	0	-1.378197	-12.53296	0	3	99	0	5	1.026951	-0.7096869	-72.40698	
20:06:06	0	0	0	-1.354502	-5.072694	0	3	99	0	5	1.052579	-0.7412519	-72.45937	
20:06:07	0	0	0	-1.375694	-3.323707	0	3	99	0	5	1.014376	-0.6411436	-72.4401	
20:06:09	0	0	0	-1.560986	-9.317897	0	3	99	0	5	0.9912118	-0.6706771	-72.42623	
20:06:11	0	0	0	-1.236339	9.61022	0	3	99	0	4	0.9771631	-0.6746297	-72.43362	
20:06:12	0	0	0	-1.096883	10.00203	0	3	99	0	5	0.9986859	-0.6505628	-72.39797	
20:06:14	0	0	0	-1.136226	3.996672	0	3	99	0	5	0.9767901	-0.7175891	-72.38944	
20:06:16	0	0	0	-0.7233087	16.29152	0	3	99	0	5	0.9820315	-0.7383322	-72.423	
20:06:17	0	0	0	-1.305996	-12.34466	0	3	99	0	5	0.9878503	-0.7019634	-72.44088	
20:06:19	0	0	0	-1.145239	-1.929578	0	3	99	0	5	0.9485121	-0.7427781	-72.44155	
20:06:21	0	0	0	-1.165098	-1.749481	0	3	99	0	5	0.9801466	-0.7085488	-72.44769	
20:06:23	0	0	0	-0.843938	12.54105	0	3	99	0	5	0.9565117	-0.7346194	-72.44474	
20:06:24	0	0	0	-0.9531212	-0.3148204	0	3	99	0	5	0.9370738	-0.7356373	-72.47792	
20:06:26	0	0	0	-1.543364	-24.78353	0	3	99	0	5	0.8990365	-0.7546515	-72.42048	
20:06:28	0	0	0	-1.425834	-4.378252	0	3	99	0	5	0.9071513	-0.7329766	-72.41811	
20:06:29	0	0	0	-0.8990383	18.51412	0	3	99	0	5	0.9085761	-0.6207268	-72.41123	
20:06:31	0	0	0	-1.012212	5.233601	0	3	99	0	5	0.9632958	-0.6098698	-72.39935	
20:06:33	0	0	0	-0.9088238	4.474607	0	3	99	0	5	0.9402063	-0.6531378	-72.38476	
20:06:34	0	0	0	-1.194111	-7.794597	0	3	99	0	5	0.978994	-0.5642787	-72.42823	
20:06:36	0	0	0	-1.348323	-4.048131	0	3	99	0	4	1.010225	-0.6082878	-72.49274	
20:06:38	0	0	0	-0.9892789	10.27959	0	3	99	0	5	0.9899876	-0.6505277	-72.47279	
20:06:39	0	0	0	-0.9398263	5.528907	0	3	99	0	20	0.9698284	-0.5731556	-72.50687	
20:06:41	0	0	0	-0.9953389	1.147227	0	3	99	0	5	0.9476619	-0.5506724	-72.49181	
20:06:43	0	0	0	-1.28372	-12.29858	0	3	99	0	5	0.9655237	-0.6058546	-72.50027	
20:06:45	0	0	0	-1.398958	-8.489325	0	3	99	0	5	0.9597467	-0.5631961	-72.50416	
20:06:46	0	0	0	-1.093273	9.56201	0	3	99	0	5	0.9553599	-0.5391707	-72.4852	
20:06:48	0	0	0	-1.36652	-5.366639	0	3	99	0	5	0.9735154	-0.5613967	-72.50672	
20:06:50	0	0	0	-1.211315	3.637207	0	3	99	0	5	0.9879543	-0.5929255	-72.49538	
20:06:51	0	0	0	-1.173773	1.774209	0	3	99	0	5	0.9396391	-0.5795091	-72.51227	
20:06:53	0	0	0	-1.277131	-3.497552	0	3	99	0	5	0.9387323	-0.6359517	-72.51475	
20:06:55	0	0	0	-1.344712	-1.919846	0	3	99	0	5	0.8869969	-0.8124899	-72.52618	
20:06:56	0	0	0	-1.17697	3.732261	0	3	99	0	5	0.8829988	-0.7112642	-72.47684	
20:06:58	0	0	0	-1.279782	-1.492878	0	3	99	0	5	0.9121144	-0.634496	-72.48008	
20:07:00	0	0	0	-1.504087	-7.415521	0	3	99	0	5	0.8830928	-0.6770257	-72.47781	
20:07:01	0	0	0	-1.490128	-2.631778	0	3	99	0	5	0.9375858	-0.6652568	-72.4687	
20:07:03	0	0	0	-1.299526	6.844196	0	3	99	0	5	0.8890941	-0.8008938	-72.47344	
20:07:05	0	0	0	-1.286127	6.029148	0	3	99	0	5	0.8599271	-0.779076	-72.44074	
20:07:06	0	0	0	-1.66723	-11.18507	0	3	99	0	5	0.9024364	-0.6597667	-72.41164	
20:07:08	0	0	0	-1.354091	9.105175	0	3	99	0	5	0.8835269	-0.59367	-72.41275	
20:07:10	0	0	0	-1.381795	2.739954	0	3	99	0	5	0.9131285	-0.553436	-72.41614	
20:07:12	0	0	0	-1.33484	1.081677	0	3	99	0	5	0.9591858	-0.6144724	-72.45798	
20:07:13	0	0	0	-1.612048	-10.70927	0	3	99	0	5	0.9683383	-0.5809522	-72.44171	
20:07:15	0	0	0	-1.375879	4.548727	0	3	99	0	5	0.9553657	-0.5175207	-72.46697	
20:07:17	0	0	0	-1.706686	-7.980996	0	3	99	0	4	0.9714337	-0.4950089	-72.49559	
20:07:18	0	0	0	-1.367397	10.05495	0	3	99	0	5	0.9674911	-0.5527429	-72.47878	
20:07:20	0	0	0	-1.436627	0.4927942	0	3	99	0	5	1.001322	-0.5981746	-72.45815	
20:07:22	0	0	0	-1.307594	6.52604	0	3	99	0	5	0.976831	-0.5250496	-72.45982	
20:07:23	0	0	0	-1.542977	-6.092571	0	3	99	0	5	0.9686756	-0.5251201	-72.52155	
20:07:25	0	0	0	-1.446482	3.01368	0	3	99	0	5	0.9695448	-0.6137701	-72.54581	
20:07:27	0	0	0	-1.263772	8.092164	0	3	99	0	5	0.9500099	-0.5591919	-72.55528	
20:07:28	0	0	0	-1.20202	7.252773	0	3	99	0	5	0.9079204	-0.5223842	-72.57878	
20:07:30	0	0	0	-1.203586	3.809909	0	3	99	0	5	0.9084625	-0.6064647	-72.55589	
20:07:32	0	0	0	-1.244908	-2.571509	0	3	99	0	5	0.8492175	-0.7565401	-72.53725	
20:07:34	0	0	0	-1.157099	5.290805	0	3	99	0	5	0.8466671	-0.7693246	-72.53462	
20:07:35	0	0	0	-1.259141	-2.817288	0	3	99	0	5	0.8837557	-0.7634751	-72.52162	
20:07:37	0	0	0	-1.332782	-3.266968	0	3	99	0	5	0.8923528	-0.7663658	-72.48139	
20:07:39	0	0	0	-1.444128	-6.982945	0	3	99	0	5	0.9000394	-0.7227063	-72.45124	
20:07:40	0	0	0	-1.423909	-3.178017	0	3	99	0	5	0.8312573	-0.7500984	-72.44276	
20:07:42	0	0	0	-1.451491	-2.540799	0	3	99	0	5	0.850796	-0.6829575	-72.40598	
20:07:44	0	0	0	-1.512608	-2.646703	0	3	99	0	5	0.9475874	-0.624671	-72.40906	
20:07:45	0	0	0	-1.539013	-1.826869	0	3	99	0	5	0.9621651	-0.6126045	-72.42409	
20:07:47	0	0	0	-1.220976	8.656824	0	3	99	0	5	0.9307036	-0.6648905	-72.46079	
20:07:49	0	0	0	-1.466416	-6.827769	0	3	99	0	5	0.9151894	-0.6681337	-72.44041	
20:07:50	0	0	0	-1.797153	-16.48704	0	3	99	0	5	0.8942124	-0.6466477	-72.46056	
20:07:52	0	0	0	-1.793565	-7.680638	0	3	99	0	5	0.9554409	-0.5801703	-72.44095	
20:07:54	0	0	0	-1.777411	-0.1614086	0	3	99	0	5	0.9884669	-0.6302005	-72.43903	
20:07:55	0	0	0	-1.349763	13.94182	0	3	99	0	5	0.9482153	-0.7582273	-72.44284	
20:07:57	0	0	0	-1.41031	3.256009	0	3	99	0	5	0.9224356	-0.8373885	-72.40339	
20:07:59	0	0	0	-1.460411	-0.2555109	0	3	99	0	5	0.9114892	-0.7345117	-72.38869	
20:08:01	0	0	0	-1.458973	0.3823304	0	3	99	0	5	0.8926384	-0.6366675	-72.36352	
20:08:02	0	0	0	-1.525096	-4.82867	0	3	99	0	5	0.898362	-0.5739902	-72.42461	
20:08:04	0	0	0	-1.489893	0.5174057	0	3	99	0	5	0.9322988	-0.6032594	-72.40641	
20:08:06	0	0	0	-1.364683	6.12602	0	3	99	0	6	0.9240921	-0.5533182	-72.44569	
20:08:07	0	0	0	-1.330445	3.356339	0	3	99	0	5	0.9613352	-0.5937207	-72.43674	
20:08:09	0	0	0	-1.466274	-7.30655	0	3	99	0	5	1.033521	-0.6465365	-72.48386	
20:08:11	0	0	0	-2.034537	-24.78217	0	3	99	0	5	1.030127	-0.8023762	-72.48425	
20:08:12	0	0	0	-1.846489	-0.2028877	0	3	99	0	5	1.064933	-0.7122731	-72.45065	
20:08:14	0	0	0	-1.428631	13.62934	0	3	99	0	6	1.062204	-0.6494085	-72.41221	
20:08:16	0	0	0	-1.261281	11.92691	0	3	99	0	5	0.9814515	-0.6378873	-72.4215	
20:08:17	0	0	0	-1.271491	4.665137	0	3	99	0	5	0.9646329	-0.7129356	-72.42634	
20:08:19	0	0	0	-1.424162	-5.13441	0	3	99	0	5	0.9335533	-0.6384931	-72.40256	
20:08:21	0	0	0	-1.474024	-3.838689	0	3	99	0	5	0.9291154	-0.6726146	-72.41356	
20:08:23	0	0	0	-1.534835	-4.138453	0	3	99	0	5	0.9081703	-0.8197118	-72.40594	
20:08:24	0	0	0	-1.632623	-5.766856	0	3	99	0	5	0.9423333	-0.7757311	-72.34678	
20:08:26	0	0	0	-1.508551	3.652798	0	3	99	0	5	0.9401609	-0.8233814	-72.36337	
20:08:28	0	0	0	-1.251787	13.57995	0	3	99	0	7	0.968659	-0.7657389	-72.37117	
20:08:29	0	0	0	-1.162922	9.351051	0	3	99	0	5	0.9718656	-0.6066617	-72.40574	
20:08:31	0	0	0	-1.561251	-12.334	0	3	99	0	5	1.01089	-0.5290822	-72.41619	
20:08:33	0	0	0	-1.352601	3.521534	0	3	99	0	5	1.027733	-0.4180751	-72.44683	
20:08:34	0	0	0	-1.416098	0.3515657	0	3	99	0	5	1.007115	-0.4592948	-72.49995	
20:08:36	0	0	0	-1.621904	-6.769176	0	3	99	0	5	0.94581	-0.6662294	-72.53269	
20:08:38	0	0	0	-1.700588	-5.725956	0	3	99	0	5	0.9298525	-0.7227587	-72.57597	
20:08:39	0	0	0	-1.301646	13.99481	0	3	99	0	5	0.9950564	-0.7263921	-72.54135	
20:08:41	0	0	0	-1.029115	15.14608	0	3	99	0	5	1.010119	-0.6816586	-72.48978	
20:08:43	0	0	0	-1.646639	-20.15054	0	3	99	0	5	0.9820373	-0.7185101	-72.52632	
20:08:45	0	0	0	-2.036079	-22.69629	0	3	99	0	5	0.9796859	-0.7295626	-72.52802	
20:08:46	0	0	0	-1.992626	-6.901083	0	3	99	0	5	0.9793893	-0.6331496	-72.42754	
20:08:48	0	0	0	-1.80893	4.311247	0	3	99	0	5	0.935342	-0.5342581	-72.44192	
20:08:50	0	0	0	-1.385185	20.25746	0	3	99	0	5	0.9202504	-0.5573161	-72.46294	
20:08:51	0	0	0	-1.696322	-5.371978	0	3	99	0	5	0.8889973	-0.5674592	-72.46387	
20:08:53	0	0	0	-1.911887	-10.11135	0	3	99	0	5	0.9494265	-0.537118	-72.48891	
20:08:55	0	0	0	-1.892189	-4.236282	0	3	99	0	5	0.8556225	-0.6038054	-72.50635	
20:08:56	0	0	0	-1.85685	1.356306	0	3	99	0	5	0.9079735	-0.6199554	-72.53426	
20:08:58	0	0	0	-1.637714	9.768662	0	3	99	0	5	0.9758675	-0.6284172	-72.52968	
20:09:00	0	0	0	-1.462619	11.27402	0	3	99	0	5	0.9781955	-0.591902	-72.54778	
20:09:01	0	0	0	-1.47707	3.10976	0	3	99	0	5	0.9472051	-0.6465808	-72.59119	
20:09:03	0	0	0	-1.567736	-1.430378	0	3	99	0	5	0.9764996	-0.5664749	-72.55975	
20:09:05	0	0	0	-1.543504	0.6270198	0	3	99	0	5	0.9518738	-0.5737951	-72.55966	
20:09:06	0	0	0	-1.619193	-3.549071	0	3	99	0	5	0.9475267	-0.5893567	-72.52625	
20:09:08	0	0	0	-1.554085	1.513937	0	3	99	0	5	0.9564241	-0.661942	-72.55301	
20:09:10	0	0	0	-1.410737	6.437988	0	3	99	0	5	0.9191679	-0.7068646	-72.50444	
20:09:12	0	0	0	-1.563937	-2.466718	0	3	99	0	5	0.9208775	-0.7919315	-72.47982	
20:09:13	0	0	0	-1.582513	-3.038188	0	3	99	0	5	0.891765	-0.7317425	-72.42231	
20:09:15	0	0	0	-1.557307	0.1907289	0	3	99	0	5	0.9310861	-0.6522805	-72.41373	
20:09:17	0	0	0	-1.470071	3.583402	0	3	99	0	4	0.9585345	-0.6285021	-72.38151	
20:09:18	0	0	0	-1.216555	12.15231	0	3	99	0	5	0.947584	-0.671576	-72.39157	
20:09:20	0	0	0	-1.48592	-4.820771	0	3	99	0	5	0.9792154	-0.6023675	-72.41718	
20:09:22	0	0	0	-1.618312	-8.674983	0	3	99	0	5	1.021005	-0.5407733	-72.44987	
20:09:23	0	0	0	-1.690369	-6.279	0	3	99	0	5	1.068321	-0.6408473	-72.47337	
20:09:25	0	0	0	-1.699046	-2.229156	0	3	99	0	5	0.9591797	-0.6719483	-72.46153	
20:09:27	0	0	0	-1.376778	12.01865	0	3	99	0	5	0.9770565	-0.5568436	-72.46314	
20:09:28	0	0	0	-1.292112	9.507948	0	3	99	0	5	0.9668209	-0.5726867	-72.47193	
20:09:30	0	0	0	-1.223886	4.921638	0	3	99	0	5	0.9252363	-0.6621626	-72.49772	
20:09:32	0	0	0	-1.507881	-9.206016	0	3	99	0	5	0.9147619	-0.8232957	-72.51842	
20:09:34	0	0	0	-1.543148	-5.975075	0	3	99	0	5	0.8521088	-0.8032598	-72.4898	
20:09:35	0	0	0	-1.511805	-1.105387	0	3	99	0	5	0.892172	-0.7610031	-72.47066	
20:09:37	0	0	0	-1.397962	3.315651	0	3	100	0	5	0.8755305	-0.7443342	-72.4646	
20:09:39	0	0	0	-1.557448	-4.856229	0	3	100	0	5	0.8444179	-0.7893875	-72.44955	
20:09:40	0	0	0	-1.274144	6.280062	0	3	100	0	5	0.8561834	-0.7250687	-72.48288	
20:09:42	0	0	0	-1.69167	-13.26963	0	3	71	0	5	0.9111146	-0.7090148	-72.4844	
20:09:44	0	0	0	-1.982818	-12.57172	0	3	73	0	5	0.9914691	-0.7183776	-72.49527	
20:09:45	0	0	0	-1.814601	2.130912	0	3	74	0	5	1.004209	-0.6854628	-72.49562	
20:09:47	0	0	0	-1.505649	11.92388	0	3	75	0	5	0.9957632	-0.7964357	-72.50367	
20:09:49	0	0	0	-1.630298	0.119435	0	3	77	0	5	0.9935453	-0.7877779	-72.29437	
20:09:50	0	0	0	-1.620971	-3.516069	0	3	78	0	5	0.644739	-0.4582802	-61.6006	
20:09:52	0	0	0	-1.58553	-8.580098	0	3	79	0	5	0.7821438	-0.05493225	-52.10952	
20:09:54	0	0	0	-1.329335	8.493917	0	3	81	0	5	0.8370826	-0.1275839	-52.43943	
20:09:55	0	0	0	-1.73588	-10.31883	0	3	82	0	5	0.8647401	-0.0957746	-52.45807	
20:09:57	0	0	0	-1.855278	-7.252956	0	3	83	0	5	0.8763797	-0.1519477	-52.36757	
20:09:59	0	0	0	-2.373557	-19.02149	0	3	84	0	4	0.871262	-0.2504105	-52.60237	
20:10:01	0	0	0	-1.784028	13.21281	0	3	85	0	5	0.9813427	-0.0364834	-52.56846	
20:10:02	0	0	0	-1.692173	15.45688	0	3	86	0	5	0.9369251	-0.0488901	-52.88858	
20:10:04	0	0	0	-1.738292	-12.31552	0	3	87	0	5	0.7619696	-0.003933122	-62.78574	
20:10:06	0	0	0	-1.61357	0.98987	0	3	87	0	5	2.268613	12.08364	-93.20818	
20:10:07	0	0	0	-1.52282	-1.048481	0	3	88	0	5	-3.437421	3.677942	-87.6702	
20:10:09	0	0	0	-1.228136	8.428341	0	3	89	0	5	1.543228	6.761451	-88.16907	
20:10:11	0	0	0	-0.9098274	19.21095	0	3	90	0	5	-1.840732	5.434715	-88.68306	
20:10:12	0	0	0	-0.9965718	7.876356	0	3	90	0	5	0.6581405	4.652378	-87.6499	
20:10:14	0	0	0	-0.8776741	11.06932	0	3	91	0	5	1.412867	3.683378	-86.16029	
20:10:16	0	0	0	-1.285592	-36.36517	0	3	91	0	22	-0.9377997	-0.8218119	-85.91129	
20:10:18	0	0	0	-1.651607	-34.92688	0	3	92	0	33	-0.6460214	1.328616	-88.63859	
20:10:19	0	0	0	-1.23631	-14.77129	0	3	92	0	5	-4.593846	-0.3578753	-86.04794	
20:10:21	0	0	0	-1.383302	-4.025021	0	3	93	0	5	-11.27477	-2.396443	-70.05122	
20:10:23	0	0	0	-1.48038	0.09599398	0	3	93	0	5	-0.2022096	-0.5090665	-64.90966	
20:10:24	0	0	0	-1.946872	-11.70294	0	3	94	0	5	0.08399584	-0.4467255	-64.82957	
20:10:26	0	0	0	-1.818112	2.961817	0	3	94	0	5	0.3283105	-0.3085701	-64.75808	
20:10:28	0	0	0	-1.443785	19.28989	0	3	95	0	5	0.5200844	-0.2953441	-64.74845	
20:10:30	0	0	0	-1.521636	7.619684	0	3	95	0	5	0.6231154	-0.2276724	-64.74975	
20:10:31	0	0	0	-1.65502	-0.1293788	0	3	95	0	5	0.7594745	-0.149639	-64.7753	
20:10:33	0	0	0	-1.86345	-8.056067	0	3	96	0	5	0.786842	-0.1602491	-64.80428	
20:10:35	0	0	0	-1.82455	-1.023647	0	3	96	0	5	0.8416185	-0.1888099	-64.81865	
20:10:37	0	0	0	-1.839886	1.807598	0	3	96	0	5	0.8383243	-0.1832505	-64.82209	
20:10:38	0	0	0	-1.598964	13.01304	0	3	96	0	5	0.8910465	-0.1422308	-64.83448	
20:10:40	0	0	0	-1.593097	9.950536	0	3	97	0	5	0.9457818	-0.1618795	-64.85854	
20:10:42	0	0	0	-1.962358	-12.86155	0	3	97	0	5	0.9532276	-0.2039463	-64.84789	
20:10:43	0	0	0	-2.526177	-25.9145	0	3	97	0	5	1.017198	-0.1868484	-64.85594	
20:10:45	0	0	0	-2.207887	2.546416	0	3	97	0	5	1.037095	-0.1914261	-64.88385	
20:10:47	0	0	0	-2.002161	9.241079	0	3	54	0	5	1.003073	-0.1924376	-64.95065	
20:10:49	0	0	0	-1.995991	6.949798	0	3	56	0	5	1.057098	-0.1098917	-64.91471	
20:10:50	0	0	0	-1.562093	18.9384	0	3	58	0	5	1.058906	-0.2328878	-64.93234	
20:10:52	0	0	0	-1.46075	37.60148	0	3	59	0	5	-3.021017	-1.881937	-83.12244	
20:10:54	0	0	0	-1.40533	-0.8926507	0	3	61	0	5	2.08892	5.129342	-82.74737	
20:10:56	0	0	0	-1.082111	8.556126	0	3	63	0	5	-3.12119	-0.8376823	-77.52157	
20:10:57	0	0	0	-1.268321	-9.824134	0	3	65	0	5	-1.383477	5.201927	-82.69324	
20:10:59	0	0	0	-1.007851	18.0104	0	3	67	0	21	-1.662492	-2.862256	-85.59934	
20:11:01	0	0	0	-0.6454411	31.06034	0	3	68	0	64	-0.576407	-4.091663	-93.07611	
20:11:02	0	0	0	-0.9423178	-22.15114	0	3	70	0	59	2.316176	-7.309582	-95.2102	
20:11:04	0	0	0	-0.9222744	-7.982029	0	3	71	0	56	-1.093149	-3.990587	-81.12648	
20:11:06	0	0	0	-0.9313205	43.39249	0	3	73	0	57	-0.08022716	-4.604129	-83.55318	
20:11:08	0	0	0	-1.232865	-217.5368	0	3	74	0	60	11.41154	-4.660102	-85.15334	
20:11:09	0	0	0	-1.472499	-85.13469	0	3	76	0	57	2.413671	-6.769536	-80.4172	
20:11:11	0	0	0	-1.872406	-130.6446	0	3	77	0	53	-1.691324	3.674687	-81.11913	
20:11:13	0	0	0	-1.147895	15.04551	0	3	78	0	57	-0.1661578	-6.072846	-82.27236	
20:11:15	0	0	0	-1.239156	44.83863	0	3	80	0	60	-0.4193692	-3.323267	-82.68797	
20:11:16	0	0	0	-1.137093	13.22297	0	3	81	0	58	1.847069	-7.851502	-81.94436	
20:11:18	0	0	0	-0.6713434	106.8577	0	3	82	0	57	0.2120484	-5.616179	-82.30518	
20:11:20	0	0	0	-1.054927	-52.77249	0	3	83	0	67	1.28702	-3.432041	-86.88699	
20:11:21	0	0	0	-1.598909	65.64196	0	3	84	0	64	-0.9903046	-5.30447	-82.79302	
20:11:23	0	0	0	-1.027055	-247.0202	0	3	85	0	64	0.2406128	-7.046206	-75.77676	
20:11:25	0	0	0	-3.925524	-576.2641	0	3	86	0	63	6.460322	-2.904659	-85.60342	
20:11:27	0	0	0	-5.09292	-455.2245	0	3	87	0	61	8.139686	-4.128661	-82.25289	
20:11:28	0	0	0	-5.152603	-303.0697	0	3	88	0	42	-1.562847	-5.093076	-79.37392	
20:11:30	0	0	0	-1.132153	160.6032	0	3	88	0	5	-17.4572	-1.974237	-65.36938	
20:11:32	0	0	0	0.5749118	290.7033	0	3	89	0	5	-15.25695	-2.974112	-78.04555	
20:11:34	0	0	0	0.9496391	291.0296	0	3	90	0	5	3.109415	-0.9031429	-79.28425	
20:11:35	0	0	0	0.3385344	182.5118	0	3	91	0	5	3.15884	-0.1993501	-80.43044	
20:11:37	0	0	0	-0.3548712	115.5667	0	3	91	0	5	3.146698	0.3291467	-81.31404	
20:11:39	0	0	0	-0.7452688	90.80286	0	3	92	0	5	3.246345	0.708173	-82.02599	
20:11:40	0	0	0	-1.020131	74.89845	0	3	92	0	5	3.068703	0.8711252	-82.72688	
20:11:42	0	0	0	-0.9529844	73.74822	0	3	93	0	5	3.013341	1.030567	-83.27046	
20:11:44	0	0	0	-0.9193846	64.05088	0	3	93	0	5	2.919171	1.090132	-83.67094	
20:11:46	0	0	0	-1.552938	32.91788	0	3	94	0	5	2.686054	0.9878663	-84.03695	
20:11:47	0	0	0	-1.713839	30.25681	0	3	94	0	5	2.476633	0.6961671	-84.21667	
20:11:49	0	0	0	-1.87476	24.49943	0	3	94	0	5	2.375978	0.5808843	-84.34779	
20:11:51	0	0	0	-1.96677	24.22015	0	3	95	0	5	2.14324	0.4490036	-84.42723	
20:11:53	0	0	0	-1.813295	27.2643	0	3	95	0	5	2.007201	0.4853228	-84.43302	
20:11:54	0	0	0	-1.836939	22.74174	0	3	95	0	5	1.940369	0.4669593	-84.40721	
20:11:56	0	0	0	-1.84812	18.4174	0	3	96	0	5	1.827308	0.3765605	-84.36975	
20:11:58	0	0	0	-1.929234	12.496	0	3	96	0	5	1.707485	0.2551145	-84.28816	
20:11:59	0	0	0	-1.723562	17.90665	0	3	96	0	5	1.623449	0.2751672	-84.22435	
20:12:01	0	0	0	-1.701129	14.8746	0	3	96	0	5	1.547711	0.07467807	-84.09452	
20:12:03	0	0	0	-2.362921	-14.12581	0	3	97	0	5	1.464904	-0.0294856	-83.96194	
20:12:05	0	0	0	-2.199757	3.087185	0	3	97	0	5	1.413171	-0.2307361	-83.83324	
20:12:06	0	0	0	-2.088045	9.905616	0	3	97	0	5	1.278949	-0.3266903	-83.71658	
20:12:08	0	0	0	-1.862728	16.23646	0	3	97	0	5	1.199985	-0.426403	-83.57101	
20:12:10	0	0	0	-1.754982	11.21633	0	3	97	0	5	1.196571	-0.4053607	-83.51794	
20:12:12	0	0	0	-1.885308	2.518033	0	3	98	0	5	1.159069	-0.4179986	-83.42103	
20:12:13	0	0	0	-1.814582	5.927431	0	3	98	0	5	1.122183	-0.4351934	-83.31831	
20:12:15	0	0	0	-1.555352	15.06736	0	3	98	0	5	1.066035	-0.4670636	-83.23356	
20:12:17	0	0	0	-1.708728	1.713322	0	3	98	0	5	1.056919	-0.3998662	-83.13065	
20:12:18	0	0	0	-2.012858	-11.79829	0	3	98	0	5	1.017619	-0.4117606	-83.09208	
20:12:20	0	0	0	-2.199414	-10.79361	0	3	98	0	5	0.9816986	-0.4646541	-83.0827	
20:12:22	0	0	0	-2.051983	1.188335	0	3	98	0	5	1.044468	-0.3673654	-83.0546	
20:12:24	0	0	0	-1.943093	6.248384	0	3	98	0	5	1.046285	-0.4338304	-83.01735	
20:12:25	0	0	0	-1.806921	8.951728	0	3	98	0	5	0.9813195	-0.5594087	-82.99739	
20:12:27	0	0	0	-2.268916	-13.31888	0	3	99	0	5	0.9466267	-0.4965856	-82.95506	
20:12:29	0	0	0	-2.440725	-10.03353	0	3	99	0	5	0.9470336	-0.4539892	-82.94502	
20:12:31	0	0	0	-2.177616	5.592705	0	3	99	0	5	0.9263746	-0.5186801	-82.92236	
20:12:32	0	0	0	-1.980695	8.849435	0	3	99	0	5	0.9086406	-0.5637802	-82.8864	
20:12:34	0	0	0	-1.925539	5.556175	0	3	99	0	5	0.8563023	-0.7407355	-82.83737	
20:12:36	0	0	0	-2.017514	-0.400434	0	3	99	0	5	0.873512	-0.777158	-82.76115	
20:12:38	0	0	0	-2.067879	-2.202704	0	3	99	0	5	0.8826879	-0.764846	-82.78014	
20:12:39	0	0	0	-2.064214	0.7092485	0	3	99	0	5	0.8457523	-0.7487973	-82.77261	
20:12:41	0	0	0	-2.179202	-5.332125	0	3	99	0	5	0.8334988	-0.7486895	-82.72176	
20:12:43	0	0	0	-2.129356	1.41762	0	3	99	0	5	0.8573283	-0.8064225	-82.69411	
20:12:44	0	0	0	-1.710524	15.75603	0	3	99	0	5	0.7647827	-0.7245752	-82.66199	
20:12:46	0	0	0	-1.783028	2.671371	0	3	99	0	5	0.7698394	-0.7833012	-82.66891	
20:12:48	0	0	0	-1.877591	-2.842322	0	3	99	0	5	0.7698315	-0.7329561	-82.67635	
20:12:50	0	0	0	-1.77141	0.5324739	0	3	99	0	5	0.7549798	-0.7445976	-82.66528	
20:12:51	0	0	0	-2.136883	-11.76189	0	3	99	0	5	0.7815419	-0.5498568	-82.72076	
20:12:53	0	0	0	-1.961223	0.3813739	0	3	99	0	7	0.7988799	-0.6036847	-82.77635	
20:12:55	0	0	0	-2.091505	-7.053811	0	3	99	0	5	0.7838914	-0.6671897	-82.76136	
20:12:57	0	0	0	-2.048486	-0.2056686	0	3	99	0	5	0.7708537	-0.6878775	-82.78494	
20:12:58	0	0	0	-1.945153	6.867383	0	3	99	0	5	0.7979952	-0.8055993	-82.76586	
20:13:00	0	0	0	-1.705168	12.01845	0	3	99	0	5	0.8486022	-0.8216777	-82.74199	
20:13:02	0	0	0	-1.843116	-1.944371	0	3	99	0	5	0.8207659	-0.8308214	-82.73345	
20:13:03	0	0	0	-2.212806	-14.74894	0	3	99	0	5	0.8158423	-0.7527678	-82.81454	
20:13:05	0	0	0	-2.422833	-13.26116	0	3	99	0	5	0.7863605	-0.7476941	-82.78259	
20:13:07	0	0	0	-2.404477	-2.960528	0	3	99	0	5	0.7831221	-0.8093512	-82.82647	
20:13:09	0	0	0	-2.190579	6.743475	0	3	99	0	5	0.8251441	-0.69757	-82.81	
20:13:10	0	0	0	-1.838753	20.41233	0	3	99	0	5	0.7729112	-0.6993764	-82.82761	
20:13:12	0	0	0	-1.745071	9.042209	0	3	99	0	5	0.7689784	-0.7217287	-82.82701	
20:13:14	0	0	0	-1.713669	5.032058	0	3	99	0	4	0.709941	-0.7572759	-82.86777	
20:13:16	0	0	0	-1.628134	5.380548	0	3	99	0	5	0.706146	-0.85172	-82.87875	
20:13:17	0	0	0	-1.845776	-7.804235	0	3	99	0	6	0.7537188	-0.8877587	-82.80276	
20:13:19	0	0	0	-1.855532	-1.078045	0	3	99	0	5	0.8242961	-0.80193	-82.77483	
20:13:21	0	0	0	-1.726287	4.185976	0	3	99	0	5	0.7965569	-0.8494458	-82.72848	
20:13:22	0	0	0	-1.802345	0.08047621	0	3	99	0	5	0.8076969	-0.7985948	-82.72405	
20:13:24	0	0	0	-1.816777	-0.3398036	0	3	99	0	5	0.8382173	-0.7679566	-82.69535	
20:13:26	0	0	0	-2.100298	-13.54779	0	3	99	0	5	0.8151228	-0.6965079	-82.70288	
20:13:28	0	0	0	-1.716301	8.223898	0	3	99	0	5	0.9063131	-0.7020344	-82.71753	
20:13:29	0	0	0	-1.923074	-3.735811	0	3	99	0	5	0.8480177	-0.7258712	-82.76308	
20:13:31	0	0	0	-1.930885	-1.818931	0	3	99	0	5	0.8642647	-0.6810034	-82.75928	
20:13:33	0	0	0	-1.954728	-3.101418	0	3	28	0	5	0.8484724	-0.6200639	-82.84711	
20:13:35	0	0	0	-2.023503	-4.040334	0	3	30	0	5	0.8485935	-0.6419565	-82.85963	
20:13:36	0	0	0	-2.149203	-5.13615	0	3	32	0	5	0.7912311	-0.7079988	-82.86105	
20:13:38	0	0	0	-1.749105	11.32749	0	3	33	0	5	0.7886452	-0.7200361	-82.85008	
20:13:40	0	0	0	-2.113716	-8.789631	0	3	35	0	5	0.7660713	-0.7489135	-82.8565	
20:13:42	0	0	0	-2.423235	-14.64421	0	3	37	0	5	0.7329131	-0.7718811	-82.84998	
20:13:43	0	0	0	-2.231338	0.3251589	0	3	38	0	5	0.7533923	-0.8007312	-82.85303	
20:13:45	0	0	0	-1.978761	9.404811	0	3	40	0	5	0.7446042	-0.8079735	-82.84697	
20:13:47	0	0	0	-1.982933	2.870937	0	3	42	0	5	0.7129743	-0.850446	-82.87489	
20:13:49	0	0	0	-2.106102	5.429074	0	3	44	0	5	0.1544472	-6.070851	-86.1935	
20:13:50	0	0	0	-1.573476	3.460905	0	3	46	0	5	10.56275	7.04667	-98.03372	
20:13:52	0	0	0	-1.369862	20.09426	0	3	48	0	5	11.06205	7.703651	-97.64085	
20:13:54	0	0	0	-1.308806	12.76768	0	3	50	0	5	-1.396749	5.176656	-95.33939	
20:13:55	0	0	0	-1.079576	11.81098	0	3	52	0	5	0.5350607	5.194287	-101.9612	
20:13:57	0	0	0	-1.40032	9.796927	0	3	54	0	11	0.09032834	-2.080796	-100.8805	
20:13:59	0	0	0	-0.8582352	146.771	0	3	55	0	53	-0.1980798	-2.765645	-104.1884	
20:14:01	0	0	0	-1.063142	-50.11565	0	3	57	0	51	7.856244	-8.330817	-99.81257	
20:14:02	0	0	0	-0.8644508	40.04763	0	3	59	0	50	-2.150429	-3.311467	-98.45387	
20:14:04	0	0	0	-2.512055	-107.5459	0	3	61	0	67	-1.67264	-4.969331	-100.5679	
20:14:06	0	0	0	-2.10869	-55.43836	0	3	63	0	65	0.6989229	-6.059404	-93.80485	
20:14:07	0	0	0	-1.072582	-14.61821	0	3	65	0	64	3.818294	-8.981797	-101.1428	
20:14:09	0	0	0	-2.158561	-156.1986	0	3	66	0	61	-1.069109	-9.36502	-106.9429	
20:14:11	0	0	0	0.1149867	152.6231	0	3	68	0	58	0.4786136	-1.296134	-92.78309	
20:14:13	0	0	0	0.6047609	55.21048	0	3	70	0	57	-0.1809107	-4.873779	-102.1594	
20:14:14	0	0	0	0.4481867	65.56367	0	3	71	0	57	-0.3498006	-5.342007	-102.337	
20:14:16	0	0	0	-0.3275324	98.36184	0	3	73	0	59	-6.041706	-3.636446	-100.717	
20:14:18	0	0	0	-0.3693589	-10.76462	0	3	74	0	58	-0.5745781	-3.840846	-100.2013	
20:14:20	0	0	0	-0.6320598	-45.4849	0	3	76	0	57	2.15793	-4.437972	-96.67719	
20:14:21	0	0	0	-1.180788	-109.6232	0	3	77	0	57	0.5219157	-4.340449	-100.0537	
20:14:23	0	0	0	-2.600404	-274.5699	0	3	78	0	56	1.232048	-4.654209	-107.7692	
20:14:25	0	0	0	-1.850585	-20.32272	0	3	79	0	57	2.971112	-3.660269	-108.8738	
20:14:26	0	0	0	-0.414668	109.8227	0	3	81	0	57	-1.439538	-4.393766	-96.48439	
20:14:28	0	0	0	0.3694669	87.52428	0	3	82	0	56	-0.5193456	-5.1612	-92.15601	
20:14:30	0	0	0	0.1627961	38.27838	0	3	83	0	58	-0.08539187	-4.195784	-101.1577	
20:14:32	0	0	0	-0.1086347	31.86581	0	3	84	0	5	-1.148147	-2.694207	-103.4324	
20:14:33	0	0	0	-1.468188	-30.33586	0	3	85	0	5	-19.29357	-1.844266	-84.24526	
20:14:35	0	0	0	-1.870868	8.641519	0	3	86	0	5	2.552682	-0.3631977	-88.40694	
20:14:37	0	0	0	-1.539147	46.53807	0	3	87	0	5	2.603163	-0.1007294	-89.52866	
20:14:39	0	0	0	-1.667169	40.55745	0	3	88	0	5	2.637945	0.04789833	-90.33194	
20:14:40	0	0	0	-1.339561	53.61776	0	3	88	0	5	2.638734	0.2168734	-91.10026	
20:14:42	0	0	0	-1.505171	35.05838	0	3	89	0	6	2.693008	0.3203962	-91.67539	
20:14:44	0	0	0	-1.827611	17.12592	0	3	90	0	5	2.697287	0.5100024	-92.15644	
20:14:45	0	0	0	-2.078425	12.30283	0	3	90	0	6	2.650271	0.6144871	-92.57562	
20:14:47	0	0	0	-1.873	23.58314	0	3	91	0	5	2.62091	0.5413459	-92.85899	
20:14:49	0	0	0	-1.687525	28.38353	0	3	92	0	5	2.543655	0.6045053	-93.05713	
20:14:51	0	0	0	-1.559175	24.55392	0	3	92	0	6	2.526966	0.7400908	-93.20171	
20:14:52	0	0	0	-1.883505	4.489635	0	3	93	0	5	2.526027	0.7484641	-93.37444	
20:14:54	0	0	0	-1.737158	13.39131	0	3	93	0	5	2.489616	0.6865524	-93.45827	
20:14:56	0	0	0	-1.88294	3.68782	0	3	94	0	5	2.459781	0.6518139	-93.46855	
20:14:58	0	0	0	-1.824818	7.426442	0	3	67	0	5	2.422932	0.709134	-93.50362	
20:14:59	0	0	0	-1.972612	1.450969	0	3	68	0	5	2.448447	0.6727301	-93.57614	
20:15:01	0	0	0	-1.861942	8.570104	0	3	70	0	5	2.380653	0.5846786	-93.53725	
20:15:03	0	0	0	-1.809006	7.326311	0	3	71	0	4	2.322468	0.4988571	-93.53851	
20:15:04	0	0	0	-1.584105	13.54625	0	3	73	0	5	2.398141	0.5679339	-93.45122	
20:15:06	0	0	0	-1.665534	3.482375	0	3	74	0	5	2.341311	0.5114582	-93.41026	
20:15:08	0	0	0	-1.730756	-0.8106791	0	3	76	0	5	2.287883	0.4689702	-93.39993	
20:15:10	0	0	0	-1.933445	-6.618884	0	3	77	0	5	2.220055	0.4432178	-93.36872	
20:15:11	0	0	0	-2.368106	-19.05619	0	3	78	0	5	2.245822	0.4137724	-93.31229	
20:15:13	0	0	0	-1.846325	14.65771	0	3	80	0	5	2.262563	0.4661492	-93.24085	
20:15:15	0	0	0	-1.833041	21.11334	0	3	81	0	5	-6.611619	-20.28356	-92.0604	
20:15:17	0	0	0	-1.573476	-15.08422	0	3	82	0	5	0.9653375	13.60101	-107.6244	
20:15:18	0	0	0	-1.480257	-10.21846	0	3	83	0	5	-4.047074	-3.362572	-104.1338	
20:15:20	0	0	0	-1.367021	15.94531	0	3	84	0	5	-2.020085	-2.105886	-108.3873	
20:15:22	0	0	0	-0.5596471	121.1902	0	3	85	0	42	-5.026342	0.3467086	-107.104	
20:15:23	0	0	0	-0.1943647	1.505975	0	3	86	0	52	-8.773036	-7.3758	-108.4793	
20:15:25	0	0	0	-1.044792	-106.5206	0	3	87	0	64	0.03003809	-1.101546	-99.26535	
20:15:27	0	0	0	-1.623387	14.38289	0	3	88	0	51	-6.263143	-9.224276	-92.65899	
20:15:29	0	0	0	-0.5576436	53.06878	0	3	88	0	54	-1.398471	-2.891728	-104.0872	
20:15:30	0	0	0	-1.238271	-89.69044	0	3	89	0	60	0.2100068	-5.441181	-106.5299	
20:15:32	0	0	0	-1.882657	-101.046	0	3	90	0	61	5.479905	-5.744018	-106.5219	
20:15:34	0	0	0	-1.538298	-104.0907	0	3	90	0	58	3.062367	-8.682768	-112.1545	
20:15:35	0	0	0	-0.9430889	29.40179	0	3	91	0	56	0.6170763	-4.317944	-108.7724	
20:15:37	0	0	0	-0.1529586	75.42786	0	3	92	0	60	0.6020749	-3.973258	-109.4891	
20:15:39	0	0	0	-0.132044	53.4191	0	3	92	0	61	2.429496	-5.810815	-109.2003	
20:15:41	0	0	0	-1.365534	-153.1224	0	3	93	0	60	1.789975	-4.24308	-105.9452	
20:15:42	0	0	0	0.05427121	-12.03333	0	3	93	0	59	-0.01507466	-7.04652	-100.8194	
20:15:44	0	0	0	-0.03087408	40.88934	0	3	94	0	60	1.400144	-6.211502	-97.5115	
20:15:46	0	0	0	0.9433147	242.9074	0	3	94	0	59	-0.1982856	-4.648744	-102.6399	
20:15:48	0	0	0	2.080313	172.8721	0	3	94	0	5	-2.275203	0.4450446	-85.31343	
20:15:49	0	0	0	0.275208	-54.42589	0	3	95	0	5	-18.12328	0.3640271	-88.90515	
20:15:51	0	0	0	-0.6394597	-15.41878	0	3	95	0	5	3.90784	14.68105	-87.91818	
20:15:53	0	0	0	-1.007036	-20.77552	0	3	95	0	5	3.704987	8.519176	-85.60265	
20:15:54	0	0	0	-1.212899	-15.72488	0	3	96	0	5	0.9958492	8.892492	-87.41583	
20:15:56	0	0	0	-1.584796	-59.87263	0	3	96	0	5	-4.407952	-6.597702	-86.14629	
20:15:58	0	0	0	-2.048262	-75.59591	0	3	96	0	6	0.1555604	-1.024859	-75.55605	
20:16:00	0	0	0	-2.338423	-37.74238	0	3	96	0	5	0.3899917	-0.4670939	-75.66134	
20:16:01	0	0	0	-1.86307	6.749479	0	3	97	0	5	0.4705468	-0.3705488	-75.88381	
20:16:03	0	0	0	-1.509452	17.0053	0	3	97	0	5	0.6646548	-0.2547872	-75.99988	
20:16:05	0	0	0	-1.637502	8.527396	0	3	97	0	5	0.7059663	0.0607795	-76.19147	
20:16:07	0	0	0	-1.889189	-19.4862	0	3	97	0	5	0.7697729	0.2003035	-76.31097	
20:16:08	0	0	0	-1.955698	-9.300716	0	3	97	0	5	0.7378073	0.3228842	-76.6255	
20:16:10	0	0	0	-1.630831	11.16586	0	3	98	0	5	0.778548	0.4523876	-76.85109	
20:16:12	0	0	0	-1.612242	10.91365	0	3	98	0	5	0.8043314	0.3552483	-77.04078	
20:16:13	0	0	0	-1.650381	3.77724	0	3	98	0	5	0.8529508	0.2484539	-77.16811	
20:16:15	0	0	0	-1.668613	3.465824	0	3	98	0	5	0.8803078	0.1525038	-77.25971	
20:16:17	0	0	0	-1.573611	8.467722	0	3	98	0	5	0.9091975	0.07671282	-77.36057	
20:16:19	0	0	0	-1.640091	1.915037	0	3	98	0	5	0.9151924	0.05092437	-77.37411	
20:16:20	0	0	0	-1.532363	6.991248	0	3	98	0	4	0.9489253	-0.05550124	-77.3567	
20:16:22	0	0	0	-1.474946	46.66089	0	3	98	0	5	-13.5344	2.644912	-71.77749	
20:16:24	0	0	0	-1.375153	7.003163	0	3	98	0	5	-15.28913	19.13626	-45.83037	
20:16:25	0	0	0	-1.357388	17.25594	0	3	99	0	5	-13.18192	3.1035	-67.24945	
20:16:27	0	0	0	-1.202624	5.553558	0	3	99	0	5	7.137228	-4.373868	-82.9968	
20:16:29	0	0	0	-1.13479	2.723764	0	3	99	0	5	52.26221	24.19063	-54.4864	
20:16:31	0	0	0	-0.8123977	13.03156	0	3	99	0	5	25.61927	-19.71712	-74.17641	
20:16:32	0	0	0	-1.043488	-5.215805	0	3	99	0	6	38.56482	-29.42373	-73.09035	
20:16:34	0	0	0	-0.8386192	6.426342	0	3	99	0	5	58.37468	-25.16132	-50.45882	
20:16:36	0	0	0	-1.155161	-8.613412	0	3	99	0	5	59.57827	-26.28453	-39.86988	
20:16:38	0	0	0	-1.290354	-10.79087	0	3	99	0	5	58.43133	-20.75009	-37.1703	
20:16:39	0	0	0	-1.103489	9.200811	0	3	99	0	5	35.52345	13.11098	-7.64793	
20:16:41	0	0	0	-0.9816924	18.12577	0	3	99	0	5	35.4348	13.63415	-3.634228	
20:16:43	0	0	0	-1.017536	13.29758	0	3	99	0	5	32.90272	15.87256	-9.238932	
20:16:44	0	0	0	-1.207528	2.829933	0	3	99	0	5	29.90702	4.481368	-11.37158	
20:16:46	0	0	0	-1.260551	-16.14023	0	3	99	0	5	2.326876	12.35025	-34.47	
20:16:48	0	0	0	-1.167106	-2.378006	0	3	99	0	5	24.63364	-24.56841	-30.82043	
20:16:50	0	0	0	-1.680926	-32.09721	0	3	99	0	5	-16.79213	-4.694736	-54.63259	
20:16:51	0	0	0	-1.871487	-11.12075	0	3	99	0	5	2.189195	-0.007892603	-61.44035	
20:16:53	0	0	0	-1.883494	-7.015504	0	3	99	0	5	1.804062	-0.1044673	-61.19414	
20:16:55	0	0	0	-1.526338	6.839491	0	3	99	0	5	1.488088	-0.2630805	-60.88169	
20:16:57	0	0	0	-1.923808	-13.03662	0	3	99	0	5	1.269791	-0.3593413	-60.61546	
20:16:58	0	0	0	-1.905047	-3.67046	0	3	99	0	5	1.178693	-0.1990276	-60.42904	
20:17:00	0	0	0	-1.785693	15.60855	0	3	99	0	5	-1.031515	2.136786	-28.94832	
20:17:02	0	0	0	-1.683046	53.73309	0	3	99	0	5	2.252673	1.785066	8.068563	
20:17:03	0	0	0	-1.686003	16.53147	0	3	99	0	5	2.010939	1.362506	7.387403	
20:17:05	0	0	0	-1.575139	1.61909	0	3	99	0	6	1.783524	1.020339	6.872466	
20:17:07	0	0	0	-2.152613	-27.04513	0	3	99	0	5	1.544901	0.8712806	6.486498	
20:17:09	0	0	0	-2.490879	-27.46638	0	3	99	0	5	1.343027	0.6095244	6.212554	
20:17:10	0	0	0	-2.088893	-0.9876881	0	3	99	0	12	1.25958	0.4070978	6.556834	
20:17:12	0	0	0	-2.338172	-13.90196	0	3	99	0	12	1.154979	0.06501602	9.392781	
20:17:14	0	0	0	-1.888242	17.16889	0	3	99	0	12	1.110557	-0.04471536	12.20594	
20:17:15	0	0	0	-1.400666	25.27765	0	3	99	0	12	1.063999	0.005199507	13.01527	
20:17:17	0	0	0	-1.498168	6.930677	0	3	99	0	12	1.044727	-0.001847246	13.64672	
20:17:19	0	0	0	-1.811302	-10.14807	0	3	99	0	12	1.006018	-0.0471361	14.07557	
20:17:21	0	0	0	-2.092558	-14.20378	0	3	99	0	12	0.9990286	-0.05685781	14.43498	
20:17:22	0	0	0	-1.745526	6.431072	0	3	99	0	12	1.056519	-0.0923405	14.77005	
20:17:24	0	0	0	-1.430466	12.354	0	3	99	0	12	1.088107	0.1112454	14.9796	
20:17:26	0	0	0	-1.314108	6.65293	0	3	99	0	12	1.126532	0.1214961	15.14126	
20:17:28	0	0	0	-1.498498	-4.149928	0	3	99	0	12	1.126805	0.02630212	15.28493	
20:17:29	0	0	0	-1.926516	-20.3244	0	3	99	0	12	1.111842	0.008736559	15.32852	
20:17:31	0	0	0	-1.63088	2.362969	0	3	99	0	12	1.163261	0.03662894	15.38667	
20:17:33	0	0	0	-1.705561	-3.409708	0	3	99	0	12	1.250028	0.1163444	15.40967	
20:17:34	0	0	0	-1.769115	-3.954179	0	3	99	0	11	1.247325	0.01411637	15.38568	
20:17:36	0	0	0	-1.823272	-3.312704	0	3	99	0	12	1.235062	0.09380367	15.33626	
20:17:38	0	0	0	-1.754772	0.2852035	0	3	99	0	12	1.235194	0.09202356	15.35806	
20:17:40	0	0	0	-1.775788	0.2305503	0	3	99	0	12	1.263785	0.1087608	15.33743	
20:17:41	0	0	0	-1.799812	-3.131898	0	3	99	0	12	1.266112	0.1924868	15.24734	
20:17:43	0	0	0	-1.999804	-8.271091	0	3	99	0	12	1.331843	0.231476	15.19142	
20:17:45	0	0	0	-2.184922	-9.884345	0	3	99	0	12	1.298301	0.192538	15.17951	
20:17:47	0	0	0	-1.757839	11.97032	0	3	99	0	12	1.310888	0.2250122	15.13234	
20:17:48	0	0	0	-1.604006	12.2981	0	3	99	0	12	1.333436	0.2103403	15.10997	
20:17:50	0	0	0	-1.799124	-2.232627	0	3	99	0	12	1.309338	0.166791	15.05711	
20:17:52	0	0	0	-1.941313	-9.309031	0	3	99	0	12	1.31354	0.2940147	15.05213	
20:17:53	0	0	0	-1.867392	-3.128462	0	3	99	0	12	1.268161	0.1705501	15.01342	
20:17:55	0	0	0	-1.923251	-3.311981	0	3	99	0	12	1.340322	0.2291916	14.9915	
20:17:57	0	0	0	-2.037348	-5.014923	0	3	99	0	12	1.345824	0.2578378	14.9616	
20:17:59	0	0	0	-1.722062	11.58236	0	3	99	0	12	1.346569	0.2435665	14.90698	
20:18:00	0	0	0	-1.619806	13.64393	0	3	99	0	12	1.371583	0.2925409	14.84982	
20:18:02	0	0	0	-1.578038	5.585113	0	3	99	0	12	1.32777	0.2813839	14.82324	
20:18:04	0	0	0	-1.582786	1.98975	0	3	99	0	12	1.369496	0.3964975	14.80104	
20:18:05	0	0	0	-1.583723	-0.4334362	0	3	99	0	12	1.36103	0.406069	14.77864	
20:18:07	0	0	0	-1.613449	-3.290398	0	3	99	0	12	1.361014	0.3417982	14.74433	
20:18:09	0	0	0	-1.673573	-4.342188	0	3	99	0	15	1.337234	0.4283932	14.70701	
20:18:11	0	0	0	-1.969366	-10.8384	0	3	99	0	12	1.346458	0.4027373	14.69654	
20:18:12	0	0	0	-1.948424	-3.428892	0	3	99	0	12	1.366146	0.4411425	14.71654	
20:18:14	0	0	0	-1.806805	2.989769	0	3	99	0	12	1.359174	0.4006299	14.684	
20:18:16	0	0	0	-1.795195	-1.105125	0	3	99	0	12	1.301049	0.3130983	14.64676	
20:18:18	0	0	0	-2.036915	-8.317062	0	3	99	0	12	1.31211	0.4262866	14.67217	
20:18:19	0	0	0	-1.822159	2.275693	0	3	99	0	12	1.352611	0.3750518	14.64395	
20:18:21	0	0	0	-1.887339	-2.918733	0	3	99	0	12	1.36667	0.5193258	14.67391	
20:18:23	0	0	0	-1.789693	4.316546	0	3	99	0	12	1.39285	0.4982228	14.62946	
20:18:24	0	0	0	-1.420946	16.16308	0	3	99	0	12	1.398327	0.4851643	14.63296	
20:18:26	0	0	0	-1.655558	-2.359928	0	3	99	0	12	1.373428	0.4338707	14.63235	
20:18:28	0	0	0	-1.789163	-7.103635	0	3	99	0	12	1.383821	0.4030424	14.62881	
