Date	Latitude(deg) 	Longitude(deg)	hamsl(m)	hafl(m)	climbrate(cm/s)	GroundSpeed(m/s)	Airspeed(m/s)	Mav_Link(%)	Rssi_Link(%)	Throttle	Roll(deg)	Pitch(deg)	Yaw(deg)
22:02:21	0	0	0	0	0	0	0	23	0	0	0	0	0	
22:02:23	0	0	0	0.6732673	-0.893257	0	3	34	0	50	-0.4037673	-4.575132	42.02953	
22:02:25	0	0	0	0.08829342	-47.48415	0	3	44	0	50	-0.4157534	-4.556006	42.02705	
22:02:26	0	0	0	-0.5961092	-63.90007	0	3	51	0	50	-0.3938136	-4.572656	42.00061	
22:02:28	0	0	0	-0.5363502	-39.788	0	3	56	0	50	-0.3437331	-4.52702	41.99911	
22:02:30	0	0	0	-0.03972921	-10.91643	0	3	62	0	50	-0.3276747	-4.541049	42.01282	
22:02:32	0	0	0	-0.001292306	-13.60119	0	3	66	0	50	-0.2771999	-4.555319	41.95896	
22:02:33	0	0	0	-0.08129179	-16.463	0	3	70	0	50	-0.3172046	-4.574648	41.94681	
22:02:35	0	0	0	-0.1957631	-19.21292	0	3	73	0	50	-0.2950435	-4.578469	41.9241	
22:02:37	0	0	0	-0.1084996	-8.212538	0	3	76	0	50	-0.3506194	-4.579293	41.94149	
22:02:38	0	0	0	-0.1896298	-11.6881	0	3	78	0	50	-0.3377549	-4.633756	41.93248	
22:02:40	0	0	0	-0.2211065	-11.59143	0	3	80	0	50	-0.3565267	-4.638401	41.88953	
22:02:42	0	0	0	-0.239165	-8.119888	0	3	82	0	50	-0.3237046	-4.673578	41.8417	
22:02:44	0	0	0	-0.02997566	1.532212	0	3	83	0	50	-0.3897493	-4.622215	41.8574	
22:02:45	0	0	0	-0.01633195	0.3889321	0	3	85	0	50	-0.3537078	-4.705139	41.88754	
22:02:47	0	0	0	-0.1459003	-8.045732	0	3	86	0	50	-0.2654756	-4.737861	41.83727	
22:02:49	0	0	0	-0.2148168	-6.343552	0	3	87	0	50	-0.3001248	-4.74113	41.81564	
22:02:50	0	0	0	-0.02142097	2.653178	0	3	88	0	50	-0.3071909	-4.7133	41.78574	
22:02:52	0	0	0	-0.1064889	-4.028953	0	3	89	0	50	-0.2756798	-4.838022	41.81765	
22:02:54	0	0	0	-0.1291054	-4.686592	0	3	90	0	50	-0.3163641	-4.824654	41.77675	
22:02:56	0	0	0	-0.1362967	-4.641739	0	3	91	0	50	-0.254032	-4.82235	41.78063	
22:02:57	0	0	0	-0.2375983	-7.474608	0	3	92	0	50	-0.2584925	-4.763328	41.7855	
22:02:59	0	0	0	-0.23669	-1.924711	0	3	92	0	50	-0.3077426	-4.815129	41.79615	
22:03:01	0	0	0	-0.08141658	3.563676	0	3	93	0	50	-0.3471788	-4.732382	41.8308	
22:03:02	0	0	0	-0.1001854	0.1186694	0	3	93	0	50	-0.3438853	-4.759555	41.81905	
22:03:04	0	0	0	-0.4751946	-13.07443	0	3	94	0	50	-0.3343723	-4.759477	41.81663	
22:03:06	0	0	0	-0.2975599	1.632286	0	3	94	0	50	-0.348558	-4.777652	41.80998	
22:03:08	0	0	0	-0.2110048	3.49301	0	3	95	0	50	-0.3449289	-4.861111	41.8241	
22:03:09	0	0	0	-0.3744323	-3.834069	0	3	95	0	50	-0.4068743	-4.892735	41.83707	
22:03:11	0	0	0	-0.4135788	-2.608926	0	3	95	0	50	-0.3789722	-4.865598	41.83741	
22:03:13	0	0	0	-0.3619096	-0.3095098	0	3	96	0	50	-0.4073534	-4.765478	41.83719	
22:03:14	0	0	0	-0.2993211	2.385008	0	3	96	0	50	-0.4211536	-4.812778	41.86462	
22:03:16	0	0	0	-0.08186739	9.747988	0	3	96	0	50	-0.5011239	-4.883365	41.86486	
22:03:18	0	0	0	0.04720508	8.451505	0	3	97	0	50	-0.4823714	-4.94784	41.89199	
22:03:20	0	0	0	0.008236091	2.768414	0	3	97	0	50	-0.4036599	-4.6853	41.88233	
22:03:21	0	0	0	-0.2154554	-7.900043	0	3	97	0	50	-0.4041666	-4.743697	41.89842	
22:03:23	0	0	0	-0.5415177	-16.05487	0	3	97	0	50	-0.4069021	-4.766209	41.88912	
22:03:25	0	0	0	-0.7893345	-15.35174	0	3	97	0	50	-0.432917	-4.788658	41.86105	
22:03:26	0	0	0	-0.5252218	1.832403	0	3	98	0	50	-0.4825704	-4.697578	41.85434	
22:03:28	0	0	0	-0.4768887	2.412149	0	3	98	0	50	-0.4280277	-4.652059	41.91806	
22:03:30	0	0	0	-0.3580753	5.744742	0	3	98	0	50	-0.4460999	-4.668775	41.9495	
22:03:32	0	0	0	-0.2463314	7.048629	0	3	98	0	50	-0.4358913	-4.738639	41.92933	
22:03:33	0	0	0	-0.3199058	0.05191871	0	3	98	0	50	-0.4215022	-4.716889	41.90102	
22:03:35	0	0	0	-0.2357873	6.124009	0	3	98	0	50	-0.3823928	-4.71455	41.88722	
22:03:37	0	0	0	-0.1061567	6.6875	0	3	98	0	50	-0.3780861	-4.614467	41.95575	
22:03:38	0	0	0	-0.15099	0.01729667	0	3	98	0	50	-0.3711295	-4.56637	41.91858	
22:03:40	0	0	0	0.1656481	10.02756	0	3	98	0	50	-0.4747105	-4.59965	41.94058	
22:03:42	0	0	0	0.05929187	0.1349191	0	3	99	0	50	-0.4509511	-4.642087	41.9795	
22:03:44	0	0	0	-0.01531925	-3.492969	0	3	99	0	50	-0.4478109	-4.647396	41.97274	
22:03:45	0	0	0	-0.3346598	-14.3655	0	3	99	0	50	-0.4530464	-4.73309	41.93577	
22:03:47	0	0	0	-0.4048429	-6.979682	0	3	99	0	50	-0.4439611	-4.683665	41.91299	
22:03:49	0	0	0	-0.1441433	6.839468	0	3	99	0	50	-0.4154799	-4.652362	41.95105	
22:03:50	0	0	0	-0.0459809	6.660338	0	3	99	0	50	-0.3647407	-4.760986	41.91245	
22:03:52	0	0	0	0.05116211	7.729402	0	3	99	0	50	-0.3771025	-4.721614	41.91836	
22:03:54	0	0	0	-0.07911697	-3.190066	0	3	99	0	50	-0.2943961	-4.600155	41.88258	
22:03:56	0	0	0	-0.3915286	-11.7304	0	3	99	0	50	-0.2420594	-4.616851	41.90891	
22:03:57	0	0	0	-0.1806777	3.988653	0	3	99	0	50	-0.265699	-4.491084	41.90116	
22:03:59	0	0	0	-0.02744108	7.077886	0	3	99	0	50	-0.2513746	-4.57973	41.90599	
22:04:01	0	0	0	-0.1125735	0.5836984	0	3	99	0	50	-0.2650491	-4.683633	41.87663	
22:04:02	0	0	0	-0.2608891	-7.123882	0	3	99	0	50	-0.2725351	-4.689139	41.86702	
22:04:04	0	0	0	-0.3621739	-8.027179	0	3	99	0	50	-0.3069007	-4.629062	41.85369	
22:04:06	0	0	0	-0.1503949	4.499085	0	3	99	0	50	-0.3730049	-4.696208	41.93149	
22:04:07	0	0	0	-0.2328018	-1.855611	0	3	99	0	50	-0.4154238	-4.751522	41.92361	
22:04:09	0	0	0	0.06425992	11.11911	0	3	99	0	50	-0.4077735	-4.773163	41.89293	
22:04:11	0	0	0	0.02430686	1.408211	0	3	99	0	50	-0.4481452	-4.841404	41.88898	
22:04:13	0	0	0	-0.09298393	-1.114088	0	3	99	0	50	-0.4705516	-4.778208	41.89695	
22:04:14	0	0	0	0.1446286	8.028275	0	3	99	0	50	-0.4636482	-4.735147	41.91518	
22:04:16	0	0	0	-0.04640344	-3.02765	0	3	99	0	50	-0.455584	-4.75025	41.94007	
22:04:18	0	0	0	-0.2045095	-5.89258	0	3	99	0	50	-0.4101626	-4.73761	41.9617	
22:04:19	0	0	0	-0.140089	-0.576041	0	3	99	0	50	-0.4236079	-4.685097	41.97243	
22:04:21	0	0	0	-0.07515408	1.135218	0	3	99	0	50	-0.4316226	-4.605949	41.98384	
22:04:23	0	0	0	-0.06618467	2.247219	0	3	99	0	50	-0.4070262	-4.623204	42.00764	
22:04:25	0	0	0	0.1190673	9.669026	0	3	99	0	50	-0.4292687	-4.643677	42.0047	
22:04:26	0	0	0	0.004345442	0.07881095	0	3	99	0	50	-0.382602	-4.599607	41.96244	
22:04:28	0	0	0	-0.1889827	-8.348641	0	3	99	0	50	-0.3559015	-4.643723	41.96616	
22:04:30	0	0	0	-0.09716265	0.8299473	0	3	99	0	50	-0.3697888	-4.489139	41.97246	
22:04:31	0	0	0	-0.2869478	-9.094549	0	3	99	0	50	-0.380732	-4.650511	41.97713	
22:04:33	0	0	0	-0.1981805	0.04160149	0	3	99	0	50	-0.3699149	-4.600694	41.95804	
22:04:35	0	0	0	-0.07200877	3.704011	0	3	99	0	50	-0.3466008	-4.55885	41.96908	
22:04:37	0	0	0	0.05901319	3.970747	0	3	99	0	50	-0.3257007	-4.617482	41.93404	
22:04:38	0	0	0	-0.09840725	-5.333812	0	3	99	0	50	-0.3455436	-4.645821	41.88918	
22:04:40	0	0	0	-0.4542882	-14.58016	0	3	99	0	50	-0.3389023	-4.624977	41.94347	
22:04:42	0	0	0	-0.2188347	3.065019	0	3	99	0	50	-0.3015258	-4.469337	41.95476	
22:04:43	0	0	0	-0.1211038	5.618475	0	3	99	0	50	-0.3210699	-4.48778	41.9916	
22:04:45	0	0	0	0.0158508	7.084876	0	3	99	0	50	-0.3195064	-4.448916	41.97615	
22:04:47	0	0	0	-0.09887752	-0.6279704	0	3	99	0	50	-0.3075063	-4.468739	42.01748	
22:04:49	0	0	0	0.02268523	4.998634	0	3	99	0	50	-0.3674394	-4.603457	42.0368	
22:04:50	0	0	0	0.04156866	1.419524	0	3	99	0	50	-0.3851519	-4.555305	42.02073	
22:04:52	0	0	0	-0.02026911	-2.245868	0	3	99	0	50	-0.376184	-4.594129	42.03046	
22:04:54	0	0	0	-0.008250508	-1.135842	0	3	99	0	50	-0.3808259	-4.62232	42.03411	
22:04:55	0	0	0	-0.1879905	-5.628471	0	3	99	0	50	-0.3859968	-4.610788	42.00712	
22:04:57	0	0	0	0.03300091	6.440049	0	3	99	0	50	-0.362791	-4.582111	42.01931	
22:04:59	0	0	0	-0.2121521	-6.35905	0	3	99	0	50	-0.402006	-4.68651	42.00112	
22:05:01	0	0	0	-0.2198623	-3.426167	0	3	99	0	50	-0.4001396	-4.786927	41.96739	
22:05:02	0	0	0	-0.03877059	6.496557	0	3	99	0	50	-0.3717705	-4.869674	41.95872	
22:05:04	0	0	0	-0.1554844	0.7082828	0	3	99	0	50	-0.3635211	-4.758855	41.91714	
22:05:06	0	0	0	-0.0786532	2.344874	0	3	99	0	50	-0.3596126	-4.730817	41.88221	
22:05:07	0	0	0	-0.2049287	-4.201634	0	3	99	0	50	-0.3379813	-4.712209	41.86157	
22:05:09	0	0	0	-0.02368074	5.476963	0	3	99	0	50	-0.3250346	-4.654022	41.85593	
22:05:11	0	0	0	-0.2031691	-5.92753	0	3	99	0	50	-0.284572	-4.611476	41.84916	
22:05:13	0	0	0	-0.3586464	-7.510133	0	3	99	0	50	-0.2691628	-4.609872	41.85404	
22:05:14	0	0	0	-0.5780026	-10.88157	0	3	99	0	50	-0.2341881	-4.676602	41.86486	
22:05:16	0	0	0	-0.339443	4.536824	0	3	99	0	50	-0.2517999	-4.718093	41.82838	
22:05:18	0	0	0	-0.4242287	-1.919082	0	3	99	0	50	-0.3364392	-4.729778	41.85847	
22:05:19	0	0	0	-0.6722299	-8.494907	0	3	99	0	50	-0.3552846	-4.751795	41.86381	
22:05:21	0	0	0	-0.797942	-8.821476	0	3	99	0	50	-0.4199991	-4.800004	41.83889	
22:05:23	0	0	0	-0.7080749	0.5960226	0	3	99	0	50	-0.4252382	-4.815765	41.77949	
22:05:25	0	0	0	-0.5883701	3.702978	0	3	99	0	50	-0.5115015	-4.760882	41.8263	
22:05:26	0	0	0	-0.2641996	13.63144	0	3	99	0	50	-0.4757559	-4.784236	41.89055	
22:05:28	0	0	0	-0.3109514	3.744881	0	3	99	0	50	-0.4752655	-4.744815	41.89912	
22:05:30	0	0	0	-0.2213364	5.865	0	3	99	0	50	-0.4775734	-4.653031	41.89532	
22:05:31	0	0	0	-0.155217	5.261591	0	3	99	0	50	-0.4918759	-4.615908	41.94073	
22:05:33	0	0	0	-0.2256166	-1.889631	0	3	99	0	50	-0.4761584	-4.505983	41.96992	
22:05:35	0	0	0	-0.07623406	5.139261	0	3	99	0	50	-0.4333329	-4.546411	42.00443	
22:05:36	0	0	0	-0.191479	-1.139355	0	3	99	0	50	-0.5068119	-4.658431	41.99125	
22:05:38	0	0	0	0.1776258	13.10561	0	3	99	0	50	-0.4670142	-4.719682	41.94553	
22:05:40	0	0	0	0.2477203	6.927539	0	3	99	0	50	-0.3486452	-4.665682	41.94329	
22:05:42	0	0	0	-0.06151805	-10.25821	0	3	99	0	50	-0.3668967	-4.569026	41.95185	
22:05:43	0	0	0	-0.3491185	-15.72212	0	3	99	0	50	-0.3556947	-4.618356	41.97164	
22:05:45	0	0	0	-0.1700011	1.714306	0	3	99	0	50	-0.4086186	-4.758927	41.92678	
22:05:47	0	0	0	0.02181397	8.130838	0	3	99	0	50	-0.4224453	-4.695596	41.91103	
22:05:48	0	0	0	-0.002357947	2.545167	0	3	99	0	50	-0.4164303	-4.73764	41.86445	
22:05:50	0	0	0	-0.08841096	-1.705331	0	3	99	0	50	-0.3868693	-4.71886	41.92769	
22:05:52	0	0	0	-0.2449712	-5.226079	0	3	99	0	50	-0.3080656	-4.549682	41.94998	
22:05:54	0	0	0	-0.1960813	-0.4010247	0	3	99	0	50	-0.3590863	-4.538871	41.99441	
22:05:55	0	0	0	-0.2841983	-4.914471	0	3	99	0	50	-0.3720434	-4.517123	41.97809	
22:05:57	0	0	0	-0.2507061	-1.315705	0	3	99	0	50	-0.3912443	-4.604411	41.97463	
22:05:59	0	0	0	-0.2299445	2.73788	0	3	99	0	50	-0.3689238	-4.644416	41.97187	
22:06:00	0	0	0	-0.2283043	0.6825716	0	3	99	0	50	-0.3962313	-4.682826	41.94778	
