Date	Latitude(deg) 	Longitude(deg)	hamsl(m)	hafl(m)	climbrate(cm/s)	GroundSpeed(m/s)	Airspeed(m/s)	Mav_Link(%)	Rssi_Link(%)	Throttle	Roll(deg)	Pitch(deg)	Yaw(deg)
09:20:09	0	0	0	-0.01105878	-45.04717	0	3	40	0	50	1.370964	-1.058474	50.35931	
09:20:11	0	0	0	0.7482638	-17.16162	0	3	50	0	50	1.403583	-0.9767321	50.34348	
09:20:12	0	0	0	0.5585578	-33.6469	0	3	58	0	50	1.396246	-0.8415166	50.36921	
09:20:14	0	0	0	0.7626591	-22.73659	0	3	63	0	50	1.424446	-0.8950711	50.37814	
09:20:16	0	0	0	0.7688305	-24.91518	0	3	68	0	50	1.405646	-0.8545486	50.41307	
09:20:18	0	0	0	0.4706155	-33.42979	0	3	72	0	50	1.482516	-0.7870465	50.41909	
09:20:19	0	0	0	0.4129694	-26.46088	0	3	75	0	50	1.481182	-0.8574712	50.43541	
09:20:21	0	0	0	0.6962884	-7.589988	0	3	78	0	50	1.427127	-0.8939101	50.41463	
09:20:23	0	0	0	0.5277379	-24.20749	0	3	80	0	50	1.441592	-0.9208469	50.00105	
09:20:24	0	0	0	1.043616	-44.40781	0	3	82	0	50	3.034497	-2.216744	-16.7492	
09:20:26	0	0	0	0.6798708	-59.56828	0	3	84	0	50	0.3308035	-0.4506406	-28.82086	
09:20:28	0	0	0	0.931472	-9.986859	0	3	86	0	50	0.8299242	-0.318034	-27.11375	
09:20:29	0	0	0	0.8840492	-5.489998	0	3	87	0	50	1.713423	0.2572527	-25.75011	
09:20:31	0	0	0	0.690064	-4.029767	0	3	88	0	50	1.399076	-0.1306928	-24.3621	
09:20:33	0	0	0	0.4966179	-3.844853	0	3	89	0	50	1.631606	0.03789421	-23.25978	
09:20:34	0	0	0	0.7542086	14.15537	0	3	90	0	50	1.845193	0.2225297	-22.48186	
09:20:36	0	0	0	1.031368	20.9369	0	3	91	0	50	1.964573	0.3333393	-22.13568	
09:20:38	0	0	0	1.104055	14.26965	0	3	92	0	50	2.096727	0.3883107	-21.841	
09:20:39	0	0	0	1.172186	13.08231	0	3	92	0	50	2.390891	-3.749228	-21.3667	
09:20:41	0	0	0	1.012524	1.392729	0	3	93	0	50	2.266925	-1.830981	-21.31481	
09:20:43	0	0	0	0.7427562	-13.41739	0	3	93	0	50	2.224052	0.2355354	-21.07106	
09:20:45	0	0	0	0.8549527	2.38506	0	3	94	0	50	2.136543	0.1063007	-20.9066	
09:20:46	0	0	0	0.9114476	4.557301	0	3	94	0	50	1.789646	-0.2238501	-20.71321	
09:20:48	0	0	0	1.127444	12.82444	0	3	95	0	50	2.528818	0.4894155	-20.79007	
09:20:50	0	0	0	1.244722	9.672174	0	3	95	0	50	1.358274	0.02098239	-20.70847	
09:20:51	0	0	0	1.212505	2.962983	0	3	96	0	50	2.107058	0.2060557	-20.83628	
09:20:53	0	0	0	1.441813	10.75493	0	3	96	0	50	2.22877	0.2483161	-20.9869	
09:20:55	0	0	0	1.354918	1.681629	0	3	96	0	50	2.226538	0.203069	-21.07753	
09:20:56	0	0	0	0.9805418	-15.37663	0	3	96	0	50	2.393822	-2.977174	-21.18006	
09:20:58	0	0	0	0.9238031	-8.605689	0	3	97	0	50	2.249122	0.08014893	-21.19678	
09:21:00	0	0	0	1.268791	5.798043	0	3	97	0	50	1.46363	0.4337396	-21.36825	
09:21:01	0	0	0	1.292996	5.45715	0	3	97	0	50	2.18878	-0.01645473	-21.26274	
09:21:03	0	0	0	1.315668	1.905912	0	3	97	0	50	2.181519	-0.1294983	-21.49525	
09:21:05	0	0	0	1.24519	0.3481769	0	3	97	0	50	2.146368	-0.1437957	-21.6246	
09:21:07	0	0	0	1.301785	2.524505	0	3	98	0	50	0.3764588	0.8462992	-21.79126	
09:21:08	0	0	0	1.161262	-4.372084	0	3	98	0	50	2.171529	0.06275637	-21.68835	
09:21:10	0	0	0	1.168587	-3.997672	0	3	98	0	50	2.137683	-0.003393269	-22.11514	
09:21:12	0	0	0	1.064595	-5.505578	0	3	98	0	50	2.247707	-0.08149191	-22.40337	
09:21:13	0	0	0	1.323454	8.989698	0	3	98	0	50	2.222233	-0.1714959	-22.57573	
09:21:15	0	0	0	1.68196	18.84207	0	3	98	0	50	2.263999	-0.08722144	-22.69245	
09:21:17	0	0	0	1.326647	-3.957174	0	3	98	0	50	2.21672	-0.1020426	-22.78326	
09:21:18	0	0	0	0.9275019	-15.22398	0	3	98	0	50	2.200955	0.008814999	-22.86691	
09:21:20	0	0	0	0.8508266	-9.836721	0	3	98	0	50	2.217581	0.01418006	-22.95536	
09:21:22	0	0	0	1.157593	5.549169	0	3	99	0	50	2.174323	-0.03718398	-23.00528	
09:21:23	0	0	0	1.354517	13.0856	0	3	99	0	50	2.129359	-0.09155259	-23.05365	
09:21:25	0	0	0	1.23156	-1.248125	0	3	99	0	50	2.117131	-0.1266026	-23.11014	
09:21:27	0	0	0	1.016022	-7.564084	0	3	99	0	50	2.105888	-0.1024504	-23.09872	
09:21:28	0	0	0	1.248161	5.835665	0	3	99	0	50	2.179272	-0.00612892	-23.0974	
09:21:30	0	0	0	1.094692	-5.315392	0	3	99	0	50	2.166585	-0.006674696	-23.08111	
09:21:32	0	0	0	1.098606	-1.198267	0	3	99	0	50	2.147589	-0.1156795	-23.10287	
09:21:34	0	0	0	1.305401	7.796419	0	3	99	0	50	2.181676	-0.0831613	-23.10193	
09:21:35	0	0	0	1.190946	-0.06987392	0	3	99	0	50	2.171306	0.05554716	-23.09034	
09:21:37	0	0	0	1.340893	3.927297	0	3	99	0	50	2.216528	0.06667093	-23.12645	
09:21:39	0	0	0	1.363245	4.412081	0	3	99	0	50	2.145062	0.004241494	-23.11819	
09:21:40	0	0	0	1.446077	0.9974452	0	3	99	0	50	2.115171	-0.01062137	-23.12769	
09:21:42	0	0	0	1.171306	-10.25275	0	3	99	0	50	2.154351	0.01655809	-23.12103	
09:21:44	0	0	0	1.258786	-2.154362	0	3	99	0	50	2.162745	-0.0935225	-23.13266	
09:21:45	0	0	0	0.9624841	-14.20799	0	3	99	0	50	2.141259	-0.1059786	-23.10473	
09:21:47	0	0	0	1.314816	4.974698	0	3	99	0	50	2.121866	-0.1148308	-23.10874	
09:21:49	0	0	0	1.291897	1.367201	0	3	99	0	50	2.155377	-0.09250901	-23.09079	
09:21:50	0	0	0	1.280661	2.99508	0	3	99	0	50	2.108621	-0.01347201	-23.04645	
09:21:52	0	0	0	1.460101	8.26567	0	3	99	0	50	2.113262	-0.08812434	-23.03044	
09:21:54	0	0	0	1.499547	4.489426	0	3	99	0	50	2.138464	-0.170264	-23.02219	
09:21:56	0	0	0	1.192992	-9.370318	0	3	99	0	50	2.211101	-0.08130216	-23.00699	
09:21:57	0	0	0	1.23482	-3.752182	0	3	99	0	50	2.219584	-0.06206043	-22.96277	
09:21:59	0	0	0	1.434269	8.392673	0	3	99	0	50	2.261169	-0.03958201	-23.00518	
09:22:01	0	0	0	1.411665	-0.05953647	0	3	99	0	50	2.28872	-0.06581667	-23.01418	
09:22:02	0	0	0	1.097865	-10.51125	0	3	99	0	50	2.291063	-0.07525478	-23.02265	
09:22:04	0	0	0	1.352044	4.112147	0	3	99	0	50	2.270404	-0.1446093	-23.02892	
09:22:06	0	0	0	1.324179	0.9311268	0	3	99	0	50	2.247476	-0.07398645	-23.06148	
09:22:07	0	0	0	1.179004	-8.388313	0	3	99	0	50	2.203702	0.04377548	-23.03744	
09:22:09	0	0	0	0.9019946	-13.38845	0	3	99	0	50	2.208834	0.1037361	-23.05978	
09:22:11	0	0	0	1.062852	-1.659444	0	3	99	0	50	2.216821	0.1173861	-23.06978	
09:22:12	0	0	0	0.8317089	-9.567331	0	3	99	0	50	2.18064	0.05343092	-23.08102	
09:22:14	0	0	0	1.14346	7.809412	0	3	99	0	50	2.173598	-0.0248247	-23.08509	
09:22:16	0	0	0	1.52309	17.10028	0	3	99	0	50	2.188101	0.07579462	-23.08349	
09:22:17	0	0	0	1.337593	0.1880618	0	3	99	0	50	2.193393	0.08849606	-23.0416	
09:22:19	0	0	0	1.294628	1.260853	0	3	99	0	50	2.181726	0.07983906	-23.08915	
09:22:21	0	0	0	1.416928	6.860622	0	3	99	0	50	2.195299	0.07561208	-23.0751	
09:22:23	0	0	0	1.440246	3.806175	0	3	99	0	50	2.235376	0.04621637	-23.02837	
09:22:24	0	0	0	1.549061	5.953063	0	3	99	0	50	2.215271	0.03072832	-23.01286	
09:22:26	0	0	0	1.696462	8.646348	0	3	99	0	50	2.208861	0.06714445	-22.99093	
09:22:28	0	0	0	1.654005	-0.2097899	0	3	99	0	50	2.216576	0.1052191	-22.98592	
09:22:29	0	0	0	1.425558	-9.160822	0	3	99	0	50	2.121323	0.03778114	-23.01908	
09:22:31	0	0	0	1.464912	-3.611181	0	3	99	0	50	2.151866	0.01447354	-23.0404	
09:22:33	0	0	0	1.183494	-12.0502	0	3	99	0	50	2.193857	0.004876808	-23.03766	
09:22:34	0	0	0	1.277163	-1.141037	0	3	99	0	50	2.202515	0.09037454	-22.98777	
09:22:36	0	0	0	1.601266	10.69177	0	3	99	0	50	2.171481	0.08772142	-23.02058	
09:22:38	0	0	0	1.343417	-2.98379	0	3	99	0	50	2.060455	-0.08436763	-23.04775	
09:22:39	0	0	0	1.040345	-12.42048	0	3	99	0	50	2.060417	-0.152863	-23.03484	
09:22:41	0	0	0	1.194538	0.7535011	0	3	99	0	50	2.019729	-0.1401164	-22.98677	
09:22:43	0	0	0	1.163212	-1.567117	0	3	99	0	50	2.065105	-0.1582086	-22.97532	
09:22:45	0	0	0	1.150953	0.714851	0	3	99	0	50	2.090435	-0.05299705	-22.97117	
09:22:46	0	0	0	1.283805	4.756014	0	3	99	0	50	2.148199	-0.0793262	-22.99548	
09:22:48	0	0	0	0.8623596	-15.5921	0	3	99	0	50	2.115534	-0.07703094	-22.999	
09:22:50	0	0	0	1.016175	1.28961	0	3	99	0	50	2.153967	-0.07077567	-23.00073	
09:22:51	0	0	0	1.478971	15.5666	0	3	99	0	50	2.163726	-0.1512191	-23.03039	
09:22:53	0	0	0	1.272907	-1.751141	0	3	99	0	50	2.174636	-0.2500553	-23.05017	
09:22:55	0	0	0	1.105627	-7.016445	0	3	99	0	50	2.196882	-0.2141018	-23.05012	
09:22:56	0	0	0	1.247562	0.4056767	0	3	99	0	50	2.200277	-0.1038773	-23.08722	
09:22:58	0	0	0	1.459081	8.535581	0	3	99	0	50	2.227364	-0.1678899	-23.05457	
09:23:00	0	0	0	1.382797	-0.359014	0	3	99	0	50	2.162205	-0.1974427	-23.05701	
09:23:01	0	0	0	1.538729	4.965978	0	3	99	0	50	2.165396	-0.2771871	-23.07823	
09:23:03	0	0	0	1.330488	-5.451912	0	3	99	0	50	2.155535	-0.3031923	-23.04901	
09:23:05	0	0	0	1.373592	-0.3230598	0	3	99	0	50	2.11115	-0.2079382	-22.99167	
09:23:06	0	0	0	1.66663	10.58584	0	3	99	0	50	2.101818	-0.1908222	-22.99906	
09:23:08	0	0	0	1.609327	1.831096	0	3	99	0	50	2.043146	-0.1104122	-22.94713	
09:23:10	0	0	0	1.540547	-3.57137	0	3	99	0	50	2.057301	-0.08208565	-22.97738	
09:23:12	0	0	0	1.434784	-5.208433	0	3	99	0	50	2.038908	-0.0481436	-22.94925	
09:23:13	0	0	0	1.461344	-1.167885	0	3	99	0	50	2.070636	-0.006699936	-22.95984	
09:23:15	0	0	0	1.700616	8.718369	0	3	99	0	50	2.077291	-0.07874703	-22.9685	
09:23:17	0	0	0	1.967475	14.38562	0	3	99	0	50	2.123755	-0.004618862	-22.94275	
09:23:18	0	0	0	1.987032	5.789051	0	3	99	0	50	2.135952	-0.0974682	-22.98113	
09:23:20	0	0	0	1.560373	-13.58498	0	3	99	0	50	2.112847	-0.1034227	-22.97178	
09:23:22	0	0	0	1.018876	-26.91587	0	3	99	0	50	2.168312	-0.1285178	-22.98815	
09:23:23	0	0	0	1.03887	-10.74968	0	3	99	0	50	2.164153	-0.1370678	-23.00716	
09:23:25	0	0	0	1.07853	-0.1768793	0	3	99	0	50	2.181339	-0.1040563	-23.00344	
09:23:27	0	0	0	1.355045	11.97559	0	3	99	0	50	2.181684	-0.1302466	-22.99415	
09:23:28	0	0	0	1.278446	2.389477	0	3	99	0	50	2.125835	-0.2041214	-23.00491	
09:23:30	0	0	0	1.177356	-4.457655	0	3	99	0	50	2.104536	-0.1588874	-22.95799	
09:23:32	0	0	0	1.279213	5.427979	0	3	99	0	50	2.041064	-0.1184798	-22.92119	
09:23:34	0	0	0	1.047353	-5.3346	0	3	99	0	50	2.050602	-0.08384293	-22.92643	
09:23:35	0	0	0	1.104406	-0.9227355	0	3	99	0	50	2.112654	-0.09500416	-22.93497	
09:23:37	0	0	0	1.361446	9.652007	0	3	99	0	50	2.142189	-0.1462214	-22.93671	
09:23:39	0	0	0	1.816774	22.72195	0	3	99	0	50	2.172106	-0.06085196	-22.98553	
09:23:40	0	0	0	1.978389	15.28376	0	3	99	0	50	2.101481	-0.05908455	-23.00394	
09:23:42	0	0	0	1.682435	-4.679844	0	3	99	0	50	2.126075	-0.09498896	-23.01586	
09:23:44	0	0	0	1.790038	0.03638993	0	3	99	0	50	2.10534	-0.06202549	-23.03678	
09:23:45	0	0	0	1.800002	1.971	0	3	99	0	50	2.097958	-0.074474	-23.00307	
09:23:47	0	0	0	1.755891	-3.549274	0	3	99	0	50	2.123234	-0.08059396	-23.01408	
09:23:49	0	0	0	1.345072	-17.98923	0	3	99	0	50	2.134862	-0.0974605	-23.01236	
09:23:50	0	0	0	1.741822	9.543549	0	3	99	0	50	2.129458	-0.1106516	-22.98089	
09:23:52	0	0	0	1.632907	-3.045086	0	3	99	0	50	2.143297	-0.1713003	-22.97768	
09:23:54	0	0	0	1.647529	-0.3562446	0	3	99	0	50	2.158648	-0.1074559	-22.98451	
09:23:55	0	0	0	1.500102	-7.3149	0	3	99	0	50	2.169899	-0.03361291	-23.02346	
09:23:57	0	0	0	0.962654	-23.59966	0	3	99	0	50	2.089546	-0.169778	-23.02777	
09:23:59	0	0	0	1.123835	-1.68194	0	3	99	0	50	2.112602	-0.1376625	-23.0161	
09:24:01	0	0	0	1.482886	13.7543	0	3	99	0	50	2.123772	-0.1021959	-23.04949	
09:24:02	0	0	0	1.09516	-7.566563	0	3	99	0	50	2.124207	-0.02211284	-23.02843	
09:24:04	0	0	0	1.537522	14.73045	0	3	99	0	50	2.14418	-0.01301887	-23.05443	
09:24:06	0	0	0	1.752622	13.38816	0	3	99	0	50	2.142913	-0.04901249	-23.05396	
09:24:07	0	0	0	1.582175	-2.598364	0	3	99	0	50	2.167722	-0.01038973	-23.07285	
09:24:09	0	0	0	1.581704	-2.397299	0	3	99	0	50	2.150407	0.08055863	-23.0539	
09:24:11	0	0	0	1.577975	-2.28179	0	3	99	0	50	2.185178	0.03048831	-23.04624	
09:24:12	0	0	0	1.366353	-10.49116	0	3	99	0	50	2.102138	0.01480049	-23.07145	
09:24:14	0	0	0	1.226661	-8.40639	0	3	99	0	50	2.147053	0.06414481	-23.04536	
09:24:16	0	0	0	1.362755	0.8304879	0	3	99	0	50	2.150573	0.1295839	-23.06629	
09:24:17	0	0	0	1.233521	-3.368916	0	3	99	0	50	2.11713	0.04780049	-23.07528	
09:24:19	0	0	0	0.9956293	-9.997635	0	3	99	0	50	2.109874	0.05386202	-23.06168	
09:24:21	0	0	0	0.9737128	-4.659296	0	3	99	0	50	2.110393	0.02815708	-23.03966	
09:24:22	0	0	0	1.088399	3.283612	0	3	99	0	50	2.046838	-0.0009693533	-23.01493	
09:24:24	0	0	0	1.153652	3.233928	0	3	99	0	50	2.02068	-0.06130917	-23.04049	
09:24:26	0	0	0	1.401429	12.40357	0	3	99	0	50	2.015269	-0.04693381	-22.99612	
09:24:28	0	0	0	1.38028	1.093508	0	3	99	0	50	2.056001	-0.02335994	-22.97153	
09:24:29	0	0	0	0.9803645	-13.64459	0	3	99	0	50	2.076269	0.03348628	-22.95982	
09:24:31	0	0	0	0.9455744	-7.423497	0	3	99	0	50	2.131055	0.05799242	-22.98871	
09:24:33	0	0	0	1.44017	18.03532	0	3	99	0	50	2.127368	0.01109954	-23.01116	
09:24:34	0	0	0	1.657761	15.11113	0	3	99	0	50	2.185929	-0.01276616	-22.96909	
09:24:36	0	0	0	1.260062	-8.644436	0	3	99	0	50	2.177079	-0.07729854	-22.98126	
09:24:38	0	0	0	0.8976174	-16.7195	0	3	99	0	50	2.150601	-0.1360295	-23.00341	
09:24:39	0	0	0	1.083413	-1.044324	0	3	99	0	50	2.147482	-0.1093198	-22.98045	
09:24:41	0	0	0	1.211827	6.13887	0	3	99	0	50	2.169247	-0.05002437	-22.98883	
09:24:43	0	0	0	1.161418	1.074541	0	3	99	0	50	2.184318	-0.0727371	-22.95614	
09:24:44	0	0	0	1.295569	3.944527	0	3	99	0	50	2.18167	-0.1070849	-22.95765	
09:24:46	0	0	0	1.108568	-6.15478	0	3	99	0	50	2.195236	-0.217664	-22.99595	
09:24:48	0	0	0	0.9681135	-10.35523	0	3	99	0	50	2.174949	-0.1759442	-22.97567	
09:24:50	0	0	0	0.9356123	-7.709606	0	3	99	0	50	2.164454	-0.1053239	-22.99857	
09:24:51	0	0	0	1.13066	6.36012	0	3	99	0	50	2.127163	-0.1811167	-22.991	
09:24:53	0	0	0	1.445399	14.94222	0	3	99	0	50	2.121864	-0.1602315	-22.94135	
09:24:55	0	0	0	1.543772	10.51838	0	3	99	0	50	2.099824	-0.219736	-22.96451	
09:24:56	0	0	0	1.35143	-3.721739	0	3	99	0	50	2.121929	-0.1186063	-22.93029	
09:24:58	0	0	0	1.293901	-3.71617	0	3	99	0	50	2.142251	-0.06987856	-22.95781	
09:25:00	0	0	0	1.007148	-16.10356	0	3	99	0	50	2.213702	-0.01308632	-22.98884	
09:25:01	0	0	0	1.20117	2.2541	0	3	99	0	50	2.145319	-0.08441504	-22.98229	
09:25:03	0	0	0	1.218904	0.1027137	0	3	99	0	50	2.089835	0.0291442	-23.00411	
09:25:05	0	0	0	1.289654	2.643433	0	3	99	0	50	2.108881	0.009302183	-23.00364	
09:25:06	0	0	0	1.257481	1.44205	0	3	99	0	50	2.166478	-0.03130505	-23.0719	
09:25:08	0	0	0	1.355457	3.948269	0	3	99	0	50	2.180738	0.02707219	-23.08257	
09:25:10	0	0	0	1.427242	4.082614	0	3	99	0	50	2.224149	0.02316992	-23.04937	
09:25:11	0	0	0	1.47753	3.881855	0	3	99	0	50	2.23996	0.05953322	-23.05545	
09:25:13	0	0	0	1.491175	0.7465076	0	3	99	0	50	2.220109	0.03739277	-23.02394	
09:25:15	0	0	0	1.426734	0.8692417	0	3	99	0	50	2.183293	-0.06578412	-23.01917	
09:25:17	0	0	0	1.572574	5.2284	0	3	99	0	50	2.139318	-0.01893286	-23.0133	
09:25:18	0	0	0	1.604545	2.50023	0	3	99	0	50	2.163908	0.02480383	-23.03524	
09:25:20	0	0	0	1.468036	-5.353737	0	3	99	0	50	2.153976	0.09882135	-23.02466	
09:25:22	0	0	0	1.369351	-5.908164	0	3	99	0	50	2.167544	0.1201597	-23.03427	
09:25:23	0	0	0	1.33331	-5.776028	0	3	99	0	50	2.197833	0.2030894	-23.00305	
09:25:25	0	0	0	1.675048	12.17366	0	3	99	0	50	2.169644	0.1035516	-23.00332	
09:25:27	0	0	0	1.307032	-9.51638	0	3	99	0	50	2.237808	0.1543438	-22.99982	
09:25:28	0	0	0	1.575618	5.599136	0	3	99	0	50	2.266747	0.07299526	-23.0348	
09:25:30	0	0	0	1.416	-4.433124	0	3	99	0	50	2.257324	0.08915885	-23.05857	
09:25:32	0	0	0	1.386097	-2.273628	0	3	99	0	50	2.296085	0.1069664	-23.04754	
09:25:33	0	0	0	1.509646	3.716848	0	3	99	0	50	2.267919	0.08912034	-23.0705	
09:25:35	0	0	0	1.591004	4.267159	0	3	99	0	50	2.21258	0.003148023	-23.07652	
09:25:37	0	0	0	1.307658	-6.709731	0	3	99	0	50	2.141224	-0.1067022	-23.04459	
09:25:39	0	0	0	1.575449	7.605835	0	3	99	0	50	2.104132	-0.2103368	-23.03319	
09:25:40	0	0	0	1.697199	5.844247	0	3	99	0	50	2.123832	-0.2039665	-23.02372	
09:25:42	0	0	0	1.392717	-6.676332	0	3	99	0	50	2.108219	-0.1085996	-23.04171	
09:25:44	0	0	0	1.178385	-12.55122	0	3	99	0	50	2.133786	-0.1876253	-23.03861	
09:25:45	0	0	0	1.460449	6.708185	0	3	99	0	50	2.1953	-0.05299079	-22.98902	
09:25:47	0	0	0	1.919199	19.54061	0	3	99	0	50	2.133642	-0.2111481	-22.97326	
09:25:49	0	0	0	1.933897	4.006854	0	3	99	0	50	2.121805	-0.157619	-22.98096	
09:25:50	0	0	0	1.622311	-10.59283	0	3	99	0	50	2.094189	-0.06274944	-23.00044	
09:25:52	0	0	0	1.256762	-19.4101	0	3	100	0	50	2.073918	0.001855677	-22.97534	
09:25:54	0	0	0	1.247657	-6.847493	0	3	100	0	50	2.141375	-0.006114247	-23.00247	
09:25:55	0	0	0	1.438559	5.964036	0	3	100	0	50	2.041945	0.02729493	-22.98196	
09:25:57	0	0	0	1.29044	-5.859473	0	3	100	0	50	2.080766	0.004674037	-22.9841	
09:25:59	0	0	0	1.264727	-1.591277	0	3	100	0	50	2.144449	0.0267149	-22.98238	
09:26:00	0	0	0	1.31673	-1.253847	0	3	100	0	50	2.122569	-0.08334641	-22.9858	
09:26:02	0	0	0	1.395783	2.565629	0	3	100	0	50	2.116605	-0.1778292	-22.97882	
09:26:04	0	0	0	1.281548	-1.66227	0	3	100	0	50	2.113269	-0.0970827	-22.99834	
09:26:06	0	0	0	1.325042	1.608636	0	3	100	0	50	2.151006	-0.03638437	-22.98134	
09:26:07	0	0	0	1.410304	4.1347	0	3	100	0	50	2.152471	0.03126903	-22.984	
09:26:09	0	0	0	1.424087	1.095293	0	3	100	0	50	2.155129	-0.01340681	-22.98767	
09:26:11	0	0	0	1.150841	-9.768332	0	3	100	0	50	2.150058	0.02855926	-22.96924	
09:26:12	0	0	0	1.532937	11.60421	0	3	100	0	50	2.168201	0.05358728	-22.99169	
09:26:14	0	0	0	1.519422	3.089321	0	3	100	0	50	2.197198	0.05576242	-23.01729	
09:26:16	0	0	0	1.500152	2.724749	0	3	100	0	50	2.15525	0.007575907	-22.99788	
09:26:17	0	0	0	1.385831	-2.675198	0	3	100	0	50	2.204008	0.01625179	-23.01842	
09:26:19	0	0	0	1.399494	-0.5344675	0	3	100	0	50	2.172238	0.0058833	-22.99065	
09:26:21	0	0	0	1.460185	2.580379	0	3	100	0	50	2.235826	0.02717241	-22.99381	
09:26:22	0	0	0	1.425084	-0.8923468	0	3	100	0	50	2.200402	0.06210297	-22.98578	
09:26:24	0	0	0	1.205892	-6.984996	0	3	100	0	50	2.163532	0.03274265	-23.02818	
09:26:26	0	0	0	1.088751	-8.873096	0	3	100	0	50	2.161653	-0.05349987	-23.05798	
09:26:28	0	0	0	1.269478	5.514668	0	3	100	0	50	2.15166	-0.05516707	-23.06891	
09:26:29	0	0	0	1.510906	7.911797	0	3	100	0	50	2.156141	-0.02690006	-23.05132	
09:26:31	0	0	0	1.358121	-2.336696	0	3	100	0	50	2.145667	-0.03917247	-23.02052	
09:26:33	0	0	0	1.331409	0.124856	0	3	100	0	50	2.124851	0.03290443	-22.95469	
09:26:34	0	0	0	1.203323	-6.13805	0	3	100	0	50	2.188494	-0.01975307	-22.94079	
09:26:36	0	0	0	1.473004	10.6016	0	3	100	0	50	2.142267	-0.09826311	-22.91851	
09:26:38	0	0	0	1.458154	2.797066	0	3	100	0	50	2.131531	-0.1142983	-22.9184	
09:26:39	0	0	0	1.584282	5.152222	0	3	100	0	50	2.126379	-0.04302566	-22.93851	
09:26:41	0	0	0	1.286928	-10.62403	0	3	100	0	50	2.18797	0.1249787	-22.92761	
09:26:43	0	0	0	1.311637	-2.228593	0	3	100	0	50	2.187788	0.1256846	-22.96	
09:26:44	0	0	0	1.382894	0.3817621	0	3	100	0	50	2.173754	0.03807147	-23.00908	
09:26:46	0	0	0	1.426321	1.897624	0	3	100	0	50	2.233484	-0.02310423	-23.04075	
09:26:48	0	0	0	1.28358	-6.653618	0	3	100	0	50	2.198575	-0.1093732	-23.08129	
09:26:49	0	0	0	1.606034	9.967672	0	3	100	0	50	2.219138	-0.190193	-23.0738	
09:26:51	0	0	0	1.612696	5.826253	0	3	100	0	50	2.168621	-0.204164	-23.07486	
09:26:53	0	0	0	1.16408	-16.29901	0	3	100	0	50	2.151691	-0.1718273	-23.06447	
09:26:55	0	0	0	1.249509	-3.121546	0	3	100	0	50	2.158855	0.026318	-23.02127	
09:26:56	0	0	0	1.574625	9.340189	0	3	100	0	50	2.179746	-0.05931785	-23.04999	
09:26:58	0	0	0	1.601511	6.757656	0	3	100	0	50	2.145855	-0.01871792	-23.00168	
09:27:00	0	0	0	1.598238	-1.183331	0	3	100	0	50	2.159801	0.1286314	-23.00519	
09:27:01	0	0	0	1.127559	-20.10681	0	3	100	0	50	2.112079	0.04297981	-23.03787	
09:27:03	0	0	0	1.13289	-8.60972	0	3	100	0	50	2.141084	0.05184215	-23.02109	
09:27:05	0	0	0	1.048496	-8.010211	0	3	100	0	50	2.131706	-0.06342711	-23.00232	
09:27:06	0	0	0	1.238636	6.181421	0	3	100	0	50	2.199564	0.0420373	-22.99319	
09:27:08	0	0	0	1.433971	8.53823	0	3	100	0	50	2.214887	0.03878646	-23.00642	
09:27:10	0	0	0	1.515911	6.492454	0	3	100	0	50	2.173416	0.02231631	-22.97738	
09:27:11	0	0	0	1.696407	11.23205	0	3	100	0	50	2.201957	-0.04504931	-22.95184	
09:27:13	0	0	0	1.627872	2.144287	0	3	100	0	50	2.157807	-0.0323585	-22.92725	
09:27:15	0	0	0	1.613729	-1.630078	0	3	100	0	50	2.198928	-0.01016129	-22.93073	
09:27:17	0	0	0	1.448792	-4.711377	0	3	100	0	50	2.155262	-0.01160081	-22.97081	
09:27:18	0	0	0	1.561188	-0.05745171	0	3	100	0	50	2.132942	-0.062017	-22.97339	
09:27:20	0	0	0	1.349059	-8.361788	0	3	100	0	50	2.191425	-0.01180401	-23.00454	
09:27:22	0	0	0	1.337839	-1.898777	0	3	100	0	50	2.189161	-0.008305349	-23.0255	
09:27:23	0	0	0	1.546278	7.420294	0	3	100	0	50	2.170614	0.0197512	-23.03299	
09:27:25	0	0	0	1.200142	-12.17515	0	3	100	0	50	2.176232	0.07490803	-23.0385	
09:27:27	0	0	0	1.365893	2.203571	0	3	100	0	50	2.172224	0.0720861	-23.01548	
09:27:28	0	0	0	1.658816	10.70321	0	3	100	0	50	2.150878	0.01254108	-23.0572	
09:27:30	0	0	0	1.647229	2.67026	0	3	100	0	50	2.14453	0.07888363	-23.06453	
09:27:32	0	0	0	1.527486	-3.322714	0	3	100	0	50	2.172599	0.1221412	-23.05655	
09:27:33	0	0	0	1.448357	-4.711685	0	3	100	0	50	2.217056	0.1406062	-23.0446	
09:27:35	0	0	0	1.51917	4.501188	0	3	100	0	50	2.226271	0.1283485	-23.0545	
09:27:37	0	0	0	1.613638	4.814282	0	3	100	0	50	2.151738	0.05017334	-23.04601	
09:27:39	0	0	0	1.317038	-11.54917	0	3	100	0	50	2.194657	0.09555037	-23.04297	
09:27:40	0	0	0	1.183185	-12.04229	0	3	100	0	50	2.180665	-0.01387281	-23.10076	
09:27:42	0	0	0	1.334965	1.703101	0	3	100	0	50	2.161978	-0.0005490298	-23.08095	
09:27:44	0	0	0	1.537736	7.04926	0	3	100	0	50	2.153375	-0.007364972	-23.09908	
09:27:45	0	0	0	1.624035	8.052591	0	3	100	0	50	2.203598	-0.06205841	-23.07882	
09:27:47	0	0	0	1.625104	1.524368	0	3	100	0	50	2.156831	-0.02659531	-23.01557	
09:27:49	0	0	0	1.478374	-1.923747	0	3	100	0	50	2.106642	-0.120285	-22.997	
09:27:50	0	0	0	1.71566	5.85905	0	3	100	0	50	2.117768	-0.05207491	-23.01561	
09:27:52	0	0	0	1.517364	-2.717396	0	3	100	0	50	2.125794	0.01315457	-22.9887	
09:27:54	0	0	0	1.402642	-6.215152	0	3	100	0	50	2.16363	-0.08440211	-22.95878	
09:27:55	0	0	0	1.633454	5.85606	0	3	100	0	50	2.197943	-0.1063642	-22.94378	
09:27:57	0	0	0	1.79694	7.542855	0	3	100	0	50	2.15997	-0.1381763	-22.9897	
09:27:59	0	0	0	1.731567	0.7367212	0	3	100	0	50	2.160279	-0.1885537	-23.0102	
09:28:00	0	0	0	1.674092	-2.839166	0	3	100	0	50	2.175116	-0.2157167	-22.9995	
09:28:02	0	0	0	1.569114	-6.069074	0	3	100	0	50	2.15286	-0.09730639	-22.98662	
09:28:04	0	0	0	1.444083	-6.33742	0	3	100	0	50	2.118879	-0.1152966	-22.9573	
09:28:06	0	0	0	1.54474	0.4462797	0	3	100	0	50	2.155931	-0.06102343	-22.97623	
09:28:07	0	0	0	1.794538	11.79406	0	3	100	0	50	2.11061	-0.1189534	-22.98911	
09:28:09	0	0	0	1.894318	10.73597	0	3	100	0	50	2.169049	-0.04015654	-22.94936	
09:28:11	0	0	0	1.87935	3.657912	0	3	100	0	50	2.222635	-0.02440843	-22.97576	
09:28:12	0	0	0	1.736773	-1.358935	0	3	100	0	50	2.206511	-0.1316613	-22.9607	
09:28:14	0	0	0	1.619105	14.82688	0	3	100	0	50	16.23306	10.08013	-19.36076	
09:28:16	0	0	0	1.803914	9.064446	0	3	100	0	50	79.57657	31.59305	9.330633	
09:28:17	0	0	0	1.967393	13.90596	0	3	100	0	50	87.21344	31.84013	13.15165	
09:28:19	0	0	0	1.726212	1.35724	0	3	100	0	50	85.99491	31.71968	12.7458	
09:28:21	0	0	0	1.929891	13.54358	0	3	100	0	50	87.16946	31.70677	13.35727	
09:28:22	0	0	0	1.920828	6.334959	0	3	100	0	50	89.3054	31.66073	14.39816	
09:28:24	0	0	0	1.750483	-1.089262	0	3	100	0	50	89.27061	31.55923	14.45722	
09:28:26	0	0	0	1.619144	-22.60134	0	3	100	0	50	81.63438	34.02942	12.64904	
09:28:27	0	0	0	1.791817	6.428586	0	3	100	0	50	87.4956	31.86178	16.30418	
09:28:29	0	0	0	1.868502	5.265321	0	3	100	0	50	85.47501	31.87271	16.88566	
09:28:31	0	0	0	1.975165	5.887456	0	3	100	0	50	87.23011	31.94787	16.39239	
09:28:33	0	0	0	1.670789	-6.617465	0	3	100	0	50	87.32459	31.9454	16.50099	
09:28:34	0	0	0	1.75807	-2.754856	0	3	100	0	50	87.34245	31.98684	16.5091	
09:28:36	0	0	0	1.723882	-2.781474	0	3	100	0	50	87.44044	31.97651	16.5417	
09:28:38	0	0	0	1.663811	-3.238881	0	3	100	0	50	84.86679	31.9567	15.43741	
09:28:39	0	0	0	1.711591	0.8373712	0	3	100	0	50	83.32589	32.02466	14.72511	
09:28:41	0	0	0	1.863214	7.143064	0	3	100	0	50	82.84079	32.07665	14.51722	
09:28:43	0	0	0	1.735922	-2.892742	0	3	100	0	50	82.8531	32.17181	14.47855	
09:28:44	0	0	0	1.837732	1.776228	0	3	100	0	50	83.74146	32.25428	14.82654	
09:28:46	0	0	0	1.91432	6.079126	0	3	100	0	50	83.86592	32.29601	14.88642	
09:28:48	0	0	0	1.942034	4.471449	0	3	100	0	50	84.16586	32.33147	15.05674	
09:28:49	0	0	0	1.789847	-4.38096	0	3	100	0	50	83.91901	32.32169	14.90409	
09:28:51	0	0	0	1.504138	-11.61339	0	3	100	0	50	83.68265	32.36714	14.90856	
09:28:53	0	0	0	1.720889	8.869865	0	3	100	0	50	59.30938	31.4499	-0.09700084	
09:28:55	0	0	0	1.966519	7.606885	0	3	100	0	50	4.95409	3.364066	-16.29038	
09:28:56	0	0	0	1.807246	-6.332951	0	3	100	0	50	4.424632	2.799385	-16.86682	
09:28:58	0	0	0	1.787243	-7.0376	0	3	100	0	50	4.07118	2.413394	-17.19853	
09:29:00	0	0	0	1.957245	0.9485506	0	3	100	0	50	3.831101	2.103593	-17.37505	
09:29:01	0	0	0	1.651671	-10.41575	0	3	100	0	50	3.582412	1.795708	-17.51743	
09:29:03	0	0	0	1.598824	-10.02155	0	3	100	0	50	3.439429	1.629309	-17.60905	
09:29:05	0	0	0	1.589462	-5.952496	0	3	100	0	50	3.287327	1.425692	-17.60608	
09:29:06	0	0	0	1.584792	-5.475745	0	3	100	0	50	3.247272	1.444504	-17.58264	
09:29:08	0	0	0	1.601388	1.057348	0	3	100	0	50	3.186295	1.284634	-17.55477	
09:29:10	0	0	0	1.85207	6.819782	0	3	100	0	50	3.156662	1.260441	-17.4821	
09:29:11	0	0	0	1.919387	4.536373	0	3	100	0	50	3.116252	1.171185	-17.40787	
09:29:13	0	0	0	1.747344	1.911816	0	3	100	0	50	2.095252	0.6131985	14.17581	
09:29:15	0	0	0	1.7327	-0.4183165	0	3	100	0	50	2.180717	0.493703	13.72946	
09:29:16	0	0	0	1.683235	-3.113126	0	3	100	0	50	2.397365	0.5598578	13.34377	
09:29:18	0	0	0	1.872835	3.505225	0	3	100	0	50	2.539718	0.6530679	13.06141	
09:29:20	0	0	0	1.702054	-6.001163	0	3	100	0	50	2.61237	0.7824883	12.87716	
09:29:22	0	0	0	1.582889	-6.707091	0	3	100	0	50	2.6957	0.8552141	12.70636	
09:29:23	0	0	0	1.723277	1.95725	0	3	100	0	50	2.781717	0.7908044	12.55366	
09:29:25	0	0	0	2.069606	11.92889	0	3	100	0	50	2.846751	0.7334022	12.42515	
09:29:27	0	0	0	2.15472	10.19885	0	3	100	0	50	2.823083	0.6665115	12.34466	
09:29:28	0	0	0	2.69596	19.31004	0	3	100	0	50	81.44965	-1.362243	7.19396	
09:29:30	0	0	0	2.975584	10.02128	0	3	100	0	50	87.65556	-11.04041	16.9472	
09:29:32	0	0	0	3.154319	15.50212	0	3	100	0	50	81.82847	19.55244	36.05196	
09:29:33	0	0	0	3.051678	-7.733487	0	3	100	0	50	77.73824	8.091269	26.26136	
09:29:35	0	0	0	2.921324	-12.05441	0	3	100	0	50	85.34038	-1.144154	14.34764	
09:29:37	0	0	0	2.831093	-3.19398	0	3	100	0	50	96.05568	-0.9673881	14.7812	
09:29:38	0	0	0	3.074762	11.0212	0	3	100	0	50	99.0832	-3.043133	9.249636	
09:29:40	0	0	0	2.940825	0.8832551	0	3	100	0	50	85.21652	-4.079997	14.67409	
09:29:42	0	0	0	2.871501	3.792275	0	3	100	0	50	92.90213	-9.690094	7.524123	
09:29:44	0	0	0	2.605743	-1.858956	0	3	100	0	50	91.77044	-6.217963	9.874224	
09:29:45	0	0	0	3.021267	17.91138	0	3	100	0	50	93.61746	-6.206437	8.789201	
09:29:47	0	0	0	3.156448	15.75836	0	3	100	0	50	92.00755	-6.333693	9.596647	
09:29:49	0	0	0	3.109117	1.790447	0	3	100	0	50	91.44524	-6.541063	10.12048	
09:29:50	0	0	0	2.934437	-3.826477	0	3	100	0	50	91.89482	-6.17398	9.253144	
09:29:52	0	0	0	3.077967	2.923955	0	3	100	0	50	91.76925	-5.998276	9.158481	
09:29:54	0	0	0	2.842497	-7.849647	0	3	100	0	50	21.78489	14.50992	5.887673	
09:29:55	0	0	0	2.772403	-7.297198	0	3	100	0	50	-12.40329	33.70228	6.81704	
09:29:57	0	0	0	2.842339	-13.14359	0	3	100	0	50	-70.39577	45.56546	-75.95905	
09:29:59	0	0	0	3.121834	-10.61422	0	3	100	0	50	-76.24741	5.7797	-146.8151	
09:30:00	0	0	0	2.81011	-21.8315	0	3	100	0	50	-87.27164	5.240828	-169.4242	
09:30:02	0	0	0	2.748124	-20.73441	0	3	100	0	50	-90.77111	5.276974	-171.0699	
09:30:04	0	0	0	2.621898	-13.38318	0	3	100	0	50	-92.96828	5.131973	-169.123	
09:30:05	0	0	0	2.871965	-2.16039	0	3	100	0	50	-89.36974	5.293754	-167.2042	
09:30:07	0	0	0	3.011434	3.42266	0	3	100	0	50	-88.54275	2.968718	-168.1372	
09:30:09	0	0	0	2.667404	-16.55225	0	3	100	0	50	-87.64133	2.603319	-168.0996	
09:30:11	0	0	0	2.593155	-11.73304	0	3	100	0	50	-88.48845	2.519764	-168.1437	
09:30:12	0	0	0	2.685081	-5.705061	0	3	100	0	50	-88.06493	2.416411	-168.272	
09:30:14	0	0	0	2.865123	3.845002	0	3	100	0	50	-83.87847	-2.081421	-171.2377	
09:30:16	0	0	0	2.732893	-43.07394	0	3	100	0	50	-15.39333	-57.61541	-105.9828	
09:30:17	0	0	0	2.562573	-16.14605	0	3	100	0	50	74.85657	-86.87213	-154.2918	
09:30:19	0	0	0	2.473307	-31.68612	0	3	100	0	50	47.62739	-81.61796	-129.6885	
09:30:21	0	0	0	2.464751	-8.603908	0	3	100	0	50	93.57823	-81.94795	-169.9577	
09:30:22	0	0	0	2.545285	-5.513667	0	3	100	0	50	110.1635	-86.95399	172.697	
09:30:24	0	0	0	2.514324	-8.893213	0	3	100	0	50	62.27216	-84.59495	-139.619	
09:30:26	0	0	0	2.700189	1.348064	0	3	100	0	50	89.83905	-84.85333	-169.1139	
09:30:27	0	0	0	2.611375	-7.035501	0	3	100	0	50	86.76759	-84.5477	-165.5371	
09:30:29	0	0	0	2.798047	0.005507236	0	3	100	0	50	76.82994	-84.05271	-155.2464	
09:30:31	0	0	0	2.99542	5.318733	0	3	100	0	50	79.57281	-83.65403	-157.6633	
09:30:33	0	0	0	3.181357	7.083857	0	3	100	0	50	-11.9168	-61.47282	-47.73073	
09:30:34	0	0	0	3.110157	-15.18926	0	3	100	0	50	3.045313	22.52876	-51.03459	
09:30:36	0	0	0	3.0712	16.24634	0	3	100	0	50	25.93795	68.71087	-59.75205	
09:30:38	0	0	0	3.187626	28.22724	0	3	100	0	50	17.66404	79.73956	-61.94537	
09:30:39	0	0	0	3.310154	17.63119	0	3	100	0	50	25.72402	85.22508	-54.89146	
09:30:41	0	0	0	3.409393	18.3373	0	3	100	0	50	9.568433	88.71609	-67.04788	
09:30:43	0	0	0	3.053628	-8.676474	0	3	100	0	50	98.6896	85.56783	22.02279	
09:30:44	0	0	0	2.862224	1.410515	0	3	100	0	50	27.509	79.37936	-42.47786	
09:30:46	0	0	0	2.693141	-0.3215256	0	3	100	0	50	116.3829	86.56796	37.834	
09:30:48	0	0	0	2.976977	20.43306	0	3	100	0	50	176.3599	87.1642	99.72944	
09:30:49	0	0	0	3.17524	23.86955	0	3	100	0	50	-147.9508	88.19701	137.1012	
09:30:51	0	0	0	3.08044	14.40364	0	3	100	0	50	123.4199	86.47213	49.34877	
09:30:53	0	0	0	3.329359	20.57236	0	3	100	0	50	111.9298	84.50549	38.58145	
09:30:54	0	0	0	3.264297	13.2412	0	3	100	0	50	102.9493	81.11144	26.8503	
09:30:56	0	0	0	2.963101	-1.442147	0	3	100	0	50	97.84726	83.25849	20.03808	
09:30:58	0	0	0	2.964642	2.900802	0	3	100	0	50	91.47626	84.09589	12.87323	
09:31:00	0	0	0	2.948276	2.152309	0	3	100	0	50	100.8624	84.68467	21.8632	
09:31:01	0	0	0	3.257026	9.893816	0	3	100	0	50	-24.97312	35.12051	-70.74756	
09:31:03	0	0	0	2.672628	-54.87481	0	3	100	0	50	-60.09965	-5.590443	-48.06017	
09:31:05	0	0	0	2.370628	32.88054	0	3	100	0	50	-176.5087	2.451376	-83.24852	
09:31:06	0	0	0	2.656827	37.19897	0	3	100	0	50	-177.3226	1.685008	-82.1795	
09:31:08	0	0	0	2.530555	19.7971	0	3	100	0	50	-177.8336	1.358815	-81.33534	
09:31:10	0	0	0	2.482563	13.95975	0	3	100	0	50	-178.2998	1.026852	-80.48423	
09:31:11	0	0	0	2.643604	18.46705	0	3	100	0	50	-178.6433	0.8078654	-79.86691	
09:31:13	0	0	0	2.24268	-5.446737	0	3	100	0	50	-178.965	0.6703197	-79.36305	
09:31:15	0	0	0	2.135548	0.8130571	0	3	100	0	50	-179.2027	0.6790954	-78.9098	
09:31:16	0	0	0	2.055414	-1.293704	0	3	100	0	50	-179.3402	0.6181195	-78.54151	
09:31:18	0	0	0	1.924041	-0.11599	0	3	100	0	50	-179.5066	0.6271737	-78.2998	
09:31:20	0	0	0	2.260975	13.82271	0	3	100	0	50	-179.6234	0.5352977	-78.1513	
09:31:22	0	0	0	2.094539	2.506014	0	3	100	0	50	-179.7006	0.5662338	-77.9846	
09:31:23	0	0	0	2.050402	2.656541	0	3	100	0	50	-179.781	0.6429366	-77.90353	
09:31:25	0	0	0	2.133484	5.706981	0	3	100	0	50	-179.8284	0.5708829	-77.8712	
09:31:27	0	0	0	2.1914	5.113398	0	3	100	0	50	-179.868	0.5648356	-77.86059	
09:31:28	0	0	0	2.302466	9.497424	0	3	100	0	50	-179.8814	0.6168386	-77.84699	
09:31:30	0	0	0	2.42353	8.303842	0	3	100	0	50	-179.8825	0.7000486	-77.92735	
09:31:32	0	0	0	2.185581	-7.233758	0	3	100	0	50	-179.8918	0.6957046	-77.98466	
09:31:33	0	0	0	2.071314	-7.181817	0	3	100	0	50	-179.8671	0.7003742	-78.0452	
09:31:35	0	0	0	2.230236	5.034893	0	3	100	0	50	-179.8097	0.6510936	-78.15011	
09:31:37	0	0	0	1.81428	-14.85974	0	3	100	0	50	-179.7669	0.6333345	-78.17088	
09:31:38	0	0	0	1.648746	-11.04522	0	3	100	0	50	-179.786	0.6881616	-78.20243	
09:31:40	0	0	0	1.903566	4.268039	0	3	100	0	50	-179.7373	0.8343551	-78.31255	
09:31:42	0	0	0	2.005942	7.264311	0	3	100	0	50	-179.7425	0.8484347	-78.38444	
09:31:43	0	0	0	2.003653	3.853584	0	3	100	0	50	-179.7211	0.8424464	-78.47143	
09:31:45	0	0	0	2.082783	4.841225	0	3	100	0	50	-179.6705	0.8200935	-78.53907	
09:31:47	0	0	0	2.342785	13.19184	0	3	100	0	50	-179.6602	0.9054551	-78.58361	
09:31:49	0	0	0	2.099516	-5.129632	0	3	100	0	50	-179.6273	0.9432646	-78.63798	
09:31:50	0	0	0	1.961118	-8.105723	0	3	100	0	50	-179.5417	0.9599613	-78.7104	
09:31:52	0	0	0	2.06754	1.369591	0	3	100	0	50	-179.5218	0.9722561	-78.77955	
09:31:54	0	0	0	1.863643	-6.732694	0	3	100	0	50	-179.5691	0.911018	-78.83824	
09:31:55	0	0	0	1.977483	2.869265	0	3	100	0	50	-179.5804	0.9746627	-78.88773	
09:31:57	0	0	0	2.178366	7.466045	0	3	100	0	50	-179.552	0.8780078	-78.97688	
09:31:59	0	0	0	2.122238	1.088537	0	3	100	0	50	-179.5458	0.8553091	-78.98223	
09:32:00	0	0	0	1.90978	-8.635575	0	3	100	0	50	-179.4456	0.8332817	-79.00017	
09:32:02	0	0	0	1.709337	-9.721622	0	3	100	0	50	-179.4673	0.9327167	-78.96817	
09:32:04	0	0	0	2.131729	11.69474	0	3	100	0	50	-179.5228	1.037279	-78.97684	
09:32:05	0	0	0	2.207105	7.949117	0	3	100	0	50	-179.5328	0.9744902	-78.93768	
09:32:07	0	0	0	2.201032	3.667838	0	3	100	0	50	-179.5787	0.9805611	-78.92271	
09:32:09	0	0	0	2.218077	2.194677	0	3	100	0	50	-179.5596	1.066857	-78.93797	
09:32:11	0	0	0	2.186832	0.4698372	0	3	100	0	50	-179.4932	1.097445	-78.96561	
09:32:12	0	0	0	2.030539	-5.275589	0	3	100	0	50	-179.5032	1.015669	-79.02637	
09:32:14	0	0	0	1.90934	-5.876911	0	3	100	0	50	-179.4462	0.8803284	-79.07835	
09:32:16	0	0	0	2.163152	9.310153	0	3	100	0	50	-179.4637	0.9476196	-79.06711	
09:32:17	0	0	0	2.193188	2.416454	0	3	100	0	50	-179.4768	0.9601617	-79.0713	
09:32:19	0	0	0	1.95124	-8.582365	0	3	100	0	50	-179.5204	0.9911669	-79.07769	
09:32:21	0	0	0	2.127759	4.970518	0	3	100	0	50	-179.482	0.9037356	-79.07262	
09:32:22	0	0	0	2.191039	2.043334	0	3	100	0	50	-179.4822	0.863965	-79.08039	
09:32:24	0	0	0	2.145147	-0.4908574	0	3	100	0	50	-179.4546	0.8286309	-79.07216	
09:32:26	0	0	0	1.900628	-9.545253	0	3	100	0	50	-179.44	0.7319154	-79.06211	
09:32:27	0	0	0	1.684603	-11.98036	0	3	100	0	50	-179.3947	0.6933025	-79.0355	
09:32:29	0	0	0	1.782405	-1.067096	0	3	100	0	50	-179.4016	0.7272535	-79.00758	
09:32:31	0	0	0	1.725425	-0.10395	0	3	100	0	50	-179.3759	0.7282172	-78.98147	
09:32:32	0	0	0	1.908309	5.259489	0	3	100	0	50	-179.3798	0.7858216	-78.95709	
09:32:34	0	0	0	2.200463	13.6022	0	3	100	0	50	-179.3951	0.8360151	-78.96679	
09:32:36	0	0	0	2.242328	7.972064	0	3	100	0	50	-179.41	0.9530869	-78.96127	
09:32:38	0	0	0	1.959326	-5.314871	0	3	100	0	50	-179.3876	0.9957891	-78.959	
09:32:39	0	0	0	1.774521	-9.660173	0	3	100	0	50	-179.4352	1.036855	-78.99087	
09:32:41	0	0	0	1.834513	-0.1180054	0	3	100	0	50	-179.4619	1.159626	-79.04981	
09:32:43	0	0	0	1.996698	5.095993	0	3	100	0	50	-179.4465	1.187946	-79.10194	
09:32:44	0	0	0	1.820479	-3.16625	0	3	100	0	50	-179.4584	1.200829	-79.12641	
09:32:46	0	0	0	1.70664	-6.984356	0	3	100	0	50	-179.4406	0.990451	-79.11849	
09:32:48	0	0	0	2.00719	9.064855	0	3	100	0	50	-179.418	0.8347746	-79.10896	
09:32:49	0	0	0	2.123826	6.905178	0	3	100	0	50	-179.4266	0.8646557	-79.11166	
09:32:51	0	0	0	1.997014	-2.478234	0	3	100	0	50	-179.3559	0.7068264	-79.08051	
09:32:53	0	0	0	1.959304	-1.798585	0	3	100	0	50	-179.3536	0.6581711	-79.05662	
09:32:54	0	0	0	1.851927	-2.278996	0	3	100	0	50	-179.3517	0.6987649	-79.04971	
09:32:56	0	0	0	2.04462	-15.78291	0	3	100	0	50	-106.5424	22.8753	11.20591	
09:32:58	0	0	0	1.840873	-37.58474	0	3	100	0	50	-51.12109	24.21724	6.714124	
09:33:00	0	0	0	1.195753	-123.7576	0	3	100	0	50	-0.5232396	0.5390251	18.07243	
09:33:01	0	0	0	0.4925276	-82.24357	0	3	100	0	50	0.2063072	-0.196527	17.95398	
09:33:03	0	0	0	1.350215	-2.713317	0	3	100	0	50	0.7281289	-0.4971886	17.73273	
09:33:05	0	0	0	1.93024	21.61301	0	3	100	0	50	1.077281	-0.6765903	17.46139	
09:33:06	0	0	0	1.782644	2.427257	0	3	100	0	50	1.372886	-0.7227821	17.21232	
09:33:08	0	0	0	1.75741	1.353129	0	3	100	0	50	1.603441	-0.7894645	16.9488	
09:33:10	0	0	0	1.873412	2.73544	0	3	100	0	50	1.743477	-0.8251842	16.69462	
09:33:11	0	0	0	1.745059	-4.144001	0	3	100	0	50	1.884215	-0.8658177	16.44994	
09:33:13	0	0	0	1.872562	2.967962	0	3	100	0	50	1.993305	-1.006142	16.25684	
09:33:15	0	0	0	2.037346	7.347246	0	3	100	0	50	2.076855	-1.012679	16.11633	
09:33:16	0	0	0	2.161102	7.136446	0	3	100	0	50	2.121007	-0.9811834	16.01169	
09:33:18	0	0	0	1.882316	-5.056753	0	3	100	0	50	2.199034	-0.9916199	15.87696	
09:33:20	0	0	0	1.848991	-3.469998	0	3	100	0	50	2.227501	-1.021555	15.80186	
09:33:21	0	0	0	1.947465	1.571438	0	3	100	0	50	2.243397	-1.020396	15.71572	
09:33:23	0	0	0	1.780419	-7.958223	0	3	100	0	50	2.265244	-0.9364264	15.70178	
09:33:25	0	0	0	1.564628	-10.26103	0	3	100	0	50	2.183821	-0.9347415	15.68557	
09:33:27	0	0	0	1.583131	-3.197855	0	3	100	0	50	2.185394	-0.8893186	15.72899	
09:33:28	0	0	0	1.807613	5.173023	0	3	100	0	50	2.172765	-0.8421294	15.75669	
09:33:30	0	0	0	1.748435	-0.1849185	0	3	100	0	50	2.130033	-0.8316502	15.76224	
09:33:32	0	0	0	1.619065	-4.692456	0	3	100	0	50	2.101161	-0.9065547	15.73923	
09:33:33	0	0	0	1.48626	-6.722175	0	3	100	0	50	2.036487	-0.8802953	15.78393	
09:33:35	0	0	0	1.674991	5.256117	0	3	100	0	50	2.030005	-0.8329057	15.84209	
09:33:37	0	0	0	1.952077	11.48586	0	3	100	0	50	2.030207	-0.8401489	15.84914	
09:33:38	0	0	0	1.776011	-1.9038	0	3	100	0	50	2.000373	-0.8284122	15.89253	
09:33:40	0	0	0	2.025701	8.372327	0	3	100	0	50	1.945817	-0.8862022	15.91813	
09:33:42	0	0	0	1.987005	1.158893	0	3	100	0	50	1.867555	-1.004897	15.92557	
09:33:43	0	0	0	1.647121	-12.75713	0	3	100	0	50	1.876371	-0.9459002	15.98329	
09:33:45	0	0	0	1.72654	-2.385219	0	3	100	0	50	1.865292	-0.793466	16.03549	
09:33:47	0	0	0	1.713659	-1.791524	0	3	100	0	50	1.869057	-0.7652688	16.08081	
09:33:49	0	0	0	1.613902	-5.468111	0	3	100	0	50	1.854515	-0.7341108	16.08485	
09:33:50	0	0	0	1.74741	4.286412	0	3	100	0	50	1.844071	-0.7591357	16.10943	
09:33:52	0	0	0	1.892195	17.82127	0	3	31	0	50	1.859773	-0.7435172	16.11395	
09:33:54	0	0	0	2.241937	42.41107	0	3	33	0	50	1.734714	-1.022276	16.17092	
09:33:55	0	0	0	2.205189	38.58012	0	3	34	0	50	1.629841	-1.069805	16.2222	
09:33:57	0	0	0	2.194734	33.24726	0	3	36	0	50	1.629839	-1.054114	16.26225	
09:33:59	0	0	0	2.428655	39.27708	0	3	38	0	50	1.554411	-1.003762	16.34448	
09:34:00	0	0	0	2.441247	28.10629	0	3	40	0	50	1.589476	-1.095821	16.33946	
09:34:02	0	0	0	2.255136	15.01392	0	3	41	0	50	1.589149	-1.124535	16.36322	
09:34:04	0	0	0	2.45975	21.02206	0	3	43	0	50	1.507175	-1.226589	16.43179	
09:34:05	0	0	0	1.696826	-15.27764	0	3	45	0	50	1.550772	-1.251753	16.47082	
09:34:07	0	0	0	1.451981	-8.834817	0	3	47	0	50	1.585165	-1.349591	16.4692	
09:34:09	0	0	0	1.682233	7.237463	0	3	49	0	50	1.538668	-1.399369	16.42359	
09:34:11	0	0	0	1.666438	8.016142	0	3	51	0	50	1.51845	-1.313487	16.43565	
09:34:12	0	0	0	1.93115	16.64857	0	3	52	0	50	1.487023	-1.259149	16.44336	
09:34:14	0	0	0	2.061614	15.59659	0	3	54	0	50	1.52566	-1.269236	16.40665	
09:34:16	0	0	0	1.918414	5.019845	0	3	56	0	50	1.558748	-1.195211	16.40316	
09:34:17	0	0	0	1.984601	6.771778	0	3	58	0	50	1.578868	-1.150468	16.38414	
09:34:19	0	0	0	2.004692	4.571791	0	3	60	0	50	1.620202	-1.136353	16.36609	
09:34:21	0	0	0	1.976286	1.054719	0	3	62	0	50	1.620885	-1.166134	16.37447	
09:34:22	0	0	0	2.166335	10.73566	0	3	63	0	50	1.57582	-1.187827	16.38573	
09:34:24	0	0	0	2.061516	-1.904539	0	3	65	0	50	1.10844	-0.9094599	16.31908	
09:34:26	0	0	0	1.847973	-9.596187	0	3	67	0	50	1.591568	-1.252041	16.15644	
09:34:27	0	0	0	1.855166	-2.672552	0	3	68	0	50	1.501452	-1.254032	16.10548	
09:34:29	0	0	0	1.971972	2.719194	0	3	70	0	50	0.9988367	-1.792139	16.13493	
09:34:31	0	0	0	1.916974	-0.2749114	0	3	72	0	50	1.410473	-1.40606	15.97346	
09:34:32	0	0	0	1.843516	-2.758001	0	3	73	0	50	1.190725	-1.913354	16.00557	
09:34:34	0	0	0	1.780746	-4.264235	0	3	74	0	50	0.8595752	-2.136778	15.99406	
09:34:36	0	0	0	2.05705	6.505223	0	3	76	0	50	1.392802	-1.719246	15.88238	
09:34:38	0	0	0	2.058272	3.201307	0	3	77	0	50	1.392834	-1.671296	15.80456	
09:34:39	0	0	0	2.163108	5.000373	0	3	78	0	50	1.393641	-1.628054	15.77888	
09:34:41	0	0	0	1.773757	-12.94209	0	3	80	0	50	1.365536	-1.684584	15.73233	
09:34:43	0	0	0	1.955727	4.196995	0	3	81	0	50	1.305334	-1.629712	15.73203	
09:34:44	0	0	0	1.800584	-6.032392	0	3	82	0	50	1.329087	-1.653401	15.73219	
09:34:46	0	0	0	1.475693	-13.04625	0	3	83	0	50	1.328573	-1.604908	15.74977	
09:34:48	0	0	0	1.591904	-3.927043	0	3	84	0	50	1.328028	-1.589295	15.75252	
09:34:49	0	0	0	1.428864	-6.252659	0	3	85	0	50	1.378768	-1.627668	15.74905	
09:34:51	0	0	0	1.915941	19.55	0	3	86	0	50	1.351255	-1.683087	15.7479	
09:34:53	0	0	0	2.202766	15.81832	0	3	87	0	50	1.339247	-1.519164	15.767	
09:34:54	0	0	0	1.801621	-9.812901	0	3	87	0	50	1.374151	-1.56007	15.83344	
09:34:56	0	0	0	1.29504	-23.478	0	3	88	0	50	1.40051	-1.578771	15.87852	
09:34:58	0	0	0	1.381424	-4.43484	0	3	89	0	50	1.436191	-1.545408	15.88937	
09:35:00	0	0	0	1.493952	0.1028193	0	3	90	0	50	1.381192	-1.495018	15.89983	
09:35:01	0	0	0	1.39074	-3.525088	0	3	90	0	50	1.362871	-1.545357	15.92892	
09:35:03	0	0	0	1.865965	16.08042	0	3	91	0	50	1.451159	-1.51783	15.90486	
09:35:05	0	0	0	1.944095	9.876876	0	3	91	0	50	1.445305	-1.492452	15.91277	
09:35:06	0	0	0	2.129425	11.52136	0	3	92	0	50	1.434006	-1.49601	15.9236	
09:35:08	0	0	0	2.162099	4.087923	0	3	93	0	50	1.399224	-1.603851	15.86082	
09:35:10	0	0	0	2.014286	-3.624537	0	3	93	0	50	1.392823	-1.590237	15.89538	
09:35:11	0	0	0	1.976436	-3.066133	0	3	93	0	50	1.336405	-1.68632	15.89475	
09:35:13	0	0	0	1.758516	-10.62978	0	3	94	0	50	1.292141	-1.733529	15.88851	
09:35:15	0	0	0	1.525999	-10.92637	0	3	94	0	50	1.211076	-1.718096	15.91104	
09:35:16	0	0	0	1.382158	-9.14064	0	3	95	0	50	1.255334	-1.653736	15.94199	
09:35:18	0	0	0	1.971259	17.54109	0	3	95	0	50	1.24271	-1.599873	15.97513	
09:35:20	0	0	0	2.052022	13.73313	0	3	95	0	50	1.243702	-1.611691	15.95807	
09:35:21	0	0	0	2.385383	18.80437	0	3	96	0	50	1.247027	-1.665641	15.98175	
09:35:23	0	0	0	2.085199	-4.764557	0	3	96	0	50	1.287333	-1.65064	15.96837	
09:35:25	0	0	0	1.77805	-14.28622	0	3	96	0	50	1.334053	-1.638249	15.93536	
09:35:27	0	0	0	1.395661	-19.24928	0	3	96	0	50	1.407274	-1.588182	15.93264	
09:35:28	0	0	0	1.137988	-15.53611	0	3	97	0	50	1.393057	-1.472691	15.94779	
09:35:30	0	0	0	1.345981	1.057479	0	3	97	0	50	1.367926	-1.533553	15.89451	
09:35:32	0	0	0	1.215836	-5.038348	0	3	97	0	50	1.379	-1.579211	15.88761	
09:35:33	0	0	0	1.674356	14.79068	0	3	97	0	50	1.330345	-1.644615	15.88725	
09:35:35	0	0	0	1.524672	1.287214	0	3	97	0	50	1.325242	-1.666954	15.86424	
09:35:37	0	0	0	1.785276	10.76499	0	3	97	0	50	1.316647	-1.71139	15.89031	
09:35:38	0	0	0	1.6116	-1.489014	0	3	98	0	50	1.309442	-1.743556	15.8455	
09:35:40	0	0	0	1.619771	0.8762926	0	3	98	0	50	1.359316	-1.662062	15.86487	
09:35:42	0	0	0	1.567922	-1.358824	0	3	98	0	50	1.3308	-1.743296	15.89475	
09:35:43	0	0	0	2.018864	16.55215	0	3	98	0	50	1.372411	-1.724063	15.8699	
09:35:45	0	0	0	2.013912	9.86754	0	3	98	0	50	1.380697	-1.818077	15.87724	
09:35:47	0	0	0	1.686102	-9.757574	0	3	98	0	50	1.371796	-1.763909	15.85925	
09:35:49	0	0	0	1.437719	-14.63711	0	3	98	0	50	1.314844	-1.68849	15.89905	
09:35:50	0	0	0	1.650697	3.827211	0	3	98	0	50	1.34112	-1.726865	15.87187	
09:35:52	0	0	0	1.75807	4.237377	0	3	98	0	50	1.382379	-1.595332	15.90834	
09:35:54	0	0	0	1.6068	-2.946007	0	3	99	0	50	1.367496	-1.620081	15.91179	
09:35:55	0	0	0	1.579017	-5.878212	0	3	99	0	50	1.383231	-1.614679	15.8987	
09:35:57	0	0	0	1.399804	-9.953562	0	3	99	0	50	1.363233	-1.690451	15.91139	
09:35:59	0	0	0	1.226582	-12.29227	0	3	99	0	5	1.382631	-1.602794	15.86389	
09:36:00	0	0	0	1.192913	-5.043123	0	3	99	0	5	1.361097	-1.564907	15.838	
09:36:02	0	0	0	1.548729	13.60729	0	3	99	0	5	1.370612	-1.622366	15.82884	
09:36:04	0	0	0	1.853901	17.13112	0	3	99	0	5	1.409102	-1.589658	15.85828	
09:36:05	0	0	0	1.631795	-1.197631	0	3	99	0	5	1.441605	-1.673704	15.86328	
09:36:07	0	0	0	1.635349	0.6464675	0	3	99	0	5	1.46325	-1.69736	15.83909	
09:36:09	0	0	0	1.774418	6.05564	0	3	99	0	5	1.476046	-1.613208	15.83062	
09:36:10	0	0	0	1.869295	6.671661	0	3	99	0	4	1.416831	-1.638713	15.84318	
09:36:12	0	0	0	2.151359	14.6173	0	3	99	0	5	1.355497	-1.584024	15.8685	
09:36:14	0	0	0	2.138306	3.546375	0	3	99	0	5	1.376101	-1.549878	15.88689	
09:36:16	0	0	0	1.565129	-18.72635	0	3	99	0	5	1.42944	-1.474436	15.86817	
09:36:17	0	0	0	1.909271	5.425981	0	3	99	0	5	1.353913	-1.503555	15.90178	
09:36:19	0	0	0	2.040431	6.788691	0	3	99	0	5	1.438783	-1.534756	15.89428	
09:36:21	0	0	0	1.71227	-9.47413	0	3	99	0	5	1.421362	-1.565102	15.86867	
09:36:22	0	0	0	1.916572	1.86959	0	3	99	0	5	1.484841	-1.629325	15.81179	
09:36:24	0	0	0	2.052056	6.446167	0	3	99	0	5	1.45986	-1.503037	16.2506	
09:36:26	0	0	0	1.949793	-2.922974	0	3	99	0	5	1.428425	-1.526313	17.05088	
09:36:27	0	0	0	1.885126	-6.002164	0	3	99	0	5	1.365067	-1.451782	17.75169	
09:36:29	0	0	0	2.031532	4.668795	0	3	99	0	5	1.460785	-1.572592	18.30924	
09:36:31	0	0	0	1.885893	-8.571953	0	3	99	0	5	1.448416	-1.687299	18.84221	
09:36:33	0	0	0	1.78905	-6.375365	0	3	99	0	5	1.468905	-1.593366	19.21518	
09:36:34	0	0	0	1.861144	-1.141147	0	3	99	0	7	1.501108	-1.677609	19.42741	
09:36:36	0	0	0	1.69784	-7.031525	0	3	99	0	5	1.496078	-1.68757	19.65699	
09:36:38	0	0	0	1.905849	42.63298	0	3	99	0	5	-4.643229	-3.205048	5.618953	
09:36:39	0	0	0	2.344344	-5.947426	0	3	99	0	5	0.1871265	-6.547703	6.775293	
09:36:41	0	0	0	2.545263	-14.62366	0	3	99	0	32	-2.253547	-2.812544	5.218019	
09:36:43	0	0	0	2.71715	-5.246114	0	3	99	0	53	-0.9187542	-6.272681	2.74369	
09:36:45	0	0	0	3.389209	177.9048	0	3	99	0	61	0.7564021	-11.77455	10.1665	
09:36:46	0	0	0	7.040565	327.8003	0	3	99	0	58	2.288713	-7.353204	-0.449421	
09:36:48	0	0	0	3.52561	-326.2662	0	3	99	0	58	1.379352	-10.11732	-4.962836	
09:36:50	0	0	0	2.196889	-151.399	0	3	99	0	62	-5.485488	-6.208732	-0.9262341	
09:36:51	0	0	0	2.234793	-1.087288	0	3	99	0	61	3.184292	-5.540344	-3.278502	
09:36:53	0	0	0	3.423958	-52.09818	0	3	99	0	65	1.429377	-1.389962	-4.469068	
09:36:55	0	0	0	3.163468	-10.11038	0	3	99	0	64	-0.02550253	-5.371585	5.038467	
09:36:57	0	0	0	3.905896	43.32685	0	3	99	0	63	1.34039	-6.289054	-6.070232	
09:36:58	0	0	0	3.943604	6.872025	0	3	99	0	5	-0.9570705	-3.348407	-4.729178	
09:37:00	0	0	0	2.789709	-89.94318	0	3	99	0	5	-13.67493	-13.22991	3.096052	
09:37:02	0	0	0	2.144733	14.47138	0	3	99	0	5	-2.06289	-0.3469367	19.61408	
09:37:04	0	0	0	2.403536	20.35651	0	3	99	0	5	0.8656346	-1.79496	21.6083	
09:37:05	0	0	0	1.994068	-9.78538	0	3	99	0	5	1.190989	-1.654697	21.12648	
09:37:07	0	0	0	1.834292	-6.899823	0	3	99	0	6	1.315541	-1.42173	20.40777	
09:37:09	0	0	0	1.995438	0.7172074	0	3	99	0	5	1.45828	-1.339332	19.81257	
09:37:10	0	0	0	1.797292	-7.754972	0	3	99	0	5	1.662304	-1.245937	19.4008	
