Date	Latitude(deg) 	Longitude(deg)	hamsl(m)	hafl(m)	climbrate(cm/s)	GroundSpeed(m/s)	Airspeed(m/s)	Mav_Link(%)	Rssi_Link(%)	Throttle	Roll(deg)	Pitch(deg)	Yaw(deg)
13:01:17	0	0	0	21.42287	-28.74427	0	3	100	0	50	2.332381	-2.327002	-58.37153	
13:01:18	0	0	0	21.46604	-0.8618499	0	3	100	0	50	2.316955	-2.362019	-58.34074	
13:01:20	0	0	0	21.96662	19.37392	0	3	100	0	50	2.313216	-2.411536	-58.37516	
13:01:22	0	0	0	22.20953	17.90821	0	3	100	0	50	2.383301	-2.274944	-58.36124	
13:01:24	0	0	0	21.74402	-9.343294	0	3	100	0	50	2.421592	-2.299004	-58.36458	
13:01:25	0	0	0	21.79645	-1.598189	0	3	100	0	50	2.398067	-2.345485	-58.33898	
13:01:27	0	0	0	21.74367	-2.641324	0	3	100	0	50	2.386431	-2.355182	-58.31457	
13:01:29	0	0	0	21.62673	-6.886455	0	3	100	0	50	2.397179	-2.430821	-58.36282	
13:01:30	0	0	0	21.4206	-11.10739	0	3	100	0	50	2.357855	-2.473639	-58.3532	
13:01:32	0	0	0	21.77517	10.05598	0	3	100	0	50	2.297364	-2.449111	-58.31573	
13:01:34	0	0	0	21.66622	-2.477234	0	3	100	0	50	2.262028	-2.423939	-58.30727	
13:01:35	0	0	0	21.55043	-3.935223	0	3	100	0	50	2.281906	-2.340553	-58.27455	
13:01:37	0	0	0	21.83185	7.95515	0	3	100	0	50	2.288157	-2.402619	-58.26223	
13:01:39	0	0	0	22.03109	11.84293	0	3	100	0	50	2.307693	-2.354052	-58.26966	
13:01:40	0	0	0	21.90904	2.811216	0	3	100	0	50	2.309023	-2.270123	-58.28501	
13:01:42	0	0	0	21.85703	-3.80653	0	3	100	0	50	2.230428	-2.362373	-58.29769	
13:01:44	0	0	0	21.79675	-2.852763	0	3	100	0	50	2.199566	-2.478245	-58.33829	
13:01:45	0	0	0	21.85404	0.4710124	0	3	100	0	50	2.246047	-2.486705	-58.30357	
13:01:47	0	0	0	21.75454	-4.610461	0	3	100	0	50	2.239903	-2.419134	-58.31561	
13:01:49	0	0	0	21.7324	-6.183823	0	3	100	0	50	2.252557	-2.313342	-58.26662	
13:01:51	0	0	0	21.85683	6.140296	0	3	100	0	50	2.315444	-2.247181	-58.29467	
13:01:52	0	0	0	21.97006	3.40976	0	3	100	0	50	2.343276	-2.20577	-58.33906	
13:01:54	0	0	0	21.8651	-0.7998334	0	3	100	0	50	2.357621	-2.208773	-58.37025	
13:01:56	0	0	0	21.56935	-11.68519	0	3	100	0	50	2.299834	-2.198568	-58.42249	
13:01:57	0	0	0	21.4092	-12.75106	0	3	100	0	50	2.272274	-2.269378	-58.44971	
13:01:59	0	0	0	21.35895	-3.52567	0	3	100	0	50	2.298072	-2.336755	-58.36842	
13:02:01	0	0	0	21.92677	20.91888	0	3	100	0	50	2.295868	-2.355456	-58.31514	
13:02:02	0	0	0	21.92938	11.32633	0	3	100	0	50	2.307355	-2.29505	-58.32751	
13:02:04	0	0	0	21.91082	2.560061	0	3	100	0	50	2.274209	-2.31442	-58.35091	
13:02:06	0	0	0	21.82239	-1.635162	0	3	100	0	50	2.253952	-2.310831	-58.34064	
13:02:07	0	0	0	21.83665	-3.133016	0	3	100	0	50	2.258059	-2.403058	-58.35745	
13:02:09	0	0	0	21.52605	-12.84204	0	3	100	0	50	2.293803	-2.248712	-58.33487	
13:02:11	0	0	0	21.15322	-18.7844	0	3	100	0	50	2.328166	-2.331192	-58.29718	
13:02:13	0	0	0	21.2517	-5.02752	0	3	100	0	50	2.370245	-2.317668	-58.26532	
13:02:14	0	0	0	21.28748	1.414009	0	3	100	0	50	2.372439	-2.286463	-58.25817	
13:02:16	0	0	0	21.65162	14.68396	0	3	100	0	50	2.328076	-2.292786	-58.24506	
13:02:18	0	0	0	21.5429	0.6604863	0	3	100	0	50	2.321538	-2.270519	-58.31021	
13:02:19	0	0	0	21.7926	10.44878	0	3	100	0	50	2.3579	-2.369149	-58.30505	
13:02:21	0	0	0	21.65674	2.162186	0	3	100	0	50	2.27243	-2.387892	-58.30889	
13:02:23	0	0	0	21.75071	4.330864	0	3	100	0	50	2.242179	-2.307151	-58.31005	
13:02:24	0	0	0	21.73678	0.3674338	0	3	100	0	50	2.185522	-2.388382	-58.31889	
13:02:26	0	0	0	21.78067	-1.00743	0	3	100	0	50	2.20782	-2.349258	-58.32252	
13:02:28	0	0	0	21.69976	-0.970458	0	3	100	0	50	2.22845	-2.28709	-58.32001	
13:02:29	0	0	0	21.78479	2.476894	0	3	100	0	50	2.230172	-2.361167	-58.31251	
13:02:31	0	0	0	21.97381	8.091944	0	3	100	0	50	2.273967	-2.408327	-58.33034	
13:02:33	0	0	0	21.81717	-3.38731	0	3	100	0	50	2.280182	-2.54064	-58.29927	
13:02:34	0	0	0	21.43595	-15.80898	0	3	100	0	50	2.291079	-2.576021	-58.25672	
13:02:36	0	0	0	21.26743	-13.74106	0	3	100	0	50	2.29651	-2.454961	-58.26442	
13:02:38	0	0	0	21.9397	18.55896	0	3	100	0	50	2.315404	-2.421743	-58.24589	
13:02:40	0	0	0	22.07455	13.61768	0	3	100	0	50	2.292219	-2.431579	-58.26022	
13:02:41	0	0	0	22.22741	11.11158	0	3	100	0	50	2.241194	-2.523878	-58.25182	
13:02:43	0	0	0	22.02374	-2.466418	0	3	100	0	50	2.236938	-2.519874	-58.26623	
13:02:45	0	0	0	21.8794	-7.337704	0	3	100	0	50	2.266346	-2.501915	-58.22482	
13:02:46	0	0	0	21.94341	1.374373	0	3	100	0	50	2.268645	-2.515042	-58.20378	
13:02:48	0	0	0	22.1815	8.082071	0	3	100	0	50	2.255985	-2.532575	-58.20813	
13:02:50	0	0	0	22.15885	-0.05039693	0	3	100	0	50	2.285315	-2.47275	-58.18524	
13:02:51	0	0	0	22.19773	2.212393	0	3	100	0	50	2.274671	-2.391609	-58.16373	
13:02:53	0	0	0	21.90796	-13.61229	0	3	100	0	50	2.253597	-2.383296	-58.1857	
13:02:55	0	0	0	21.71347	-10.80884	0	3	100	0	50	2.218554	-2.354816	-58.19698	
13:02:56	0	0	0	21.80582	-1.356064	0	3	100	0	50	2.201105	-2.379652	-58.24829	
13:02:58	0	0	0	21.92462	4.324039	0	3	100	0	50	2.199721	-2.402595	-58.27329	
13:03:00	0	0	0	22.07084	7.219627	0	3	100	0	50	2.212721	-2.522614	-58.2475	
13:03:02	0	0	0	21.69736	-15.02123	0	3	100	0	50	2.251401	-2.372561	-58.20861	
13:03:03	0	0	0	21.77522	-3.078534	0	3	100	0	50	2.264687	-2.375932	-58.23203	
13:03:05	0	0	0	22.01666	6.65658	0	3	100	0	50	2.319082	-2.289637	-58.23477	
13:03:07	0	0	0	22.21627	12.94075	0	3	100	0	50	2.33246	-2.246814	-58.24138	
13:03:08	0	0	0	22.49239	15.24308	0	3	100	0	50	2.359746	-2.332553	-58.2676	
13:03:10	0	0	0	22.24945	-3.37202	0	3	100	0	50	2.329679	-2.398678	-58.35826	
13:03:12	0	0	0	21.81635	-15.2887	0	3	100	0	50	2.334268	-2.39263	-58.34081	
13:03:13	0	0	0	22.46101	18.2612	0	3	100	0	50	2.325406	-2.429258	-58.2934	
13:03:15	0	0	0	22.15193	-5.246593	0	3	100	0	50	2.270838	-2.374412	-58.27039	
13:03:17	0	0	0	21.89971	-14.19023	0	3	100	0	50	2.29483	-2.265586	-58.29234	
13:03:18	0	0	0	21.85365	-8.509387	0	3	100	0	50	2.219663	-2.291409	-58.30934	
13:03:20	0	0	0	22.18563	11.47239	0	3	100	0	50	2.191507	-2.251682	-58.32044	
13:03:22	0	0	0	22.30277	8.21436	0	3	100	0	50	2.261308	-2.244891	-58.3807	
13:03:23	0	0	0	21.9594	-9.349845	0	3	100	0	50	2.235553	-2.2946	-58.39271	
13:03:25	0	0	0	21.75245	-12.31478	0	3	100	0	50	2.258282	-2.24482	-58.37323	
13:03:27	0	0	0	22.01141	6.517608	0	3	100	0	50	2.251202	-2.270604	-58.33187	
13:03:29	0	0	0	22.14957	7.964107	0	3	100	0	50	2.295377	-2.242564	-58.30777	
13:03:30	0	0	0	22.21258	5.179879	0	3	100	0	50	2.350385	-2.292118	-58.33636	
13:03:32	0	0	0	22.09833	-4.847629	0	3	100	0	50	2.287288	-2.407011	-58.37389	
13:03:34	0	0	0	21.70321	-16.08374	0	3	100	0	50	2.274535	-2.456259	-58.35558	
13:03:35	0	0	0	21.51659	-13.76486	0	3	100	0	50	2.281824	-2.476249	-58.32469	
13:03:37	0	0	0	21.91903	7.089835	0	3	100	0	50	2.367727	-2.343954	-58.3299	
13:03:39	0	0	0	21.82541	-0.6972964	0	3	100	0	50	2.32579	-2.374092	-58.29124	
13:03:40	0	0	0	21.76456	-2.930995	0	3	100	0	50	2.355464	-2.390788	-58.3166	
13:03:42	0	0	0	21.91543	2.71065	0	3	100	0	50	2.394988	-2.379384	-58.28931	
13:03:44	0	0	0	21.77134	-4.240461	0	3	100	0	50	2.338976	-2.440228	-58.30102	
13:03:45	0	0	0	21.88197	2.138697	0	3	100	0	50	2.31875	-2.468854	-58.3084	
13:03:47	0	0	0	21.76454	-3.623988	0	3	100	0	50	2.28758	-2.385099	-58.30043	
13:03:49	0	0	0	22.04343	7.42641	0	3	100	0	50	2.27349	-2.422786	-58.30107	
13:03:51	0	0	0	22.10128	5.566964	0	3	100	0	50	2.334465	-2.449221	-58.27921	
13:03:52	0	0	0	22.11376	0.7059751	0	3	100	0	50	2.346027	-2.473931	-58.27714	
13:03:54	0	0	0	22.07482	-4.14158	0	3	100	0	50	2.341898	-2.412322	-58.30268	
13:03:56	0	0	0	21.75773	-12.66384	0	3	100	0	50	2.327731	-2.419021	-58.28812	
13:03:57	0	0	0	21.89333	-1.773866	0	3	100	0	50	2.27836	-2.421037	-58.26593	
13:03:59	0	0	0	21.8797	0.2736635	0	3	100	0	50	2.22317	-2.481429	-58.27259	
13:04:01	0	0	0	22.26534	17.23107	0	3	100	0	50	2.23911	-2.438101	-58.26052	
13:04:02	0	0	0	22.19886	5.075543	0	3	100	0	50	2.207096	-2.371309	-58.24074	
13:04:04	0	0	0	22.23826	3.9632	0	3	100	0	50	2.271533	-2.326717	-58.24763	
13:04:06	0	0	0	21.87497	-12.19065	0	3	100	0	50	2.276068	-2.449457	-58.25795	
13:04:07	0	0	0	21.46675	-19.635	0	3	100	0	50	2.313288	-2.456501	-58.27398	
13:04:09	0	0	0	21.34696	-14.02822	0	3	100	0	50	2.329978	-2.305591	-58.25476	
13:04:11	0	0	0	21.38693	-3.356131	0	3	100	0	50	2.313674	-2.377167	-58.29994	
13:04:12	0	0	0	21.93804	19.17464	0	3	100	0	50	2.245087	-2.326414	-58.29556	
13:04:14	0	0	0	22.05569	13.73985	0	3	100	0	50	2.267809	-2.252108	-58.28008	
13:04:16	0	0	0	21.79268	-7.047817	0	3	100	0	50	2.300273	-2.307769	-58.32364	
13:04:18	0	0	0	21.78763	-0.4648651	0	3	100	0	50	2.319154	-2.375017	-58.29849	
13:04:19	0	0	0	21.93815	4.706272	0	3	100	0	50	2.314682	-2.351774	-58.32418	
13:04:21	0	0	0	21.60142	-10.13518	0	3	100	0	50	2.344871	-2.312283	-58.32245	
13:04:23	0	0	0	21.62986	-2.581717	0	3	100	0	50	2.336695	-2.319198	-58.3124	
13:04:24	0	0	0	21.93318	10.10682	0	3	100	0	50	2.314857	-2.356082	-58.33739	
13:04:26	0	0	0	21.84834	1.968508	0	3	100	0	50	2.291716	-2.312376	-58.33904	
13:04:28	0	0	0	21.88184	3.103899	0	3	100	0	50	2.328681	-2.301622	-58.31438	
13:04:29	0	0	0	22.19388	14.68628	0	3	100	0	50	2.358452	-2.273259	-58.2858	
13:04:31	0	0	0	22.11198	2.982548	0	3	100	0	50	2.30713	-2.215355	-58.30088	
13:04:33	0	0	0	22.0506	2.457042	0	3	100	0	50	2.308704	-2.28268	-58.31841	
13:04:34	0	0	0	22.40694	12.50781	0	3	100	0	50	2.301325	-2.387511	-58.36216	
13:04:36	0	0	0	22.06174	-8.359919	0	3	100	0	50	2.351017	-2.391155	-58.34707	
13:04:38	0	0	0	21.97539	-6.930767	0	3	100	0	50	2.34813	-2.408902	-58.32292	
13:04:40	0	0	0	22.06014	0.4901311	0	3	100	0	50	2.33976	-2.26115	-58.29779	
13:04:41	0	0	0	21.92985	-5.916387	0	3	100	0	50	2.290387	-2.351133	-58.27865	
13:04:43	0	0	0	21.86199	-7.492931	0	3	100	0	50	2.269192	-2.311693	-58.27474	
13:04:45	0	0	0	21.51607	-13.83229	0	3	100	0	50	2.277275	-2.276613	-58.26378	
13:04:46	0	0	0	21.64838	0.148644	0	3	100	0	50	2.294022	-2.286097	-58.25527	
13:04:48	0	0	0	22.17694	20.29459	0	3	100	0	50	2.24588	-2.298377	-58.2466	
13:04:50	0	0	0	22.3886	14.63695	0	3	100	0	50	2.276599	-2.366465	-58.24556	
13:04:51	0	0	0	22.32498	3.464623	0	3	100	0	50	2.221102	-2.331228	-58.26523	
13:04:53	0	0	0	22.05436	-7.735308	0	3	100	0	50	2.236344	-2.267824	-58.25388	
13:04:55	0	0	0	21.94478	-7.50412	0	3	100	0	50	2.305242	-2.312983	-58.31162	
13:04:56	0	0	0	21.98796	-3.499417	0	3	100	0	50	2.308451	-2.450991	-58.2977	
13:04:58	0	0	0	22.2029	10.3622	0	3	100	0	50	2.303774	-2.387139	-58.28886	
13:05:00	0	0	0	22.42718	12.19228	0	3	100	0	50	2.272433	-2.449973	-58.25679	
13:05:01	0	0	0	22.10641	-9.176821	0	3	100	0	50	2.280791	-2.446573	-58.26637	
13:05:03	0	0	0	22.08089	-4.2921	0	3	100	0	50	2.26308	-2.547273	-58.294	
13:05:05	0	0	0	21.81693	-13.85701	0	3	100	0	50	2.240439	-2.494966	-58.23824	
13:05:07	0	0	0	21.86226	-1.955049	0	3	100	0	50	2.233315	-2.426094	-58.26696	
13:05:08	0	0	0	22.32105	15.28949	0	3	100	0	50	2.231046	-2.424109	-58.25851	
13:05:10	0	0	0	22.21307	1.598042	0	3	100	0	50	2.268097	-2.382	-58.24335	
13:05:12	0	0	0	22.24531	0.7551007	0	3	100	0	50	2.285367	-2.447793	-58.2677	
13:05:13	0	0	0	21.95431	-9.338642	0	3	100	0	50	2.300185	-2.327886	-58.2324	
13:05:15	0	0	0	22.00985	-0.981308	0	3	100	0	50	2.285132	-2.284358	-58.24783	
13:05:17	0	0	0	22.15372	5.149623	0	3	100	0	50	2.240772	-2.374184	-58.27013	
13:05:18	0	0	0	22.24506	4.707744	0	3	100	0	50	2.168776	-2.377174	-58.32687	
13:05:20	0	0	0	22.27855	3.630828	0	3	100	0	50	2.181626	-2.362264	-58.29668	
13:05:22	0	0	0	22.42023	8.254782	0	3	100	0	50	2.191858	-2.42711	-58.27655	
13:05:23	0	0	0	22.36893	0.4298755	0	3	100	0	50	2.174696	-2.426135	-58.25729	
13:05:25	0	0	0	22.55649	6.720836	0	3	100	0	50	2.223061	-2.451497	-58.22056	
13:05:27	0	0	0	22.26539	-8.756084	0	3	100	0	50	2.262565	-2.237164	-58.21064	
13:05:29	0	0	0	22.54144	8.810062	0	3	100	0	50	2.295226	-2.25822	-58.31853	
13:05:30	0	0	0	22.44089	-1.386147	0	3	100	0	50	2.328084	-2.252063	-58.31618	
13:05:32	0	0	0	22.35976	-2.920643	0	3	100	0	50	2.330812	-2.283168	-58.32751	
13:05:34	0	0	0	22.42452	1.91388	0	3	100	0	50	2.35836	-2.364772	-58.34969	
13:05:35	0	0	0	22.43719	5.048442	0	3	100	0	50	2.390498	-2.313538	-58.34505	
13:05:37	0	0	0	22.48915	3.506745	0	3	100	0	50	2.338976	-2.375657	-58.36353	
13:05:39	0	0	0	22.69052	11.19465	0	3	100	0	50	2.330254	-2.441617	-58.34212	
13:05:40	0	0	0	22.45338	-6.461306	0	3	100	0	50	2.33351	-2.524494	-58.33365	
13:05:42	0	0	0	22.54036	0.7120526	0	3	100	0	50	2.378417	-2.459561	-58.32809	
13:05:44	0	0	0	22.35858	-6.79673	0	3	100	0	50	2.357964	-2.32719	-58.28341	
13:05:45	0	0	0	22.15056	-10.17808	0	3	100	0	50	2.403301	-2.244134	-58.2933	
13:05:47	0	0	0	22.23633	-2.553666	0	3	100	0	50	2.387324	-2.306679	-58.2968	
13:05:49	0	0	0	22.1191	-5.268099	0	3	100	0	50	2.411008	-2.297068	-58.28837	
13:05:50	0	0	0	22.43909	10.1512	0	3	100	0	50	2.357387	-2.229512	-58.28825	
13:05:52	0	0	0	22.35137	2.711132	0	3	100	0	50	2.316828	-2.254948	-58.29689	
13:05:54	0	0	0	22.74239	15.74124	0	3	100	0	50	2.281254	-2.296205	-58.32052	
13:05:56	0	0	0	22.5479	-1.79447	0	3	100	0	50	2.286662	-2.357038	-58.28666	
13:05:57	0	0	0	22.22154	-12.81945	0	3	100	0	50	2.261059	-2.350921	-58.28197	
13:05:59	0	0	0	22.1424	-9.172152	0	3	100	0	50	2.287238	-2.259356	-58.30093	
13:06:01	0	0	0	22.64647	14.5127	0	3	100	0	50	2.236753	-2.341005	-58.29497	
13:06:02	0	0	0	22.62524	3.735581	0	3	100	0	50	2.196501	-2.266899	-58.26537	
13:06:04	0	0	0	22.4809	-1.566883	0	3	100	0	50	2.190995	-2.277588	-58.25686	
13:06:06	0	0	0	22.30901	-8.331261	0	3	100	0	50	2.134749	-2.251926	-58.18482	
13:06:07	0	0	0	22.35382	-0.8339165	0	3	100	0	50	2.145449	-2.328102	-58.10808	
13:06:09	0	0	0	22.17302	-7.954379	0	3	100	0	50	2.193836	-2.430234	-58.04789	
13:06:11	0	0	0	22.16026	-0.8422954	0	3	100	0	50	2.193629	-2.494734	-58.01177	
13:06:12	0	0	0	21.98508	-9.51856	0	3	100	0	50	2.182256	-2.50703	-57.94765	
13:06:14	0	0	0	21.69366	-12.28831	0	3	100	0	50	2.197403	-2.510483	-57.87098	
13:06:16	0	0	0	21.90658	3.335006	0	3	100	0	50	2.24938	-2.499212	-57.84544	
13:06:18	0	0	0	22.02686	9.478448	0	3	100	0	50	2.254455	-2.436179	-57.81231	
13:06:19	0	0	0	22.457	21.23537	0	3	100	0	50	2.311217	-2.440986	-57.80976	
13:06:21	0	0	0	22.57565	12.29508	0	3	100	0	50	2.324719	-2.510314	-57.80097	
13:06:23	0	0	0	22.60555	7.667671	0	3	100	0	50	2.360486	-2.472823	-57.83012	
13:06:24	0	0	0	22.43115	-4.046265	0	3	100	0	50	2.355567	-2.487396	-57.82205	
13:06:26	0	0	0	22.45671	-0.05157199	0	3	100	0	50	2.302535	-2.509241	-57.82705	
13:06:28	0	0	0	22.48034	-1.819333	0	3	100	0	50	2.201855	-2.541469	-57.83725	
13:06:29	0	0	0	22.36267	-2.865556	0	3	100	0	50	2.235366	-2.523883	-57.83405	
13:06:31	0	0	0	22.67564	8.452879	0	3	100	0	50	2.26276	-2.472044	-57.82811	
13:06:33	0	0	0	22.38128	-6.790657	0	3	100	0	50	2.288921	-2.502275	-57.82498	
13:06:34	0	0	0	22.37131	-4.001153	0	3	100	0	50	2.289401	-2.440684	-57.79722	
13:06:36	0	0	0	22.5581	3.972219	0	3	100	0	50	2.332137	-2.359123	-57.82453	
13:06:38	0	0	0	22.65567	4.763762	0	3	100	0	50	2.345783	-2.63009	-57.85351	
13:06:39	0	0	0	21.98164	-24.07868	0	3	100	0	50	2.264226	-2.547243	-57.81259	
13:06:41	0	0	0	22.27231	2.419925	0	3	100	0	50	2.26895	-2.550197	-57.82031	
13:06:43	0	0	0	22.40756	6.386098	0	3	100	0	50	2.27295	-2.43435	-57.82348	
13:06:45	0	0	0	22.35187	0.6693422	0	3	100	0	50	2.281253	-2.382746	-57.77671	
13:06:46	0	0	0	22.27737	-2.718113	0	3	100	0	50	2.303751	-2.203207	-57.76842	
13:06:48	0	0	0	22.23466	-2.67204	0	3	100	0	50	2.258509	-2.16857	-57.8092	
13:06:50	0	0	0	22.32217	4.18283	0	3	100	0	50	2.268256	-2.167177	-57.9126	
13:06:51	0	0	0	22.26702	-6.277014	0	3	100	0	50	2.287978	-2.170091	-57.9046	
13:06:53	0	0	0	21.21574	-41.02438	0	3	100	0	50	2.295508	-2.186892	-57.96875	
13:06:55	0	0	0	21.5882	-0.6912826	0	3	100	0	50	2.313442	-2.11304	-57.94571	
13:06:56	0	0	0	21.94521	14.87525	0	3	100	0	50	2.337018	-2.096699	-57.98473	
13:06:58	0	0	0	22.05509	11.49393	0	3	100	0	50	2.257543	-2.192373	-57.97215	
13:07:00	0	0	0	21.95987	2.28207	0	3	100	0	50	2.28504	-2.253594	-58.01728	
13:07:01	0	0	0	22.08707	6.638653	0	3	100	0	50	2.235816	-2.309651	-58.02318	
13:07:03	0	0	0	22.07962	1.908842	0	3	100	0	50	2.267305	-2.361918	-58.03654	
13:07:05	0	0	0	21.88844	-3.611454	0	3	100	0	50	2.273038	-2.395166	-58.00362	
13:07:06	0	0	0	22.39105	17.40373	0	3	100	0	50	2.296479	-2.323404	-57.96601	
13:07:08	0	0	0	22.33912	3.629519	0	3	100	0	50	2.327495	-2.417744	-57.96392	
13:07:10	0	0	0	22.15794	-5.215196	0	3	100	0	50	2.299108	-2.413748	-58.00816	
13:07:12	0	0	0	22.12594	-2.361295	0	3	100	0	50	2.233712	-2.566061	-58.00383	
13:07:13	0	0	0	22.20691	0.6338016	0	3	100	0	50	2.223704	-2.67532	-57.95213	
13:07:15	0	0	0	21.80616	-15.93193	0	3	100	0	50	2.20356	-2.584654	-57.93428	
13:07:17	0	0	0	21.88531	-3.16574	0	3	100	0	50	2.179946	-2.66203	-57.90179	
13:07:18	0	0	0	22.13304	9.495713	0	3	100	0	50	2.148722	-2.571475	-57.86323	
13:07:20	0	0	0	22.51095	18.90216	0	3	100	0	50	2.170272	-2.499309	-57.85412	
13:07:22	0	0	0	22.66944	16.87064	0	3	100	0	50	2.188448	-2.487556	-57.87524	
13:07:23	0	0	0	22.70759	5.461067	0	3	100	0	50	2.203964	-2.489708	-57.89086	
13:07:25	0	0	0	22.36399	-9.77512	0	3	100	0	50	2.199213	-2.587239	-57.89959	
13:07:27	0	0	0	22.34023	-7.742517	0	3	100	0	50	2.203936	-2.534058	-57.86754	
13:07:28	0	0	0	21.95589	-17.58697	0	3	100	0	50	2.210833	-2.455642	-57.86115	
13:07:30	0	0	0	21.96167	-8.183467	0	3	100	0	50	2.290637	-2.382521	-57.85114	
13:07:32	0	0	0	21.91794	-5.337571	0	3	100	0	50	2.293966	-2.3438	-57.90155	
13:07:34	0	0	0	21.80074	-7.025406	0	3	100	0	50	2.264662	-2.428377	-57.84867	
13:07:35	0	0	0	21.74009	-4.947969	0	3	100	0	50	2.272144	-2.393365	-57.83495	
13:07:37	0	0	0	22.29156	19.19997	0	3	100	0	50	2.294837	-2.330877	-57.82431	
13:07:39	0	0	0	22.32283	9.249475	0	3	100	0	50	2.319156	-2.236129	-57.87042	
13:07:40	0	0	0	22.22744	1.25139	0	3	100	0	50	2.33526	-2.22785	-57.88887	
13:07:42	0	0	0	22.28047	2.94649	0	3	100	0	50	2.342312	-2.186641	-57.86762	
13:07:44	0	0	0	22.38427	5.189498	0	3	100	0	50	2.365782	-2.181671	-57.89834	
13:07:45	0	0	0	22.25391	-2.291814	0	3	100	0	50	2.391291	-2.202142	-57.93951	
13:07:47	0	0	0	22.28403	-1.244475	0	3	100	0	50	2.335576	-2.218189	-58.01641	
13:07:49	0	0	0	21.97353	-13.04763	0	3	100	0	50	2.317191	-2.198175	-58.0347	
13:07:50	0	0	0	21.91559	-6.285929	0	3	100	0	50	2.306141	-2.251371	-58.02359	
13:07:52	0	0	0	22.23123	6.935919	0	3	100	0	50	2.282043	-2.305078	-57.99655	
13:07:54	0	0	0	22.13238	-0.7651173	0	3	100	0	50	2.263844	-2.278232	-58.00096	
13:07:55	0	0	0	22.38352	9.04528	0	3	100	0	50	2.259003	-2.302332	-57.96778	
13:07:57	0	0	0	22.3137	-1.723329	0	3	100	0	50	2.235439	-2.318186	-57.95359	
13:07:59	0	0	0	22.3257	0.8731051	0	3	100	0	50	2.191291	-2.373328	-58.00056	
13:08:01	0	0	0	21.81786	-19.96112	0	3	100	0	50	2.2404	-2.304429	-58.01362	
13:08:02	0	0	0	21.8285	-6.088396	0	3	100	0	50	2.248341	-2.286656	-58.04437	
13:08:04	0	0	0	21.90298	-2.344176	0	3	100	0	50	2.229313	-2.324251	-58.03961	
13:08:06	0	0	0	21.39976	-18.75423	0	3	100	0	50	2.351237	-2.20486	-58.0031	
13:08:07	0	0	0	21.34872	-11.45987	0	3	100	0	50	2.300089	-2.283593	-57.96143	
13:08:09	0	0	0	21.59896	6.485103	0	3	100	0	50	2.300344	-2.312567	-57.97327	
13:08:11	0	0	0	21.93838	16.33227	0	3	100	0	50	2.326128	-2.302653	-57.94995	
13:08:12	0	0	0	22.00533	9.723053	0	3	100	0	50	2.311239	-2.323331	-57.95454	
13:08:14	0	0	0	22.16499	13.42625	0	3	100	0	50	2.258673	-2.410277	-57.99844	
13:08:16	0	0	0	22.05844	-0.7537095	0	3	100	0	50	2.250927	-2.458699	-57.96056	
13:08:17	0	0	0	21.64765	-14.06325	0	3	100	0	50	2.246275	-2.536251	-57.93961	
13:08:19	0	0	0	21.73861	-4.466417	0	3	100	0	50	2.281134	-2.389438	-57.95601	
13:08:21	0	0	0	21.6828	-1.337161	0	3	100	0	50	2.225716	-2.513816	-57.95716	
13:08:23	0	0	0	21.82784	4.099113	0	3	100	0	50	2.200063	-2.649192	-57.93936	
13:08:24	0	0	0	21.56939	-7.520061	0	3	100	0	50	2.160706	-2.720949	-57.88352	
13:08:26	0	0	0	21.66772	-0.8647782	0	3	100	0	50	2.20457	-2.631525	-57.82896	
13:08:28	0	0	0	21.67815	-1.713879	0	3	100	0	50	2.246358	-2.443246	-57.81227	
13:08:29	0	0	0	21.97166	10.77039	0	3	100	0	50	2.240588	-2.515681	-57.79836	
13:08:31	0	0	0	22.32125	17.57485	0	3	100	0	50	2.265165	-2.344716	-57.80765	
13:08:33	0	0	0	22.21894	5.127387	0	3	100	0	50	2.275292	-2.393696	-57.83053	
13:08:34	0	0	0	22.0927	-4.905172	0	3	100	0	50	2.28929	-2.395624	-57.84233	
13:08:36	0	0	0	21.9555	-6.091829	0	3	100	0	50	2.296856	-2.420554	-57.83722	
13:08:38	0	0	0	21.7929	-8.063746	0	3	100	0	50	2.259372	-2.462482	-57.86256	
13:08:39	0	0	0	22.10723	8.915576	0	3	100	0	50	2.282234	-2.447867	-57.90353	
13:08:41	0	0	0	21.82266	-7.751395	0	3	100	0	50	2.302369	-2.331752	-57.9291	
13:08:43	0	0	0	21.51056	-13.60233	0	3	100	0	50	2.244804	-2.354648	-57.98818	
13:08:44	0	0	0	21.8483	9.748305	0	3	100	0	50	2.241251	-2.224872	-57.96291	
13:08:46	0	0	0	22.03835	11.35196	0	3	100	0	50	2.237395	-2.262317	-57.95504	
13:08:48	0	0	0	22.47124	20.426	0	3	100	0	50	2.211607	-2.309591	-57.96332	
13:08:50	0	0	0	22.34753	3.485266	0	3	100	0	50	2.187509	-2.320586	-57.96738	
13:08:51	0	0	0	22.00151	-11.83624	0	3	100	0	50	2.175967	-2.395181	-57.99911	
13:08:53	0	0	0	21.73717	-15.51294	0	3	100	0	50	2.18317	-2.337347	-57.98139	
13:08:55	0	0	0	21.83771	-1.484624	0	3	100	0	50	2.254163	-2.296741	-57.91318	
13:08:56	0	0	0	21.72599	-6.027685	0	3	100	0	50	2.254301	-2.289987	-57.87403	
13:08:58	0	0	0	21.85521	4.496986	0	3	100	0	50	2.185144	-2.441312	-57.90895	
13:09:00	0	0	0	21.87003	2.955372	0	3	100	0	50	2.189844	-2.4495	-57.89674	
13:09:01	0	0	0	22.08559	8.817554	0	3	100	0	50	2.219262	-2.372008	-57.90846	
13:09:03	0	0	0	22.02903	3.456584	0	3	100	0	50	2.250707	-2.399524	-57.89944	
13:09:05	0	0	0	22.03163	-0.2950826	0	3	100	0	50	2.302647	-2.374357	-57.9212	
13:09:06	0	0	0	21.97214	-1.551928	0	3	100	0	50	2.320698	-2.36369	-57.92483	
13:09:08	0	0	0	21.88855	-1.131978	0	3	100	0	50	2.269617	-2.448109	-57.92555	
13:09:10	0	0	0	21.95287	0.0963429	0	3	100	0	50	2.234925	-2.443995	-57.90157	
13:09:12	0	0	0	21.94379	-0.5873592	0	3	100	0	50	2.251822	-2.430357	-57.91778	
13:09:13	0	0	0	21.95273	0.7068205	0	3	100	0	50	2.25498	-2.512596	-57.88952	
13:09:15	0	0	0	21.91902	0.5521658	0	3	100	0	50	2.274476	-2.479057	-57.856	
13:09:17	0	0	0	21.65127	-10.92817	0	3	100	0	50	2.296249	-2.194135	-57.81796	
13:09:18	0	0	0	21.62025	-4.24435	0	3	100	0	50	2.353054	-2.199718	-57.85393	
13:09:20	0	0	0	21.75483	2.69994	0	3	100	0	50	2.388362	-2.167879	-57.88947	
13:09:22	0	0	0	21.7174	0.2711299	0	3	100	0	50	2.362368	-2.169848	-57.89119	
13:09:23	0	0	0	21.75194	0.6882566	0	3	100	0	50	2.340921	-2.198681	-57.9104	
13:09:25	0	0	0	21.53243	-5.916692	0	3	100	0	50	2.361382	-2.25583	-57.95211	
13:09:27	0	0	0	21.60568	-0.9009012	0	3	100	0	50	2.357691	-2.255513	-57.96175	
13:09:28	0	0	0	21.83308	8.934351	0	3	100	0	50	2.354362	-2.242072	-57.9675	
13:09:30	0	0	0	21.65343	-3.225956	0	3	100	0	50	2.32035	-2.227631	-57.96669	
13:09:32	0	0	0	21.55317	-5.036983	0	3	100	0	50	2.306762	-2.22127	-57.98877	
13:09:33	0	0	0	21.69858	-0.2740634	0	3	100	0	50	2.260698	-2.328907	-57.9658	
13:09:35	0	0	0	21.54435	-6.090627	0	3	100	0	50	2.284904	-2.398129	-57.9436	
13:09:37	0	0	0	21.8724	12.35066	0	3	100	0	50	2.286034	-2.399492	-57.93172	
13:09:39	0	0	0	21.72881	0.3297451	0	3	100	0	50	2.34213	-2.265757	-57.92887	
13:09:40	0	0	0	21.31873	-12.74073	0	3	100	0	50	2.322778	-2.269749	-57.91849	
13:09:42	0	0	0	21.32795	-5.122891	0	3	100	0	50	2.352255	-2.34713	-57.93265	
13:09:44	0	0	0	21.46266	3.649294	0	3	100	0	50	2.353552	-2.29585	-57.9457	
13:09:45	0	0	0	21.29838	-1.861944	0	3	100	0	50	2.357384	-2.263262	-57.97829	
13:09:47	0	0	0	21.65542	12.25778	0	3	100	0	50	2.315106	-2.334176	-57.97398	
13:09:49	0	0	0	21.85493	13.35697	0	3	100	0	50	2.291333	-2.383496	-57.97667	
13:09:50	0	0	0	21.53811	-5.560889	0	3	100	0	50	2.280514	-2.362332	-57.93464	
13:09:52	0	0	0	21.85387	8.298048	0	3	100	0	50	2.262569	-2.401205	-57.92471	
13:09:54	0	0	0	21.73606	-1.029075	0	3	100	0	50	2.206578	-2.456585	-57.89612	
13:09:55	0	0	0	21.41077	-10.10084	0	3	100	0	50	2.227044	-2.452381	-57.84953	
13:09:57	0	0	0	21.51429	-0.1142747	0	3	100	0	50	2.252574	-2.371478	-57.85789	
13:09:59	0	0	0	21.40227	-3.661309	0	3	100	0	50	2.260878	-2.33229	-57.85895	
13:10:01	0	0	0	21.61254	7.825231	0	3	100	0	50	2.295619	-2.351407	-57.84808	
13:10:02	0	0	0	21.70078	7.865514	0	3	100	0	50	2.294992	-2.336185	-57.82539	
13:10:04	0	0	0	21.59334	-3.151797	0	3	100	0	50	2.309956	-2.333036	-57.91827	
13:10:06	0	0	0	21.36231	-8.195801	0	3	100	0	50	2.283444	-2.370242	-57.90804	
13:10:07	0	0	0	21.45214	-0.7861907	0	3	100	0	50	2.300052	-2.324377	-57.9637	
13:10:09	0	0	0	21.71256	7.935155	0	3	100	0	50	2.267951	-2.227442	-57.92944	
13:10:11	0	0	0	21.7582	3.234275	0	3	100	0	50	2.237478	-2.301936	-57.91998	
13:10:12	0	0	0	21.48399	-9.735836	0	3	100	0	50	2.264703	-2.343518	-57.92925	
13:10:14	0	0	0	21.35373	-8.802282	0	3	100	0	50	2.26351	-2.367372	-57.91792	
13:10:16	0	0	0	21.21399	-10.68079	0	3	100	0	50	2.287854	-2.40392	-57.92823	
13:10:17	0	0	0	21.36408	3.209721	0	3	100	0	50	2.30556	-2.326494	-57.93739	
13:10:19	0	0	0	21.55229	5.973567	0	3	100	0	50	2.352247	-2.359676	-57.97538	
13:10:21	0	0	0	21.37705	-7.269241	0	3	100	0	50	2.313781	-2.336721	-57.9976	
13:10:22	0	0	0	21.47335	2.96392	0	3	100	0	50	2.306827	-2.409684	-57.96652	
13:10:24	0	0	0	21.65632	7.485384	0	3	100	0	50	2.296694	-2.597417	-57.95926	
13:10:26	0	0	0	21.57099	0.9394611	0	3	100	0	50	2.289591	-2.552351	-57.94179	
13:10:28	0	0	0	21.509	-2.415485	0	3	100	0	50	2.292491	-2.435734	-57.93033	
13:10:29	0	0	0	21.23429	-12.62186	0	3	100	0	50	2.330585	-2.429714	-57.86602	
13:10:31	0	0	0	21.37024	0.1106523	0	3	100	0	50	2.261889	-2.394805	-57.88036	
13:10:33	0	0	0	21.61157	11.21309	0	3	100	0	50	2.27934	-2.351691	-57.90643	
13:10:34	0	0	0	21.79081	13.00414	0	3	100	0	50	2.271038	-2.35762	-57.94755	
13:10:36	0	0	0	21.7484	2.871807	0	3	100	0	50	2.329426	-2.329938	-57.98377	
13:10:38	0	0	0	21.67222	-0.5509629	0	3	100	0	50	2.350355	-2.357325	-58.01522	
13:10:39	0	0	0	21.83802	4.235893	0	3	100	0	50	2.365674	-2.371934	-57.98803	
13:10:41	0	0	0	21.89285	1.885879	0	3	100	0	50	2.37822	-2.330408	-58.01025	
13:10:43	0	0	0	21.78191	-2.20041	0	3	100	0	50	2.318036	-2.30943	-57.99998	
13:10:44	0	0	0	22.0291	5.908955	0	3	100	0	50	2.306138	-2.315702	-58.0193	
13:10:46	0	0	0	21.51308	-17.63081	0	3	100	0	50	2.283208	-2.284508	-57.99821	
13:10:48	0	0	0	21.05617	-25.089	0	3	100	0	50	2.282081	-2.345974	-57.97289	
13:10:50	0	0	0	21.02109	-14.17875	0	3	100	0	50	2.276845	-2.213808	-57.97513	
13:10:51	0	0	0	21.53079	16.5051	0	3	100	0	50	2.273037	-2.280946	-57.93834	
13:10:53	0	0	0	22.02064	22.81147	0	3	100	0	50	2.292491	-2.256564	-57.89986	
13:10:55	0	0	0	22.09273	12.17082	0	3	100	0	50	2.29099	-2.243459	-57.91745	
13:10:56	0	0	0	21.75387	-6.259403	0	3	100	0	50	2.237689	-2.32217	-57.94272	
13:10:58	0	0	0	21.80392	0.1566053	0	3	100	0	50	2.241399	-2.381438	-57.91987	
13:11:00	0	0	0	21.89315	2.52305	0	3	100	0	50	2.251586	-2.395889	-57.92602	
13:11:01	0	0	0	21.99401	4.930986	0	3	100	0	50	2.288335	-2.441349	-57.96109	
13:11:03	0	0	0	21.85851	-4.490124	0	3	100	0	50	2.300145	-2.401587	-57.9629	
13:11:05	0	0	0	21.8331	-3.2955	0	3	100	0	50	2.291763	-2.470433	-57.94822	
13:11:06	0	0	0	21.6093	-12.00801	0	3	100	0	50	2.206755	-2.512131	-57.93182	
13:11:08	0	0	0	21.88526	6.193305	0	3	100	0	50	2.259656	-2.48981	-57.90355	
13:11:10	0	0	0	21.72917	-4.835126	0	3	100	0	50	2.277512	-2.424511	-57.87411	
13:11:11	0	0	0	21.7907	0.4662686	0	3	100	0	50	2.311779	-2.292777	-57.86242	
13:11:13	0	0	0	21.90566	6.527458	0	3	100	0	50	2.271441	-2.354948	-57.89167	
13:11:15	0	0	0	22.195	13.36359	0	3	100	0	50	2.270984	-2.370981	-57.89808	
13:11:17	0	0	0	22.06901	-0.5532566	0	3	100	0	50	2.264167	-2.45548	-57.93078	
13:11:18	0	0	0	22.02189	-0.8370156	0	3	100	0	50	2.263331	-2.44388	-57.92362	
13:11:20	0	0	0	22.34452	10.40423	0	3	100	0	50	2.22204	-2.370559	-57.92234	
13:11:22	0	0	0	22.35312	4.107027	0	3	100	0	50	2.216435	-2.385211	-57.91965	
13:11:23	0	0	0	22.07356	-9.29374	0	3	100	0	50	2.272815	-2.413614	-57.94842	
13:11:25	0	0	0	21.95531	-5.978285	0	3	100	0	50	2.285331	-2.220078	-57.95662	
13:11:27	0	0	0	21.59738	-17.51004	0	3	100	0	50	2.290208	-2.240577	-58.0019	
13:11:28	0	0	0	21.78909	-0.1855696	0	3	100	0	50	2.269572	-2.223302	-58.03593	
13:11:30	0	0	0	21.77708	-1.883508	0	3	100	0	50	2.254315	-2.342239	-58.01288	
13:11:32	0	0	0	21.81262	0.5472498	0	3	100	0	50	2.274815	-2.229371	-58.01989	
13:11:33	0	0	0	22.14057	10.92115	0	3	100	0	50	2.299802	-2.20317	-58.0213	
13:11:35	0	0	0	22.21386	7.434634	0	3	100	0	50	2.305699	-2.324096	-58.01239	
13:11:37	0	0	0	22.01883	-4.84393	0	3	100	0	50	2.316063	-2.302537	-58.01616	
13:11:39	0	0	0	21.74249	-14.13123	0	3	100	0	50	2.320832	-2.170578	-58.01612	
13:11:40	0	0	0	21.96122	4.873014	0	3	100	0	50	2.319838	-2.174631	-58.01049	
13:11:42	0	0	0	22.22332	10.01346	0	3	100	0	50	2.343299	-2.092658	-57.96947	
13:11:44	0	0	0	22.34505	7.821375	0	3	100	0	50	2.284747	-2.169783	-57.99884	
13:11:45	0	0	0	21.86949	-15.91387	0	3	100	0	50	2.308989	-2.23148	-58.02492	
13:11:47	0	0	0	21.54049	-19.41065	0	3	100	0	50	2.348401	-2.244722	-58.03798	
13:11:49	0	0	0	21.4289	-11.889	0	3	100	0	50	2.343466	-2.242088	-57.99456	
13:11:50	0	0	0	21.43208	-4.956668	0	3	100	0	50	2.364749	-2.31531	-57.98048	
13:11:52	0	0	0	21.72241	12.80985	0	3	100	0	50	2.322903	-2.255545	-57.97562	
13:11:54	0	0	0	22.24057	25.71751	0	3	100	0	50	2.259243	-2.351697	-57.9758	
13:11:55	0	0	0	22.09124	2.877231	0	3	100	0	50	2.235413	-2.381828	-57.94543	
13:11:57	0	0	0	21.92369	-4.820286	0	3	100	0	50	2.214376	-2.455237	-57.96488	
13:11:59	0	0	0	21.76865	-9.579949	0	3	100	0	50	2.137427	-2.600537	-57.94005	
13:12:00	0	0	0	21.66442	-6.802385	0	3	100	0	50	2.164807	-2.433956	-57.86792	
13:12:02	0	0	0	21.81373	1.59651	0	3	100	0	50	2.215695	-2.533478	-57.86293	
13:12:04	0	0	0	22.00967	8.672339	0	3	100	0	50	2.222979	-2.401335	-57.84531	
13:12:06	0	0	0	22.0379	5.163522	0	3	100	0	50	2.249836	-2.40671	-57.85084	
13:12:07	0	0	0	22.12721	5.451837	0	3	100	0	50	2.258135	-2.359982	-57.84081	
13:12:09	0	0	0	22.16022	2.755405	0	3	100	0	50	2.282209	-2.349644	-57.83982	
13:32:57	0	0	0	22.37475	-6.469838	0	3	68	0	50	2.332879	-2.44259	-58.13874	
13:32:59	0	0	0	22.17595	-9.296304	0	3	69	0	50	2.29017	-2.410856	-58.13592	
13:33:00	0	0	0	22.06965	-6.425203	0	3	71	0	50	2.331009	-2.349245	-58.1459	
13:33:02	0	0	0	22.35168	7.709868	0	3	72	0	50	2.31411	-2.434746	-58.19161	
13:33:04	0	0	0	22.3668	1.077254	0	3	74	0	50	2.377433	-2.343568	-58.22078	
13:33:05	0	0	0	22.31118	-2.421126	0	3	75	0	50	2.42257	-2.245471	-58.18925	
13:33:07	0	0	0	22.30657	-15.8917	0	3	77	0	50	1.739863	-2.135203	-49.68037	
13:33:09	0	0	0	22.52934	-2.816487	0	3	78	0	50	1.83374	-2.175254	-45.89508	
13:33:10	0	0	0	22.39607	-3.388629	0	3	79	0	50	1.853808	-2.308496	-46.04924	
13:33:12	0	0	0	22.429	1.948801	0	3	80	0	50	1.930818	-2.328392	-46.15607	
13:33:14	0	0	0	22.74844	13.65029	0	3	82	0	50	1.938872	-2.348624	-46.27067	
13:33:16	0	0	0	22.66416	5.22188	0	3	83	0	50	1.980874	-2.331622	-46.37758	
13:33:17	0	0	0	22.11991	-15.1934	0	3	84	0	50	1.960832	-2.450556	-46.47813	
13:33:19	0	0	0	22.14712	-4.89625	0	3	85	0	50	1.925351	-2.50096	-46.519	
13:33:21	0	0	0	22.32029	5.810444	0	3	86	0	50	1.959493	-2.612909	-46.5912	
13:33:22	0	0	0	22.48854	9.417628	0	3	86	0	50	1.988997	-2.529697	-46.60714	
13:33:24	0	0	0	22.21167	-1.833199	0	3	87	0	50	2.03206	-2.370183	-46.62426	
13:33:26	0	0	0	22.32177	2.206802	0	3	88	0	50	2.06374	-2.361817	-46.62262	
13:33:27	0	0	0	22.39386	5.806625	0	3	89	0	50	2.019167	-2.380234	-46.64931	
13:33:29	0	0	0	22.73245	15.2752	0	3	90	0	50	1.949538	-2.447761	-46.63858	
13:33:31	0	0	0	22.66347	1.297785	0	3	90	0	50	1.954357	-2.47375	-46.61761	
13:33:32	0	0	0	22.59962	-3.162515	0	3	91	0	50	2.016974	-2.425163	-46.61964	
13:33:34	0	0	0	22.53512	-4.379663	0	3	91	0	50	2.043552	-2.524714	-46.6459	
13:33:36	0	0	0	22.50721	-4.348972	0	3	92	0	50	2.037457	-2.571492	-46.64895	
13:33:38	0	0	0	22.88001	12.86317	0	3	92	0	50	2.03019	-2.571467	-46.64158	
13:33:39	0	0	0	22.28489	-16.82005	0	3	93	0	50	2.034237	-2.478029	-46.61028	
13:33:41	0	0	0	22.33922	-4.74144	0	3	93	0	50	2.041919	-2.49898	-46.58704	
13:33:43	0	0	0	22.46012	2.093201	0	3	94	0	50	2.081549	-2.390292	-46.53667	
13:33:44	0	0	0	22.40029	-2.443156	0	3	94	0	50	2.047153	-2.467333	-46.56094	
13:33:46	0	0	0	22.54378	5.332736	0	3	95	0	50	2.06349	-2.449483	-46.54074	
13:33:48	0	0	0	22.44487	-0.5745284	0	3	95	0	50	2.041883	-2.416513	-46.54123	
13:33:49	0	0	0	22.4503	0.7893511	0	3	95	0	50	2.012913	-2.46214	-46.53161	
13:33:51	0	0	0	22.62844	4.411085	0	3	95	0	50	2.018955	-2.490982	-46.54967	
13:33:53	0	0	0	22.59683	-0.259422	0	3	96	0	50	1.978019	-2.489307	-46.5269	
13:33:54	0	0	0	22.64052	1.031462	0	3	96	0	50	1.953443	-2.501129	-46.49991	
13:33:56	0	0	0	22.55547	-3.163632	0	3	96	0	50	1.918138	-2.509193	-46.47934	
13:33:58	0	0	0	22.46054	-5.444582	0	3	97	0	50	1.894561	-2.531092	-46.471	
13:34:00	0	0	0	22.6659	5.703178	0	3	97	0	50	1.947089	-2.548954	-46.45881	
13:34:01	0	0	0	22.90835	11.74245	0	3	97	0	50	1.939451	-2.505925	-46.45117	
13:34:03	0	0	0	22.64527	-6.183581	0	3	97	0	50	1.955427	-2.491585	-46.45671	
13:34:05	0	0	0	22.72596	1.178017	0	3	97	0	50	1.979481	-2.379676	-46.40799	
13:34:06	0	0	0	22.65392	-1.704242	0	3	97	0	50	2.012933	-2.373721	-46.44485	
13:34:08	0	0	0	22.87887	9.569398	0	3	98	0	50	1.97627	-2.45034	-46.4623	
13:34:10	0	0	0	22.93931	4.239281	0	3	98	0	50	1.990562	-2.381017	-46.4236	
13:34:11	0	0	0	22.6647	-10.31018	0	3	98	0	50	1.984377	-2.339429	-46.50565	
13:34:13	0	0	0	22.28019	-17.91236	0	3	98	0	50	1.992195	-2.489738	-46.51903	
13:34:15	0	0	0	22.59846	5.115001	0	3	98	0	50	1.950562	-2.498059	-46.48342	
13:34:16	0	0	0	22.56943	-0.8096712	0	3	98	0	50	2.006905	-2.330304	-46.46148	
13:34:18	0	0	0	23.08764	20.80143	0	3	98	0	50	2.014831	-2.403219	-46.48238	
13:34:20	0	0	0	22.85918	-2.978917	0	3	98	0	50	2.018283	-2.409113	-46.48603	
13:34:21	0	0	0	22.62854	-9.998056	0	3	98	0	50	1.988434	-2.409122	-46.45918	
13:34:23	0	0	0	22.70848	-2.827772	0	3	99	0	50	1.972178	-2.415564	-46.47591	
13:34:25	0	0	0	22.49229	-7.749249	0	3	99	0	50	1.992356	-2.329248	-46.44242	
13:34:27	0	0	0	22.84094	11.72491	0	3	99	0	50	1.963925	-2.36836	-46.5135	
13:34:28	0	0	0	23.06719	10.60345	0	3	99	0	50	1.961227	-2.340159	-46.52485	
13:34:30	0	0	0	22.80985	-5.009182	0	3	99	0	50	1.972975	-2.396738	-46.54615	
13:34:32	0	0	0	22.71135	-3.147501	0	3	99	0	50	1.91525	-2.438164	-46.55032	
13:34:33	0	0	0	22.6361	-7.291521	0	3	99	0	50	1.971395	-2.321711	-46.53122	
13:34:35	0	0	0	22.65559	-3.625321	0	3	99	0	50	1.967719	-2.306081	-46.53525	
13:34:37	0	0	0	22.83979	5.47901	0	3	99	0	50	2.028557	-2.325069	-46.56439	
13:34:38	0	0	0	22.39419	-13.74895	0	3	99	0	50	2.027672	-2.408596	-46.56392	
13:34:40	0	0	0	22.69118	7.606752	0	3	99	0	50	1.999674	-2.42887	-46.56184	
13:34:42	0	0	0	23.19175	20.70175	0	3	99	0	50	1.96413	-2.467181	-46.55512	
13:34:43	0	0	0	23.16595	10.44302	0	3	99	0	50	1.981863	-2.460286	-46.53009	
13:34:45	0	0	0	22.83671	-11.54622	0	3	99	0	50	1.952098	-2.525985	-46.55276	
13:34:47	0	0	0	22.96997	-0.8519979	0	3	99	0	50	2.019081	-2.503333	-46.55003	
13:34:49	0	0	0	22.90212	-3.59188	0	3	99	0	50	2.059113	-2.595122	-46.53778	
13:34:50	0	0	0	22.63855	-11.69596	0	3	99	0	50	2.016286	-2.679405	-46.50606	
13:34:52	0	0	0	22.49696	-9.472311	0	3	99	0	50	2.046147	-2.645307	-46.47343	
13:34:54	0	0	0	22.73975	5.356847	0	3	99	0	50	2.007768	-2.632032	-46.47753	
13:34:55	0	0	0	22.56962	2.147639	0	3	99	0	50	2.050816	-2.720072	-46.46405	
13:34:57	0	0	0	22.69892	4.556761	0	3	99	0	50	2.072129	-2.645556	-46.43177	
13:34:59	0	0	0	22.73249	3.774664	0	3	99	0	50	2.020303	-2.693121	-46.39955	
13:35:00	0	0	0	23.18098	17.75934	0	3	99	0	50	1.997928	-2.655866	-46.38502	
13:35:02	0	0	0	23.11845	5.685105	0	3	99	0	50	1.990349	-2.657242	-46.34869	
13:35:04	0	0	0	22.50461	-21.37669	0	3	99	0	50	2.027914	-2.519395	-46.39352	
13:35:05	0	0	0	22.65166	-4.717975	0	3	99	0	50	2.053859	-2.411184	-46.40516	
13:35:07	0	0	0	22.61236	-1.84273	0	3	99	0	50	2.073298	-2.372189	-46.40119	
13:35:09	0	0	0	22.69223	2.290945	0	3	99	0	50	2.007843	-2.315474	-46.39428	
13:35:11	0	0	0	22.81308	5.975757	0	3	99	0	50	1.969633	-2.237987	-46.41222	
13:35:12	0	0	0	22.71862	-4.292281	0	3	99	0	50	2.019593	-2.25706	-46.42251	
13:35:14	0	0	0	22.37188	-30.78556	0	3	99	0	50	2.208921	-2.265466	-46.40625	
13:35:16	0	0	0	22.43479	-9.591558	0	3	99	0	50	2.328741	-2.16442	-46.88775	
13:35:17	0	0	0	22.62677	6.88165	0	3	99	0	50	2.195292	-2.276497	-46.11702	
13:35:19	0	0	0	22.56145	-7.520101	0	3	99	0	50	2.017347	-2.620965	-50.53892	
13:35:21	0	0	0	22.44425	-25.59956	0	3	99	0	50	2.149414	-2.165665	-43.75758	
13:35:22	0	0	0	22.48331	-4.117113	0	3	99	0	50	2.148994	-2.23221	-43.41523	
13:35:24	0	0	0	22.7317	11.15195	0	3	99	0	50	2.200274	-2.313339	-43.18621	
13:35:26	0	0	0	22.77879	11.85832	0	3	99	0	50	2.256387	-2.334012	-42.96443	
13:35:27	0	0	0	22.95837	12.5872	0	3	99	0	50	2.286652	-2.269542	-42.79474	
13:35:29	0	0	0	23.02907	11.32189	0	3	99	0	50	2.345599	-2.218956	-42.70893	
13:35:31	0	0	0	22.78982	-3.001495	0	3	99	0	50	2.378164	-2.188401	-42.66943	
13:35:32	0	0	0	22.61047	-3.656467	0	3	99	0	50	2.366924	-2.164859	-42.63267	
13:35:34	0	0	0	22.83979	8.375643	0	3	99	0	50	2.384487	-2.244452	-42.61114	
13:35:36	0	0	0	22.74085	0.2221846	0	3	99	0	50	2.376786	-2.28314	-42.60888	
13:35:38	0	0	0	22.63228	-4.104919	0	3	99	0	50	2.379767	-2.220944	-42.60011	
13:35:39	0	0	0	22.53039	-3.791666	0	3	99	0	50	2.360802	-2.28674	-42.61242	
13:35:41	0	0	0	22.63814	2.975258	0	3	99	0	50	2.290506	-2.453923	-42.65511	
13:35:43	0	0	0	22.84426	11.05113	0	3	99	0	50	2.302446	-2.375728	-42.58417	
13:35:44	0	0	0	22.91474	9.213891	0	3	99	0	50	2.240123	-2.428624	-42.60173	
13:35:46	0	0	0	22.84788	2.138531	0	3	99	0	50	2.242733	-2.376712	-42.65531	
13:35:48	0	0	0	22.49511	-13.11073	0	3	99	0	50	2.217947	-2.371636	-42.68058	
13:35:49	0	0	0	22.41189	-8.963552	0	3	99	0	50	2.173141	-2.524845	-42.67354	
13:35:51	0	0	0	22.74301	10.81373	0	3	99	0	50	2.200525	-2.458901	-42.67723	
13:35:53	0	0	0	22.95877	13.80132	0	3	99	0	50	2.215577	-2.508652	-42.70279	
13:35:54	0	0	0	22.94204	4.284348	0	3	99	0	50	2.161385	-2.50195	-42.69431	
13:35:56	0	0	0	22.67428	-7.73218	0	3	99	0	50	2.153188	-2.399472	-42.72173	
13:35:58	0	0	0	22.70811	-2.007102	0	3	99	0	50	2.187245	-2.438384	-42.73797	
13:36:00	0	0	0	22.89462	7.242979	0	3	99	0	50	2.223566	-2.494462	-42.72401	
13:36:01	0	0	0	23.2408	17.81264	0	3	99	0	50	2.203638	-2.485216	-42.78022	
13:36:03	0	0	0	22.8752	-7.507289	0	3	99	0	50	2.211177	-2.435193	-42.79179	
13:36:05	0	0	0	22.82714	-3.593712	0	3	99	0	50	2.214553	-2.333275	-42.79132	
13:36:06	0	0	0	22.90198	1.702637	0	3	99	0	50	2.23955	-2.3954	-42.80521	
13:36:08	0	0	0	22.88503	0.05903279	0	3	99	0	50	2.267692	-2.364225	-42.82832	
13:36:10	0	0	0	22.74609	-4.019585	0	3	99	0	50	2.211348	-2.316796	-42.83271	
13:36:11	0	0	0	22.90904	3.653106	0	3	99	0	50	2.211461	-2.323517	-42.83922	
13:36:13	0	0	0	23.18572	14.08906	0	3	99	0	50	2.189283	-2.316374	-42.83004	
13:36:15	0	0	0	22.93658	-5.873819	0	3	99	0	50	2.258478	-2.310041	-42.78514	
13:36:16	0	0	0	22.71695	-9.685937	0	3	99	0	50	2.331327	-2.201745	-42.83937	
13:36:18	0	0	0	23.10754	10.76392	0	3	99	0	50	2.282605	-2.251768	-42.89064	
13:36:20	0	0	0	23.06725	3.116469	0	3	99	0	50	2.285429	-2.220861	-42.86366	
13:36:22	0	0	0	22.89368	-5.547309	0	3	99	0	50	2.310707	-2.215281	-42.90404	
13:36:23	0	0	0	23.08283	3.963248	0	3	99	0	50	2.26435	-2.159467	-42.94542	
13:36:25	0	0	0	22.85846	-5.879748	0	3	99	0	50	2.30435	-2.240449	-42.95996	
13:36:27	0	0	0	22.84502	-3.936055	0	3	99	0	50	2.313511	-2.286615	-42.97526	
13:36:28	0	0	0	22.6185	-11.47316	0	3	99	0	50	2.298638	-2.342433	-42.98248	
13:36:30	0	0	0	22.61044	-3.99393	0	3	99	0	50	2.249712	-2.260399	-42.94973	
13:36:32	0	0	0	22.36142	-11.59461	0	3	99	0	50	2.250876	-2.223588	-42.94249	
13:36:33	0	0	0	22.33296	-3.915166	0	3	99	0	50	2.268334	-2.285288	-42.98642	
13:36:35	0	0	0	22.26328	-2.87429	0	3	99	0	50	2.284944	-2.293649	-42.95977	
13:36:37	0	0	0	22.474	9.112126	0	3	99	0	50	2.269502	-2.360755	-42.99178	
13:36:38	0	0	0	22.50871	3.137013	0	3	99	0	50	2.289181	-2.446653	-42.99729	
13:36:40	0	0	0	22.19167	-9.254595	0	3	99	0	50	2.314147	-2.508786	-43.00106	
13:36:42	0	0	0	22.5954	11.84052	0	3	99	0	50	2.298806	-2.468282	-42.98389	
13:36:43	0	0	0	22.51959	1.714214	0	3	99	0	50	2.269706	-2.473402	-42.97394	
13:36:45	0	0	0	22.74311	8.861741	0	3	99	0	50	2.236803	-2.434113	-42.96213	
13:36:47	0	0	0	22.66258	-0.6536878	0	3	99	0	50	2.206755	-2.484706	-42.89924	
13:36:49	0	0	0	22.41899	-9.079644	0	3	99	0	50	2.252414	-2.520373	-42.88276	
13:36:50	0	0	0	22.55686	0.5104787	0	3	99	0	50	2.302625	-2.439838	-42.88971	
13:36:52	0	0	0	22.67282	4.659494	0	3	99	0	50	2.275224	-2.385724	-42.89889	
13:36:54	0	0	0	22.73215	4.74036	0	3	99	0	50	2.254934	-2.511016	-42.88072	
13:36:55	0	0	0	22.56596	-3.433939	0	3	99	0	50	2.272284	-2.340892	-42.89014	
13:36:57	0	0	0	22.53765	-2.194726	0	3	99	0	50	2.234688	-2.356128	-42.88734	
13:36:59	0	0	0	22.6523	2.80005	0	3	99	0	50	2.248622	-2.40509	-42.90029	
13:37:00	0	0	0	22.74485	7.752802	0	3	99	0	50	2.245296	-2.354352	-42.87319	
13:37:02	0	0	0	22.52699	-6.354078	0	3	99	0	50	2.227903	-2.274558	-42.84547	
13:37:04	0	0	0	22.80782	8.051456	0	3	99	0	50	2.232633	-2.185154	-42.8838	
13:37:05	0	0	0	22.67023	-4.125495	0	3	99	0	50	2.21168	-2.242896	-42.90596	
13:37:07	0	0	0	22.84607	5.758338	0	3	99	0	50	2.249225	-2.314976	-42.94724	
13:37:09	0	0	0	22.82042	-0.1633113	0	3	99	0	50	2.187052	-2.37217	-42.90739	
13:37:11	0	0	0	22.77008	-1.660323	0	3	99	0	50	2.227084	-2.373311	-42.95046	
13:37:12	0	0	0	22.53849	-7.491308	0	3	99	0	50	2.272755	-2.234348	-42.94633	
13:37:14	0	0	0	22.78856	6.122949	0	3	99	0	50	2.223198	-2.204067	-42.94216	
13:37:16	0	0	0	23.16868	16.322	0	3	99	0	50	2.237691	-2.321129	-42.9273	
13:37:17	0	0	0	23.04782	2.875421	0	3	99	0	50	2.250267	-2.339743	-42.91827	
13:37:19	0	0	0	22.66153	-12.53191	0	3	99	0	50	2.222118	-2.389609	-42.90839	
13:37:21	0	0	0	22.59809	-9.365686	0	3	99	0	50	2.234626	-2.466775	-42.9023	
13:37:22	0	0	0	22.46925	-10.07835	0	3	99	0	50	2.241396	-2.429359	-42.90931	
13:37:24	0	0	0	22.66594	2.760641	0	3	99	0	50	2.2638	-2.423717	-42.88837	
13:37:26	0	0	0	22.85493	9.343878	0	3	99	0	50	2.240558	-2.524386	-42.918	
13:37:27	0	0	0	22.68395	-3.141434	0	3	99	0	50	2.251287	-2.545399	-42.93487	
13:37:29	0	0	0	22.88359	8.079221	0	3	99	0	50	2.261749	-2.598856	-42.96058	
13:37:31	0	0	0	22.96146	5.839942	0	3	99	0	50	2.243694	-2.575412	-42.93855	
13:37:33	0	0	0	22.98301	1.586442	0	3	99	0	50	2.27028	-2.50033	-42.93924	
13:37:34	0	0	0	22.68793	-10.24886	0	3	99	0	50	2.30021	-2.524943	-42.95237	
13:37:36	0	0	0	22.86432	0.629272	0	3	99	0	50	2.318132	-2.517684	-42.9439	
13:37:38	0	0	0	22.53018	-13.84841	0	3	99	0	50	2.299021	-2.518443	-42.94402	
13:37:39	0	0	0	22.26131	-14.79755	0	3	99	0	50	2.25039	-2.613055	-42.9351	
13:37:41	0	0	0	22.6432	8.795846	0	3	99	0	50	2.309982	-2.504822	-42.92096	
13:37:43	0	0	0	22.68763	7.002583	0	3	99	0	50	2.307521	-2.524923	-42.93812	
13:37:44	0	0	0	22.96234	11.81802	0	3	99	0	50	2.297745	-2.473213	-42.89571	
13:37:46	0	0	0	22.52855	-12.21688	0	3	99	0	50	2.251553	-2.548776	-42.85294	
13:37:48	0	0	0	22.61644	-3.894043	0	3	99	0	50	2.229001	-2.542488	-42.82491	
13:37:49	0	0	0	22.6636	0.4119617	0	3	99	0	50	2.197343	-2.52634	-42.82213	
13:37:51	0	0	0	22.94413	10.54945	0	3	99	0	50	2.256844	-2.424339	-42.79728	
13:37:53	0	0	0	22.89147	2.634846	0	3	99	0	50	2.223242	-2.393568	-42.79653	
13:37:55	0	0	0	22.75268	-5.356414	0	3	99	0	50	2.257843	-2.43304	-42.80965	
13:37:56	0	0	0	22.65081	-5.192571	0	3	99	0	50	2.304477	-2.333415	-42.80946	
13:37:58	0	0	0	22.83249	5.341269	0	3	99	0	50	2.260768	-2.305648	-42.81527	
13:38:00	0	0	0	22.98601	7.133049	0	3	99	0	50	2.265265	-2.317013	-42.84693	
13:38:01	0	0	0	22.80358	-4.881197	0	3	99	0	50	2.260892	-2.389489	-42.90059	
13:38:03	0	0	0	22.72706	-4.076893	0	3	99	0	50	2.231012	-2.418168	-42.90307	
13:38:05	0	0	0	22.86301	3.592428	0	3	99	0	50	2.264437	-2.276225	-42.89624	
13:38:06	0	0	0	22.45675	-13.18748	0	3	99	0	50	2.235488	-2.353477	-42.89701	
13:38:08	0	0	0	22.22898	-15.38097	0	3	99	0	50	2.27374	-2.226213	-42.92207	
13:38:10	0	0	0	22.68259	12.46653	0	3	99	0	50	2.2995	-2.214193	-42.94025	
13:38:11	0	0	0	22.85345	8.669463	0	3	99	0	50	2.237216	-2.291229	-42.91274	
13:38:13	0	0	0	22.74498	0.5528362	0	3	99	0	50	2.239458	-2.202789	-42.9199	
13:38:15	0	0	0	22.99919	9.54516	0	3	99	0	50	2.223357	-2.21441	-42.91525	
13:38:16	0	0	0	22.86489	0.694249	0	3	99	0	50	2.216538	-2.264179	-42.92552	
13:38:18	0	0	0	22.5755	-11.94195	0	3	99	0	50	2.233326	-2.183828	-42.91218	
13:38:20	0	0	0	22.84446	5.840977	0	3	99	0	50	2.21152	-2.161755	-42.93273	
13:38:22	0	0	0	22.82785	0.2160801	0	3	99	0	50	2.222138	-2.136327	-42.96923	
13:38:23	0	0	0	22.59355	-9.271926	0	3	99	0	50	2.212308	-2.259152	-43.01109	
13:38:25	0	0	0	22.52208	-6.824002	0	3	99	0	50	2.140134	-2.372701	-42.99137	
13:38:27	0	0	0	22.50466	-5.099709	0	3	99	0	50	2.115762	-2.423048	-42.95814	
13:38:28	0	0	0	22.56549	-0.9763443	0	3	99	0	50	2.119852	-2.455226	-42.91769	
13:38:30	0	0	0	22.80341	9.735675	0	3	99	0	50	2.107161	-2.407014	-42.88625	
13:38:32	0	0	0	22.85283	7.286358	0	3	99	0	50	2.105919	-2.406551	-42.81259	
13:38:33	0	0	0	23.03531	8.039698	0	3	99	0	50	-0.9566464	-4.133488	-45.98988	
13:38:35	0	0	0	22.68184	-8.973787	0	3	99	0	50	-0.08854987	-3.596012	-44.64048	
13:38:37	0	0	0	22.74869	0.3556864	0	3	99	0	50	0.6170095	-3.240789	-43.73634	
13:38:38	0	0	0	22.78102	-0.7601548	0	3	99	0	50	1.141225	-3.000108	-43.14232	
13:38:40	0	0	0	22.6121	-3.643756	0	3	99	0	50	1.546926	-2.731899	-42.77735	
13:38:42	0	0	0	22.60109	-2.20371	0	3	99	0	50	1.893731	-2.582092	-42.52469	
13:38:44	0	0	0	22.74821	5.060678	0	3	99	0	50	2.153618	-2.496115	-42.36906	
13:38:45	0	0	0	22.75953	1.077561	0	3	99	0	50	2.370892	-2.395248	-42.29304	
13:38:47	0	0	0	22.75664	1.982562	0	3	99	0	50	2.478382	-2.316313	-42.26528	
13:38:49	0	0	0	22.7553	2.181591	0	3	99	0	50	2.629937	-2.25705	-42.28126	
13:38:50	0	0	0	22.57367	-4.370697	0	3	99	0	50	2.678656	-2.172739	-42.32111	
13:38:52	0	0	0	22.71909	4.627378	0	3	99	0	50	2.739442	-2.19119	-42.38412	
13:38:54	0	0	0	22.86461	8.703903	0	3	99	0	50	2.770183	-2.14217	-42.46216	
13:38:55	0	0	0	22.50369	-12.65659	0	3	99	0	50	2.79216	-2.150625	-42.51344	
13:38:57	0	0	0	22.16484	-16.22443	0	3	99	0	50	2.725444	-2.21516	-42.62031	
13:38:59	0	0	0	22.35107	0.777366	0	3	100	0	50	2.724241	-2.135273	-42.687	
13:39:00	0	0	0	22.56776	7.445498	0	3	100	0	50	2.678988	-2.091356	-42.72123	
13:39:02	0	0	0	22.98069	22.37987	0	3	100	0	50	2.572362	-2.128386	-42.78875	
13:39:04	0	0	0	23.11688	13.02675	0	3	100	0	50	2.603772	-2.196193	-42.85133	
13:39:06	0	0	0	23.26106	7.139736	0	3	100	0	50	2.573637	-2.179312	-42.85632	
13:39:07	0	0	0	23.02718	-4.634489	0	3	100	0	50	2.492797	-2.265586	-42.88078	
13:39:09	0	0	0	22.56329	-20.54028	0	3	100	0	50	2.441637	-2.247885	-42.87189	
13:39:11	0	0	0	22.66149	-5.243592	0	3	100	0	50	2.438953	-2.290429	-42.90358	
13:39:12	0	0	0	22.82531	0.7950013	0	3	100	0	50	2.410368	-2.327055	-42.90333	
13:39:14	0	0	0	22.65521	-5.855115	0	3	100	0	50	2.364575	-2.344066	-42.90725	
13:39:16	0	0	0	22.59471	-4.810476	0	3	100	0	50	2.422729	-2.34603	-42.91551	
13:39:17	0	0	0	22.7771	4.387885	0	3	100	0	50	2.445947	-2.247342	-42.89589	
13:39:19	0	0	0	23.14802	16.26567	0	3	100	0	50	2.378632	-2.271646	-42.9334	
13:39:21	0	0	0	23.43104	16.0016	0	3	100	0	50	2.362863	-2.178229	-42.92778	
13:39:22	0	0	0	23.18978	-0.217694	0	3	100	0	50	2.378794	-1.993434	-42.91136	
13:39:24	0	0	0	22.97952	-8.76297	0	3	100	0	50	2.352201	-2.050623	-42.93184	
13:39:26	0	0	0	22.82173	-10.23218	0	3	100	0	50	2.318134	-2.066103	-42.90911	
13:39:27	0	0	0	22.54291	-15.22628	0	3	100	0	50	2.348876	-2.065977	-42.90107	
13:39:29	0	0	0	22.87532	7.596093	0	3	100	0	50	2.291756	-2.11476	-42.91192	
13:39:31	0	0	0	22.89879	7.836185	0	3	100	0	50	2.259131	-2.254778	-42.92411	
13:39:33	0	0	0	22.94757	5.993364	0	3	100	0	50	2.27445	-2.233466	-42.92341	
13:39:34	0	0	0	23.12203	8.913871	0	3	100	0	50	2.288203	-2.157338	-42.94079	
13:39:36	0	0	0	22.99007	-3.208603	0	3	100	0	50	2.34574	-2.275854	-42.95949	
13:39:38	0	0	0	22.82975	-8.091438	0	3	100	0	50	2.355768	-2.270164	-42.92327	
13:39:39	0	0	0	22.68089	-6.969474	0	3	100	0	50	2.379247	-2.301762	-42.91708	
13:39:41	0	0	0	22.83316	3.401012	0	3	100	0	50	2.313992	-2.292363	-42.94816	
13:39:43	0	0	0	22.92828	6.738755	0	3	100	0	50	2.302073	-2.352734	-42.91467	
13:39:44	0	0	0	23.06454	5.085579	0	3	100	0	50	2.298983	-2.337234	-42.90351	
13:39:46	0	0	0	23.15882	4.864036	0	3	100	0	50	2.225718	-2.358941	-42.87534	
13:39:48	0	0	0	22.69847	-15.32087	0	3	100	0	50	2.25665	-2.398633	-42.87579	
13:39:49	0	0	0	22.69316	-6.814742	0	3	100	0	50	2.222628	-2.405113	-42.88548	
13:39:51	0	0	0	22.83839	2.797481	0	3	100	0	50	2.192502	-2.342599	-42.86599	
13:39:53	0	0	0	22.72333	-3.119503	0	3	100	0	50	2.22786	-2.412581	-42.90647	
13:39:55	0	0	0	22.68204	-5.895864	0	3	100	0	50	2.209798	-2.373543	-42.91129	
13:39:56	0	0	0	22.60571	-2.743595	0	3	100	0	50	2.243671	-2.379519	-42.91846	
13:39:58	0	0	0	22.75332	1.926141	0	3	100	0	50	2.169206	-2.36483	-42.93694	
13:40:00	0	0	0	22.78518	3.964958	0	3	100	0	50	2.201383	-2.442468	-42.93433	
13:40:01	0	0	0	22.79339	0.2437664	0	3	100	0	50	2.220165	-2.265643	-42.86976	
13:40:03	0	0	0	22.71571	-2.491729	0	3	100	0	50	2.180201	-2.279129	-42.88216	
13:40:05	0	0	0	22.81607	4.91177	0	3	100	0	50	2.193906	-2.348049	-42.86805	
13:40:06	0	0	0	22.91909	3.130227	0	3	100	0	50	2.248851	-2.389352	-42.88349	
13:40:08	0	0	0	22.52888	-11.84672	0	3	100	0	50	2.269036	-2.345438	-42.91439	
13:40:10	0	0	0	22.71091	0.4680684	0	3	100	0	50	2.266663	-2.360149	-42.87498	
13:40:11	0	0	0	22.59617	-4.332108	0	3	100	0	50	2.30056	-2.274325	-42.87895	
13:40:13	0	0	0	22.87794	9.789936	0	3	100	0	50	2.29912	-2.340241	-42.92943	
13:40:15	0	0	0	22.8754	3.757282	0	3	100	0	50	2.271199	-2.459971	-42.93011	
13:40:17	0	0	0	22.88982	3.482481	0	3	100	0	50	2.285918	-2.591053	-42.93488	
13:40:18	0	0	0	22.5157	-11.5738	0	3	100	0	50	2.295963	-2.615688	-42.92495	
13:40:20	0	0	0	23.02481	14.08902	0	3	100	0	50	2.263175	-2.587196	-42.8909	
13:40:22	0	0	0	22.86583	-0.7779955	0	3	100	0	50	2.291854	-2.530317	-42.88208	
13:40:23	0	0	0	22.49066	-13.15129	0	3	100	0	50	2.268995	-2.492911	-42.85755	
13:40:25	0	0	0	22.68202	0.8473055	0	3	100	0	50	2.25481	-2.40244	-42.8735	
13:40:27	0	0	0	22.95708	12.49016	0	3	100	0	50	2.219	-2.445087	-42.88165	
13:40:28	0	0	0	22.89034	0.03908908	0	3	100	0	50	2.226143	-2.436385	-42.85958	
13:40:30	0	0	0	23.01809	8.392781	0	3	100	0	50	2.240912	-2.428041	-42.85941	
13:40:32	0	0	0	23.24355	10.11499	0	3	100	0	50	2.272153	-2.488924	-42.86858	
13:40:33	0	0	0	23.15973	1.348559	0	3	100	0	50	2.250237	-2.51024	-42.89831	
13:40:35	0	0	0	23.15537	-2.618539	0	3	100	0	50	2.217532	-2.563488	-42.90469	
13:40:37	0	0	0	23.11231	-2.026204	0	3	100	0	50	2.274959	-2.504112	-42.89432	
13:40:38	0	0	0	23.28817	6.672424	0	3	100	0	50	2.295954	-2.518658	-42.91713	
13:40:40	0	0	0	23.14809	-4.559872	0	3	100	0	50	2.266896	-2.57968	-42.93736	
13:40:42	0	0	0	22.89728	-10.87265	0	3	100	0	50	2.231344	-2.550168	-42.92194	
13:40:44	0	0	0	22.75874	-10.81448	0	3	100	0	50	2.170162	-2.609322	-42.9159	
13:40:45	0	0	0	22.81007	-3.225703	0	3	100	0	50	2.205069	-2.496614	-42.85401	
13:40:47	0	0	0	22.97106	7.331701	0	3	100	0	50	2.195398	-2.481997	-42.847	
13:40:49	0	0	0	23.21206	10.8623	0	3	100	0	50	2.176893	-2.529329	-42.86585	
13:40:50	0	0	0	23.19382	3.891818	0	3	100	0	50	2.187572	-2.503548	-42.82481	
13:40:52	0	0	0	23.13906	0.1025107	0	3	100	0	50	2.211023	-2.452528	-42.80779	
13:40:54	0	0	0	23.1747	0.6666259	0	3	100	0	50	2.177716	-2.521019	-42.82446	
13:40:55	0	0	0	23.11102	-2.710982	0	3	100	0	50	2.223319	-2.463879	-42.85651	
13:40:57	0	0	0	23.0314	-3.109123	0	3	100	0	50	2.278687	-2.46118	-42.89016	
13:40:59	0	0	0	23.33372	11.1266	0	3	100	0	50	2.294076	-2.5051	-42.92331	
13:41:00	0	0	0	23.43567	5.70922	0	3	100	0	50	2.294706	-2.301033	-42.91064	
13:41:02	0	0	0	23.33469	0.09221782	0	3	100	0	50	2.348229	-2.265506	-42.92411	
13:41:04	0	0	0	23.49309	6.914271	0	3	100	0	50	2.36853	-2.238987	-42.93558	
13:41:06	0	0	0	22.92723	-20.27738	0	3	100	0	50	2.331231	-2.184986	-42.96465	
13:41:07	0	0	0	22.74768	-14.71798	0	3	100	0	50	2.272517	-2.293707	-42.94246	
13:41:09	0	0	0	22.79651	-5.050201	0	3	100	0	50	2.263582	-2.259741	-42.95785	
13:41:11	0	0	0	22.94351	3.859792	0	3	100	0	50	2.180724	-2.317692	-42.95115	
13:41:12	0	0	0	22.65351	-8.434634	0	3	100	0	50	2.211936	-2.329781	-42.95557	
13:41:14	0	0	0	22.92171	8.734582	0	3	100	0	50	2.175967	-2.395408	-42.96847	
13:41:16	0	0	0	22.90034	0.4786359	0	3	100	0	50	2.192255	-2.374717	-42.95189	
13:41:17	0	0	0	22.74712	-4.375897	0	3	100	0	50	2.200413	-2.396514	-42.92532	
13:41:19	0	0	0	22.70023	-3.142087	0	3	100	0	50	2.228107	-2.483601	-42.91032	
13:41:21	0	0	0	22.64461	-3.017097	0	3	100	0	50	2.258747	-2.452327	-42.90882	
13:41:22	0	0	0	22.3626	-13.41887	0	3	100	0	50	2.253989	-2.348601	-42.93791	
13:41:24	0	0	0	22.48132	-1.892515	0	3	100	0	50	2.196592	-2.224278	-42.92996	
13:41:26	0	0	0	22.61924	5.134479	0	3	100	0	50	2.211201	-2.24516	-42.94909	
13:41:28	0	0	0	22.53635	-2.466863	0	3	100	0	50	2.235983	-2.303282	-42.92468	
13:41:29	0	0	0	22.31623	-8.930659	0	3	100	0	50	2.220504	-2.374758	-42.88787	
13:41:31	0	0	0	22.31645	-1.248275	0	3	100	0	50	2.210194	-2.390427	-42.90121	
13:41:33	0	0	0	22.43635	3.141929	0	3	100	0	50	2.190218	-2.501567	-42.91761	
13:41:34	0	0	0	22.4975	3.64074	0	3	100	0	50	2.198311	-2.49775	-42.91249	
13:41:36	0	0	0	21.90287	-20.49171	0	3	100	0	50	2.186402	-2.431376	-42.91575	
13:41:38	0	0	0	21.63005	-18.67605	0	3	100	0	50	2.183904	-2.474607	-42.96282	
13:41:39	0	0	0	21.52919	-12.28316	0	3	100	0	50	2.192106	-2.373447	-42.92515	
13:41:41	0	0	0	21.60929	-0.4056315	0	3	100	0	50	2.181593	-2.347559	-42.93595	
13:41:43	0	0	0	21.94757	13.19996	0	3	100	0	50	2.196669	-2.300896	-42.9148	
13:41:44	0	0	0	22.15664	11.89055	0	3	100	0	50	2.230369	-2.275765	-42.9362	
13:41:46	0	0	0	22.27391	11.42624	0	3	100	0	50	2.224655	-2.340755	-42.96692	
13:41:48	0	0	0	22.61935	17.25864	0	3	100	0	50	2.219807	-2.201087	-42.93341	
13:41:50	0	0	0	22.39644	-2.414437	0	3	100	0	50	2.236411	-2.208202	-42.95883	
13:41:51	0	0	0	22.1657	-10.8331	0	3	100	0	50	2.298338	-2.175326	-42.93429	
13:41:53	0	0	0	22.19409	-4.128746	0	3	100	0	50	2.260834	-2.166015	-42.96686	
13:41:55	0	0	0	22.50854	10.7828	0	3	100	0	50	2.257178	-2.25328	-42.93819	
13:41:56	0	0	0	22.55584	5.796973	0	3	100	0	50	2.249976	-2.344175	-42.92212	
13:41:58	0	0	0	22.72379	10.09313	0	3	100	0	50	2.32023	-2.376859	-42.93496	
13:42:00	0	0	0	22.51824	-2.723476	0	3	100	0	50	2.304985	-2.344806	-42.9779	
13:42:01	0	0	0	22.36729	-8.64741	0	3	100	0	50	2.270415	-2.468446	-43.01003	
13:42:03	0	0	0	22.33753	-3.947192	0	3	100	0	50	2.230723	-2.481175	-43.00357	
13:42:05	0	0	0	22.57139	5.16991	0	3	100	0	50	2.299468	-2.349362	-42.94048	
13:42:06	0	0	0	22.29478	-7.856155	0	3	100	0	50	2.29738	-2.299546	-42.92374	
13:42:08	0	0	0	22.57592	8.58295	0	3	100	0	50	2.302254	-2.209311	-42.91944	
13:42:10	0	0	0	22.4197	2.029095	0	3	100	0	50	2.297359	-2.306868	-42.91599	
13:42:11	0	0	0	22.22702	-8.295276	0	3	100	0	50	2.331569	-2.336213	-42.93946	
13:42:13	0	0	0	21.82615	-19.45009	0	3	100	0	50	2.294841	-2.317784	-42.94797	
13:42:15	0	0	0	22.26558	10.95415	0	3	100	0	50	2.329729	-2.30535	-42.96185	
13:42:17	0	0	0	22.00222	-8.358319	0	3	100	0	50	2.268894	-2.472317	-42.96609	
13:42:18	0	0	0	21.91935	-5.503553	0	3	100	0	50	2.249635	-2.388063	-42.93565	
13:42:20	0	0	0	21.97312	0.3787032	0	3	100	0	50	2.259551	-2.405219	-42.92641	
13:42:22	0	0	0	21.92512	-1.408911	0	3	100	0	50	2.285447	-2.335549	-42.92886	
13:42:23	0	0	0	22.3443	18.1564	0	3	100	0	50	2.276106	-2.437516	-42.94281	
13:42:25	0	0	0	22.52373	9.618505	0	3	100	0	50	2.201156	-2.489945	-42.89407	
13:42:27	0	0	0	22.21775	-5.484691	0	3	100	0	50	2.286489	-2.381236	-42.8917	
13:42:28	0	0	0	22.11061	-4.406451	0	3	100	0	50	2.24567	-2.54453	-42.89404	
13:42:30	0	0	0	22.39779	8.205633	0	3	100	0	50	2.300999	-2.403585	-42.87996	
13:42:32	0	0	0	22.59473	10.28994	0	3	100	0	50	2.335564	-2.514193	-42.88257	
13:42:33	0	0	0	22.52852	5.005764	0	3	100	0	50	2.366025	-2.485037	-42.88167	
13:42:35	0	0	0	22.75767	10.96013	0	3	100	0	50	2.36897	-2.382689	-42.85883	
13:42:37	0	0	0	22.25544	-15.32136	0	3	100	0	50	2.370493	-2.379957	-42.87346	
13:42:39	0	0	0	22.48752	0.6790472	0	3	100	0	50	2.325265	-2.40677	-42.89837	
13:42:40	0	0	0	22.70795	10.00252	0	3	100	0	50	2.328793	-2.396225	-42.87449	
13:42:42	0	0	0	22.50701	-6.029653	0	3	100	0	50	2.354823	-2.383455	-42.83899	
13:42:44	0	0	0	22.32775	-9.257567	0	3	100	0	50	2.423388	-2.392425	-42.87618	
13:42:45	0	0	0	22.65102	9.156871	0	3	100	0	50	2.409015	-2.35801	-42.90534	
13:42:47	0	0	0	22.69715	5.89411	0	3	100	0	50	2.355411	-2.254775	-42.91175	
13:42:49	0	0	0	22.49231	-8.323576	0	3	100	0	50	2.310484	-2.306577	-42.93152	
13:42:50	0	0	0	22.51837	-2.491121	0	3	100	0	50	2.270078	-2.311464	-42.97387	
13:42:52	0	0	0	22.48111	-2.659461	0	3	100	0	50	2.255543	-2.412914	-42.92534	
13:42:54	0	0	0	22.46548	-0.2075487	0	3	100	0	50	2.306064	-2.248189	-42.91876	
13:42:55	0	0	0	22.7595	10.34054	0	3	100	0	50	2.294594	-2.230483	-42.89704	
13:42:57	0	0	0	22.39236	-9.047817	0	3	100	0	50	2.314389	-2.170691	-42.93414	
13:42:59	0	0	0	22.21733	-8.864481	0	3	100	0	50	2.299711	-2.249806	-42.94436	
13:43:01	0	0	0	22.72828	17.39657	0	3	100	0	50	2.284162	-2.276778	-42.93499	
13:43:02	0	0	0	22.82012	10.43968	0	3	100	0	50	2.336899	-2.305461	-42.93785	
13:43:04	0	0	0	22.90067	8.570618	0	3	100	0	50	2.312377	-2.288502	-42.92138	
13:43:06	0	0	0	22.72084	-4.287652	0	3	100	0	50	2.320895	-2.294185	-42.92063	
13:43:07	0	0	0	22.37144	-16.65757	0	3	100	0	50	2.338418	-2.269405	-42.92265	
13:43:09	0	0	0	22.40874	-4.237568	0	3	100	0	50	2.299619	-2.375736	-42.93904	
13:43:11	0	0	0	22.78271	13.57254	0	3	100	0	50	2.264494	-2.331202	-42.9813	
13:43:12	0	0	0	22.76526	3.680755	0	3	100	0	50	2.279945	-2.355479	-42.9744	
13:43:14	0	0	0	22.65503	-2.730447	0	3	100	0	50	2.274356	-2.438701	-42.96376	
13:43:16	0	0	0	22.35863	-15.30834	0	3	100	0	50	2.262031	-2.381468	-42.9443	
13:43:17	0	0	0	22.11838	-14.67228	0	3	100	0	50	2.271715	-2.442221	-42.9423	
13:43:19	0	0	0	22.25566	-2.884946	0	3	100	0	50	2.200912	-2.506693	-42.93428	
13:43:21	0	0	0	22.39189	4.767066	0	3	100	0	50	2.195544	-2.4805	-42.91466	
13:43:22	0	0	0	22.60706	12.58937	0	3	100	0	50	2.162807	-2.481401	-42.90198	
13:43:24	0	0	0	23.1539	26.32161	0	3	100	0	50	2.160722	-2.479314	-42.88779	
13:43:26	0	0	0	23.17309	12.39082	0	3	100	0	50	2.205356	-2.562422	-42.85102	
13:43:28	0	0	0	22.88317	-5.213956	0	3	100	0	50	2.209358	-2.546924	-42.8517	
13:43:29	0	0	0	22.26143	-27.86663	0	3	100	0	50	2.216481	-2.5218	-42.86424	
13:43:31	0	0	0	22.44606	-4.101275	0	3	100	0	50	2.258028	-2.588668	-42.88346	
13:43:33	0	0	0	22.62483	4.395562	0	3	100	0	50	2.263444	-2.585311	-42.92906	
13:43:34	0	0	0	22.77829	8.025072	0	3	100	0	50	2.292131	-2.452974	-42.87956	
13:43:36	0	0	0	22.72974	1.471526	0	3	100	0	50	2.277269	-2.398989	-42.84378	
13:43:38	0	0	0	22.91592	8.148943	0	3	100	0	50	2.307352	-2.184496	-42.85992	
13:43:39	0	0	0	22.80033	-0.1897355	0	3	100	0	50	2.290851	-2.205288	-42.8961	
13:43:41	0	0	0	22.926	5.67126	0	3	100	0	50	2.261388	-2.175021	-42.90675	
13:43:43	0	0	0	22.96195	1.494032	0	3	100	0	50	2.269244	-2.268609	-42.95145	
13:43:44	0	0	0	22.77331	-7.36827	0	3	100	0	50	2.267681	-2.288491	-42.97069	
13:43:46	0	0	0	22.47136	-14.57863	0	3	100	0	50	2.257986	-2.33241	-42.98965	
13:43:48	0	0	0	22.71917	1.701761	0	3	100	0	50	2.204079	-2.386324	-42.95214	
13:43:50	0	0	0	23.03783	15.72083	0	3	100	0	50	2.173206	-2.398319	-42.94794	
13:43:51	0	0	0	23.01258	4.322824	0	3	100	0	50	2.209521	-2.343553	-42.90588	
13:43:53	0	0	0	22.81147	-6.567322	0	3	100	0	50	2.2976	-2.306108	-42.92925	
13:43:55	0	0	0	22.9759	4.325584	0	3	100	0	50	2.242918	-2.393178	-42.94744	
13:43:56	0	0	0	22.77127	-8.370205	0	3	100	0	50	2.186013	-2.435614	-42.90266	
13:43:58	0	0	0	22.51468	-11.88769	0	3	100	0	50	2.18824	-2.466268	-42.90614	
13:44:00	0	0	0	22.40755	-9.122391	0	3	100	0	50	2.1945	-2.396564	-42.84803	
13:44:01	0	0	0	22.53703	-2.279517	0	3	100	0	50	2.184063	-2.347651	-42.89056	
13:44:03	0	0	0	22.57635	0.8173497	0	3	100	0	50	2.192756	-2.306577	-42.89354	
13:44:05	0	0	0	22.90958	12.70283	0	3	100	0	50	2.183849	-2.393328	-42.87825	
13:44:06	0	0	0	22.50459	-6.693583	0	3	100	0	50	2.188114	-2.518077	-42.88781	
13:44:08	0	0	0	22.28947	-12.7678	0	3	100	0	50	2.185688	-2.495801	-42.85822	
13:44:10	0	0	0	22.34822	-2.802043	0	3	100	0	50	2.242444	-2.43866	-42.85649	
13:44:12	0	0	0	22.02515	-12.98088	0	3	100	0	50	2.266064	-2.332259	-42.87299	
13:44:13	0	0	0	22.3417	5.776371	0	3	100	0	50	2.305526	-2.174934	-42.88931	
13:44:15	0	0	0	22.51643	10.61199	0	3	100	0	50	2.258269	-2.207514	-42.88179	
