Date	Latitude(deg) 	Longitude(deg)	hamsl(m)	hafl(m)	climbrate(cm/s)	GroundSpeed(m/s)	Airspeed(m/s)	Mav_Link(%)	Rssi_Link(%)	Throttle	Roll(deg)	Pitch(deg)	Yaw(deg)
19:50:56	0	0	0	0	0	0	3	33	0	50	0	0	83.5014	
19:50:58	0	0	0	-0.517618	-28.27516	0	3	41	0	43	-0.9492245	-6.679122	119.1804	
19:51:00	0	0	0	-0.08351821	-10.32741	0	3	48	0	39	-0.7490655	-6.346161	120.6895	
19:51:02	0	0	0	0.09633805	13.45752	0	3	54	0	34	-0.6901004	-6.38798	121.2798	
19:51:04	0	0	0	-0.06508797	22.72907	0	3	59	0	29	-0.882341	-6.358228	122.3149	
19:51:06	0	0	0	-0.07119256	18.14555	0	3	63	0	25	-1.005884	-6.416738	122.9715	
19:51:08	0	0	0	-0.09956076	23.28532	0	3	67	0	20	-0.9995283	-6.36341	123.3096	
19:51:10	0	0	0	-0.155467	-26.90756	0	3	71	0	15	-1.02587	-6.412017	123.533	
19:51:12	0	0	0	-0.2087956	-21.94522	0	3	73	0	12	-0.9990063	-6.46722	123.5089	
19:51:14	0	0	0	-0.2279171	27.54662	0	3	76	0	12	-0.9764242	-6.398946	123.5221	
19:51:16	0	0	0	-0.2416986	-0.3188771	0	3	78	0	12	-0.9042464	-6.418428	123.3735	
19:51:18	0	0	0	-0.3364943	-10.05768	0	3	80	0	12	-0.8110203	-6.368616	123.1566	
19:51:20	0	0	0	-0.2876332	18.05553	0	3	82	0	12	-0.8220849	-6.298961	123.0133	
19:51:22	0	0	0	-0.2635942	52.58006	0	3	84	0	12	-0.783272	-6.311317	122.7466	
19:51:24	0	0	0	0.1178927	90.61343	0	3	85	0	12	-0.8189575	-6.343561	122.5588	
19:51:26	0	0	0	-0.007983551	44.06458	0	3	87	0	12	-0.7579666	-6.366326	122.3672	
19:51:28	0	0	0	0.1162284	53.20541	0	3	88	0	12	-0.7298315	-6.364897	122.1199	
19:51:30	0	0	0	0.07203159	46.34242	0	3	89	0	12	-0.7167577	-6.356151	121.9837	
19:51:32	0	0	0	-0.1770447	-31.01421	0	3	90	0	12	-0.7195624	-6.30315	121.7909	
19:51:34	0	0	0	0.1925318	40.49299	0	3	91	0	13	-0.7313706	-6.138295	121.6511	
19:51:36	0	0	0	0.1506406	55.71249	0	3	92	0	12	-0.7469442	-6.170497	121.6087	
19:51:38	0	0	0	-0.5883519	-71.53228	0	3	92	0	12	-0.6871466	-6.221601	121.5127	
19:51:40	0	0	0	-0.09565824	39.44043	0	3	93	0	12	-0.7239164	-6.320322	121.3921	
19:51:43	0	0	0	-0.3395251	15.34132	0	3	94	0	12	-0.7304875	-6.402486	121.2215	
19:51:45	0	0	0	-0.2849349	31.59848	0	3	94	0	12	-0.7570101	-6.387864	121.09	
19:51:47	0	0	0	0.02976516	73.24058	0	3	95	0	12	-0.6881449	-6.473333	121.0107	
19:51:49	0	0	0	-0.1326998	24.12553	0	3	95	0	12	-0.7220622	-6.482217	120.924	
19:51:51	0	0	0	-0.5608315	-18.16822	0	3	95	0	12	-0.6651976	-6.523852	120.8405	
19:51:53	0	0	0	-0.1864794	11.81269	0	3	96	0	12	-0.7052733	-6.473689	120.7753	
19:51:55	0	0	0	-0.2297904	14.12974	0	3	96	0	12	-0.7075891	-6.424647	120.7392	
19:51:57	0	0	0	-0.2359433	-15.45113	0	3	96	0	12	-0.6813083	-6.424085	120.6834	
19:51:59	0	0	0	-0.03293466	45.32851	0	3	97	0	12	-0.6090435	-6.4377	120.6373	
19:52:01	0	0	0	-0.01006387	47.72785	0	3	97	0	12	-0.6033326	-6.39587	120.6226	
19:52:03	0	0	0	0.1374358	43.48531	0	3	97	0	12	-0.6270564	-6.355646	120.5899	
19:52:05	0	0	0	-0.2239462	-1.815594	0	3	97	0	12	-0.7006533	-6.364009	120.5876	
19:52:07	0	0	0	-0.03785841	56.41547	0	3	98	0	12	-0.7681671	-6.391575	120.4127	
19:52:09	0	0	0	-0.1949636	-21.23182	0	3	98	0	16	0.06395305	-0.8714885	52.96055	
19:52:11	0	0	0	-0.4837534	-44.31289	0	3	98	0	15	6.414476	-0.9600046	2.504184	
19:52:13	0	0	0	-0.4675333	-26.01379	0	3	98	0	13	1.206682	-5.141245	-5.680346	
19:52:15	0	0	0	-0.3858967	38.18306	0	3	98	0	13	1.272081	-5.389856	-7.43799	
19:52:17	0	0	0	-0.2045496	36.11578	0	3	98	0	13	1.27921	-5.528649	-8.937202	
19:52:19	0	0	0	-0.5175258	-16.87108	0	3	98	0	13	1.209909	-5.564898	-10.00509	
19:52:21	0	0	0	-0.7375395	-16.89596	0	3	98	0	13	1.181785	-5.692502	-10.74635	
19:52:23	0	0	0	-0.6939012	7.665287	0	3	99	0	13	1.159909	-5.895763	-11.32395	
19:52:25	0	0	0	-0.7497654	-47.21614	0	3	99	0	13	1.055002	-5.87582	-11.67099	
19:52:27	0	0	0	-0.5443374	-4.126832	0	3	99	0	13	1.017249	-5.946133	-11.84761	
19:52:29	0	0	0	-0.03529735	83.44943	0	3	99	0	13	0.9702553	-5.877434	-11.94915	
19:52:31	0	0	0	-0.2476775	28.57664	0	3	99	0	13	0.9448401	-5.930432	-12.03508	
19:52:33	0	0	0	-0.4172534	-10.66467	0	3	99	0	13	0.9046352	-5.917643	-11.98455	
19:52:35	0	0	0	-0.4094649	-2.930196	0	3	99	0	13	0.9130261	-5.879981	-11.93569	
19:52:37	0	0	0	-0.5799052	-70.70786	0	3	99	0	13	0.9398636	-5.970915	-11.82872	
19:52:39	0	0	0	-0.3072687	45.81206	0	3	99	0	12	0.9336333	-5.95097	-11.73107	
19:52:41	0	0	0	-0.4898251	-3.077399	0	3	99	0	13	0.9607693	-5.912026	-11.63226	
19:52:44	0	0	0	-0.1391817	40.60957	0	3	99	0	13	0.995586	-5.869874	-11.51763	
19:52:46	0	0	0	-0.5949014	15.068	0	3	99	0	13	1.001687	-5.894116	-11.38822	
19:52:48	0	0	0	-0.4756939	35.34118	0	3	99	0	13	1.227337	-5.889429	-11.7768	
19:52:50	0	0	0	-0.3702181	-30.90063	0	3	99	0	12	1.28013	-6.016148	-11.77842	
19:52:52	0	0	0	-0.1735998	5.61228	0	3	99	0	12	1.29421	-6.037669	-11.67839	
19:52:54	0	0	0	-0.1024854	-24.62655	0	3	99	0	13	1.263986	-6.017893	-11.54442	
19:52:56	0	0	0	-0.4826398	-32.81167	0	3	99	0	50	1.284202	-6.071441	-11.52403	
19:52:57	0	0	0	-0.685355	-14.68813	0	3	99	0	4	1.350489	-6.032174	-11.74276	
19:52:59	0	0	0	-0.208137	44.23981	0	3	99	0	4	1.237115	-5.977483	-11.89835	
19:53:01	0	0	0	0.342793	62.7923	0	3	99	0	4	1.346468	-5.961621	-11.91731	
19:53:03	0	0	0	-0.1595176	-11.00498	0	3	99	0	4	1.405956	-5.937285	-11.9166	
19:53:05	0	0	0	0.1364017	55.06796	0	3	99	0	12	1.466726	-5.909936	-11.91568	
19:53:06	0	0	0	-0.3672768	22.78824	0	3	99	0	14	1.577317	-5.81776	-11.92326	
19:53:08	0	0	0	-0.5102352	-40.22239	0	3	99	0	4	1.605564	-5.810454	-11.92255	
19:53:10	0	0	0	-0.542509	-15.82014	0	3	99	0	5	1.470759	-5.715419	-11.89297	
19:53:12	0	0	0	-0.8635401	-61.84618	0	3	99	0	4	1.448195	-5.765447	-11.82627	
19:53:14	0	0	0	-0.6944438	-16.85635	0	3	99	0	6	1.42389	-5.757905	-11.73444	
19:53:15	0	0	0	-0.6375365	0.2657786	0	3	99	0	29	1.35182	-5.827598	-11.64989	
19:53:17	0	0	0	-0.301579	14.72348	0	3	99	0	51	1.3196	-5.915375	-12.11039	
19:53:19	0	0	0	-0.1813387	41.50354	0	3	99	0	64	1.351155	-6.028723	-12.57485	
19:53:21	0	0	0	-0.2107507	61.96412	0	3	99	0	68	1.415776	-5.798489	-13.54319	
19:53:22	0	0	0	-0.0839576	50.88036	0	3	99	0	68	1.419901	-5.954853	-14.33486	
19:53:24	0	0	0	-0.2784044	31.85641	0	3	99	0	68	1.527405	-5.942958	-14.94526	
19:53:26	0	0	0	0.1841252	20.10017	0	3	99	0	68	1.215741	-5.771828	-15.43139	
19:53:28	0	0	0	-0.5072699	-33.91402	0	3	99	0	4	1.076217	-6.369437	-14.51502	
19:53:30	0	0	0	-0.2161767	38.27237	0	3	99	0	4	1.068922	-6.166628	-13.8673	
19:53:31	0	0	0	-0.7012538	-78.38988	0	3	99	0	4	1.035173	-6.09374	-13.36972	
19:53:33	0	0	0	-0.2943854	-33.02104	0	3	99	0	4	0.9376342	-5.966819	-12.85037	
19:53:35	0	0	0	-0.2762129	38.87696	0	3	99	0	4	1.016665	-6.046316	-12.42714	
19:53:37	0	0	0	-0.1766666	63.52454	0	3	99	0	4	1.051052	-6.045308	-12.1816	
19:53:39	0	0	0	-0.2388559	16.20541	0	3	99	0	4	1.099253	-5.987004	-11.94864	
19:53:40	0	0	0	-0.3207072	-4.905917	0	3	99	0	4	1.084885	-5.96382	-11.82571	
19:53:42	0	0	0	-0.1626783	-10.28411	0	3	99	0	4	1.015097	-6.040309	-14.72238	
19:53:44	0	0	0	-0.3219218	-2.787217	0	3	99	0	4	0.9847527	-5.883626	-14.49586	
19:53:46	0	0	0	0.1934382	22.09765	0	3	99	0	4	1.017837	-5.85285	-14.3215	
19:53:48	0	0	0	-0.2700337	10.97474	0	3	99	0	4	1.011698	-5.914221	-14.19841	
19:53:50	0	0	0	-0.5770755	32.31519	0	3	99	0	4	1.093558	-5.882881	-14.12649	
19:53:52	0	0	0	-0.7041008	-51.69907	0	3	99	0	4	1.116291	-5.877315	-14.06382	
19:53:54	0	0	0	-0.3854576	27.31135	0	3	99	0	11	1.140499	-5.958554	-14.26975	
19:53:56	0	0	0	-0.4664012	22.79783	0	3	99	0	8	-1.304774	-7.936224	-18.45559	
19:53:58	0	0	0	0.4556707	52.2204	0	3	99	0	9	4.380962	-3.984118	-19.80671	
19:54:00	0	0	0	0.1825691	42.51481	0	3	99	0	26	1.08429	-5.303473	-20.63738	
19:54:02	0	0	0	0.0846688	-30.35724	0	3	99	0	26	0.1807718	-6.134253	-21.21148	
19:54:04	0	0	0	0.2341086	-49.03665	0	3	99	0	43	0.1927847	-1.704147	-7.324862	
19:54:06	0	0	0	0.3446882	-41.06376	0	3	99	0	52	-0.6152323	10.6007	-15.45994	
19:54:08	0	0	0	0.23386	-31.53048	0	3	99	0	61	-1.002365	4.914446	-13.65628	
19:54:10	0	0	0	0.6772982	37.03614	0	3	99	0	61	-0.9591891	-0.5207204	-11.51326	
19:54:12	0	0	0	0.8078728	67.83772	0	3	99	0	57	0.7758461	-2.143795	-14.62264	
19:54:15	0	0	0	0.06904371	-26.28137	0	3	99	0	68	3.332755	1.132323	-14.33183	
19:54:17	0	0	0	-0.2606421	-30.58986	0	3	99	0	72	1.262515	3.919136	-9.533296	
19:54:19	0	0	0	-0.3622447	0.2905846	0	3	99	0	70	-1.764896	-1.444359	-13.31115	
19:54:21	0	0	0	-0.06383137	54.93354	0	3	99	0	72	1.092766	2.110921	-7.45762	
19:54:23	0	0	0	-0.06748819	35.19598	0	3	99	0	75	0.1840108	0.3463053	-10.86793	
19:54:25	0	0	0	-0.09528665	-2.349824	0	3	99	0	75	-2.356724	-0.06527565	-15.38525	
19:54:27	0	0	0	0.04064536	23.13649	0	3	99	0	14	-1.766112	-2.512444	-16.69957	
19:54:29	0	0	0	-0.6694456	-35.81472	0	3	99	0	4	-9.232822	-2.537448	-15.15417	
19:54:31	0	0	0	-0.7075588	-6.124201	0	3	99	0	4	2.014511	-5.910835	-16.00368	
19:54:33	0	0	0	-0.6734431	-33.82366	0	3	99	0	4	1.570067	-5.898705	-14.81476	
19:54:35	0	0	0	-0.8865983	-40.37377	0	3	99	0	4	1.340299	-5.790062	-14.04051	
19:54:37	0	0	0	-1.016731	-49.99322	0	3	99	0	4	1.16069	-5.886226	-13.33723	
19:54:39	0	0	0	-0.5963176	10.80246	0	3	99	0	4	0.976301	-5.834173	-12.73073	
19:54:41	0	0	0	-0.9051406	20.70192	0	3	99	0	4	0.9378974	-5.880168	-12.33273	
19:54:43	0	0	0	-0.5784954	15.06284	0	3	99	0	4	0.8973565	-5.902251	-11.89319	
19:54:45	0	0	0	-0.4905765	21.93011	0	3	99	0	4	0.8928988	-5.979298	-11.66558	
19:54:47	0	0	0	-0.2778158	25.72098	0	3	99	0	4	0.5873805	-6.658598	-12.2311	
19:54:49	0	0	0	-0.449403	-29.2908	0	3	99	0	4	0.5385197	-5.705414	-11.46974	
