Date	Latitude(deg)	Longitude(deg)	hamsl(m)	hafl(m)	climbrate(cm/s)	GroundSpeed(m/s)	Airspeed(m/s)	Mav_Link(%)	Rssi_Link(%)	Throttle	Roll(deg)	Pitch(deg)	Yaw(deg)	Rollrate(dps)	Pitchrate(dps)	Yawrate(dps)	accelX(m/s/s)	accelY(m/s/s)	accelZ(m/s/s)	vgN(mps)	vgE(mps)	vgD(mps)	Aileron(unit)	Elevator(unit)	Rudder(unit)	Throttle(unit)
17:55:59:475	0	0	0	0	0	0	0	0	0	0	1.380538	2.584929	161.4996	0.001927564	0.01963756	0	0	0	-1000.103	0	0	0	1.71206E-07	-0.0001335089	0	0	
17:55:59:486	0	0	0	0	0	0	0	0	0	0	1.380538	2.584929	161.4996	0.001927564	0.01963756	0	0	0	-1000.103	0	0	0	1.71206E-07	-0.0001335089	0	0	
17:55:59:502	0	0	0	0	0	0	0	0	0	0	1.380538	2.584929	161.4996	0.001927564	0.01963756	0	0	0	-1000.103	0	0	0	1.71206E-07	-0.0001335089	0	0	
17:55:59:544	0	0	0	0	0	0	0	0	0	0	1.380538	2.584929	161.4996	0.001927564	0.01963756	0	0	0	-1000.103	0	0	0	1.71206E-07	-0.0001335089	0	0	
17:55:59:568	0	0	0	0	0	0	0	0	0	0	1.380538	2.584929	161.4996	0.001927564	0.01963756	0	0	0	-1000.103	0	0	0	1.71206E-07	-0.0001335089	0	0	
17:55:59:584	0	0	0	0	0	0	0	0	0	0	1.380538	2.584929	161.4996	0.001927564	0.01963756	0	0	0	-1000.103	0	0	0	1.71206E-07	-0.0001335089	0	0	
17:55:59:605	0	0	0	0	0	0	0	0	0	0	1.380538	2.584929	161.4996	0.001927564	0.01963756	0	0	0	-1000.103	0	0	0	1.71206E-07	-0.0001335089	0	0	
17:55:59:641	0	0	0	0	0	0	0	0	0	0	1.380538	2.584929	161.4996	0.001927564	0.01963756	0	0	0	-1000.103	0	0	0	1.71206E-07	-0.0001335089	0	0	
17:55:59:662	0	0	0	0	0	0	0	0	0	0	1.380538	2.584929	161.4996	0.001927564	0.01963756	0	0	0	-1000.103	0	0	0	1.71206E-07	-0.0001335089	0	0	
17:55:59:682	0	0	0	0	0	0	0	0	0	0	1.380538	2.584929	161.4996	0.001927564	0.01963756	0	0	0	-1000.103	0	0	0	1.71206E-07	-0.0001335089	0	0	
17:55:59:706	0	0	0	0	0	0	0	0	0	0	1.380538	2.584929	161.4996	0.001927564	0.01963756	0	0	0	-1000.103	0	0	0	1.71206E-07	-0.0001335089	0	0	
17:55:59:749	0	0	0	0	0	0	0	0	0	0	1.380538	2.584929	161.4996	0.001927564	0.01963756	0	0	0	-1000.103	0	0	0	1.71206E-07	-0.0001335089	0	0	
17:55:59:765	0	0	0	0	0	0	0	0	0	0	1.380538	2.584929	161.4996	0.001927564	0.01963756	0	0	0	-1000.103	0	0	0	1.71206E-07	-0.0001335089	0	0	
17:55:59:784	0	0	0	0	0	0	0	0	0	0	1.380538	2.584929	161.4996	0.001927564	0.01963756	0	0	0	-1000.103	0	0	0	1.71206E-07	-0.0001335089	0	0	
17:55:59:806	0	0	0	0	0	0	0	0	0	0	1.380538	2.584929	161.4996	0.001927564	0.01963756	0	0	0	-1000.103	0	0	0	1.71206E-07	-0.0001335089	0	0	
17:55:59:846	0	0	0	0	0	0	0	0	0	0	1.380538	2.584929	161.4996	0.001927564	0.01963756	0	0	0	-1000.103	0	0	0	1.71206E-07	-0.0001335089	0	0	
17:55:59:867	47.46363	-122.3077	0.02103662	0.02103662	0	0	0	0	0	0	1.380538	2.584929	161.4996	0.001927564	0.01963756	0	0	0	-1000.103	0	0	-4.637301E-05	1.71206E-07	-0.0001335089	0	0	
17:55:59:882	47.46363	-122.3077	0.02103662	0.02103662	0	0	0	0	0	0	1.380538	2.584929	161.4996	0.001927564	0.01963756	0	0	0	-1000.103	0	0	-4.637301E-05	1.71206E-07	-0.0001335089	0	0	
17:55:59:903	47.46363	-122.3077	0.02103662	0.02103662	0	0	0	0	0	0	1.380538	2.584929	161.4996	0.001927564	0.01963756	0	0	0	-1000.103	0	0	-4.637301E-05	1.71206E-07	-0.0001335089	0	0	
17:55:59:946	47.46363	-122.3077	0.02103662	0.02103662	0	0	0	0	0	0	1.380538	2.584929	161.4996	0.001927564	0.01963756	0	0	0	-1000.103	0	0	-4.637301E-05	1.71206E-07	-0.0001335089	0	0	
17:55:59:965	47.46363	-122.3077	0.02103662	0.02103662	0	0	0	0	0	0	1.380538	2.584929	161.4996	0.001927564	0.01963756	0	0	0	-1000.103	0	0	-4.637301E-05	1.71206E-07	-0.0001335089	0	0	
17:55:59:986	47.46363	-122.3077	0.02103662	0.02103662	0	0	0	0	0	0	1.380538	2.584929	161.4996	0.001927564	0.01963756	0	0	0	-1000.103	0	0	-4.637301E-05	1.71206E-07	-0.0001335089	0	0	
17:56:00:6	47.46363	-122.3077	0.02103662	0.02103662	0	0	0	0	0	0	1.380538	2.584929	161.4996	0.001927564	0.01963756	0	0	0	-1000.103	0	0	-4.637301E-05	1.71206E-07	-0.0001335089	0	0	
17:56:00:47	47.46363	-122.3077	0.02103662	0.02103662	0	0	0	0	0	0	1.3813	2.560492	161.499	0.01466133	-0.6443262	0	0	0	-1000.21	0	0	-4.637301E-05	-3	-3	-3	0	
17:56:00:49	47.46363	-122.3077	0.02103662	0.02103662	0	0	0	0	0	0	1.3813	2.560492	161.499	0.01466133	-0.6443262	0	0	0	-1000.21	0	0	-4.637301E-05	-3	-3	-3	0	
17:56:00:67	47.46363	-122.3077	0.02103662	0.02103662	0	0	0	0	0	0	1.3813	2.560492	161.499	0.01466133	-0.6443262	0	0	0	-1000.21	0	0	-4.637301E-05	-3	-3	-3	0	
17:56:00:84	47.46363	-122.3077	0.02103662	0.02103662	0	0	0	0	0	0	1.3813	2.560492	161.499	0.01466133	-0.6443262	0	0	0	-1000.21	0	0	-4.637301E-05	-3	-3	-3	0	
17:56:00:105	47.46363	-122.3077	0.02103662	0.02103662	0	0	0	0	0	0	1.3813	2.560492	161.499	0.01466133	-0.6443262	0	0	0	-1000.21	0	0	-4.637301E-05	-3	-3	-3	0	
17:56:00:147	47.46363	-122.3077	0.02103662	0.02103662	0	0	0	0	0	0	1.3813	2.560492	161.499	0.01466133	-0.6443262	0	0	0	-1000.21	0	0	-4.637301E-05	-3	-3	-3	0	
17:56:00:165	47.46363	-122.3077	0.02103662	0.02103662	0	0	0	0	0	0	1.3813	2.560492	161.499	0.01466133	-0.6443262	0	0	0	-1000.21	0	0	-4.637301E-05	-3	-3	-3	0	
17:56:00:186	47.46363	-122.3077	0.02103662	0.02103662	0	0	0	0	0	0	1.3813	2.560492	161.499	0.01466133	-0.6443262	0	0	0	-1000.21	0	0	-4.637301E-05	-3	-3	-3	0	
17:56:00:207	47.46363	-122.3077	0.02103662	0.02103662	0	0	0	0	0	0	1.3813	2.560492	161.499	0.01466133	-0.6443262	0	0	0	-1000.21	0	0	-4.637301E-05	-3	-3	-3	0	
17:56:00:263	47.46363	-122.3077	0.02103662	0.02103662	0	0	0	0	0	0	1.381927	2.5088	161.4977	0.01360936	-1.133018	0	0	0	-997.9569	0	0	-4.637301E-05	-3	-3	-3	0	
17:56:00:284	47.46363	-122.3077	0.0211478	0.0211478	0	0	0	0	0	0	1.381927	2.5088	161.4977	0.01360936	-1.133018	0	0	0	-997.9569	0	0	-0.002236061	-3	-3	-3	0	
17:56:00:305	47.46363	-122.3077	0.0211478	0.0211478	0	0	0	0	0	0	1.381927	2.5088	161.4977	0.01360936	-1.133018	0	0	0	-997.9569	0	0	-0.002236061	-3	-3	-3	0	
17:56:00:351	47.46363	-122.3077	0.0211478	0.0211478	0	0	0	0	0	0	1.382465	2.440198	161.4961	0.01004236	-1.430267	0	0	0	-999.1102	0	0	-0.002236061	-3	-3	-3	0	
17:56:00:367	47.46363	-122.3077	0.0211478	0.0211478	0	0	0	0	0	0	1.382465	2.440198	161.4961	0.01004236	-1.430267	0	0	0	-999.1102	0	0	-0.002236061	-3	-3	-3	0	
17:56:00:386	47.46363	-122.3077	0.0211478	0.0211478	0	0	0	0	0	0	1.382465	2.440198	161.4961	0.01004236	-1.430267	0	0	0	-999.1102	0	0	-0.002236061	-3	-3	-3	0	
17:56:00:408	47.46363	-122.3077	0.0211478	0.0211478	0	0	0	0	0	0	1.382465	2.440198	161.4961	0.01004236	-1.430267	0	0	0	-999.1102	0	0	-0.002236061	-3	-3	-3	0	
17:56:00:470	47.46363	-122.3077	0.0211478	0.0211478	0	0	0	0	0	0	1.382465	2.440198	161.4961	0.01004236	-1.430267	0	0	0	-999.1102	0	0	-0.002236061	-3	-3	-3	0	
17:56:00:485	47.46363	-122.3077	0.02122492	0.02122492	0	0	0	0	0	0	1.382758	2.362251	161.4942	0.006831665	-1.580196	0	0	0	-999.9189	0	0	-0.001322281	-3	-3	-3	0	
17:56:00:506	47.46363	-122.3077	0.02122492	0.02122492	0	0	0	0	0	0	1.382758	2.362251	161.4942	0.006831665	-1.580196	0	0	0	-999.9189	0	0	-0.001322281	-3	-3	-3	0	
17:56:00:551	47.46363	-122.3077	0.02122492	0.02122492	0	0	0	0	0	0	1.382758	2.362251	161.4942	0.006831665	-1.580196	0	0	0	-999.9189	0	0	-0.001322281	-3	-3	-3	0	
17:56:00:568	47.46363	-122.3077	0.02122492	0.02122492	0	0	0	0	0	0	1.382758	2.362251	161.4942	0.006831665	-1.580196	0	0	0	-999.9189	0	0	-0.001322281	-3	-3	-3	0	
17:56:00:588	47.46363	-122.3077	0.02122492	0.02122492	0	0	0	0	0	0	1.382758	2.362251	161.4942	0.006831665	-1.580196	0	0	0	-999.9189	0	0	-0.001322281	-3	-3	-3	0	
17:56:00:610	47.46363	-122.3077	0.02122492	0.02122492	0	0	0	0	0	0	1.382758	2.362251	161.4942	0.006831665	-1.580196	0	0	0	-999.9189	0	0	-0.001322281	-3	-3	-3	0	
17:56:00:646	47.46363	-122.3077	0.02122492	0.02122492	0	0	0	0	0	0	1.3858	2.2821	161.4922	0.1232054	-1.586812	0	0	0	-996.1	0	0	-0.001322281	-3	-3	-3	0	
17:56:00:669	47.46363	-122.3077	0.02122492	0.02122492	0	0	0	0	0	0	1.3858	2.2821	161.4922	0.1232054	-1.586812	0	0	0	-996.1	0	0	-0.001322281	-3	-3	-3	0	
17:56:00:690	47.46363	-122.3077	0.02132831	0.02132831	0	0	0	0	0	0	1.3858	2.2821	161.4922	0.1232054	-1.586812	0	0	0	-996.1	0	0	-0.001038164	-3	-3	-3	0	
17:56:00:706	47.46363	-122.3077	0.02132831	0.02132831	0	0	0	0	0	0	1.3858	2.2821	161.4922	0.1232054	-1.586812	0	0	0	-996.1	0	0	-0.001038164	-3	-3	-3	0	
17:56:00:753	47.46363	-122.3077	0.02132831	0.02132831	0	0	0	0	0	0	1.3858	2.2821	161.4922	0.1232054	-1.586812	0	0	0	-996.1	0	0	-0.001038164	-3	-3	-3	0	
17:56:00:772	47.46363	-122.3077	0.02132831	0.02132831	0	0	0	0	0	0	1.395375	2.206735	161.4904	0.2008693	-1.463082	0	0	0	-1001.204	0	0	-0.001038164	-3	-3	-3	0	
17:56:00:789	47.46363	-122.3077	0.02132831	0.02132831	0	0	0	0	0	0	1.395375	2.206735	161.4904	0.2008693	-1.463082	0	0	0	-1001.204	0	0	-0.001038164	-3	-3	-3	0	
17:56:00:813	47.46363	-122.3077	0.02132831	0.02132831	0	0	0	0	0	0	1.395375	2.206735	161.4904	0.2008693	-1.463082	0	0	0	-1001.204	0	0	-0.001038164	-3	-3	-3	0	
17:56:00:854	47.46363	-122.3077	0.02132831	0.02132831	0	0	0	0	0	0	1.395375	2.206735	161.4904	0.2008693	-1.463082	0	0	0	-1001.204	0	0	-0.001038164	-3	-3	-3	0	
17:56:00:870	47.46363	-122.3077	0.02132831	0.02132831	0	0	0	0	0	0	1.395375	2.206735	161.4904	0.2008693	-1.463082	0	0	0	-1001.204	0	0	-0.001038164	-3	-3	-3	0	
17:56:00:892	47.46363	-122.3077	0.02135662	0.02135662	0	0	0	0	0	0	1.395375	2.206735	161.4904	0.2008693	-1.463082	0	0	0	-1001.204	0	0	-0.0001236891	-3	-3	-3	0	
17:56:00:912	47.46363	-122.3077	0.02135662	0.02135662	0	0	0	0	0	0	1.404179	2.140733	161.4888	0.1640048	-1.25832	0	0	0	-1000.211	0	0	-0.0001236891	-3	-3	-3	0	
17:56:00:949	47.46363	-122.3077	0.02135662	0.02135662	0	0	0	0	0	0	1.404179	2.140733	161.4888	0.1640048	-1.25832	0	0	0	-1000.211	0	0	-0.0001236891	-3	-3	-3	0	
17:56:00:969	47.46363	-122.3077	0.02135662	0.02135662	0	0	0	0	0	0	1.404179	2.140733	161.4888	0.1640048	-1.25832	0	0	0	-1000.211	0	0	-0.0001236891	-3	-3	-3	0	
17:56:00:989	47.46363	-122.3077	0.02135662	0.02135662	0	0	0	0	0	0	1.404179	2.140733	161.4888	0.1640048	-1.25832	0	0	0	-1000.211	0	0	-0.0001236891	-3	-3	-3	0	
17:56:01:10	47.46363	-122.3077	0.02135662	0.02135662	0	0	0	0	0	0	1.404179	2.140733	161.4888	0.1640048	-1.25832	0	0	0	-1000.211	0	0	-0.0001236891	-3	-3	-3	0	
17:56:01:50	47.46363	-122.3077	0.02135662	0.02135662	0	0	0	0	0	0	1.40978	2.087085	161.4875	0.09354722	-1.001438	0	0	0	-999.4755	0	0	-0.0001236891	-3	-3	-3	0	
17:56:01:54	47.46363	-122.3077	0.02135662	0.02135662	0	0	0	0	0	0	1.40978	2.087085	161.4875	0.09354722	-1.001438	0	0	0	-999.4755	0	0	-0.0001236891	-3	-3	-3	0	
17:56:01:71	47.46363	-122.3077	0.02135662	0.02135662	0	0	0	0	0	0	1.40978	2.087085	161.4875	0.09354722	-1.001438	0	0	0	-999.4755	0	0	-0.0001236891	-3	-3	-3	0	
17:56:01:92	47.46363	-122.3077	0.02135662	0.02135662	0	0	0	0	0	0	1.40978	2.087085	161.4875	0.09354722	-1.001438	0	0	0	-999.4755	0	0	-0.0001236891	-3	-3	-3	0	
17:56:01:112	47.46363	-122.3077	0.02137224	0.02137224	0	0	0	0	0	0	1.40978	2.087085	161.4875	0.09354722	-1.001438	0	0	0	-999.4755	0	0	-0.0004886715	-3	-3	-3	0	
17:56:01:154	47.46363	-122.3077	0.02137224	0.02137224	0	0	0	0	0	0	1.40978	2.087085	161.4875	0.09354722	-1.001438	0	0	0	-999.4755	0	0	-0.0004886715	-3	-3	-3	0	
17:56:01:176	47.46363	-122.3077	0.02137224	0.02137224	0	0	0	0	0	0	1.40978	2.087085	161.4875	0.09354722	-1.001438	0	0	0	-999.4755	0	0	-0.0004886715	-3	-3	-3	0	
17:56:01:195	47.46363	-122.3077	0.02137224	0.02137224	0	0	0	0	0	0	1.40978	2.087085	161.4875	0.09354722	-1.001438	0	0	0	-999.4755	0	0	-0.0004886715	-3	-3	-3	0	
17:56:01:209	47.46363	-122.3077	0.02137224	0.02137224	0	0	0	0	0	0	1.40978	2.087085	161.4875	0.09354722	-1.001438	0	0	0	-999.4755	0	0	-0.0004886715	-3	-3	-3	0	
17:56:01:272	47.46363	-122.3077	0.02137224	0.02137224	0	0	0	0	0	0	1.40978	2.087085	161.4875	0.09354722	-1.001438	0	0	0	-999.4755	0	0	-0.0004886715	-3	-3	-3	0	
17:56:01:294	47.46363	-122.3077	0.02137224	0.02137224	0	0	0	0	0	0	1.40978	2.087085	161.4875	0.09354722	-1.001438	0	0	0	-999.4755	0	0	-0.0004886715	-3	-3	-3	0	
17:56:01:313	47.46363	-122.3077	0.02144423	0.02144423	0	0	0	0	0	0	1.40978	2.087085	161.4875	0.09354722	-1.001438	0	0	0	-999.4755	0	0	-0.0006963919	-3	-3	-3	0	
17:56:01:381	47.46363	-122.3077	0.02144423	0.02144423	0	0	0	0	0	0	1.40978	2.087085	161.4875	0.09354722	-1.001438	0	0	0	-999.4755	0	0	-0.0006963919	-3	-3	-3	0	
17:56:01:403	47.46363	-122.3077	0.02144423	0.02144423	0	0	0	0	0	0	1.40978	2.087085	161.4875	0.09354722	-1.001438	0	0	0	-999.4755	0	0	-0.0006963919	-3	-3	-3	0	
17:56:01:405	47.46363	-122.3077	0.02144423	0.02144423	0	0	0	0	0	0	1.40978	2.087085	161.4875	0.09354722	-1.001438	0	0	0	-999.4755	0	0	-0.0006963919	-3	-3	-3	0	
17:56:01:415	47.46363	-122.3077	0.02144423	0.02144423	0	0	0	0	0	0	1.40978	2.087085	161.4875	0.09354722	-1.001438	0	0	0	-999.4755	0	0	-0.0006963919	-3	-3	-3	0	
17:56:01:472	47.46363	-122.3077	0.02144423	0.02144423	0	0	0	0	0	0	1.412507	2.047435	161.4865	0.04266361	-0.716943	0	0	0	-999.6912	0	0	-0.0006963919	-3	-3	-3	0	
17:56:01:493	47.46363	-122.3077	0.02144423	0.02144423	0	0	0	0	0	0	1.412507	2.047435	161.4865	0.04266361	-0.716943	0	0	0	-999.6912	0	0	-0.0006963919	-3	-3	-3	0	
17:56:01:513	47.46363	-122.3077	0.02144423	0.02144423	0	0	0	0	0	0	1.412507	2.047435	161.4865	0.04266361	-0.716943	0	0	0	-999.6912	0	0	-0.0006963919	-3	-3	-3	0	
17:56:01:555	47.46363	-122.3077	0.02144423	0.02144423	0	0	0	0	0	0	1.412507	2.047435	161.4865	0.04266361	-0.716943	0	0	0	-999.6912	0	0	-0.0006963919	-3	-3	-3	0	
17:56:01:576	47.46363	-122.3077	0.02144423	0.02144423	0	0	0	0	0	0	1.412507	2.047435	161.4865	0.04266361	-0.716943	0	0	0	-999.6912	0	0	-0.0006963919	-3	-3	-3	0	
17:56:01:591	47.46363	-122.3077	0.02144423	0.02144423	0	0	0	0	0	0	1.412507	2.047435	161.4865	0.04266361	-0.716943	0	0	0	-999.6912	0	0	-0.0006963919	-3	-3	-3	0	
17:56:01:616	47.46363	-122.3077	0.02144423	0.02144423	0	0	0	0	0	0	1.413415	2.022302	161.4859	0.01314492	-0.4286002	0	0	0	-999.752	0	0	-0.0006963919	-3	-3	-3	0	
17:56:01:652	47.46363	-122.3077	0.02144423	0.02144423	0	0	0	0	0	0	1.413415	2.022302	161.4859	0.01314492	-0.4286002	0	0	0	-999.752	0	0	-0.0006963919	-3	-3	-3	0	
17:56:01:673	47.46363	-122.3077	0.02144423	0.02144423	0	0	0	0	0	0	1.413415	2.022302	161.4859	0.01314492	-0.4286002	0	0	0	-999.752	0	0	-0.0006963919	-3	-3	-3	0	
17:56:01:698	47.46363	-122.3077	0.02144423	0.02144423	0	0	0	0	0	0	1.413415	2.022302	161.4859	0.01314492	-0.4286002	0	0	0	-999.752	0	0	-0.0006963919	-3	-3	-3	0	
17:56:01:713	47.46363	-122.3077	0.02147346	0.02147346	0	0	0	0	0	0	1.413415	2.022302	161.4859	0.01314492	-0.4286002	0	0	0	-999.752	0	0	-0.0005463184	-3	-3	-3	0	
17:56:01:755	47.46363	-122.3077	0.02147346	0.02147346	0	0	0	0	0	0	1.413342	2.011086	161.4856	-0.004511365	-0.1570039	0	0	0	-999.6254	0	0	-0.0005463184	-3	-3	-3	0	
17:56:01:781	47.46363	-122.3077	0.02147346	0.02147346	0	0	0	0	0	0	1.413342	2.011086	161.4856	-0.004511365	-0.1570039	0	0	0	-999.6254	0	0	-0.0005463184	-3	-3	-3	0	
17:56:01:798	47.46363	-122.3077	0.02147346	0.02147346	0	0	0	0	0	0	1.413342	2.011086	161.4856	-0.004511365	-0.1570039	0	0	0	-999.6254	0	0	-0.0005463184	-3	-3	-3	0	
17:56:01:816	47.46363	-122.3077	0.02147346	0.02147346	0	0	0	0	0	0	1.413342	2.011086	161.4856	-0.004511365	-0.1570039	0	0	0	-999.6254	0	0	-0.0005463184	-3	-3	-3	0	
17:56:01:861	47.46363	-122.3077	0.02147346	0.02147346	0	0	0	0	0	0	1.413342	2.011086	161.4856	-0.004511365	-0.1570039	0	0	0	-999.6254	0	0	-0.0005463184	-3	-3	-3	0	
17:56:01:875	47.46363	-122.3077	0.02147346	0.02147346	0	0	0	0	0	0	1.413342	2.011086	161.4856	-0.004511365	-0.1570039	0	0	0	-999.6254	0	0	-0.0005463184	-3	-3	-3	0	
17:56:01:894	47.46363	-122.3077	0.02147346	0.02147346	0	0	0	0	0	0	1.412866	2.012795	161.4857	-0.01064532	0.09561958	0	0	0	-999.7907	0	0	-0.0005463184	-3	-3	-3	0	
17:56:01:915	47.46363	-122.3077	0.02149222	0.02149222	0	0	0	0	0	0	1.412866	2.012795	161.4857	-0.01064532	0.09561958	0	0	0	-999.7907	0	0	-0.0003368917	-3	-3	-3	0	
17:56:01:958	47.46363	-122.3077	0.02149222	0.02149222	0	0	0	0	0	0	1.412866	2.012795	161.4857	-0.01064532	0.09561958	0	0	0	-999.7907	0	0	-0.0003368917	-3	-3	-3	0	
17:56:01:976	47.46363	-122.3077	0.02149222	0.02149222	0	0	0	0	0	0	1.412866	2.012795	161.4857	-0.01064532	0.09561958	0	0	0	-999.7907	0	0	-0.0003368917	-3	-3	-3	0	
17:56:01:994	47.46363	-122.3077	0.02149222	0.02149222	0	0	0	0	0	0	1.412866	2.012795	161.4857	-0.01064532	0.09561958	0	0	0	-999.7907	0	0	-0.0003368917	-3	-3	-3	0	
17:56:02:18	47.46363	-122.3077	0.02149222	0.02149222	0	0	0	0	0	0	1.412573	2.024783	161.486	-0.005061079	0.2831512	0	0	0	-1000.018	0	0	-0.0003368917	-3	-3	-3	0	
17:56:02:54	47.46363	-122.3077	0.02149222	0.02149222	0	0	0	0	0	0	1.412573	2.024783	161.486	-0.005061079	0.2831512	0	0	0	-1000.018	0	0	-0.0003368917	-3	-3	-3	0	
17:56:02:58	47.46363	-122.3077	0.02149222	0.02149222	0	0	0	0	0	0	1.412573	2.024783	161.486	-0.005061079	0.2831512	0	0	0	-1000.018	0	0	-0.0003368917	-3	-3	-3	0	
17:56:02:79	47.46363	-122.3077	0.02149222	0.02149222	0	0	0	0	0	0	1.412573	2.024783	161.486	-0.005061079	0.2831512	0	0	0	-1000.018	0	0	-0.0003368917	-3	-3	-3	0	
17:56:02:98	47.46363	-122.3077	0.02149222	0.02149222	0	0	0	0	0	0	1.412573	2.024783	161.486	-0.005061079	0.2831512	0	0	0	-1000.018	0	0	-0.0003368917	-3	-3	-3	0	
17:56:02:115	47.46363	-122.3077	0.02149881	0.02149881	0	0	0	0	0	0	1.412573	2.024783	161.486	-0.005061079	0.2831512	0	0	0	-1000.018	0	0	9.990884E-05	-3	-3	-3	0	
17:56:02:161	47.46363	-122.3077	0.02149881	0.02149881	0	0	0	0	0	0	1.412406	2.044638	161.4865	-0.003328905	0.4285165	0	0	0	-1000.057	0	0	9.990884E-05	-3	-3	-3	0	
17:56:02:177	47.46363	-122.3077	0.02149881	0.02149881	0	0	0	0	0	0	1.412406	2.044638	161.4865	-0.003328905	0.4285165	0	0	0	-1000.057	0	0	9.990884E-05	-3	-3	-3	0	
17:56:02:197	47.46363	-122.3077	0.02149881	0.02149881	0	0	0	0	0	0	1.412406	2.044638	161.4865	-0.003328905	0.4285165	0	0	0	-1000.057	0	0	9.990884E-05	-3	-3	-3	0	
17:56:02:217	47.46363	-122.3077	0.02149881	0.02149881	0	0	0	0	0	0	1.412406	2.044638	161.4865	-0.003328905	0.4285165	0	0	0	-1000.057	0	0	9.990884E-05	-3	-3	-3	0	
17:56:02:275	47.46363	-122.3077	0.02149881	0.02149881	0	0	0	0	0	0	1.412406	2.044638	161.4865	-0.003328905	0.4285165	0	0	0	-1000.057	0	0	9.990884E-05	-3	-3	-3	0	
17:56:02:295	47.46363	-122.3077	0.02149881	0.02149881	0	0	0	0	0	0	1.412492	2.069868	161.4871	0.0003930433	0.5224156	0	0	0	-1000.073	0	0	9.990884E-05	-3	-3	-3	0	
17:56:02:316	47.46363	-122.3077	0.02149436	0.02149436	0	0	0	0	0	0	1.412492	2.069868	161.4871	0.0003930433	0.5224156	0	0	0	-1000.073	0	0	0.000111484	-3	-3	-3	0	
17:56:02:358	47.46363	-122.3077	0.02149436	0.02149436	0	0	0	0	0	0	1.412492	2.069868	161.4871	0.0003930433	0.5224156	0	0	0	-1000.073	0	0	0.000111484	-3	-3	-3	0	
17:56:02:378	47.46363	-122.3077	0.02149436	0.02149436	0	0	0	0	0	0	1.412492	2.069868	161.4871	0.0003930433	0.5224156	0	0	0	-1000.073	0	0	0.000111484	-3	-3	-3	0	
17:56:02:397	47.46363	-122.3077	0.02149436	0.02149436	0	0	0	0	0	0	1.412492	2.069868	161.4871	0.0003930433	0.5224156	0	0	0	-1000.073	0	0	0.000111484	-3	-3	-3	0	
17:56:02:418	47.46363	-122.3077	0.02149436	0.02149436	0	0	0	0	0	0	1.412492	2.069868	161.4871	0.0003930433	0.5224156	0	0	0	-1000.073	0	0	0.000111484	-3	-3	-3	0	
17:56:02:480	47.46363	-122.3077	0.02149436	0.02149436	0	0	0	0	0	0	1.412472	2.097817	161.4878	-0.001187415	0.5635264	0	0	0	-1000.101	0	0	0.000111484	-3	-3	-3	0	
17:56:02:496	47.46363	-122.3077	0.02149436	0.02149436	0	0	0	0	0	0	1.412472	2.097817	161.4878	-0.001187415	0.5635264	0	0	0	-1000.101	0	0	0.000111484	-3	-3	-3	0	
17:56:02:520	47.46363	-122.3077	0.02146855	0.02146855	0	0	0	0	0	0	1.412472	2.097817	161.4878	-0.001187415	0.5635264	0	0	0	-1000.101	0	0	0.0003024379	-3	-3	-3	0	
17:56:02:563	47.46363	-122.3077	0.02146855	0.02146855	0	0	0	0	0	0	1.412472	2.097817	161.4878	-0.001187415	0.5635264	0	0	0	-1000.101	0	0	0.0003024379	-3	-3	-3	0	
17:56:02:583	47.46363	-122.3077	0.02146855	0.02146855	0	0	0	0	0	0	1.412472	2.097817	161.4878	-0.001187415	0.5635264	0	0	0	-1000.101	0	0	0.0003024379	-3	-3	-3	0	
17:56:02:599	47.46363	-122.3077	0.02146855	0.02146855	0	0	0	0	0	0	1.412472	2.097817	161.4878	-0.001187415	0.5635264	0	0	0	-1000.101	0	0	0.0003024379	-3	-3	-3	0	
17:56:02:618	47.46363	-122.3077	0.02146855	0.02146855	0	0	0	0	0	0	1.412472	2.097817	161.4878	-0.001187415	0.5635264	0	0	0	-1000.101	0	0	0.0003024379	-3	-3	-3	0	
17:56:02:661	47.46363	-122.3077	0.02146855	0.02146855	0	0	0	0	0	0	1.412472	2.097817	161.4878	-0.001187415	0.5635264	0	0	0	-1000.101	0	0	0.0003024379	-3	-3	-3	0	
17:56:02:681	47.46363	-122.3077	0.02146855	0.02146855	0	0	0	0	0	0	1.412472	2.097817	161.4878	-0.001187415	0.5635264	0	0	0	-1000.101	0	0	0.0003024379	-3	-3	-3	0	
17:56:02:701	47.46363	-122.3077	0.02146855	0.02146855	0	0	0	0	0	0	1.412472	2.097817	161.4878	-0.001187415	0.5635264	0	0	0	-1000.101	0	0	0.0003024379	-3	-3	-3	0	
17:56:02:731	47.46363	-122.3077	0.02145072	0.02145072	0	0	0	0	0	0	1.4124	2.126097	161.4885	-0.002090813	0.5592764	0	0	0	-1000.133	0	0	0.0003707063	-3	-3	-3	0	
17:56:02:763	47.46363	-122.3077	0.02145072	0.02145072	0	0	0	0	0	0	1.4124	2.126097	161.4885	-0.002090813	0.5592764	0	0	0	-1000.133	0	0	0.0003707063	-3	-3	-3	0	
17:56:02:783	47.46363	-122.3077	0.02145072	0.02145072	0	0	0	0	0	0	1.4124	2.126097	161.4885	-0.002090813	0.5592764	0	0	0	-1000.133	0	0	0.0003707063	-3	-3	-3	0	
17:56:02:804	47.46363	-122.3077	0.02145072	0.02145072	0	0	0	0	0	0	1.4124	2.126097	161.4885	-0.002090813	0.5592764	0	0	0	-1000.133	0	0	0.0003707063	-3	-3	-3	0	
17:56:02:825	47.46363	-122.3077	0.02145072	0.02145072	0	0	0	0	0	0	1.4124	2.126097	161.4885	-0.002090813	0.5592764	0	0	0	-1000.133	0	0	0.0003707063	-3	-3	-3	0	
17:56:02:865	47.46363	-122.3077	0.02145072	0.02145072	0	0	0	0	0	0	1.4124	2.126097	161.4885	-0.002090813	0.5592764	0	0	0	-1000.133	0	0	0.0003707063	-3	-3	-3	0	
17:56:02:882	47.46363	-122.3077	0.02145072	0.02145072	0	0	0	0	0	0	1.4124	2.126097	161.4885	-0.002090813	0.5592764	0	0	0	-1000.133	0	0	0.0003707063	-3	-3	-3	0	
17:56:02:902	47.46363	-122.3077	0.02145072	0.02145072	0	0	0	0	0	0	1.412318	2.152715	161.4891	-0.002192887	0.5169712	0	0	0	-1000.277	0	0	0.0003707063	-3	-3	-3	0	
17:56:02:923	47.46363	-122.3077	0.02143041	0.02143041	0	0	0	0	0	0	1.412318	2.152715	161.4891	-0.002192887	0.5169712	0	0	0	-1000.277	0	0	0.0004136713	-3	-3	-3	0	
17:56:02:963	47.46363	-122.3077	0.02143041	0.02143041	0	0	0	0	0	0	1.412318	2.152715	161.4891	-0.002192887	0.5169712	0	0	0	-1000.277	0	0	0.0004136713	-3	-3	-3	0	
17:56:02:984	47.46363	-122.3077	0.02143041	0.02143041	0	0	0	0	0	0	1.412318	2.152715	161.4891	-0.002192887	0.5169712	0	0	0	-1000.277	0	0	0.0004136713	-3	-3	-3	0	
17:56:03:4	47.46363	-122.3077	0.02143041	0.02143041	0	0	0	0	0	0	1.412318	2.152715	161.4891	-0.002192887	0.5169712	0	0	0	-1000.277	0	0	0.0004136713	-3	-3	-3	0	
17:56:03:25	47.46363	-122.3077	0.02143041	0.02143041	0	0	0	0	0	0	1.412318	2.152715	161.4891	-0.002192887	0.5169712	0	0	0	-1000.277	0	0	0.0004136713	-3	-3	-3	0	
17:56:03:61	47.46363	-122.3077	0.02143041	0.02143041	0	0	0	0	0	0	1.412434	2.176104	161.4897	0.0008749269	0.4464594	0	0	0	-1000.157	0	0	0.0004136713	-3	-3	-3	0	
17:56:03:65	47.46363	-122.3077	0.02143041	0.02143041	0	0	0	0	0	0	1.412434	2.176104	161.4897	0.0008749269	0.4464594	0	0	0	-1000.157	0	0	0.0004136713	-3	-3	-3	0	
17:56:03:83	47.46363	-122.3077	0.02143041	0.02143041	0	0	0	0	0	0	1.412434	2.176104	161.4897	0.0008749269	0.4464594	0	0	0	-1000.157	0	0	0.0004136713	-3	-3	-3	0	
17:56:03:102	47.46363	-122.3077	0.02143041	0.02143041	0	0	0	0	0	0	1.412434	2.176104	161.4897	0.0008749269	0.4464594	0	0	0	-1000.157	0	0	0.0004136713	-3	-3	-3	0	
17:56:03:124	47.46363	-122.3077	0.02141482	0.02141482	0	0	0	0	0	0	1.412434	2.176104	161.4897	0.0008749269	0.4464594	0	0	0	-1000.157	0	0	0.0003010531	-3	-3	-3	0	
17:56:03:170	47.46363	-122.3077	0.02141482	0.02141482	0	0	0	0	0	0	1.412434	2.176104	161.4897	0.0008749269	0.4464594	0	0	0	-1000.157	0	0	0.0003010531	-3	-3	-3	0	
17:56:03:190	47.46363	-122.3077	0.02141482	0.02141482	0	0	0	0	0	0	1.412434	2.176104	161.4897	0.0008749269	0.4464594	0	0	0	-1000.157	0	0	0.0003010531	-3	-3	-3	0	
17:56:03:206	47.46363	-122.3077	0.02141482	0.02141482	0	0	0	0	0	0	1.412419	2.195149	161.4902	-0.0010125	0.3559291	0	0	0	-1000.315	0	0	0.0003010531	-3	-3	-3	0	
17:56:03:229	47.46363	-122.3077	0.02141482	0.02141482	0	0	0	0	0	0	1.412419	2.195149	161.4902	-0.0010125	0.3559291	0	0	0	-1000.315	0	0	0.0003010531	-3	-3	-3	0	
17:56:03:290	47.46363	-122.3077	0.02141482	0.02141482	0	0	0	0	0	0	1.412419	2.195149	161.4902	-0.0010125	0.3559291	0	0	0	-1000.315	0	0	0.0003010531	-3	-3	-3	0	
17:56:03:309	47.46363	-122.3077	0.02141482	0.02141482	0	0	0	0	0	0	1.412419	2.195149	161.4902	-0.0010125	0.3559291	0	0	0	-1000.315	0	0	0.0003010531	-3	-3	-3	0	
17:56:03:329	47.46363	-122.3077	0.02139934	0.02139934	0	0	0	0	0	0	1.412419	2.195149	161.4902	-0.0010125	0.3559291	0	0	0	-1000.315	0	0	0.0003115979	-3	-3	-3	0	
17:56:03:375	47.46363	-122.3077	0.02139934	0.02139934	0	0	0	0	0	0	1.412481	2.209233	161.4905	0.003348975	0.2546993	0	0	0	-1000.113	0	0	0.0003115979	-3	-3	-3	0	
17:56:03:389	47.46363	-122.3077	0.02139934	0.02139934	0	0	0	0	0	0	1.412481	2.209233	161.4905	0.003348975	0.2546993	0	0	0	-1000.113	0	0	0.0003115979	-3	-3	-3	0	
17:56:03:410	47.46363	-122.3077	0.02139934	0.02139934	0	0	0	0	0	0	1.412481	2.209233	161.4905	0.003348975	0.2546993	0	0	0	-1000.113	0	0	0.0003115979	-3	-3	-3	0	
17:56:03:430	47.46363	-122.3077	0.02139934	0.02139934	0	0	0	0	0	0	1.412481	2.209233	161.4905	0.003348975	0.2546993	0	0	0	-1000.113	0	0	0.0003115979	-3	-3	-3	0	
17:56:03:491	47.46363	-122.3077	0.02139934	0.02139934	0	0	0	0	0	0	1.412523	2.218084	161.4907	2.648835E-05	0.1496478	0	0	0	-1000.553	0	0	0.0003115979	-3	-3	-3	0	
17:56:03:507	47.46363	-122.3077	0.02139934	0.02139934	0	0	0	0	0	0	1.412523	2.218084	161.4907	2.648835E-05	0.1496478	0	0	0	-1000.553	0	0	0.0003115979	-3	-3	-3	0	
17:56:03:528	47.46363	-122.3077	0.0213863	0.0213863	0	0	0	0	0	0	1.412523	2.218084	161.4907	2.648835E-05	0.1496478	0	0	0	-1000.553	0	0	0.0002402178	-3	-3	-3	0	
17:56:03:575	47.46363	-122.3077	0.0213863	0.0213863	0	0	0	0	0	0	1.412523	2.218084	161.4907	2.648835E-05	0.1496478	0	0	0	-1000.553	0	0	0.0002402178	-3	-3	-3	0	
17:56:03:590	47.46363	-122.3077	0.0213863	0.0213863	0	0	0	0	0	0	1.412523	2.218084	161.4907	2.648835E-05	0.1496478	0	0	0	-1000.553	0	0	0.0002402178	-3	-3	-3	0	
17:56:03:607	47.46363	-122.3077	0.0213863	0.0213863	0	0	0	0	0	0	1.412523	2.218084	161.4907	2.648835E-05	0.1496478	0	0	0	-1000.553	0	0	0.0002402178	-3	-3	-3	0	
17:56:03:630	47.46363	-122.3077	0.0213863	0.0213863	0	0	0	0	0	0	1.412663	2.22163	161.4908	0.001437622	0.04482606	0	0	0	-1000.663	0	0	0.0002402178	-3	-3	-3	0	
17:56:03:674	47.46363	-122.3077	0.0213863	0.0213863	0	0	0	0	0	0	1.412663	2.22163	161.4908	0.001437622	0.04482606	0	0	0	-1000.663	0	0	0.0002402178	-3	-3	-3	0	
17:56:03:689	47.46363	-122.3077	0.0213863	0.0213863	0	0	0	0	0	0	1.412663	2.22163	161.4908	0.001437622	0.04482606	0	0	0	-1000.663	0	0	0.0002402178	-3	-3	-3	0	
17:56:03:708	47.46363	-122.3077	0.0213863	0.0213863	0	0	0	0	0	0	1.412663	2.22163	161.4908	0.001437622	0.04482606	0	0	0	-1000.663	0	0	0.0002402178	-3	-3	-3	0	
17:56:03:734	47.46363	-122.3077	0.02136617	0.02136617	0	0	0	0	0	0	1.412663	2.22163	161.4908	0.001437622	0.04482606	0	0	0	-1000.663	0	0	0.0001103009	-3	-3	-3	0	
17:56:03:782	47.46363	-122.3077	0.02136617	0.02136617	0	0	0	0	0	0	1.412663	2.22163	161.4908	0.001437622	0.04482606	0	0	0	-1000.663	0	0	0.0001103009	-3	-3	-3	0	
17:56:03:791	47.46363	-122.3077	0.02136617	0.02136617	0	0	0	0	0	0	1.412663	2.22163	161.4908	0.001437622	0.04482606	0	0	0	-1000.663	0	0	0.0001103009	-3	-3	-3	0	
17:56:03:812	47.46363	-122.3077	0.02136617	0.02136617	0	0	0	0	0	0	1.412663	2.22163	161.4908	0.001437622	0.04482606	0	0	0	-1000.663	0	0	0.0001103009	-3	-3	-3	0	
17:56:03:831	47.46363	-122.3077	0.02136617	0.02136617	0	0	0	0	0	0	1.412663	2.22163	161.4908	0.001437622	0.04482606	0	0	0	-1000.663	0	0	0.0001103009	-3	-3	-3	0	
17:56:03:876	47.46363	-122.3077	0.02136617	0.02136617	0	0	0	0	0	0	1.412633	2.220573	161.4908	-0.001001474	-0.03587082	0	0	0	-1000.526	0	0	0.0001103009	-3	-3	-3	0	
17:56:03:894	47.46363	-122.3077	0.02136617	0.02136617	0	0	0	0	0	0	1.412633	2.220573	161.4908	-0.001001474	-0.03587082	0	0	0	-1000.526	0	0	0.0001103009	-3	-3	-3	0	
17:56:03:927	47.46363	-122.3077	0.02136617	0.02136617	0	0	0	0	0	0	1.412633	2.220573	161.4908	-0.001001474	-0.03587082	0	0	0	-1000.526	0	0	0.0001103009	-3	-3	-3	0	
17:56:03:950	47.46363	-122.3077	0.02136473	0.02136473	0	0	0	0	0	0	1.412633	2.220573	161.4908	-0.001001474	-0.03587082	0	0	0	-1000.526	0	0	-3.816389E-05	-3	-3	-3	0	
17:56:03:983	47.46363	-122.3077	0.02136473	0.02136473	0	0	0	0	0	0	1.412633	2.220573	161.4908	-0.001001474	-0.03587082	0	0	0	-1000.526	0	0	-3.816389E-05	-3	-3	-3	0	
17:56:03:992	47.46363	-122.3077	0.02136473	0.02136473	0	0	0	0	0	0	1.412633	2.220573	161.4908	-0.001001474	-0.03587082	0	0	0	-1000.526	0	0	-3.816389E-05	-3	-3	-3	0	
17:56:04:11	47.46363	-122.3077	0.02136473	0.02136473	0	0	0	0	0	0	1.412633	2.220573	161.4908	-0.001001474	-0.03587082	0	0	0	-1000.526	0	0	-3.816389E-05	-3	-3	-3	0	
17:56:04:32	47.46363	-122.3077	0.02136473	0.02136473	0	0	0	0	0	0	1.412633	2.220573	161.4908	-0.001001474	-0.03587082	0	0	0	-1000.526	0	0	-3.816389E-05	-3	-3	-3	0	
17:56:04:69	47.46363	-122.3077	0.02136473	0.02136473	0	0	0	0	0	0	1.412633	2.220573	161.4908	-0.001001474	-0.03587082	0	0	0	-1000.526	0	0	-3.816389E-05	-3	-3	-3	0	
17:56:04:74	47.46363	-122.3077	0.02136473	0.02136473	0	0	0	0	0	0	1.412633	2.220573	161.4908	-0.001001474	-0.03587082	0	0	0	-1000.526	0	0	-3.816389E-05	-3	-3	-3	0	
17:56:04:94	47.46363	-122.3077	0.02136473	0.02136473	0	0	0	0	0	0	1.412633	2.220573	161.4908	-0.001001474	-0.03587082	0	0	0	-1000.526	0	0	-3.816389E-05	-3	-3	-3	0	
17:56:04:110	47.46363	-122.3077	0.02136473	0.02136473	0	0	0	0	0	0	1.412633	2.220573	161.4908	-0.001001474	-0.03587082	0	0	0	-1000.526	0	0	-3.816389E-05	-3	-3	-3	0	
17:56:04:131	47.46363	-122.3077	0.02136473	0.02136473	0	0	0	0	0	0	1.412633	2.220573	161.4908	-0.001001474	-0.03587082	0	0	0	-1000.526	0	0	-3.816389E-05	-3	-3	-3	0	
17:56:04:174	47.46363	-122.3077	0.02136516	0.02136516	0	0	0	0	0	0	1.412661	2.216755	161.4907	0.002957085	-0.08833838	0	0	0	-999.9933	0	0	-7.202006E-05	-3	-3	-3	0	
17:56:04:194	47.46363	-122.3077	0.02136516	0.02136516	0	0	0	0	0	0	1.412661	2.216755	161.4907	0.002957085	-0.08833838	0	0	0	-999.9933	0	0	-7.202006E-05	-3	-3	-3	0	
17:56:04:217	47.46363	-122.3077	0.02136516	0.02136516	0	0	0	0	0	0	1.412661	2.216755	161.4907	0.002957085	-0.08833838	0	0	0	-999.9933	0	0	-7.202006E-05	-3	-3	-3	0	
17:56:04:234	47.46363	-122.3077	0.02136516	0.02136516	0	0	0	0	0	0	1.412661	2.216755	161.4907	0.002957085	-0.08833838	0	0	0	-999.9933	0	0	-7.202006E-05	-3	-3	-3	0	
17:56:04:296	47.46363	-122.3077	0.02136516	0.02136516	0	0	0	0	0	0	1.412661	2.216755	161.4907	0.002957085	-0.08833838	0	0	0	-999.9933	0	0	-7.202006E-05	-3	-3	-3	0	
17:56:04:311	47.46363	-122.3077	0.02136516	0.02136516	0	0	0	0	0	0	1.412661	2.216755	161.4907	0.002957085	-0.08833838	0	0	0	-999.9933	0	0	-7.202006E-05	-3	-3	-3	0	
17:56:04:332	47.46363	-122.3077	0.02136516	0.02136516	0	0	0	0	0	0	1.412661	2.216755	161.4907	0.002957085	-0.08833838	0	0	0	-999.9933	0	0	-7.202006E-05	-3	-3	-3	0	
17:56:04:395	47.46363	-122.3077	0.02136516	0.02136516	0	0	0	0	0	0	1.412661	2.216755	161.4907	0.002957085	-0.08833838	0	0	0	-999.9933	0	0	-7.202006E-05	-3	-3	-3	0	
17:56:04:398	47.46363	-122.3077	0.02136516	0.02136516	0	0	0	0	0	0	1.412661	2.216755	161.4907	0.002957085	-0.08833838	0	0	0	-999.9933	0	0	-7.202006E-05	-3	-3	-3	0	
17:56:04:417	47.46363	-122.3077	0.02136516	0.02136516	0	0	0	0	0	0	1.412661	2.216755	161.4907	0.002957085	-0.08833838	0	0	0	-999.9933	0	0	-7.202006E-05	-3	-3	-3	0	
17:56:04:434	47.46363	-122.3077	0.02136516	0.02136516	0	0	0	0	0	0	1.412661	2.216755	161.4907	0.002957085	-0.08833838	0	0	0	-999.9933	0	0	-7.202006E-05	-3	-3	-3	0	
17:56:04:504	47.46363	-122.3077	0.02136516	0.02136516	0	0	0	0	0	0	1.412654	2.210755	161.4906	-0.0007035771	-0.1286606	0	0	0	-1000.322	0	0	-7.202006E-05	-3	-3	-3	0	
17:56:04:549	47.46363	-122.3077	0.02136516	0.02136516	0	0	0	0	0	0	1.412654	2.210755	161.4906	-0.0007035771	-0.1286606	0	0	0	-1000.322	0	0	-7.202006E-05	-3	-3	-3	0	
17:56:04:583	47.46363	-122.3077	0.02136516	0.02136516	0	0	0	0	0	0	1.412654	2.210755	161.4906	-0.0007035771	-0.1286606	0	0	0	-1000.322	0	0	-7.202006E-05	-3	-3	-3	0	
17:56:04:593	47.46363	-122.3077	0.02136516	0.02136516	0	0	0	0	0	0	1.412654	2.210755	161.4906	-0.0007035771	-0.1286606	0	0	0	-1000.322	0	0	-7.202006E-05	-3	-3	-3	0	
17:56:04:597	47.46363	-122.3077	0.02136703	0.02136703	0	0	0	0	0	0	1.412654	2.210755	161.4906	-0.0007035771	-0.1286606	0	0	0	-1000.322	0	0	-3.492573E-05	-3	-3	-3	0	
17:56:04:618	47.46363	-122.3077	0.02136703	0.02136703	0	0	0	0	0	0	1.412654	2.210755	161.4906	-0.0007035771	-0.1286606	0	0	0	-1000.322	0	0	-3.492573E-05	-3	-3	-3	0	
17:56:04:634	47.46363	-122.3077	0.02136703	0.02136703	0	0	0	0	0	0	1.412654	2.210755	161.4906	-0.0007035771	-0.1286606	0	0	0	-1000.322	0	0	-3.492573E-05	-3	-3	-3	0	
17:56:04:675	47.46363	-122.3077	0.02136703	0.02136703	0	0	0	0	0	0	1.412654	2.210755	161.4906	-0.0007035771	-0.1286606	0	0	0	-1000.322	0	0	-3.492573E-05	-3	-3	-3	0	
17:56:04:699	47.46363	-122.3077	0.02136703	0.02136703	0	0	0	0	0	0	1.412654	2.210755	161.4906	-0.0007035771	-0.1286606	0	0	0	-1000.322	0	0	-3.492573E-05	-3	-3	-3	0	
17:56:04:712	47.46363	-122.3077	0.02136703	0.02136703	0	0	0	0	0	0	1.412654	2.210755	161.4906	-0.0007035771	-0.1286606	0	0	0	-1000.322	0	0	-3.492573E-05	-3	-3	-3	0	
17:56:04:739	47.46363	-122.3077	0.02136703	0.02136703	0	0	0	0	0	0	1.412548	2.203186	161.4904	-0.002233448	-0.1566764	0	0	0	-999.9862	0	0	-3.492573E-05	-3	-3	-3	0	
17:56:04:779	47.46363	-122.3077	0.02136703	0.02136703	0	0	0	0	0	0	1.412548	2.203186	161.4904	-0.002233448	-0.1566764	0	0	0	-999.9862	0	0	-3.492573E-05	-3	-3	-3	0	
17:56:04:794	47.46363	-122.3077	0.02136703	0.02136703	0	0	0	0	0	0	1.412548	2.203186	161.4904	-0.002233448	-0.1566764	0	0	0	-999.9862	0	0	-3.492573E-05	-3	-3	-3	0	
17:56:04:819	47.46363	-122.3077	0.02137084	0.02137084	0	0	0	0	0	0	1.412548	2.203186	161.4904	-0.002233448	-0.1566764	0	0	0	-999.9862	0	0	-0.0001140455	-3	-3	-3	0	
17:56:04:837	47.46363	-122.3077	0.02137084	0.02137084	0	0	0	0	0	0	1.412548	2.203186	161.4904	-0.002233448	-0.1566764	0	0	0	-999.9862	0	0	-0.0001140455	-3	-3	-3	0	
17:56:04:879	47.46363	-122.3077	0.02137084	0.02137084	0	0	0	0	0	0	1.412404	2.194747	161.4902	-0.002811706	-0.1708922	0	0	0	-1000.301	0	0	-0.0001140455	-3	-3	-3	0	
17:56:04:903	47.46363	-122.3077	0.02137084	0.02137084	0	0	0	0	0	0	1.412404	2.194747	161.4902	-0.002811706	-0.1708922	0	0	0	-1000.301	0	0	-0.0001140455	-3	-3	-3	0	
17:56:04:917	47.46363	-122.3077	0.02137084	0.02137084	0	0	0	0	0	0	1.412404	2.194747	161.4902	-0.002811706	-0.1708922	0	0	0	-1000.301	0	0	-0.0001140455	-3	-3	-3	0	
17:56:04:937	47.46363	-122.3077	0.02137084	0.02137084	0	0	0	0	0	0	1.412404	2.194747	161.4902	-0.002811706	-0.1708922	0	0	0	-1000.301	0	0	-0.0001140455	-3	-3	-3	0	
17:56:05:31	47.46363	-122.3077	0.02137567	0.02137567	0	0	0	0	0	0	1.412404	2.194747	161.4902	-0.002811706	-0.1708922	0	0	0	-1000.301	0	0	-9.288568E-05	-3	-3	-3	0	
17:56:05:175	47.46363	-122.3077	0.02137567	0.02137567	0	0	0	0	0	0	1.412404	2.194747	161.4902	-0.002811706	-0.1708922	0	0	0	-1000.301	0	0	-9.288568E-05	-3	-3	-3	0	
17:56:05:178	47.46363	-122.3077	0.02137567	0.02137567	0	0	0	0	0	0	1.412404	2.194747	161.4902	-0.002811706	-0.1708922	0	0	0	-1000.301	0	0	-9.288568E-05	-3	-3	-3	0	
17:56:05:201	47.46363	-122.3077	0.02137567	0.02137567	0	0	0	0	0	0	1.412366	2.186088	161.4899	0.001869855	-0.171943	0	0	0	-1000.078	0	0	-9.288568E-05	-3	-3	-3	0	
17:56:05:214	47.46363	-122.3077	0.02137567	0.02137567	0	0	0	0	0	0	1.412366	2.186088	161.4899	0.001869855	-0.171943	0	0	0	-1000.078	0	0	-9.288568E-05	-3	-3	-3	0	
17:56:05:218	47.46363	-122.3077	0.02137567	0.02137567	0	0	0	0	0	0	1.412366	2.186088	161.4899	0.001869855	-0.171943	0	0	0	-1000.078	0	0	-9.288568E-05	-3	-3	-3	0	
17:56:05:224	47.46363	-122.3077	0.02138184	0.02138184	0	0	0	0	0	0	1.412366	2.186088	161.4899	0.001869855	-0.171943	0	0	0	-1000.078	0	0	-0.000157892	-3	-3	-3	0	
17:56:05:226	47.46363	-122.3077	0.02138184	0.02138184	0	0	0	0	0	0	1.412366	2.186088	161.4899	0.001869855	-0.171943	0	0	0	-1000.078	0	0	-0.000157892	-3	-3	-3	0	
17:56:05:229	47.46363	-122.3077	0.02138184	0.02138184	0	0	0	0	0	0	1.412366	2.186088	161.4899	0.001869855	-0.171943	0	0	0	-1000.078	0	0	-0.000157892	-3	-3	-3	0	
17:56:05:233	47.46363	-122.3077	0.02138184	0.02138184	0	0	0	0	0	0	1.412366	2.186088	161.4899	0.001869855	-0.171943	0	0	0	-1000.078	0	0	-0.000157892	-3	-3	-3	0	
17:56:05:236	47.46363	-122.3077	0.02138184	0.02138184	0	0	0	0	0	0	1.412366	2.186088	161.4899	0.001869855	-0.171943	0	0	0	-1000.078	0	0	-0.000157892	-3	-3	-3	0	
17:56:05:238	47.46363	-122.3077	0.02138184	0.02138184	0	0	0	0	0	0	1.412366	2.186088	161.4899	0.001869855	-0.171943	0	0	0	-1000.078	0	0	-0.000157892	-3	-3	-3	0	
17:56:05:241	47.46363	-122.3077	0.02138184	0.02138184	0	0	0	0	0	0	1.412366	2.186088	161.4899	0.001869855	-0.171943	0	0	0	-1000.078	0	0	-0.000157892	-3	-3	-3	0	
17:56:05:321	47.46363	-122.3077	0.02138184	0.02138184	0	0	0	0	0	0	1.412366	2.186088	161.4899	0.001869855	-0.171943	0	0	0	-1000.078	0	0	-0.000157892	-3	-3	-3	0	
17:56:05:355	47.46363	-122.3077	0.02138184	0.02138184	0	0	0	0	0	0	1.412447	2.177827	161.4897	0.003704039	-0.1611071	0	0	0	-1000.099	0	0	-0.000157892	-3	-3	-3	0	
17:56:05:360	47.46363	-122.3077	0.02138184	0.02138184	0	0	0	0	0	0	1.412447	2.177827	161.4897	0.003704039	-0.1611071	0	0	0	-1000.099	0	0	-0.000157892	-3	-3	-3	0	
17:56:05:385	47.46363	-122.3077	0.02138184	0.02138184	0	0	0	0	0	0	1.412447	2.177827	161.4897	0.003704039	-0.1611071	0	0	0	-1000.099	0	0	-0.000157892	-3	-3	-3	0	
17:56:05:401	47.46363	-122.3077	0.02138184	0.02138184	0	0	0	0	0	0	1.412447	2.177827	161.4897	0.003704039	-0.1611071	0	0	0	-1000.099	0	0	-0.000157892	-3	-3	-3	0	
17:56:05:421	47.46363	-122.3077	0.02138184	0.02138184	0	0	0	0	0	0	1.412447	2.177827	161.4897	0.003704039	-0.1611071	0	0	0	-1000.099	0	0	-0.000157892	-3	-3	-3	0	
17:56:05:439	47.46363	-122.3077	0.021387	0.021387	0	0	0	0	0	0	1.412447	2.177827	161.4897	0.003704039	-0.1611071	0	0	0	-1000.099	0	0	-0.000109991	-3	-3	-3	0	
17:56:05:518	47.46363	-122.3077	0.021387	0.021387	0	0	0	0	0	0	1.412576	2.170484	161.4896	0.004393117	-0.1400439	0	0	0	-1000.323	0	0	-0.000109991	-3	-3	-3	0	
17:56:05:557	47.46363	-122.3077	0.021387	0.021387	0	0	0	0	0	0	1.412576	2.170484	161.4896	0.004393117	-0.1400439	0	0	0	-1000.323	0	0	-0.000109991	-3	-3	-3	0	
17:56:05:560	47.46363	-122.3077	0.021387	0.021387	0	0	0	0	0	0	1.412576	2.170484	161.4896	0.004393117	-0.1400439	0	0	0	-1000.323	0	0	-0.000109991	-3	-3	-3	0	
17:56:05:583	47.46363	-122.3077	0.021387	0.021387	0	0	0	0	0	0	1.412576	2.170484	161.4896	0.004393117	-0.1400439	0	0	0	-1000.323	0	0	-0.000109991	-3	-3	-3	0	
17:56:05:604	47.46363	-122.3077	0.021387	0.021387	0	0	0	0	0	0	1.412576	2.170484	161.4896	0.004393117	-0.1400439	0	0	0	-1000.323	0	0	-0.000109991	-3	-3	-3	0	
17:56:05:637	47.46363	-122.3077	0.021387	0.021387	0	0	0	0	0	0	1.412576	2.170484	161.4896	0.004393117	-0.1400439	0	0	0	-1000.323	0	0	-0.000109991	-3	-3	-3	0	
17:56:05:641	47.46363	-122.3077	0.02139087	0.02139087	0	0	0	0	0	0	1.412576	2.170484	161.4896	0.004393117	-0.1400439	0	0	0	-1000.323	0	0	-8.597971E-05	-3	-3	-3	0	
17:56:05:681	47.46363	-122.3077	0.02139087	0.02139087	0	0	0	0	0	0	1.412721	2.164489	161.4894	0.004652098	-0.1121459	0	0	0	-999.9313	0	0	-8.597971E-05	-3	-3	-3	0	
17:56:05:700	47.46363	-122.3077	0.02139087	0.02139087	0	0	0	0	0	0	1.412721	2.164489	161.4894	0.004652098	-0.1121459	0	0	0	-999.9313	0	0	-8.597971E-05	-3	-3	-3	0	
17:56:05:719	47.46363	-122.3077	0.02139087	0.02139087	0	0	0	0	0	0	1.412721	2.164489	161.4894	0.004652098	-0.1121459	0	0	0	-999.9313	0	0	-8.597971E-05	-3	-3	-3	0	
17:56:05:741	47.46363	-122.3077	0.02139087	0.02139087	0	0	0	0	0	0	1.412721	2.164489	161.4894	0.004652098	-0.1121459	0	0	0	-999.9313	0	0	-8.597971E-05	-3	-3	-3	0	
17:56:05:793	47.46363	-122.3077	0.02139087	0.02139087	0	0	0	0	0	0	1.412766	2.16007	161.4893	0.0001954021	-0.07971892	0	0	0	-1000.057	0	0	-8.597971E-05	-3	-3	-3	0	
17:56:05:802	47.46363	-122.3077	0.02139087	0.02139087	0	0	0	0	0	0	1.412766	2.16007	161.4893	0.0001954021	-0.07971892	0	0	0	-1000.057	0	0	-8.597971E-05	-3	-3	-3	0	
17:56:05:821	47.46363	-122.3077	0.02139087	0.02139087	0	0	0	0	0	0	1.412766	2.16007	161.4893	0.0001954021	-0.07971892	0	0	0	-1000.057	0	0	-8.597971E-05	-3	-3	-3	0	
17:56:05:847	47.46363	-122.3077	0.02139869	0.02139869	0	0	0	0	0	0	1.412766	2.16007	161.4893	0.0001954021	-0.07971892	0	0	0	-1000.057	0	0	-0.0001918167	-3	-3	-3	0	
17:56:05:885	47.46363	-122.3077	0.02139869	0.02139869	0	0	0	0	0	0	1.412766	2.16007	161.4893	0.0001954021	-0.07971892	0	0	0	-1000.057	0	0	-0.0001918167	-3	-3	-3	0	
17:56:05:907	47.46363	-122.3077	0.02139869	0.02139869	0	0	0	0	0	0	1.412712	2.1574	161.4892	-0.001297753	-0.04417916	0	0	0	-1000.108	0	0	-0.0001918167	-3	-3	-3	0	
17:56:05:921	47.46363	-122.3077	0.02139869	0.02139869	0	0	0	0	0	0	1.412712	2.1574	161.4892	-0.001297753	-0.04417916	0	0	0	-1000.108	0	0	-0.0001918167	-3	-3	-3	0	
17:56:05:945	47.46363	-122.3077	0.02139869	0.02139869	0	0	0	0	0	0	1.412712	2.1574	161.4892	-0.001297753	-0.04417916	0	0	0	-1000.108	0	0	-0.0001918167	-3	-3	-3	0	
17:56:05:986	47.46363	-122.3077	0.02139869	0.02139869	0	0	0	0	0	0	1.412712	2.1574	161.4892	-0.001297753	-0.04417916	0	0	0	-1000.108	0	0	-0.0001918167	-3	-3	-3	0	
17:56:06:17	47.46363	-122.3077	0.02139869	0.02139869	0	0	0	0	0	0	1.412712	2.1574	161.4892	-0.001297753	-0.04417916	0	0	0	-1000.108	0	0	-0.0001918167	-3	-3	-3	0	
17:56:06:23	47.46363	-122.3077	0.02139869	0.02139869	0	0	0	0	0	0	1.412712	2.1574	161.4892	-0.001297753	-0.04417916	0	0	0	-1000.108	0	0	-0.0001918167	-3	-3	-3	0	
17:56:06:50	47.46363	-122.3077	0.02140522	0.02140522	0	0	0	0	0	0	1.412626	2.156522	161.4892	-0.001807126	-0.008936292	0	0	0	-1000.057	0	0	-1.641401E-05	-3	-3	-3	0	
17:56:06:80	47.46363	-122.3077	0.02140522	0.02140522	0	0	0	0	0	0	1.412626	2.156522	161.4892	-0.001807126	-0.008936292	0	0	0	-1000.057	0	0	-1.641401E-05	-3	-3	-3	0	
17:56:06:85	47.46363	-122.3077	0.02140522	0.02140522	0	0	0	0	0	0	1.412626	2.156522	161.4892	-0.001807126	-0.008936292	0	0	0	-1000.057	0	0	-1.641401E-05	-3	-3	-3	0	
17:56:06:105	47.46363	-122.3077	0.02140522	0.02140522	0	0	0	0	0	0	1.412626	2.156522	161.4892	-0.001807126	-0.008936292	0	0	0	-1000.057	0	0	-1.641401E-05	-3	-3	-3	0	
17:56:06:122	47.46363	-122.3077	0.02140522	0.02140522	0	0	0	0	0	0	1.412626	2.156522	161.4892	-0.001807126	-0.008936292	0	0	0	-1000.057	0	0	-1.641401E-05	-3	-3	-3	0	
17:56:06:147	47.46363	-122.3077	0.02140522	0.02140522	0	0	0	0	0	0	1.412626	2.156522	161.4892	-0.001807126	-0.008936292	0	0	0	-1000.057	0	0	-1.641401E-05	-3	-3	-3	0	
17:56:06:192	47.46363	-122.3077	0.02140522	0.02140522	0	0	0	0	0	0	1.41253	2.156886	161.4892	-0.001990694	0.005912214	0	0	0	-999.9151	0	0	-1.641401E-05	-3	-3	-3	0	
17:56:06:204	47.46363	-122.3077	0.02140522	0.02140522	0	0	0	0	0	0	1.41253	2.156886	161.4892	-0.001990694	0.005912214	0	0	0	-999.9151	0	0	-1.641401E-05	-3	-3	-3	0	
17:56:06:225	47.46363	-122.3077	0.02140522	0.02140522	0	0	0	0	0	0	1.41253	2.156886	161.4892	-0.001990694	0.005912214	0	0	0	-999.9151	0	0	-1.641401E-05	-3	-3	-3	0	
17:56:06:243	47.46363	-122.3077	0.02140522	0.02140522	0	0	0	0	0	0	1.41253	2.156886	161.4892	-0.001990694	0.005912214	0	0	0	-999.9151	0	0	-1.641401E-05	-3	-3	-3	0	
17:56:06:307	47.46363	-122.3077	0.02140538	0.02140538	0	0	0	0	0	0	1.412421	2.157018	161.4892	-0.002219432	0.001631633	0	0	0	-1000.133	0	0	-2.506084E-05	-3	-3	-3	0	
17:56:06:322	47.46363	-122.3077	0.02140538	0.02140538	0	0	0	0	0	0	1.412421	2.157018	161.4892	-0.002219432	0.001631633	0	0	0	-1000.133	0	0	-2.506084E-05	-3	-3	-3	0	
17:56:06:346	47.46363	-122.3077	0.02140538	0.02140538	0	0	0	0	0	0	1.412421	2.157018	161.4892	-0.002219432	0.001631633	0	0	0	-1000.133	0	0	-2.506084E-05	-3	-3	-3	0	
17:56:06:390	47.46363	-122.3077	0.02140538	0.02140538	0	0	0	0	0	0	1.412421	2.157018	161.4892	-0.002219432	0.001631633	0	0	0	-1000.133	0	0	-2.506084E-05	-3	-3	-3	0	
17:56:06:428	47.46363	-122.3077	0.02140538	0.02140538	0	0	0	0	0	0	1.412303	2.15741	161.4892	-0.002388438	0.01585953	0	0	0	-1000.149	0	0	-2.506084E-05	-3	-3	-3	0	
17:56:06:435	47.46363	-122.3077	0.02140538	0.02140538	0	0	0	0	0	0	1.412303	2.15741	161.4892	-0.002388438	0.01585953	0	0	0	-1000.149	0	0	-2.506084E-05	-3	-3	-3	0	
17:56:06:445	47.46363	-122.3077	0.02140538	0.02140538	0	0	0	0	0	0	1.412303	2.15741	161.4892	-0.002388438	0.01585953	0	0	0	-1000.149	0	0	-2.506084E-05	-3	-3	-3	0	
17:56:06:507	47.46363	-122.3077	0.02140667	0.02140667	0	0	0	0	0	0	1.412303	2.15741	161.4892	-0.002388438	0.01585953	0	0	0	-1000.149	0	0	3.263518E-06	-3	-3	-3	0	
17:56:06:522	47.46363	-122.3077	0.02140667	0.02140667	0	0	0	0	0	0	1.412303	2.15741	161.4892	-0.002388438	0.01585953	0	0	0	-1000.149	0	0	3.263518E-06	-3	-3	-3	0	
17:56:06:547	47.46363	-122.3077	0.02140667	0.02140667	0	0	0	0	0	0	1.412166	2.15802	161.4892	-0.00281678	0.01098261	0	0	0	-1000.123	0	0	3.263518E-06	-3	-3	-3	0	
17:56:06:585	47.46363	-122.3077	0.02140667	0.02140667	0	0	0	0	0	0	1.412166	2.15802	161.4892	-0.00281678	0.01098261	0	0	0	-1000.123	0	0	3.263518E-06	-3	-3	-3	0	
17:56:06:604	47.46363	-122.3077	0.02140667	0.02140667	0	0	0	0	0	0	1.412166	2.15802	161.4892	-0.00281678	0.01098261	0	0	0	-1000.123	0	0	3.263518E-06	-3	-3	-3	0	
17:56:06:624	47.46363	-122.3077	0.02140667	0.02140667	0	0	0	0	0	0	1.412166	2.15802	161.4892	-0.00281678	0.01098261	0	0	0	-1000.123	0	0	3.263518E-06	-3	-3	-3	0	
17:56:06:645	47.46363	-122.3077	0.02140667	0.02140667	0	0	0	0	0	0	1.412166	2.15802	161.4892	-0.00281678	0.01098261	0	0	0	-1000.123	0	0	3.263518E-06	-3	-3	-3	0	
17:56:06:687	47.46363	-122.3077	0.02140667	0.02140667	0	0	0	0	0	0	1.412144	2.158401	161.4893	0.002004817	0.006359728	0	0	0	-1000.3	0	0	3.263518E-06	-3	-3	-3	0	
17:56:06:707	47.46363	-122.3077	0.0214052	0.0214052	0	0	0	0	0	0	1.412144	2.158401	161.4893	0.002004817	0.006359728	0	0	0	-1000.3	0	0	-3.370531E-06	-3	-3	-3	0	
17:56:06:726	47.46363	-122.3077	0.0214052	0.0214052	0	0	0	0	0	0	1.412144	2.158401	161.4893	0.002004817	0.006359728	0	0	0	-1000.3	0	0	-3.370531E-06	-3	-3	-3	0	
17:56:06:749	47.46363	-122.3077	0.0214052	0.0214052	0	0	0	0	0	0	1.412144	2.158401	161.4893	0.002004817	0.006359728	0	0	0	-1000.3	0	0	-3.370531E-06	-3	-3	-3	0	
17:56:06:790	47.46363	-122.3077	0.0214052	0.0214052	0	0	0	0	0	0	1.412311	2.158451	161.4893	0.001733382	-0.0005791333	0	0	0	-999.9673	0	0	-3.370531E-06	-3	-3	-3	0	
17:56:06:809	47.46363	-122.3077	0.0214052	0.0214052	0	0	0	0	0	0	1.412311	2.158451	161.4893	0.001733382	-0.0005791333	0	0	0	-999.9673	0	0	-3.370531E-06	-3	-3	-3	0	
17:56:06:827	47.46363	-122.3077	0.0214052	0.0214052	0	0	0	0	0	0	1.412311	2.158451	161.4893	0.001733382	-0.0005791333	0	0	0	-999.9673	0	0	-3.370531E-06	-3	-3	-3	0	
17:56:06:850	47.46363	-122.3077	0.0214052	0.0214052	0	0	0	0	0	0	1.412311	2.158451	161.4893	0.001733382	-0.0005791333	0	0	0	-999.9673	0	0	-3.370531E-06	-3	-3	-3	0	
17:56:06:887	47.46363	-122.3077	0.0214052	0.0214052	0	0	0	0	0	0	1.412311	2.158451	161.4893	0.001733382	-0.0005791333	0	0	0	-999.9673	0	0	-3.370531E-06	-3	-3	-3	0	
17:56:06:907	47.46363	-122.3077	0.0214039	0.0214039	0	0	0	0	0	0	1.412311	2.158451	161.4893	0.001733382	-0.0005791333	0	0	0	-999.9673	0	0	-1.453333E-05	-3	-3	-3	0	
17:56:06:933	47.46363	-122.3077	0.0214039	0.0214039	0	0	0	0	0	0	1.412311	2.158451	161.4893	0.001733382	-0.0005791333	0	0	0	-999.9673	0	0	-1.453333E-05	-3	-3	-3	0	
17:56:06:951	47.46363	-122.3077	0.0214039	0.0214039	0	0	0	0	0	0	1.412282	2.1591	161.4893	-0.00111753	0.01136307	0	0	0	-1000.489	0	0	-1.453333E-05	-3	-3	-3	0	
17:56:06:990	47.46363	-122.3077	0.0214039	0.0214039	0	0	0	0	0	0	1.412282	2.1591	161.4893	-0.00111753	0.01136307	0	0	0	-1000.489	0	0	-1.453333E-05	-3	-3	-3	0	
17:56:07:11	47.46363	-122.3077	0.0214039	0.0214039	0	0	0	0	0	0	1.412282	2.1591	161.4893	-0.00111753	0.01136307	0	0	0	-1000.489	0	0	-1.453333E-05	-3	-3	-3	0	
17:56:07:28	47.46363	-122.3077	0.0214039	0.0214039	0	0	0	0	0	0	1.412282	2.1591	161.4893	-0.00111753	0.01136307	0	0	0	-1000.489	0	0	-1.453333E-05	-3	-3	-3	0	
17:56:07:62	47.46363	-122.3077	0.0214039	0.0214039	0	0	0	0	0	0	1.412282	2.1591	161.4893	-0.00111753	0.01136307	0	0	0	-1000.489	0	0	-1.453333E-05	-3	-3	-3	0	
17:56:07:91	47.46363	-122.3077	0.0214039	0.0214039	0	0	0	0	0	0	1.412511	2.15937	161.4893	0.005859129	0.003524715	0	0	0	-1000.096	0	0	-1.453333E-05	-3	-3	-3	0	
17:56:07:102	47.46363	-122.3077	0.0214039	0.0214039	0	0	0	0	0	0	1.412511	2.15937	161.4893	0.005859129	0.003524715	0	0	0	-1000.096	0	0	-1.453333E-05	-3	-3	-3	0	
17:56:07:109	47.46363	-122.3077	0.02140236	0.02140236	0	0	0	0	0	0	1.412511	2.15937	161.4893	0.005859129	0.003524715	0	0	0	-1000.096	0	0	5.22495E-05	-3	-3	-3	0	
17:56:07:129	47.46363	-122.3077	0.02140236	0.02140236	0	0	0	0	0	0	1.412511	2.15937	161.4893	0.005859129	0.003524715	0	0	0	-1000.096	0	0	5.22495E-05	-3	-3	-3	0	
17:56:07:150	47.46363	-122.3077	0.02140236	0.02140236	0	0	0	0	0	0	1.412511	2.15937	161.4893	0.005859129	0.003524715	0	0	0	-1000.096	0	0	5.22495E-05	-3	-3	-3	0	
17:56:07:191	47.46363	-122.3077	0.02140236	0.02140236	0	0	0	0	0	0	1.412511	2.15937	161.4893	0.005859129	0.003524715	0	0	0	-1000.096	0	0	5.22495E-05	-3	-3	-3	0	
17:56:07:211	47.46363	-122.3077	0.02140236	0.02140236	0	0	0	0	0	0	1.41258	2.15979	161.4893	0.0003889792	0.01620036	0	0	0	-1000.555	0	0	5.22495E-05	-3	-3	-3	0	
17:56:07:232	47.46363	-122.3077	0.02140236	0.02140236	0	0	0	0	0	0	1.41258	2.15979	161.4893	0.0003889792	0.01620036	0	0	0	-1000.555	0	0	5.22495E-05	-3	-3	-3	0	
17:56:07:259	47.46363	-122.3077	0.02140236	0.02140236	0	0	0	0	0	0	1.41258	2.15979	161.4893	0.0003889792	0.01620036	0	0	0	-1000.555	0	0	5.22495E-05	-3	-3	-3	0	
17:56:07:310	47.46363	-122.3077	0.02140236	0.02140236	0	0	0	0	0	0	1.41258	2.15979	161.4893	0.0003889792	0.01620036	0	0	0	-1000.555	0	0	5.22495E-05	-3	-3	-3	0	
17:56:07:330	47.46363	-122.3077	0.02140217	0.02140217	0	0	0	0	0	0	1.41258	2.15979	161.4893	0.0003889792	0.01620036	0	0	0	-1000.555	0	0	1.472885E-05	-3	-3	-3	0	
17:56:07:350	47.46363	-122.3077	0.02140217	0.02140217	0	0	0	0	0	0	1.412656	2.16029	161.4893	0.003721092	0.00762711	0	0	0	-1000.496	0	0	1.472885E-05	-3	-3	-3	0	
17:56:07:393	47.46363	-122.3077	0.02140217	0.02140217	0	0	0	0	0	0	1.412656	2.16029	161.4893	0.003721092	0.00762711	0	0	0	-1000.496	0	0	1.472885E-05	-3	-3	-3	0	
17:56:07:411	47.46363	-122.3077	0.02140217	0.02140217	0	0	0	0	0	0	1.412656	2.16029	161.4893	0.003721092	0.00762711	0	0	0	-1000.496	0	0	1.472885E-05	-3	-3	-3	0	
17:56:07:432	47.46363	-122.3077	0.02140217	0.02140217	0	0	0	0	0	0	1.412656	2.16029	161.4893	0.003721092	0.00762711	0	0	0	-1000.496	0	0	1.472885E-05	-3	-3	-3	0	
17:56:07:450	47.46363	-122.3077	0.02140217	0.02140217	0	0	0	0	0	0	1.412656	2.16029	161.4893	0.003721092	0.00762711	0	0	0	-1000.496	0	0	1.472885E-05	-3	-3	-3	0	
17:56:07:516	47.46363	-122.3077	0.02140217	0.02140217	0	0	0	0	0	0	1.41276	2.160304	161.4893	-0.002113875	-0.001973322	0	0	0	-1000.057	0	0	1.472885E-05	-3	-3	-3	0	
17:56:07:530	47.46363	-122.3077	0.0214027	0.0214027	0	0	0	0	0	0	1.41276	2.160304	161.4893	-0.002113875	-0.001973322	0	0	0	-1000.057	0	0	-7.42152E-05	-3	-3	-3	0	
17:56:07:551	47.46363	-122.3077	0.0214027	0.0214027	0	0	0	0	0	0	1.41276	2.160304	161.4893	-0.002113875	-0.001973322	0	0	0	-1000.057	0	0	-7.42152E-05	-3	-3	-3	0	
17:56:07:593	47.46363	-122.3077	0.0214027	0.0214027	0	0	0	0	0	0	1.41276	2.160304	161.4893	-0.002113875	-0.001973322	0	0	0	-1000.057	0	0	-7.42152E-05	-3	-3	-3	0	
17:56:07:614	47.46363	-122.3077	0.0214027	0.0214027	0	0	0	0	0	0	1.412571	2.160785	161.4893	-0.0003768644	0.006933852	0	0	0	-999.7189	0	0	-7.42152E-05	-3	-3	-3	0	
17:56:07:630	47.46363	-122.3077	0.0214027	0.0214027	0	0	0	0	0	0	1.412571	2.160785	161.4893	-0.0003768644	0.006933852	0	0	0	-999.7189	0	0	-7.42152E-05	-3	-3	-3	0	
17:56:07:654	47.46363	-122.3077	0.0214027	0.0214027	0	0	0	0	0	0	1.412571	2.160785	161.4893	-0.0003768644	0.006933852	0	0	0	-999.7189	0	0	-7.42152E-05	-3	-3	-3	0	
17:56:07:690	47.46363	-122.3077	0.0214027	0.0214027	0	0	0	0	0	0	1.412571	2.160785	161.4893	-0.0003768644	0.006933852	0	0	0	-999.7189	0	0	-7.42152E-05	-3	-3	-3	0	
17:56:07:730	47.46363	-122.3077	0.0214027	0.0214027	0	0	0	0	0	0	1.412571	2.160785	161.4893	-0.0003768644	0.006933852	0	0	0	-999.7189	0	0	-7.42152E-05	-3	-3	-3	0	
17:56:07:735	47.46363	-122.3077	0.02140089	0.02140089	0	0	0	0	0	0	1.412571	2.160785	161.4893	-0.0003768644	0.006933852	0	0	0	-999.7189	0	0	5.621148E-05	-3	-3	-3	0	
17:56:07:754	47.46363	-122.3077	0.02140089	0.02140089	0	0	0	0	0	0	1.412695	2.160791	161.4893	0.001219156	-0.002027099	0	0	0	-1000.723	0	0	5.621148E-05	-3	-3	-3	0	
17:56:07:792	47.46363	-122.3077	0.02140089	0.02140089	0	0	0	0	0	0	1.412695	2.160791	161.4893	0.001219156	-0.002027099	0	0	0	-1000.723	0	0	5.621148E-05	-3	-3	-3	0	
17:56:07:812	47.46363	-122.3077	0.02140089	0.02140089	0	0	0	0	0	0	1.412695	2.160791	161.4893	0.001219156	-0.002027099	0	0	0	-1000.723	0	0	5.621148E-05	-3	-3	-3	0	
17:56:07:831	47.46363	-122.3077	0.02140089	0.02140089	0	0	0	0	0	0	1.412695	2.160791	161.4893	0.001219156	-0.002027099	0	0	0	-1000.723	0	0	5.621148E-05	-3	-3	-3	0	
17:56:07:854	47.46363	-122.3077	0.02140089	0.02140089	0	0	0	0	0	0	1.412695	2.160791	161.4893	0.001219156	-0.002027099	0	0	0	-1000.723	0	0	5.621148E-05	-3	-3	-3	0	
17:56:07:896	47.46363	-122.3077	0.02140089	0.02140089	0	0	0	0	0	0	1.412652	2.161193	161.4893	-0.001304952	0.005226849	0	0	0	-999.9734	0	0	5.621148E-05	-3	-3	-3	0	
17:56:07:911	47.46363	-122.3077	0.02140089	0.02140089	0	0	0	0	0	0	1.412652	2.161193	161.4893	-0.001304952	0.005226849	0	0	0	-999.9734	0	0	5.621148E-05	-3	-3	-3	0	
17:56:07:931	47.46363	-122.3077	0.02140089	0.02140089	0	0	0	0	0	0	1.412652	2.161193	161.4893	-0.001304952	0.005226849	0	0	0	-999.9734	0	0	5.621148E-05	-3	-3	-3	0	
17:56:07:953	47.46363	-122.3077	0.02140212	0.02140212	0	0	0	0	0	0	1.412652	2.161193	161.4893	-0.001304952	0.005226849	0	0	0	-999.9734	0	0	2.760291E-05	-3	-3	-3	0	
17:56:08:0	47.46363	-122.3077	0.02140212	0.02140212	0	0	0	0	0	0	1.412559	2.161525	161.4893	-0.001995447	0.013125	0	0	0	-1000.138	0	0	2.760291E-05	-3	-3	-3	0	
17:56:08:17	47.46363	-122.3077	0.02140212	0.02140212	0	0	0	0	0	0	1.412559	2.161525	161.4893	-0.001995447	0.013125	0	0	0	-1000.138	0	0	2.760291E-05	-3	-3	-3	0	
17:56:08:34	47.46363	-122.3077	0.02140212	0.02140212	0	0	0	0	0	0	1.412559	2.161525	161.4893	-0.001995447	0.013125	0	0	0	-1000.138	0	0	2.760291E-05	-3	-3	-3	0	
17:56:08:55	47.46363	-122.3077	0.02140212	0.02140212	0	0	0	0	0	0	1.412559	2.161525	161.4893	-0.001995447	0.013125	0	0	0	-1000.138	0	0	2.760291E-05	-3	-3	-3	0	
17:56:08:91	47.46363	-122.3077	0.02140212	0.02140212	0	0	0	0	0	0	1.412559	2.161525	161.4893	-0.001995447	0.013125	0	0	0	-1000.138	0	0	2.760291E-05	-3	-3	-3	0	
17:56:08:97	47.46363	-122.3077	0.02140212	0.02140212	0	0	0	0	0	0	1.412559	2.161525	161.4893	-0.001995447	0.013125	0	0	0	-1000.138	0	0	2.760291E-05	-3	-3	-3	0	
17:56:08:116	47.46363	-122.3077	0.02140212	0.02140212	0	0	0	0	0	0	1.412559	2.161525	161.4893	-0.001995447	0.013125	0	0	0	-1000.138	0	0	2.760291E-05	-3	-3	-3	0	
17:56:08:150	47.46363	-122.3077	0.02140212	0.02140212	0	0	0	0	0	0	1.412455	2.161775	161.4893	-0.002114975	0.002430634	0	0	0	-1000.126	0	0	2.760291E-05	-3	-3	-3	0	
17:56:08:158	47.46363	-122.3077	0.02140418	0.02140418	0	0	0	0	0	0	1.412455	2.161775	161.4893	-0.002114975	0.002430634	0	0	0	-1000.126	0	0	-2.777146E-06	-3	-3	-3	0	
17:56:08:199	47.46363	-122.3077	0.02140418	0.02140418	0	0	0	0	0	0	1.412455	2.161775	161.4893	-0.002114975	0.002430634	0	0	0	-1000.126	0	0	-2.777146E-06	-3	-3	-3	0	
17:56:08:218	47.46363	-122.3077	0.02140418	0.02140418	0	0	0	0	0	0	1.412455	2.161775	161.4893	-0.002114975	0.002430634	0	0	0	-1000.126	0	0	-2.777146E-06	-3	-3	-3	0	
17:56:08:234	47.46363	-122.3077	0.02140418	0.02140418	0	0	0	0	0	0	1.412455	2.161775	161.4893	-0.002114975	0.002430634	0	0	0	-1000.126	0	0	-2.777146E-06	-3	-3	-3	0	
17:56:08:255	47.46363	-122.3077	0.02140418	0.02140418	0	0	0	0	0	0	1.412455	2.161775	161.4893	-0.002114975	0.002430634	0	0	0	-1000.126	0	0	-2.777146E-06	-3	-3	-3	0	
17:56:08:317	47.46363	-122.3077	0.02140418	0.02140418	0	0	0	0	0	0	1.420607	2.160337	161.4741	0.3496184	-0.04651255	-0.4029565	23.48481	-5.135009	-998.8425	0	0	-2.777146E-06	-3	-3	-3	0	
17:56:08:337	47.46363	-122.3077	0.02140418	0.02140418	0	0	0	0	0	0	1.420607	2.160337	161.4741	0.3496184	-0.04651255	-0.4029565	23.48481	-5.135009	-998.8425	0	0	-2.777146E-06	-3	-3	-3	0	
17:56:08:358	47.46363	-122.3077	0.02140418	0.02140418	0	0	0	0	0	0	1.420607	2.160337	161.4741	0.3496184	-0.04651255	-0.4029565	23.48481	-5.135009	-998.8425	0	0	-2.777146E-06	-3	-3	-3	0	
17:56:08:401	47.46363	-122.3077	0.02140387	0.02140387	0	0	0	0	0	0	1.464641	2.162382	161.4394	1.056365	0.04671823	-0.7849683	32.03512	-13.93992	-1000.163	0	0	1.349616E-05	-3	-3	-3	0	
17:56:08:430	47.46363	-122.3077	0.02140387	0.02140387	0	0	0	0	0	0	1.464641	2.162382	161.4394	1.056365	0.04671823	-0.7849683	32.03512	-13.93992	-1000.163	0	0	1.349616E-05	-3	-3	-3	0	
17:56:08:435	47.46363	-122.3077	0.02140387	0.02140387	0	0	0	0	0	0	1.464641	2.162382	161.4394	1.056365	0.04671823	-0.7849683	32.03512	-13.93992	-1000.163	0	0	1.349616E-05	-3	-3	-3	0	
17:56:08:456	47.46363	-122.3077	0.02140387	0.02140387	0	0	0	0	0	0	1.464641	2.162382	161.4394	1.056365	0.04671823	-0.7849683	32.03512	-13.93992	-1000.163	0	0	1.349616E-05	-3	-3	-3	0	
17:56:08:518	47.46363	-122.3077	0.02140387	0.02140387	0	0	0	0	0	0	1.464641	2.162382	161.4394	1.056365	0.04671823	-0.7849683	32.03512	-13.93992	-1000.163	0	0	1.349616E-05	-3	-3	-3	0	
17:56:08:539	47.46363	-122.3077	0.02140387	0.02140387	0	0	0	0	0	0	1.528646	2.169198	161.3863	1.363639	0.127914	-1.149001	32.36818	-19.41568	-998.7822	0	0	1.349616E-05	-3	-3	-3	0	
17:56:08:559	47.46363	-122.3077	0.02140387	0.02140387	0	0	0	0	0	0	1.528646	2.169198	161.3863	1.363639	0.127914	-1.149001	32.36818	-19.41568	-998.7822	0	0	1.349616E-05	-3	-3	-3	0	
17:56:08:600	47.46363	-122.3077	0.02139413	0.02139413	0	0	0	0	0	0	1.528646	2.169198	161.3863	1.363639	0.127914	-1.149001	32.36818	-19.41568	-998.7822	0.007013688	-0.0123902	0.0003407423	-3	-3	-3	0	
17:56:08:633	47.46363	-122.3077	0.02139413	0.02139413	0	0	0	0	0	0	1.528646	2.169198	161.3863	1.363639	0.127914	-1.149001	32.36818	-19.41568	-998.7822	0.007013688	-0.0123902	0.0003407423	-3	-3	-3	0	
17:56:08:636	47.46363	-122.3077	0.02139413	0.02139413	0	0	0	0	0	0	1.528646	2.169198	161.3863	1.363639	0.127914	-1.149001	32.36818	-19.41568	-998.7822	0.007013688	-0.0123902	0.0003407423	-3	-3	-3	0	
17:56:08:655	47.46363	-122.3077	0.02139413	0.02139413	0	0	0	0	0	0	1.592988	2.180009	161.3156	1.30029	0.1911762	-1.495488	32.68285	-24.22442	-998.6975	0.007013688	-0.0123902	0.0003407423	-3	-3	-3	0	
17:56:08:697	47.46363	-122.3077	0.02139413	0.02139413	0	0	0	0	0	0	1.592988	2.180009	161.3156	1.30029	0.1911762	-1.495488	32.68285	-24.22442	-998.6975	0.007013688	-0.0123902	0.0003407423	-3	-3	-3	0	
17:56:08:718	47.46363	-122.3077	0.02139413	0.02139413	0	0	0	0	0	0	1.592988	2.180009	161.3156	1.30029	0.1911762	-1.495488	32.68285	-24.22442	-998.6975	0.007013688	-0.0123902	0.0003407423	-3	-3	-3	0	
17:56:08:739	47.46363	-122.3077	0.02139413	0.02139413	0	0	0	0	0	0	1.592988	2.180009	161.3156	1.30029	0.1911762	-1.495488	32.68285	-24.22442	-998.6975	0.007013688	-0.0123902	0.0003407423	-3	-3	-3	0	
17:56:08:759	47.46363	-122.3077	0.02139413	0.02139413	0	0	0	0	0	0	1.592988	2.180009	161.3156	1.30029	0.1911762	-1.495488	32.68285	-24.22442	-998.6975	0.007013688	-0.0123902	0.0003407423	-3	-3	-3	0	
17:56:08:802	47.46363	-122.3077	0.02140595	0.02140595	0	0	0	0	0	0	1.636496	2.192572	161.2283	0.8181501	0.2054059	-1.824997	33.03307	-28.74653	-998.6291	0.01255687	-0.02240684	0.0005502665	-3	-3	-3	0	
17:56:08:822	47.46363	-122.3077	0.02140595	0.02140595	0	0	0	0	0	0	1.636496	2.192572	161.2283	0.8181501	0.2054059	-1.824997	33.03307	-28.74653	-998.6291	0.01255687	-0.02240684	0.0005502665	-3	-3	-3	0	
17:56:08:837	47.46363	-122.3077	0.02140595	0.02140595	0	0	0	0	0	0	1.636496	2.192572	161.2283	0.8181501	0.2054059	-1.824997	33.03307	-28.74653	-998.6291	0.01255687	-0.02240684	0.0005502665	-3	-3	-3	0	
17:56:08:861	47.46363	-122.3077	0.02140595	0.02140595	0	0	0	0	0	0	1.636496	2.192572	161.2283	0.8181501	0.2054059	-1.824997	33.03307	-28.74653	-998.6291	0.01255687	-0.02240684	0.0005502665	-3	-3	-3	0	
17:56:08:898	47.46363	-122.3077	0.02140595	0.02140595	0	0	0	0	0	0	1.636496	2.192572	161.2283	0.8181501	0.2054059	-1.824997	33.03307	-28.74653	-998.6291	0.01255687	-0.02240684	0.0005502665	-3	-3	-3	0	
17:56:08:918	47.46363	-122.3077	0.02140595	0.02140595	0	0	0	0	0	0	1.658151	2.206496	161.1249	0.407671	0.2207688	-2.139559	33.49161	-30.93933	-1000.582	0.01255687	-0.02240684	0.0005502665	-3	-3	-3	0	
